%time,field.header.seq,field.header.stamp,field.header.frame_id,field.wrench.force.x,field.wrench.force.y,field.wrench.force.z,field.wrench.torque.x,field.wrench.torque.y,field.wrench.torque.z
423137000000,4294,423131000000,BR_wheel_link,0.44589175922746016,-0.33811081044130514,0.8714886706825578,0.07291315108083024,0.04321627883315808,-0.013118639001876573
423137000000,4295,423132000000,BR_wheel_link,-0.6672846527503655,-3.522528779609019,-3.5981741553151982,0.2719976005102697,-0.05467005619048665,0.01973841059075105
423137000000,4296,423133000000,BR_wheel_link,0.016508590269982124,0.3660038983034169,0.882006164326943,-0.003917713384019366,-0.007136596208106219,0.00017702761235675196
423137000000,4297,423134000000,BR_wheel_link,0.018326491053888564,0.004749019630332999,0.04967849752161251,-0.001925289697404812,-0.001317596146244266,0.0002864258828092661
423137000000,4298,423135000000,BR_wheel_link,0.1229722065427914,0.3537858961670073,1.3274046056707045,0.009262280482562451,0.006846598851846091,-0.0046333841861145525
423137000000,4299,423136000000,BR_wheel_link,-0.004887662439993335,0.006508635898005414,-0.006573691726865028,-0.0002143096321000823,-0.00010173214686802137,3.8906600493045937e-05
423137000000,4300,423137000000,BR_wheel_link,-0.07720582018662707,0.5481024519226378,1.192240656306812,-0.008274471795271139,-0.004710483391403432,0.0026281619371826713
423138000000,4301,423138000000,BR_wheel_link,0.01527711118944287,-0.005914740975601351,0.04920218675887838,-0.0007345663655437494,-0.0007430307902578653,0.00012181932722743339
423139000000,4302,423139000000,BR_wheel_link,0.07856509612879034,0.3372709250917988,1.1983066951413426,0.0074395909149533816,0.005232429008091444,-0.0032196695669126614
423140000000,4303,423140000000,BR_wheel_link,-0.003947212254955005,0.03017128354858417,0.11379548768717768,0.0026238466600652017,0.0014522067271555458,-0.0009294456177499944
423141000000,4304,423141000000,BR_wheel_link,-0.12881605911767513,0.5786510252765281,1.0857513991717092,-0.011644744584916442,-0.006720051291573805,0.004118094772469841
423142000000,4305,423142000000,BR_wheel_link,0.040190133432127635,-0.031324252203839775,0.0766515334261428,0.0005070290069841495,4.450840962837707e-05,-2.493173039502215e-05
423143000000,4306,423143000000,BR_wheel_link,0.08498112154276491,0.36289951191397907,1.292815300706282,0.008882426939729305,0.006312874370495512,-0.003572821451370299
423144000000,4307,423144000000,BR_wheel_link,-0.006883554345010481,0.007737140352452176,-0.00557663122212415,-0.00021755252371057649,-0.0001008106354368642,9.170519459047998e-05
423145000000,4308,423145000000,BR_wheel_link,-0.05579056495949579,0.5744644178798013,1.1041578371279157,-0.009104734268494386,-0.0031112805979778982,0.0025498330235983304
423146000000,4309,423146000000,BR_wheel_link,-0.0001317660862742067,-0.017456463633387605,0.10661130751713588,-0.00043358983078063673,-0.0019519126687804324,-0.0003171132603813817
423147000000,4310,423147000000,BR_wheel_link,0.06292692897777682,-1.833528072403209,-1.1430701734145081,0.1738709394205653,0.008274692803012003,-0.00140651672280908
423148000000,4311,423148000000,BR_wheel_link,0.027758824334453733,-0.015590775087980327,0.026775120623153438,0.002730817723038375,0.0033603371118834623,-0.0008537581318975745
423149000000,4312,423149000000,BR_wheel_link,-0.9303024400100343,-0.7023382769921089,-2.1913100440046467,0.02151130503915372,-0.10693557746910617,0.02786753362782741
423149000000,4313,423150000000,BR_wheel_link,-0.3434942391431651,-1.0670847990412995,-1.3570370520286896,0.07251652483938083,-0.03251600573775726,0.010059345755919215
423149000000,4314,423151000000,BR_wheel_link,0.01052704138872293,0.33718885523385106,0.91832728614635,0.0034106170001884247,0.001720329088318072,-0.0007208242179781773
423149000000,4315,423152000000,BR_wheel_link,-0.002020860858185138,0.002193969546520529,0.0024672194915780037,6.671678063684259e-05,-2.483395821309703e-05,2.5792031388142543e-05
423149000000,4316,423153000000,BR_wheel_link,0.001429364391598048,0.6196159914810586,1.5212069370038583,-0.0034064359029885244,-0.0002004095208309444,0.00021590083926859352
423149000000,4317,423154000000,BR_wheel_link,-0.005911429860598073,0.004345729702279842,0.0353195120636062,-0.0006798730237911582,-0.0011072052202921478,6.022594815680939e-05
423155000000,4318,423155000000,BR_wheel_link,-0.006881149484689764,0.25837768468238553,0.8072285137200218,0.0028795775641062807,0.0013618071165996542,-0.00029558646645864615
423156000000,4319,423156000000,BR_wheel_link,-0.002722388991809487,0.0024904069990186227,0.000906426442774645,1.5770015846342313e-06,-3.6084690617269876e-05,4.917242618880241e-05
423157000000,4320,423157000000,BR_wheel_link,0.011042444581705613,0.7087150381080701,1.8690366901209872,-0.001783041168341473,0.0002175111978872157,-0.0005475661631570777
423158000000,4321,423158000000,BR_wheel_link,-0.013043928951771852,0.006084968000980313,-0.019891345756872698,-0.0002995960193411028,-0.0003217531308072126,0.0003439944421293158
423159000000,4322,423159000000,BR_wheel_link,0.00032500715668664775,-0.00029108840632881044,2.784469559888975e-05,-1.709035055673266e-05,-6.141714697170201e-06,-8.275105961925636e-06
423160000000,4323,423160000000,BR_wheel_link,0.00852366904519733,0.6433697020572575,1.7909894975872316,0.0007049497688828533,0.00095762448849364,-0.001239927077524452
423161000000,4324,423161000000,BR_wheel_link,-0.02842332629273408,0.013027237416578514,0.03722298436143904,0.0007420359963060529,-5.5658397875939086e-05,0.0006871608033729838
423162000000,4325,423162000000,BR_wheel_link,0.08517446703603312,-0.030103979975484762,0.31976429640877135,0.009059773060693228,0.005068444913686803,-0.003407852672190602
423163000000,4326,423163000000,BR_wheel_link,-0.16667191293153202,0.7105960606177019,1.2121589715772967,-0.015824402997944916,-0.008463038530871079,0.005445503740815416
423164000000,4327,423164000000,BR_wheel_link,0.05151228734917275,-0.03978799667363099,0.0810567120286633,0.0009356613742036696,0.0005115977321105854,1.163559822988633e-05
423165000000,4328,423165000000,BR_wheel_link,0.07946412580822329,0.3465463844203313,1.2366886524736302,0.008110137527325647,0.0057626519958111485,-0.003058997827774002
423166000000,4329,423166000000,BR_wheel_link,-0.016482613851954923,0.035640316927408405,0.09667429804024368,0.0020461506713658766,0.0010506023242592896,-0.0005219945748803915
423167000000,4330,423167000000,BR_wheel_link,-0.17475299466614938,0.3636453150685405,-0.024392067256893375,-0.027112450787434936,-0.01543686335072361,0.005865363633642515
423168000000,4331,423168000000,BR_wheel_link,0.28330909178046226,0.28424287351585836,1.8487832912751272,0.024535898453471528,0.016503012286848962,-0.007467348274937898
423169000000,4332,423169000000,BR_wheel_link,-0.013539670136335355,0.010427045159500044,0.008029248557513982,-1.927280056943387e-05,-0.00013571633890804377,0.0002389236928968903
423170000000,4333,423170000000,BR_wheel_link,-0.1789879687577703,0.5542833426575509,1.1300411259757468,-0.007997127242739193,-0.006117496443591937,0.004941351794640038
423171000000,4334,423171000000,BR_wheel_link,0.01730366823248545,-0.005068296576093357,0.06914495550636288,-0.0011330508487497563,-0.0011290413871707632,0.0002636786183727141
423172000000,4335,423172000000,BR_wheel_link,0.0774111993805216,0.37692423170905087,1.3471204658894362,0.009649975353887248,0.0065525190964821475,-0.003630715705092116
423173000000,4336,423173000000,BR_wheel_link,-0.008117528789298367,0.008937291448270471,-0.005828897029129561,-0.00024127466730115876,-0.00011801224570748038,0.00010942122168370927
423174000000,4337,423174000000,BR_wheel_link,-0.10434809324662585,0.5650819252530922,1.2044757583811094,-0.007937191913520415,-0.00475364274386447,0.003100209523985033
423175000000,4338,423175000000,BR_wheel_link,0.013850656778189505,-0.0037082322602004928,0.046957394522904386,-0.0007933558348631921,-0.0007297897312554604,0.0001521627837107937
423176000000,4339,423176000000,BR_wheel_link,0.07443365453361601,0.3414116773244663,1.1970562465744639,0.007431733958038214,0.005238538008953533,-0.003221345472435296
423177000000,4340,423177000000,BR_wheel_link,-0.008100626293839537,0.0359287713944966,0.11340111960572412,0.0025165813866997047,0.0014148670309310502,-0.0009140979017791366
423178000000,4341,423178000000,BR_wheel_link,-1.031534150490665,0.3260674881910301,-1.0267504519075925,-0.047685535797142985,-0.1094321884565353,0.030646394594286273
423179000000,4342,423179000000,BR_wheel_link,-1.564636116928581,-1.911968807911209,-4.194718297922433,0.07996130332778649,-0.16098351257935348,0.046847151547351036
423180000000,4343,423180000000,BR_wheel_link,0.19052714436667015,-0.12712078947139172,0.6014232849094333,0.02009009100452307,0.005871593806229249,-0.007274344391816184
423181000000,4344,423181000000,BR_wheel_link,-0.2162128671625026,0.8334065239102539,0.8388468030307438,-0.024296018672121448,-0.009165152387165226,0.00723804376093801
423182000000,4345,423182000000,BR_wheel_link,0.04992998652098888,-0.04963517237293946,0.12376859770597318,0.0012612058959405523,0.00012725968649066814,-0.00021043163538148345
423183000000,4346,423183000000,BR_wheel_link,0.05121921519685638,0.3736966347543124,1.3053780475396206,0.009247170434613079,0.006180171923421002,-0.0025833255143960475
423184000000,4347,423184000000,BR_wheel_link,-0.008574074909870574,0.00873408617926777,-0.004637135279716583,-0.0002092759194570349,-1.6686810421625684e-05,0.0001362862551899465
423185000000,4348,423185000000,BR_wheel_link,-0.10879737931692357,0.5802605777216131,1.2742354125199653,-0.007042709066346813,-0.004283437699063015,0.003256814167276853
423186000000,4349,423186000000,BR_wheel_link,0.015120927895138383,-0.004080325370605084,0.04434259663161938,-0.000692572513145178,-0.0005314325448579763,0.00014686321544419523
423187000000,4350,423187000000,BR_wheel_link,0.07803803846051482,0.3185664693071702,1.1522002781506289,0.007314222813520704,0.005032651224425625,-0.0030868055109994847
423188000000,4351,423188000000,BR_wheel_link,-0.03531674225580603,0.07070362292409012,0.1213944214107049,0.0020830060418820864,0.001251013232296655,-0.0008460481916363442
423189000000,4352,423189000000,BR_wheel_link,-0.12050348207127291,0.5654733503843969,1.0719006983953836,-0.011385244077615864,-0.006490790729402172,0.003943594665387864
423190000000,4353,423190000000,BR_wheel_link,0.04460241545317293,-0.03232925513407389,0.08369807996744032,0.000362079888326272,1.1303488154183176e-05,-1.1059783838947698e-05
423191000000,4354,423191000000,BR_wheel_link,0.08969697632564083,0.3601118485748101,1.295299083086401,0.008889388893992923,0.0063708471322051555,-0.0036573635872880136
423192000000,4355,423192000000,BR_wheel_link,-0.006162842041243843,0.007339240329157424,-0.005360436481569471,-0.00021625546113843237,-6.954093349347854e-05,7.461922227431625e-05
423193000000,4356,423193000000,BR_wheel_link,-0.08563806623010005,0.5648223510119175,1.2480844144944954,-0.007521256998646094,-0.004355303348758315,0.002734825522671454
423194000000,4357,423194000000,BR_wheel_link,0.015292417110486815,-0.005337666338581203,0.04720081527845566,-0.0006936127149626576,-0.0006424153755736559,0.00012038046698930272
423195000000,4358,423195000000,BR_wheel_link,0.0744713587599682,0.3257998728088121,1.1569689621233776,0.006979421663085835,0.004848080900141837,-0.003029568551077974
423196000000,4359,423196000000,BR_wheel_link,-0.005832510426923926,0.03736889047502406,0.12490728301157997,0.0027852016241921777,0.001624978872657521,-0.0010930925981926666
423197000000,4360,423197000000,BR_wheel_link,-0.1294713356043663,0.5833734342443424,1.0933018055475312,-0.011798372276560191,-0.006779407650168199,0.004146843890493545
423198000000,4361,423198000000,BR_wheel_link,0.043342339101180606,-0.0347769159705852,0.08070216560529891,0.0006659892846229621,0.000141907639942631,-7.612633050779059e-05
423199000000,4362,423199000000,BR_wheel_link,0.19231310400810125,-1.4370465129499377,-0.19802742786746,0.1601613880090011,0.01936311176707738,-0.0052706216137838185
423200000000,4363,423200000000,BR_wheel_link,0.03663885837540958,-0.008139767219085967,0.03562564321290258,0.0023657229272401087,0.004378130451616217,-0.0011206605200090427
423201000000,4364,423201000000,BR_wheel_link,-1.2515978815185795,-1.532340470231222,-4.239614130695865,0.04784857072198463,-0.14075115190553927,0.037473466260404466
423202000000,4365,423202000000,BR_wheel_link,-0.6158351146986264,-1.0926170932241182,-1.328311564094157,0.07455569267092532,-0.06316485421659858,0.01791053461259276
423203000000,4366,423203000000,BR_wheel_link,0.016934472728349748,0.367591180420629,0.9799878806093768,0.0050851946136825175,0.002415324341603712,-0.000884644201564089
423204000000,4367,423204000000,BR_wheel_link,-0.0021689770726740047,0.004105509284533404,0.0031803994836151436,4.679488906822012e-05,5.6211160651432886e-05,1.428138690902223e-05
423205000000,4368,423205000000,BR_wheel_link,-0.04709673251701427,0.5833498817896096,1.4028124339549213,-0.00480122082648242,-0.0022807282367263535,0.0017004594148909624
423206000000,4369,423206000000,BR_wheel_link,0.012196635867614016,0.0009513632167957634,0.04148957209106927,-0.0008610305697951584,-0.0006597418437076649,0.00022978618413767207
423207000000,4370,423207000000,BR_wheel_link,0.0455046100600521,0.3038801074438138,1.0167618232527709,0.005706392672096916,0.003917998193038597,-0.002339894067108231
423208000000,4371,423208000000,BR_wheel_link,-0.0042933045714514855,0.00620213552017121,-0.0013357713274325922,-0.00010529082539066181,-3.316211189676998e-05,4.290626134146793e-05
423209000000,4372,423209000000,BR_wheel_link,-0.052245826642165344,0.6267398604646527,1.519606437313214,-0.0052428539874370085,-0.002701359023720166,0.0017704609399402903
423210000000,4373,423210000000,BR_wheel_link,0.008529928082675046,-0.007222218018981769,0.028066410011741153,-2.249517283717162e-06,-0.0002211465862086397,-9.69555308733384e-06
423211000000,4374,423211000000,BR_wheel_link,0.1473942290789919,-0.05077494438961719,0.5885281104285321,0.016527581052298013,0.00918530872763921,-0.0060297681929665035
423212000000,4375,423212000000,BR_wheel_link,-0.2646197460967437,0.5298967440715893,-0.14126797232114363,-0.03766108536672942,-0.020170947649507817,0.00844671379713087
423213000000,4376,423213000000,BR_wheel_link,0.2754923503855126,0.3034998586393907,1.9271261277125362,0.025949597203770963,0.01725150786660886,-0.007102005790977438
423214000000,4377,423214000000,BR_wheel_link,-0.015525176994278973,0.012092588213867137,0.005635411451269072,-4.3832584738168675e-05,-0.00016652613794269566,0.000290155131500114
423215000000,4378,423215000000,BR_wheel_link,-0.18238187927579874,0.5440831646814546,1.0986130938844885,-0.007411403956714898,-0.0057438853130632505,0.004966636843866115
423216000000,4379,423216000000,BR_wheel_link,0.01777269781682319,-0.0009965826994245306,0.07397976791317218,-0.0014986660348896609,-0.0013509344805186824,0.0003770208870048233
423217000000,4380,423217000000,BR_wheel_link,0.07520848049365453,0.38399212961341944,1.3654603307561097,0.009977358408442032,0.00675077960412303,-0.0036281026890741916
423217000000,4381,423218000000,BR_wheel_link,-0.00892837564046157,0.009789515948687535,-0.0064373090411557355,-0.00024684281523333385,-0.00013139818258520964,0.0001227168041111342
423219000000,4382,423219000000,BR_wheel_link,-0.1114053935880693,0.5637389757338538,1.181876365348632,-0.00819476617054529,-0.004967134739895832,0.003247815848040795
423220000000,4383,423220000000,BR_wheel_link,0.015801972962183677,-0.004962818221551559,0.05005129549614128,-0.0007628012221132011,-0.0007200254213554037,0.000151852582168332
423221000000,4384,423221000000,BR_wheel_link,0.07641510382779673,0.34698805469508387,1.2185068666222585,0.0077599196370267505,0.005471223388844116,-0.0033532664056431342
423222000000,4385,423222000000,BR_wheel_link,-0.013238191799265537,0.04042963379906569,0.10433264671517792,0.002205634288528603,0.0012415242936502761,-0.0008022907193353172
423223000000,4386,423223000000,BR_wheel_link,-0.12686304242228308,0.56930975506004,1.0707098207655967,-0.011225059346573694,-0.006488412983031278,0.003919706799711467
423224000000,4387,423224000000,BR_wheel_link,0.039530435535213675,-0.028334052907103273,0.07825956298455553,0.00023473411774548652,-0.0001160152320345633,2.221467213037294e-05
423225000000,4388,423225000000,BR_wheel_link,0.08723868663519505,0.3648734475518463,1.3037786413053127,0.009028329062262513,0.006416456679323091,-0.003699525588241442
423226000000,4389,423226000000,BR_wheel_link,-0.006898648221787387,0.007980787685805141,-0.005948933565134557,-0.00023061424067261885,-0.00010079504536766977,8.697864348663035e-05
423227000000,4390,423227000000,BR_wheel_link,-0.09012399151921317,0.5651579736806883,1.2345462456259013,-0.007679109493389757,-0.004477467289499544,0.0028145626346870204
423228000000,4391,423228000000,BR_wheel_link,0.014380172165955895,-0.004486405448184681,0.046296248120549194,-0.0007280291065526965,-0.0006775390753507584,0.0001349810263810599
423229000000,4392,423229000000,BR_wheel_link,0.07362578225394102,0.3312038894362268,1.1649245124946734,0.006986763381384866,0.004916503345382277,-0.003061108662243673
423230000000,4393,423230000000,BR_wheel_link,-0.0015245253333089955,0.030555003604997064,0.12415316319605402,0.0028895424236724614,0.0016300546016078344,-0.0010703907924397515
423231000000,4394,423231000000,BR_wheel_link,-0.13109955068632512,0.5856402509890813,1.0949083180668793,-0.011816692687564119,-0.0068036017800782575,0.004154353217777917
423232000000,4395,423232000000,BR_wheel_link,0.042199642296570763,-0.03382808505793273,0.07886352371551975,0.0006483836728517604,0.000128087360160745,-6.978745133606614e-05
423233000000,4396,423233000000,BR_wheel_link,0.1421643050675185,0.338296781216401,1.1699615203153741,0.007787239366022205,0.007408492981508493,-0.004580923478986457
423234000000,4397,423234000000,BR_wheel_link,-0.010367509012848993,0.007875504075281817,0.007652697989842142,-5.601428529646973e-05,-0.0001648245908361458,0.00014486843851875162
423234000000,4398,423235000000,BR_wheel_link,-1.4551719167755481,-2.4664350389072918,-5.90090585413239,0.1027587473565175,-0.15625531970881093,0.04391775231732397
423236000000,4399,423236000000,BR_wheel_link,-0.5687407883792136,-0.9425725848562897,-1.100142014680712,0.06546231014806188,-0.05860385858705586,0.016559636985889838
423237000000,4400,423237000000,BR_wheel_link,0.009625310713384058,0.36274495743747476,0.9538097755492887,0.006724942992422992,0.002547020168840707,-0.000563790253580789
423238000000,4401,423238000000,BR_wheel_link,-0.0018423517004033012,0.006238970201186042,0.0022994374938645327,8.329445268655742e-06,0.00020234810465641066,-3.90663396395532e-06
423239000000,4402,423239000000,BR_wheel_link,-0.06084621004094898,0.5984781492712961,1.3981258323627344,-0.005609799827920094,-0.002679412756312747,0.002167977542981604
423240000000,4403,423240000000,BR_wheel_link,0.010983822552181702,0.001998501524792385,0.02798883671452538,-0.000702744874445194,-0.0003482772248810316,0.0001936497525948989
423241000000,4404,423241000000,BR_wheel_link,0.05030569287761607,0.31552982947968194,1.0515933645946003,0.00598149584233333,0.00425625459453846,-0.002585146277320932
423242000000,4405,423242000000,BR_wheel_link,-0.0035748706675291344,0.006425245410483338,-0.00023956001952837394,-8.504798993749885e-05,4.0130175011396316e-05,1.9263891051890223e-05
423242000000,4406,423243000000,BR_wheel_link,-0.05938901486963438,0.6133528769397956,1.4559557499655504,-0.0059469253831163655,-0.0031334405400538054,0.002050173052855522
423244000000,4407,423244000000,BR_wheel_link,0.012333491081953472,-0.007007405093598702,0.031465812650269,-0.00011647569590676614,-0.00018255395695518907,3.1115973216359914e-05
423245000000,4408,423245000000,BR_wheel_link,0.04301667991387723,0.30128488964204214,0.9914400030551429,0.0051136876099433185,0.003570622485194599,-0.0022998140782140852
423246000000,4409,423246000000,BR_wheel_link,-0.0034913540692467016,0.00547623342686833,3.930328720530015e-05,-7.507125107085882e-05,3.0029092841269765e-06,2.476888934245527e-05
423247000000,4410,423247000000,BR_wheel_link,-0.04355797370217582,0.633229147964593,1.5644700569129206,-0.004538655685494729,-0.00220218067106069,0.0014160230480831362
423248000000,4411,423248000000,BR_wheel_link,0.0035850461382580688,-0.0036772396768044186,0.021865220277483027,-8.53397866044959e-05,-0.00027410266053822424,-2.949449554831046e-06
423249000000,4412,423249000000,BR_wheel_link,0.01806964918374096,0.27115006850321993,0.8254354671399061,0.002788041940595719,0.0020073949300592375,-0.001177672168775632
423250000000,4413,423250000000,BR_wheel_link,-0.002521380742379961,0.003608411903769734,0.0002713431148950923,-4.3177784607021094e-05,-5.325730804563499e-06,2.6592181590018276e-05
423251000000,4414,423251000000,BR_wheel_link,0.034161498223470754,0.672669512410147,1.851592160456626,-0.0007999122809108925,0.0007180672349715338,-0.0010255325764830412
423252000000,4415,423252000000,BR_wheel_link,-0.06951832953886156,0.04518820122284206,-0.013382884228887065,-0.0007809561725114968,-0.0011133124536074639,0.0015208389015099277
423253000000,4416,423253000000,BR_wheel_link,-4.102695832016381e-05,-1.0357898866445722e-05,0.002198266965182607,-6.871677834466422e-06,2.2755292887518368e-05,1.107341802612541e-06
423254000000,4417,423254000000,BR_wheel_link,0.011284830540868818,0.6638455861055961,1.7856143211595423,-0.001068374027116095,0.0002293810941431134,-0.0011351726611189214
423255000000,4418,423255000000,BR_wheel_link,-0.03326487162606495,0.014108891919255379,0.060524093799557005,0.0011430564558229208,4.877862498467399e-05,0.0007731015999865277
423256000000,4419,423256000000,BR_wheel_link,-0.0002456291412922309,0.000275802196882706,0.0012328647958071324,-7.981023377675427e-07,1.1463059415757448e-05,2.627783260837113e-06
423257000000,4420,423257000000,BR_wheel_link,0.05425212189618833,0.6824975643597095,1.7673956619680324,-0.0014762257206470879,0.0017510165346869904,-0.0018419533237866922
423258000000,4421,423258000000,BR_wheel_link,-0.0050114467253260225,0.0007470709017793049,0.013795504912073092,0.00022298659296858317,-3.159693727824467e-05,0.00011651984496439015
423259000000,4422,423259000000,BR_wheel_link,0.055268917179040734,-0.02101516498725119,0.35557980453623017,0.009826068698877014,0.004945662638958841,-0.0025559126616439337
423260000000,4423,423260000000,BR_wheel_link,-1.5981550448333266,-0.6529309659605305,-3.3931357327789193,-0.009994712966059057,-0.16778591547995972,0.0476589473838106
423261000000,4424,423261000000,BR_wheel_link,-1.5341928796785036,-1.4441730312875862,-3.2239434492089054,0.058186877975046465,-0.1610018300612416,0.045733592654729184
423262000000,4425,423262000000,BR_wheel_link,0.18894705494566721,-0.12633259331974395,0.6496256342469067,0.02093865480748312,0.007094793909697736,-0.007119007738307851
423263000000,4426,423263000000,BR_wheel_link,-0.24435357097378024,0.848085892817567,0.8938749110744126,-0.0241154561267071,-0.00971572227411973,0.008147314681833443
423264000000,4427,423264000000,BR_wheel_link,0.05076106753811746,-0.035201206201831314,0.08087221429450626,0.000866209212139077,0.0008073030554380678,0.00020821864325390222
423265000000,4428,423265000000,BR_wheel_link,0.05462016489262414,0.3651798530213156,1.2619528890568132,0.008667608066844737,0.006062794386683387,-0.0024240725452774198
423266000000,4429,423266000000,BR_wheel_link,-0.03997514007258362,0.05149858491364067,0.10181216676304668,0.0019022108521843976,0.0008602862278304718,-2.7504704689047864e-05
423267000000,4430,423267000000,BR_wheel_link,-0.12585060786255672,0.5603209760753066,1.0618661852236748,-0.010860159473839203,-0.006197123378372522,0.004014855431429948
423268000000,4431,423268000000,BR_wheel_link,0.042841171584299564,-0.029045479912926775,0.0828756520395488,0.00012088191588781894,-9.074353823802163e-05,4.23437929295375e-05
423269000000,4432,423269000000,BR_wheel_link,0.08825243611143992,0.3630676241768762,1.3046779760543181,0.00903945590843949,0.006460300572408312,-0.0036996730343098498
423270000000,4433,423270000000,BR_wheel_link,-0.00638493601540428,0.007538588419607291,-0.005891759573185983,-0.0002295034540676888,-5.409954135075877e-05,7.157942456382832e-05
423271000000,4434,423271000000,BR_wheel_link,-0.08876706307151282,0.5629996627904386,1.2344334946799724,-0.007629050434574095,-0.004438962088525269,0.002729259098527859
423272000000,4435,423272000000,BR_wheel_link,0.016485108045040827,-0.006924509073406397,0.05082740461474637,-0.0006729703684182697,-0.000661329055987805,9.29210812452869e-05
423273000000,4436,423273000000,BR_wheel_link,0.07408902744515017,0.3297331432850723,1.16276762805687,0.006983835962676797,0.0049080366574512585,-0.0031084747308987633
423274000000,4437,423274000000,BR_wheel_link,-0.0027396040275797923,0.03309694266613447,0.12373211873354605,0.0028272313663293813,0.0016387195226497796,-0.0010996712143211574
423275000000,4438,423275000000,BR_wheel_link,-0.13084705085440507,0.5837415580681264,1.093045176779398,-0.011736100441336612,-0.00676606840800305,0.004094803996809162
423275000000,4439,423276000000,BR_wheel_link,0.04248371911413621,-0.03444782268576429,0.08082206449996636,0.0006394440786776475,0.00010248313420188371,-8.739866457054008e-05
423277000000,4440,423277000000,BR_wheel_link,0.08553329976227797,0.36131938780721584,1.281790010151629,0.00874479737201271,0.006283862681673694,-0.003620340885295358
423278000000,4441,423278000000,BR_wheel_link,-0.006747162007993599,0.007833242560969345,-0.006047310392894095,-0.0002356224669533251,-9.271465315473868e-05,8.38434118303947e-05
423279000000,4442,423279000000,BR_wheel_link,-0.08717858388334038,0.5698835950887942,1.2590629099852968,-0.007340928395119893,-0.004249321348644788,0.0026723794857080006
423280000000,4443,423280000000,BR_wheel_link,0.01217342331448627,-0.0029075419503961763,0.042815269359035645,-0.0007522147440228956,-0.000680377551923849,0.00013747273542447644
423281000000,4444,423281000000,BR_wheel_link,0.07347722152359497,0.32301716436641603,1.1552927996027929,0.007084914821383746,0.00487820237015417,-0.0030300535677078543
423282000000,4445,423282000000,BR_wheel_link,-0.013979252113077288,0.048841139378394204,0.12191757800678389,0.002550104468091575,0.0014791619264687148,-0.0010233828054900165
423283000000,4446,423283000000,BR_wheel_link,-0.18095631698362824,0.37353308505489047,-0.030186390668341015,-0.02764987445965202,-0.015694659090545772,0.005981600768739387
423284000000,4447,423284000000,BR_wheel_link,0.3025732537137713,0.2753177037770391,1.809988306287934,0.02451517446992853,0.017077438298065142,-0.007982581710853738
423285000000,4448,423285000000,BR_wheel_link,-0.014183236401247646,0.010337191220380107,0.013759409556563924,8.407998710334683e-05,-0.0001221033659330549,0.0002464535910356568
423286000000,4449,423286000000,BR_wheel_link,-0.19712103389650362,0.5730973271793154,1.181203239339612,-0.007862965713296942,-0.006402967868205835,0.005359271453856184
423287000000,4450,423287000000,BR_wheel_link,0.017377699082571037,-0.00785943644471239,0.06847653212103297,-0.000867022392003909,-0.0009926248068193345,0.00020197370700876478
423288000000,4451,423288000000,BR_wheel_link,0.11543032136206294,0.3616432257180431,1.2272794667982743,0.008333721137874067,0.007248621271558052,-0.0041638214303127636
423289000000,4452,423289000000,BR_wheel_link,-0.010687209566413322,0.008253761215085937,0.005731155466907485,-6.180047528107201e-05,-0.00016017070509420747,0.00014717530606249505
423290000000,4453,423290000000,BR_wheel_link,-1.2470489827286046,-1.4908487601763185,-3.9303311502008933,0.05771158133066913,-0.13253749804878937,0.037260901156361874
423291000000,4454,423291000000,BR_wheel_link,-0.8847866700790508,-1.5767875803220421,-1.9029196530035952,0.10800160675939942,-0.09052389356695073,0.02568883976845996
423292000000,4455,423292000000,BR_wheel_link,0.0022261842674594773,0.36726301988035387,0.9424620026908564,0.006065522951651871,0.0017301901306900418,-0.0005077605482271861
423293000000,4456,423293000000,BR_wheel_link,-0.0014624463123603807,0.0052301075934323244,0.002718545435779715,2.1827646490134212e-05,0.0001817796947429976,-1.3280937430066174e-05
423294000000,4457,423294000000,BR_wheel_link,-0.048866954450441175,0.5846188296425807,1.3947667330378677,-0.0048366668710470165,-0.002147625630399202,0.0016572453578001733
423295000000,4458,423295000000,BR_wheel_link,0.011286498061700423,0.004394706633802553,0.03494051948597952,-0.0009847481844296132,-0.0006167240540819453,0.00023563742299329373
423296000000,4459,423296000000,BR_wheel_link,0.04853192277737926,0.3081990744659495,1.0267752084697273,0.005773013302983988,0.0041015561699102145,-0.0024773319793611826
423297000000,4460,423297000000,BR_wheel_link,-0.0037375009253749376,0.006333021735925724,-0.0010129845785724386,-0.00010351742012032785,2.4232866146834185e-05,2.512606290035614e-05
423298000000,4461,423298000000,BR_wheel_link,-0.05282983161091276,0.6214881074486762,1.4963546879786462,-0.005511231696216103,-0.0028092806523149706,0.0018190814893439154
423299000000,4462,423299000000,BR_wheel_link,-0.0002830973331004449,-0.0007576361024477769,0.003908029486083377,0.00010392325826941059,3.994873746948295e-05,2.1170839772282605e-05
423300000000,4463,423300000000,BR_wheel_link,0.02822648481194555,0.3087362341681637,0.9536491731356024,0.0035975902297476,0.0026190696092208703,-0.0017612577444290893
423301000000,4464,423301000000,BR_wheel_link,-0.0012912293548720582,0.0025967306487335506,0.003951611262771789,4.586945225078359e-05,5.275593760569291e-05,-6.83052699980242e-06
423302000000,4465,423302000000,BR_wheel_link,-0.017519672447023182,0.634231884379644,1.6472050812058838,-0.002773332685624012,-0.0009653493630798198,0.00055732296156963
423303000000,4466,423303000000,BR_wheel_link,-0.006057391679698474,0.007500257534431587,0.007564496960934052,-0.0004679321954750933,-0.0004371322469499568,0.00012792693574664274
423304000000,4467,423304000000,BR_wheel_link,-0.04459486727526915,0.1070313149788661,0.019991307180027233,-0.00872729920007957,-0.005176147851283535,0.0017889499260761385
423305000000,4468,423305000000,BR_wheel_link,0.14149916003170815,0.42497082526186913,1.7354390593093179,0.014712608797644492,0.00982697324449059,-0.005026148806752109
423306000000,4469,423306000000,BR_wheel_link,-0.00865422496041808,0.009259471347074158,-0.004732600380354809,-0.00023022352963465947,-9.0690709724704e-05,0.00012881329677016815
423307000000,4470,423307000000,BR_wheel_link,-0.12130171569094729,0.5355274446051477,1.0449731076837567,-0.009449597355715518,-0.005619358797136144,0.003635519518770193
423308000000,4471,423308000000,BR_wheel_link,0.014359855143105345,-0.000942656872463938,0.055071847072218925,-0.0011763927562539597,-0.0009755329290615333,0.0003193557076522596
423309000000,4472,423309000000,BR_wheel_link,0.08526959129011144,0.37831017502013464,1.3694176929099977,0.009960888204345809,0.006856869246141429,-0.0037065671485751977
423310000000,4473,423310000000,BR_wheel_link,-0.007326800453873782,0.00812772325911361,-0.004653964026797734,-0.00020169635585752022,-9.064394883771351e-05,9.954934133367362e-05
423311000000,4474,423311000000,BR_wheel_link,-0.26776446754224703,0.6834069293822497,0.7332906887078375,-0.031837042232488996,-0.02431522336576885,0.008528403103739125
423312000000,4475,423312000000,BR_wheel_link,-0.9056778787631903,-1.6063618811942462,-3.832225621285334,0.05764124006676496,-0.09010346289076913,0.02780017422081599
423313000000,4476,423313000000,BR_wheel_link,0.21879532351872272,-0.12609578438085303,0.561883383002277,0.01854043688203802,0.005846798284219151,-0.007866971065984281
423314000000,4477,423314000000,BR_wheel_link,-1.0693472410483946,0.8762438758835408,-0.2710275333012855,-0.06952614472863675,-0.10808599296691548,0.03131973554476186
423315000000,4478,423315000000,BR_wheel_link,0.0464289175671676,0.030649680685519053,0.12674419620173638,-0.004859400957199431,0.00036983714657555804,-4.249968022778641e-05
423316000000,4479,423316000000,BR_wheel_link,0.05823559572370362,0.38737090129969587,1.288839922743005,0.009405291896300686,0.006908177188494064,-0.0025604109517189605
423317000000,4480,423317000000,BR_wheel_link,-0.014001739610792192,0.01122638748750686,0.0021369829826977794,-9.507221474474664e-05,-0.00019215653177620293,0.0002544681552591839
423318000000,4481,423318000000,BR_wheel_link,-0.12367855998457501,0.6074237071183053,1.1325938856967068,-0.009029132872524603,-0.004015418253271592,0.004220112708776705
423319000000,4482,423319000000,BR_wheel_link,-0.0036774805497430283,-0.004275845248118258,0.03012869629006871,0.0006079865827304889,-3.25334290735714e-05,8.302819778406185e-05
423320000000,4483,423320000000,BR_wheel_link,0.006873694023101978,-1.1636959459873828,-0.40492357724754063,0.12401258032206516,0.0024654060042470206,-0.0009009204400233645
423321000000,4484,423321000000,BR_wheel_link,-0.425529685195952,-2.0045482897931377,-2.259513088759542,0.14644384971860058,-0.03649280274930854,0.012444181650584734
423322000000,4485,423322000000,BR_wheel_link,-0.0008760171119486931,0.4145432192274732,1.0140914352300314,-0.0037717829109958356,-0.00520931423864622,0.0002378143644602991
423323000000,4486,423323000000,BR_wheel_link,0.00688119942245573,-0.006303383508201364,0.01740824675503641,0.0004821544269395851,0.000192567030850893,-0.00015912565015189283
423324000000,4487,423324000000,BR_wheel_link,0.07763216662564144,0.38425791591564995,1.2898432632412855,0.006167144469192561,0.004491356766798752,-0.0033247768570325025
423325000000,4488,423325000000,BR_wheel_link,-0.004675988650379386,0.005765879105852302,-0.0068455628617264805,-0.0001592306277208393,-9.850311808154964e-05,5.959390602314905e-05
423326000000,4489,423326000000,BR_wheel_link,-0.049372328224956616,0.5561257848108369,1.3221850817404162,-0.00597668883522605,-0.0032517286097632184,0.001907993600318097
423327000000,4490,423327000000,BR_wheel_link,0.06140603903484432,-0.1359990306908957,0.419612960864584,-0.05573816183850177,-0.0024759713568462223,-0.0017748372778654915
423328000000,4491,423328000000,BR_wheel_link,0.02668370819030874,-0.21627913751925307,1.8496857785172383,-0.04500059759964514,-0.009696227940152949,0.0014664324277231717
423329000000,4492,423329000000,BR_wheel_link,0.29899034931195634,-0.4181353376886183,1.2898726485583791,-0.05295139651299924,-0.009901458585407592,-0.0043338255673121
423330000000,4493,423330000000,BR_wheel_link,0.3384249134756524,-0.21647310554794238,0.7290616756579976,-0.001968470875155194,-0.004549472262627518,-0.0010092998147997463
423331000000,4494,423331000000,BR_wheel_link,-0.06210505666830632,0.20101007834598722,1.5826421661835706,0.011602396869167019,0.0012215952432982566,0.011320982251537735
423332000000,4495,423332000000,BR_wheel_link,0.03614245847389491,0.07538407847213846,0.5316165010945573,-0.0022453188800220687,-0.0020928016007815417,0.005791317656923236
423333000000,4496,423333000000,BR_wheel_link,0.1388416145910359,-0.015171496489935009,0.24091802777363375,-0.006183778883831873,-0.0032688055118200764,0.0009930512296313738
423334000000,4497,423334000000,BR_wheel_link,0.07359102720584915,0.30918823487648817,1.5558304858590957,0.011859108791595362,0.005798877096776014,0.0014141897894368054
423335000000,4498,423335000000,BR_wheel_link,0.2329317615300633,0.11526916923138222,-1.5687826905214741,-0.044168858053139096,0.023254719720152472,-0.010234614417604058
423336000000,4499,423336000000,BR_wheel_link,-0.38460175025743065,-0.20697195919799838,0.7537568479244654,0.003918817131463414,-0.0040166558162455495,0.00023327895807956464
423337000000,4500,423337000000,BR_wheel_link,-0.2990194581332771,-0.06427841659565461,0.7263785513314613,0.008107738155435843,0.0072838388903829305,8.911817171060321e-07
423338000000,4501,423338000000,BR_wheel_link,-0.13938326992240013,-0.06936348824702968,0.010118864159578885,-0.009487812579719763,0.0007735006040340025,-0.0032153550034760767
423339000000,4502,423339000000,BR_wheel_link,-0.1400303376841019,-0.1264305744183507,0.8787894419647384,0.010962266814744095,0.009133123219344747,-0.007400685484902968
423340000000,4503,423340000000,BR_wheel_link,-0.08501274239598713,-0.04544443553494816,-0.07876039821826221,-0.010268496625614748,0.0001992750973383427,-0.00394028392105027
423341000000,4504,423341000000,BR_wheel_link,-0.1377461357844651,-0.07553354773350716,0.750069370202208,0.008816120815588769,0.008506174033546497,-0.006507314301034034
423342000000,4505,423342000000,BR_wheel_link,-0.2347151842655775,0.46628584062973255,0.02757884027072653,-0.034770486041815374,-0.020250854345492262,0.00850106998439617
423343000000,4506,423343000000,BR_wheel_link,0.1522178420814752,0.30198218643134256,2.0694278123006318,0.027562362159619207,0.014849870076429773,-0.0012300262865109694
423344000000,4507,423344000000,BR_wheel_link,-0.01707250743319441,0.009884125365000196,0.0070344036615907655,6.9991327066758e-05,-0.00013597045490853924,0.0004996251301096947
423345000000,4508,423345000000,BR_wheel_link,-0.11407249028410171,0.2878844650426503,0.03425230770919782,-0.023396169442104514,-0.01346154733256419,0.005023377737070063
423346000000,4509,423346000000,BR_wheel_link,0.1603483604187052,0.3334570195096797,1.9102140801803766,0.023640458612900643,0.013556283670943583,-0.003573649171513808
423347000000,4510,423347000000,BR_wheel_link,-0.2454977712497421,0.4859137680979816,0.18090454549680746,-0.030602349786164548,-0.0206666110528544,0.008853999664043544
423348000000,4511,423348000000,BR_wheel_link,0.340803149400878,-0.24642642527714487,1.2454871536525096,0.03737199410854254,0.0187491614941273,-0.010148525523074596
423349000000,4512,423349000000,BR_wheel_link,-0.29726571944725794,0.6396294752773288,0.01638300703589448,-0.03798662807490588,-0.021924074879989486,0.011572799792566084
423350000000,4513,423350000000,BR_wheel_link,0.39255165774957645,-0.2556858512909886,1.3376639385849503,0.040161195886312666,0.02085485429281509,-0.012077191773913885
423351000000,4514,423351000000,BR_wheel_link,-0.315282455192389,0.6923597606944688,-0.05608157551893048,-0.040255613455499814,-0.02191405526365993,0.012571882348029351
423352000000,4515,423352000000,BR_wheel_link,0.3801506258841002,-0.23426961236314564,1.3780508005758778,0.0409437137021951,0.021254715160101245,-0.012196851378310322
423353000000,4516,423353000000,BR_wheel_link,-0.3187119104632651,0.7048938076909886,-0.08363042899865725,-0.04063698681800915,-0.02160683473186334,0.012864010521920793
423354000000,4517,423354000000,BR_wheel_link,0.3574400981189858,-0.20885211950246554,1.3903296493571529,0.04087678164965689,0.021132847081792635,-0.011970087657035867
423355000000,4518,423355000000,BR_wheel_link,-0.31715566833336206,0.7016909252118793,-0.09123850874252579,-0.040344050659929465,-0.02129563315955784,0.012852971729680335
423356000000,4519,423356000000,BR_wheel_link,0.3390853053578142,-0.1875104129307025,1.3890255131016163,0.040506231986300344,0.02090103859627579,-0.01178940573128215
423357000000,4520,423357000000,BR_wheel_link,-0.3144862264021371,0.69337096535734,-0.09028264323525512,-0.039876292167191005,-0.02106566746839351,0.012729261623033988
423358000000,4521,423358000000,BR_wheel_link,0.3272225674580156,-0.1716178523868384,1.3824398086242302,0.04008410336960852,0.020693414482085275,-0.011716374890631872
423359000000,4522,423359000000,BR_wheel_link,-0.3121449638104399,0.6847806368118665,-0.08696718585946328,-0.039439642072353336,-0.02091205467283475,0.012589911773544245
423360000000,4523,423360000000,BR_wheel_link,0.32045910257435506,-0.16040057332398522,1.3749709372290997,0.0397167627146912,0.020541366184092264,-0.011722775931311867
423361000000,4524,423361000000,BR_wheel_link,-0.31044182269901444,0.6775294831516743,-0.08353948741193007,-0.0390949492195185,-0.020818171588489903,0.012471709295985699
423362000000,4525,423362000000,BR_wheel_link,0.31701298629311025,-0.1526525540244148,1.3684223592667406,0.03943277205945828,0.020440706779435883,-0.011771675752504623
423363000000,4526,423363000000,BR_wheel_link,-0.309323011861202,0.6719339490422686,-0.08079366567834537,-0.0388461362154224,-0.02076534392906033,0.012384783857732156
423364000000,4527,423364000000,BR_wheel_link,0.31550808047754847,-0.14727563702711238,1.3633031681273093,0.03922764713752968,0.02037890831182978,-0.011837394796310276
423365000000,4528,423365000000,BR_wheel_link,-0.3085981137226862,0.6680434944242006,-0.07950306710576094,-0.03868423538840915,-0.020728274223285707,0.012333455911475076
423366000000,4529,423366000000,BR_wheel_link,0.31497038809569766,-0.14344269304188223,1.3596490546113287,0.03908779426438531,0.02034258958227459,-0.011903272538667662
423367000000,4530,423367000000,BR_wheel_link,-0.3081159507840834,0.6653183061792866,-0.0790298634837125,-0.038582793480148966,-0.020703987049110566,0.012307456080668413
423368000000,4531,423368000000,BR_wheel_link,0.3149569533664595,-0.14060089252778463,1.3570826724627478,0.03899389635795404,0.020322654839240256,-0.011965445165796399
423369000000,4532,423369000000,BR_wheel_link,-0.3077616582924649,0.663402983656402,-0.07913731158147448,-0.038522472739411256,-0.020686201644183316,0.012299970819306389
423370000000,4533,423370000000,BR_wheel_link,0.31498936182588716,-0.1382981420701949,1.3554492720802809,0.038933975934530976,0.020310881387072745,-0.012016601333961261
423371000000,4534,423371000000,BR_wheel_link,-0.30745691167031686,0.6620236318925767,-0.07965095813039048,-0.038489228953742995,-0.020671188995031134,0.012305076140941649
423372000000,4535,423372000000,BR_wheel_link,0.3150807651066463,-0.136378198915851,1.354385253452851,0.038895754500614874,0.020304387635309843,-0.012060760351090157
423373000000,4536,423373000000,BR_wheel_link,-0.30718225645564234,0.6609879262691182,-0.08040399691929398,-0.03847347542058282,-0.020658203879767054,0.012318390120916723
423374000000,4537,423374000000,BR_wheel_link,0.31516786734940505,-0.1346910428585983,1.353725356911235,0.038872249460351276,0.02030094333713977,-0.012099181909008296
423375000000,4538,423375000000,BR_wheel_link,-0.30693395880717494,0.6601676276485332,-0.08129487053366169,-0.03846875916724706,-0.02064689798705588,0.01233682769965117
423376000000,4539,423376000000,BR_wheel_link,0.31102758473551034,-0.12906116288489472,1.3550209511649096,0.0388356694295508,0.020264093532341893,-0.012077150108588806
423377000000,4540,423377000000,BR_wheel_link,-0.30548438805134276,0.6581426686504319,-0.08191131489065759,-0.03840033524101804,-0.020586175769312494,0.012335299960172033
423378000000,4541,423378000000,BR_wheel_link,0.3115784957721289,-0.12780362522993655,1.3524576691940924,0.03876888271305155,0.020246241823531286,-0.01211772733036661
423379000000,4542,423379000000,BR_wheel_link,-0.30470336228635203,0.6568744832501268,-0.08227154268206356,-0.038377886942891896,-0.020563906814808335,0.01234753205740306
423380000000,4543,423380000000,BR_wheel_link,0.3119014093061929,-0.12655308407682364,1.351317474802455,0.03873971959057619,0.02023910953707403,-0.012152692193964823
423381000000,4544,423381000000,BR_wheel_link,-0.3041924509413258,0.655924392232377,-0.08272876371188023,-0.038371559416511394,-0.020552452491155587,0.012365342224021306
423382000000,4545,423382000000,BR_wheel_link,0.312033879408781,-0.12522578750100388,1.350799460916815,0.038725858376294484,0.020235636314726947,-0.012183563044163952
423383000000,4546,423383000000,BR_wheel_link,-0.3038200327386026,0.6551439133371281,-0.0833575314858754,-0.03837231996698152,-0.020543832721455026,0.012386130300586091
423384000000,4547,423384000000,BR_wheel_link,0.3041753359987791,-0.11210141550914254,1.3537048776198022,0.038620264294563396,0.020199110671215523,-0.012213225776002829
423385000000,4548,423385000000,BR_wheel_link,-0.300446662180868,0.6507454544133664,-0.08134973478510485,-0.038139264333196754,-0.020391974122529827,0.012337845982833223
423385000000,4549,423386000000,BR_wheel_link,0.2697326946347478,-0.06344858595166264,1.356208727521457,0.03794625587911045,0.019894445922707584,-0.012111797399773593
423387000000,4550,423387000000,BR_wheel_link,-0.28511997461203686,0.6312684402844948,-0.06875400152922766,-0.03705330168654751,-0.019749962042593956,0.012033075323024058
423388000000,4551,423388000000,BR_wheel_link,0.2609739333391846,-0.06013020121693051,1.3263442793828077,0.03709883301957861,0.01940788686281019,-0.011768371273176632
423389000000,4552,423389000000,BR_wheel_link,-0.27542782824301276,0.6198941106722489,-0.059016382619042046,-0.03655089924786231,-0.01948131705432787,0.01189557221728215
423390000000,4553,423390000000,BR_wheel_link,0.26194185656456,-0.062003617342608536,1.3119625936536539,0.036759476663144615,0.019242952013552937,-0.011715638393755046
423391000000,4554,423391000000,BR_wheel_link,-0.2701077356318039,0.6142847648885419,-0.051918498270177915,-0.0363669443834713,-0.01940939571829299,0.011846585343218762
423392000000,4555,423392000000,BR_wheel_link,0.265063056287803,-0.06482191627816913,1.3047014130211407,0.03662898833885979,0.019191593880915403,-0.011741312988086748
423393000000,4556,423393000000,BR_wheel_link,-0.26697033697448597,0.6114624947047097,-0.04736573409660083,-0.03631579720468108,-0.019400548644745125,0.01184168352083053
423394000000,4557,423394000000,BR_wheel_link,0.26778369549920056,-0.06705222125788758,1.3012775800646614,0.03659300623734872,0.01917975884513566,-0.011775080281198017
423395000000,4558,423395000000,BR_wheel_link,-0.26502884225151707,0.6100234403200541,-0.04476583200853999,-0.03631925443801887,-0.01940776055650966,0.011858834215937796
423396000000,4559,423396000000,BR_wheel_link,0.26957557748080263,-0.06834954255160194,1.2999100836096753,0.036597677405649336,0.019179995153616486,-0.011800773104575403
423397000000,4560,423397000000,BR_wheel_link,-0.3360297456708104,0.8737573469531466,0.8740445522996644,-0.021980340016636728,-0.01279556835528329,0.012549189752417093
423398000000,4561,423398000000,BR_wheel_link,0.004009720093815033,-0.0052290977586249765,0.00022077730138769352,0.00018823717945271994,0.0002133992299952686,0.00013974254973104038
423399000000,4562,423399000000,BR_wheel_link,0.3111289585233482,-0.10214534929194327,1.0176319408037617,0.029335532400723334,0.016500670680470994,-0.012165127195413548
423400000000,4563,423400000000,BR_wheel_link,-0.4038667677163045,0.8320640223672883,0.5533850449102389,-0.03454182701731935,-0.011761558984002878,0.01347695685142356
423401000000,4564,423401000000,BR_wheel_link,0.06122518894734723,-0.0048902989726497086,-0.2973731078587448,-0.00837354419605237,0.0060517985160213165,-0.0027907185847321305
423402000000,4565,423402000000,BR_wheel_link,0.17311912894584547,-0.06656506947752425,0.7710835212355202,0.022123235447820563,0.011188916899895804,-0.007051836384147119
423403000000,4566,423403000000,BR_wheel_link,-0.11553916758338176,0.2700402325502877,0.04682438728406705,-0.036344694354040315,-0.010228593681406299,0.0011238236260050147
423404000000,4567,423404000000,BR_wheel_link,0.18991053772760114,-0.10113483905539515,1.2001164134077051,0.03367113107851299,0.015327517376632899,-0.008130435991032251
423405000000,4568,423405000000,BR_wheel_link,-0.3111674245334365,0.5033745241870728,0.21229488425036824,-0.031906694695431795,-0.022664623833811928,0.01001172318627885
423406000000,4569,423406000000,BR_wheel_link,0.27500572939372675,-0.05339461064178562,1.2708359833254648,0.035503383823172974,0.018650308327486004,-0.012584454140116835
423407000000,4570,423407000000,BR_wheel_link,-0.32678711769665336,0.5488850569341157,0.062480763496031475,-0.03413599002623179,-0.014635695675019468,0.012345995613609134
423408000000,4571,423408000000,BR_wheel_link,0.23563881158786418,-0.01733225466538535,1.1258457876469727,0.030994024166947996,0.016521025580391757,-0.011584725448640587
423409000000,4572,423409000000,BR_wheel_link,-0.2733603002096201,0.5166936633721,0.07992171986628069,-0.03204391300810027,-0.020316821362803945,0.009948945415590186
423410000000,4573,423410000000,BR_wheel_link,0.3462893341845684,-0.14290425362170683,1.236498389595582,0.036139654724339235,0.019051770665106032,-0.01284110388343191
423411000000,4574,423411000000,BR_wheel_link,-0.318147967672138,0.6232905828057681,-0.03263403550922807,-0.037026807222892005,-0.020235479998524316,0.012713499701017487
423412000000,4575,423412000000,BR_wheel_link,0.35927639821792656,-0.1442849666384488,1.3060415855407348,0.03813909905682525,0.020095275753322026,-0.013418968405552203
423413000000,4576,423413000000,BR_wheel_link,-0.33385747516042685,0.6573889377400268,-0.07355093542086104,-0.03841999681662662,-0.019803834072891487,0.013729436405110835
423414000000,4577,423414000000,BR_wheel_link,0.34496149587192515,-0.1280348396822492,1.3085924098056103,0.03795676562387132,0.019962690985065548,-0.013273332406721437
423415000000,4578,423415000000,BR_wheel_link,-0.31063452946636405,0.6431320511697437,-0.09686060376211837,-0.03839155085908506,-0.020760716745616536,0.012613938334066679
423416000000,4579,423416000000,BR_wheel_link,0.32793821818591595,-0.11783148178277215,1.3639950409156139,0.03933530966588061,0.020361570159047025,-0.01291595207512502
423417000000,4580,423417000000,BR_wheel_link,-0.31557817352640016,0.6606690652002424,-0.120007559463259,-0.0392408058735551,-0.020756339247222172,0.013034215634089845
423418000000,4581,423418000000,BR_wheel_link,0.32016229932832163,-0.10873124218208331,1.3795644876588575,0.039646674932733904,0.020456719661326637,-0.012852254980822203
423419000000,4582,423419000000,BR_wheel_link,-0.3143695043165526,0.6634357771275802,-0.1274323913669333,-0.03936462737315854,-0.020618702547159307,0.0131529723767339
423420000000,4583,423420000000,BR_wheel_link,0.3137804187896127,-0.10170594513057843,1.3813314036140047,0.039606988053278926,0.02040180730625208,-0.01276969399480955
423421000000,4584,423421000000,BR_wheel_link,-0.31180400846576334,0.6613684765456986,-0.12804526401658603,-0.039277431826371494,-0.02050240671834493,0.013165366374959927
423422000000,4585,423422000000,BR_wheel_link,0.30961448495610766,-0.09619560385589054,1.3785177307757657,0.03946430705906821,0.020322659948859796,-0.012732011015772517
423423000000,4586,423423000000,BR_wheel_link,-0.309200848972766,0.6577739326864145,-0.1260231056928629,-0.03913227161982713,-0.020420326588865046,0.013138449956619773
423424000000,4587,423424000000,BR_wheel_link,0.30743418054751037,-0.09215965882565148,1.3743746849626797,0.03930827581925365,0.020253762191310674,-0.012735197014337292
423425000000,4588,423425000000,BR_wheel_link,-0.30704173558728265,0.6541447228997744,-0.12346710862173324,-0.03899459837770602,-0.020367936593794836,0.013105085585985454
423426000000,4589,423426000000,BR_wheel_link,0.3066100623048059,-0.0891978066171253,1.3703337227812555,0.03917227017009866,0.020203328541213043,-0.012765917143203041
423427000000,4590,423427000000,BR_wheel_link,-0.30540855655875854,0.6510175343934121,-0.1212704003324648,-0.038884784837678966,-0.02033576714607655,0.01307883218654425
423428000000,4591,423428000000,BR_wheel_link,0.3064151956191667,-0.08688539545832262,1.3670555334384056,0.03906759216146755,0.02016857946701819,-0.012806538452276816
423429000000,4592,423429000000,BR_wheel_link,-0.3646476976717179,0.675781913986405,-0.06305873703060663,-0.037829900400459485,-0.016672026005303566,0.015960742789651705
423430000000,4593,423430000000,BR_wheel_link,0.3039802251376743,-0.0721162743155641,1.2165504066814934,0.03475023019486437,0.01854080013925369,-0.012813781990563853
423431000000,4594,423431000000,BR_wheel_link,-0.2859567023550682,0.5847093168693257,-0.038228882524414864,-0.03583149597403523,-0.020344934848807096,0.011657668975265921
423432000000,4595,423432000000,BR_wheel_link,0.3176438309271292,-0.08237529428240743,1.3056898275686082,0.037325539997954106,0.019649148719161957,-0.013313741028106781
423433000000,4596,423433000000,BR_wheel_link,-0.2997614997134831,0.618960763455287,-0.08216718085388722,-0.03753337987747812,-0.020521771414862028,0.012425038637240343
423434000000,4597,423434000000,BR_wheel_link,0.3178641988347962,-0.08356697371284678,1.3379312367702918,0.038270703871750175,0.0200203263484593,-0.013319212386335488
423435000000,4598,423435000000,BR_wheel_link,-0.35012720019130217,0.6599682016452721,-0.07103924301705077,-0.037693065321526685,-0.017492714520053868,0.015162670585668392
423436000000,4599,423436000000,BR_wheel_link,0.31092252377228347,-0.07145035005444927,1.2389093827069628,0.03542425418340742,0.018889899711556826,-0.013147911641415702
423437000000,4600,423437000000,BR_wheel_link,-0.29234279772726446,0.5895270048321034,-0.046136529296827114,-0.03618273129536787,-0.020548989389974046,0.011829475667073106
423438000000,4601,423438000000,BR_wheel_link,0.31904603477677007,-0.07847177130124357,1.3151476266478574,0.037589904187876916,0.01977769745964295,-0.013473389388530318
423439000000,4602,423439000000,BR_wheel_link,-0.30341686814242885,0.6218561935090517,-0.09177856592489843,-0.03776140339523774,-0.02056750728217397,0.012576513907949522
423440000000,4603,423440000000,BR_wheel_link,0.3175097391703478,-0.07862838744769857,1.3438398868064199,0.038424478317706914,0.020087416449530254,-0.013423937621020787
423441000000,4604,423441000000,BR_wheel_link,-0.3069005551375484,0.6356997148470733,-0.11393371178246889,-0.03842816956023754,-0.020482107049879957,0.012934443880354196
423442000000,4605,423442000000,BR_wheel_link,0.3132130823180492,-0.07644188259182524,1.3573426752920565,0.03879179855190615,0.020178806051872503,-0.013307912498869374
423443000000,4606,423443000000,BR_wheel_link,-0.33445422625912224,0.6648317482414149,-0.1152076399311094,-0.038633492158931824,-0.01816792834025215,0.014879557030295393
423444000000,4607,423444000000,BR_wheel_link,0.3043116745898967,-0.06781941190988783,1.2959027548461481,0.036877555240024326,0.019216902701612977,-0.013173740022064132
423445000000,4608,423445000000,BR_wheel_link,-0.2960429427037483,0.604713367755831,-0.07566827018181932,-0.03698828948119604,-0.02040300944177228,0.012334754694941556
423446000000,4609,423446000000,BR_wheel_link,0.31176030525661813,-0.07029103548902789,1.3315653630002484,0.03800974240059826,0.019862174488222466,-0.013375919007780339
423447000000,4610,423447000000,BR_wheel_link,-0.3032408789265098,0.6267329966011558,-0.10748446674121756,-0.038096360053016094,-0.020412237133874744,0.012858724224452864
423448000000,4611,423448000000,BR_wheel_link,0.31179700345496963,-0.07037062558606139,1.350375281113544,0.03856758180885056,0.020082763724168135,-0.01338201601013698
423449000000,4612,423449000000,BR_wheel_link,-0.30524844195249284,0.635619841493604,-0.12224011851379206,-0.038548427827579335,-0.020355055267944563,0.01310401645657916
423450000000,4613,423450000000,BR_wheel_link,0.30934320920156894,-0.06857997780961028,1.35889686643183,0.038802842489096254,0.020145478582757476,-0.01332607876608747
423451000000,4614,423451000000,BR_wheel_link,-0.327459665255037,0.6506045831728858,-0.10379392123475971,-0.03849164881425128,-0.0190395772128932,0.01433803050362311
423452000000,4615,423452000000,BR_wheel_link,0.30658743659606585,-0.06353964026692235,1.3108233641227511,0.037397377505312523,0.019540318123497172,-0.013299383478295117
423453000000,4616,423453000000,BR_wheel_link,-0.29663836565751694,0.6160104961411521,-0.10496116595834519,-0.03761417772532833,-0.020129676948869468,0.012754316240447497
423454000000,4617,423454000000,BR_wheel_link,0.3086633433027679,-0.06354935289520686,1.3392706495345112,0.03822053209902992,0.019921024701968333,-0.0133944796382366
423455000000,4618,423455000000,BR_wheel_link,-0.30197924923275926,0.6291789968313146,-0.12067902328059638,-0.03833051024564017,-0.020246622293929508,0.013083684750558624
423456000000,4619,423456000000,BR_wheel_link,0.3082836330350187,-0.06295360890766599,1.3531677871559764,0.038623284587568724,0.02007099818381818,-0.013402253196429612
423457000000,4620,423457000000,BR_wheel_link,-0.3215700529439989,0.640741336938935,-0.10117596531070636,-0.03832423149344622,-0.019374313687240304,0.014041861733246803
423458000000,4621,423458000000,BR_wheel_link,0.3074024273067494,-0.05944423110675366,1.31730339504151,0.03758806749336417,0.019641571812455683,-0.01341844178457353
423459000000,4622,423459000000,BR_wheel_link,-0.29726864776474143,0.6193713629195208,-0.1163094456819605,-0.03787528176151547,-0.02005964941820761,0.012944467411903877
423460000000,4623,423460000000,BR_wheel_link,0.3074971828457006,-0.05862930701662622,1.3428906573959516,0.0383160080663404,0.019952047707198387,-0.013456494857899291
423461000000,4624,423461000000,BR_wheel_link,-0.3016600836296895,0.6292042799329306,-0.1269511442672467,-0.03843310282860513,-0.020187244455731113,0.01320202938865949
423462000000,4625,423462000000,BR_wheel_link,0.30664925284225386,-0.057560963527239495,1.3545611855636306,0.03864743909197352,0.020068135536321193,-0.013456481703017538
423463000000,4626,423463000000,BR_wheel_link,-0.302764024509495,0.6329378859142992,-0.13288109817713156,-0.03865746541524514,-0.020191956344063244,0.013329022655151596
423464000000,4627,423464000000,BR_wheel_link,0.30506959372788667,-0.05570727128470487,1.3593633774586222,0.03877567172441704,0.020099214422924724,-0.013437344596601734
423465000000,4628,423465000000,BR_wheel_link,-0.3026450807156532,0.6340944954124156,-0.13623881186785336,-0.03874870452420305,-0.02016360255052694,0.013400033823122909
423466000000,4629,423466000000,BR_wheel_link,0.3037184832520142,-0.05369509050327839,1.3610471391414745,0.038814648259098285,0.02009986034999008,-0.013428157390688287
423467000000,4630,423467000000,BR_wheel_link,-0.3020997055535372,0.6339610382101519,-0.1379686301795756,-0.03877714805948397,-0.02013280532400512,0.01344121455130424
423468000000,4631,423468000000,BR_wheel_link,0.3027296208511513,-0.0517311349880627,1.361308223979992,0.038814585549861766,0.020090022067217286,-0.013431405429400483
423469000000,4632,423469000000,BR_wheel_link,-0.3197219352261616,0.6396996423495637,-0.11139036633371052,-0.0384924065326188,-0.019251012706038642,0.01424993330004861
423470000000,4633,423470000000,BR_wheel_link,0.3028026744552009,-0.04840130819898819,1.319823456933278,0.03762093567232148,0.01960996475657969,-0.013480960545547455
423471000000,4634,423471000000,BR_wheel_link,-0.29480025204871635,0.6158134187534219,-0.12275975940262979,-0.0379078575934011,-0.0199365809739218,0.013104584889891302
423472000000,4635,423472000000,BR_wheel_link,0.30405207569611836,-0.047655016976529324,1.3420875016735336,0.038259697088531594,0.01990237584099706,-0.013560162461129944
423473000000,4636,423473000000,BR_wheel_link,-0.2992925487192341,0.6243973965707179,-0.13171881709269345,-0.03841416592116095,-0.020085347537812034,0.013331247402914536
423474000000,4637,423474000000,BR_wheel_link,0.304197284046792,-0.04681607021834969,1.352585699473596,0.038563372216468376,0.020020522843890907,-0.013594122068619758
423475000000,4638,423475000000,BR_wheel_link,-0.3007600690742967,0.6278100186453157,-0.13732785872459102,-0.038625771240173634,-0.020104516438811865,0.013447619898639438
423476000000,4639,423476000000,BR_wheel_link,0.30310541538405766,-0.045059910959852956,1.3572350252615097,0.038689519591106836,0.02005738598323662,-0.013593033472676104
423477000000,4640,423477000000,BR_wheel_link,-0.3010165933702619,0.6289742069043437,-0.14074685364125217,-0.03871816484587056,-0.02008725830613385,0.013516085013754474
423478000000,4641,423478000000,BR_wheel_link,0.3019166418955164,-0.043061554726860074,1.359169293847533,0.03873618137385568,0.02006350044041932,-0.013591011089066
423479000000,4642,423479000000,BR_wheel_link,-0.3007878831091246,0.6290103101728208,-0.1428124721855361,-0.038754281054733816,-0.02006238476807618,0.013559102799889455
423480000000,4643,423480000000,BR_wheel_link,0.3009777941001641,-0.041084162312962524,1.3597479880767533,0.03874525296626717,0.020058326881500218,-0.01359744641299826
423481000000,4644,423481000000,BR_wheel_link,-0.30040136454879596,0.6284845480400236,-0.1440927211641475,-0.038763812992467006,-0.020039397115843766,0.013588491212206042
