%time,field.header.seq,field.header.stamp,field.header.frame_id,field.wrench.force.x,field.wrench.force.y,field.wrench.force.z,field.wrench.torque.x,field.wrench.torque.y,field.wrench.torque.z
423137000000,4296,423131000000,FL_wheel_link,0.1309437266926411,-1.1525518671425328,0.35643326450362794,0.008412995907581006,0.0022015528217808767,0.010296374265213917
423137000000,4297,423132000000,FL_wheel_link,-0.05426330619778979,0.16718428678185393,-0.17388377718405348,0.00513757049732171,-0.00411663502705993,-0.007380271650874021
423137000000,4298,423133000000,FL_wheel_link,-0.04605434938808001,-1.297711250712255,0.7320940106664198,-0.009965208652639767,0.0005644285391561135,-0.0041423463048226115
423137000000,4299,423134000000,FL_wheel_link,0.0020804056758640596,-0.08582008434947042,0.03744732004688374,-0.0019200951078896247,-0.00021940216254835243,-0.0017759142257056104
423137000000,4300,423135000000,FL_wheel_link,0.07865800262448669,-1.2076987002759503,0.3752355142531833,0.00923755061621897,0.0033997184565573075,0.009585496132181938
423137000000,4301,423136000000,FL_wheel_link,-0.005025166159696641,-0.0015833301437032823,0.009616581386222376,-0.00020113918217463383,-1.5113800318550481e-05,-0.00010013538700791203
423137000000,4302,423137000000,FL_wheel_link,-0.06974420001332915,-1.3828043141723896,0.6334098292433169,-0.008261391084805364,-0.0019366766004203445,-0.006527823606304049
423138000000,4303,423138000000,FL_wheel_link,0.004251029369098047,-0.04739143515451854,0.006428339306052237,-0.0007398278375885909,-9.21207154747161e-05,-0.0010019713972638684
423138000000,4304,423139000000,FL_wheel_link,0.058296386666621514,-1.0833799058205404,0.3325197646487882,0.0074130769705267555,0.0023646283353375443,0.007309632631706357
423140000000,4305,423140000000,FL_wheel_link,-0.01103538961864901,-0.04943643882830896,0.014783338008219396,0.0026413721687895356,0.0006906225397942602,0.0020329912309321714
423141000000,4306,423141000000,FL_wheel_link,-0.10288529774844507,-1.3492395009644484,0.6705042785724428,-0.011630231122142542,-0.0030282587867565052,-0.009346065070692983
423142000000,4307,423142000000,FL_wheel_link,0.04052957990871501,-0.050215494317620096,-0.040038215263278734,0.000502292315381576,2.312084693503619e-05,8.619858242457285e-05
423143000000,4308,423143000000,FL_wheel_link,0.07373861899927031,-1.1588605560575997,0.3424887768192426,0.008861277085777407,0.0026279359930275322,0.008801170753084592
423144000000,4309,423144000000,FL_wheel_link,-0.005309246016898866,-0.0007207404701073714,0.008355246008013618,-0.0002050066509731829,-5.565177572477609e-05,-0.00013369565518787536
423145000000,4310,423145000000,FL_wheel_link,-0.016052238423442056,-1.4435980299395221,0.681487589270768,-0.009039330196017619,-0.001868266506179678,-0.004348720097174144
423146000000,4311,423146000000,FL_wheel_link,-0.057926273995850014,-0.005288302554204576,0.007367120925027023,-0.00048751963945174606,0.00020902906373833038,-0.002692765447687018
423147000000,4312,423147000000,FL_wheel_link,0.11649175096381204,-1.0010348823646789,0.27439879635440695,0.009530522685022018,0.00034699198686085307,0.006472856660047165
423148000000,4313,423148000000,FL_wheel_link,-0.004367552033187378,-0.004073803388999051,0.00921016070572523,-0.0002366889513811636,-7.207180858508491e-05,-5.698497074525421e-05
423149000000,4314,423149000000,FL_wheel_link,-0.06513825661354283,-1.3894603241223344,0.7178519412469183,-0.0051229994518717376,6.16482220774906e-05,-0.0077640490670985
423149000000,4315,423150000000,FL_wheel_link,-0.01861960696938525,0.07549834079599146,-0.0959541245335121,0.003106925575060727,-0.0010262379157348932,-0.0023220980784115115
423149000000,4316,423151000000,FL_wheel_link,0.046562571895537946,-0.9869448253896178,0.3703321092314951,0.002110085477817543,0.0007700080167504946,0.004158581538912647
423149000000,4317,423152000000,FL_wheel_link,-0.00035829594111349764,-0.001902785265930841,-0.00011093286875581615,5.954913713194888e-05,4.0507716964826284e-06,6.468750800940822e-05
423149000000,4318,423153000000,FL_wheel_link,0.012880007561030804,-1.7090154213919448,0.7146874695924443,-0.0033901909135746677,-0.00026388673721909194,-0.0003558787718331883
423149000000,4319,423154000000,FL_wheel_link,-0.034297938014836105,-0.012209447296703955,0.014342012197566993,-0.0006916898033850795,9.442316639432605e-05,-0.001311585196715362
423149000000,4320,423155000000,FL_wheel_link,0.012379159961577041,-0.7213407214053105,0.21745635573101915,0.0028803293863651257,0.0002241796993830747,0.0019363392250882833
423156000000,4321,423156000000,FL_wheel_link,-0.0007599690137597582,-0.0007940842565804794,0.0006708761107845145,-3.60563946122359e-06,-2.7937279740723228e-05,-1.0703989513483254e-05
423157000000,4322,423157000000,FL_wheel_link,-0.007199063415930018,-1.9842568590471863,0.8014277968821704,-0.0018168973017429764,0.0003832380371423593,0.0003206804497640176
423158000000,4323,423158000000,FL_wheel_link,-0.0048759697739903275,0.011174473495753727,0.002586809817454547,-0.0002657398883858288,-0.0002350135690230476,-0.00042357208326368196
423159000000,4324,423159000000,FL_wheel_link,0.00022803550722245904,-0.000309721472675376,9.347442819587153e-05,-1.7090371874450905e-05,5.719681687894454e-06,7.186271280128707e-06
423160000000,4325,423160000000,FL_wheel_link,-0.023164870890996114,-1.800197131279194,0.7087188600084355,0.0007032174617464559,0.0008929982130557599,0.0013301326900850455
423161000000,4326,423161000000,FL_wheel_link,0.0003538801781150479,0.010954990741566924,-0.03543089163836197,0.0007438063972721055,-0.0004850229847730761,-5.114714806971219e-05
423162000000,4327,423162000000,FL_wheel_link,0.0528074625395724,-0.09867573083856218,-0.07683465382820186,0.009056547651004452,0.0024995095870917416,0.007056676324690574
423163000000,4328,423163000000,FL_wheel_link,-0.12294385114031803,-1.6134770898525224,0.8388211902244442,-0.015809419517173576,-0.004002454170679227,-0.011780705390129648
423164000000,4329,423164000000,FL_wheel_link,0.06404811912273459,-0.05717703875559961,-0.06008169510672228,0.0009336417243905926,2.3233304917871333e-06,0.0007360212612142158
423165000000,4330,423165000000,FL_wheel_link,0.07795828533940863,-1.113964522464626,0.31914826930428936,0.008087759240225862,0.002252559527321903,0.008032104660270888
423166000000,4331,423166000000,FL_wheel_link,-0.01528799877722005,-0.039917411763931,0.013988196268463995,0.0020581957795291223,0.0003925637258000488,0.0014635289788825926
423167000000,4332,423167000000,FL_wheel_link,-0.27128918112584677,-0.6118297178005477,0.7163157449612735,-0.027072646361140686,-0.004385414590223759,-0.021533041398965676
423168000000,4333,423168000000,FL_wheel_link,0.33475264139271454,-1.4271674216995212,0.09163755663997697,0.024512651829877646,0.005530948094728261,0.022993659035857778
423169000000,4334,423169000000,FL_wheel_link,-0.0064339163900660025,0.002926612459562239,-0.001121217127205128,-3.5083629792607126e-05,-0.00015281285821562354,-0.00016593934093675006
423170000000,4335,423170000000,FL_wheel_link,-0.1037506387578569,-1.2122429659226701,0.523225232978767,-0.007980669318399624,-0.0036179785128530317,-0.008509938646911977
423171000000,4336,423171000000,FL_wheel_link,0.003296057021040728,-0.0662190254950615,0.010897321394616282,-0.001137816907808752,-0.0001965052895293376,-0.0015618603177971475
423172000000,4337,423172000000,FL_wheel_link,0.06907038249903602,-1.1820124055800756,0.34213127412689204,0.009626735707456553,0.002668334908666966,0.009125293460447976
423173000000,4338,423173000000,FL_wheel_link,-0.006277971649870293,-0.0006746896069524152,0.00934860349303128,-0.00022974165105896802,-6.83359000564223e-05,-0.00016377573424345912
423174000000,4339,423174000000,FL_wheel_link,-0.07793418248654149,-1.3699038043012337,0.6203577627122392,-0.007924501196525552,-0.0022813916901809634,-0.006620425725554397
423175000000,4340,423175000000,FL_wheel_link,0.003971201299331562,-0.048217999529478986,0.008505048878606739,-0.0007983633077794035,-0.0001156972173092194,-0.0010115765971358184
423176000000,4341,423176000000,FL_wheel_link,0.05388383156859686,-1.0816717934674358,0.3366813341818222,0.00740355043863787,0.002362130933359771,0.007294435407196524
423177000000,4342,423177000000,FL_wheel_link,-0.015652781040438154,-0.05210207147737732,0.022197228967755903,0.002535822155558673,0.0006765279382670484,0.001961252789624861
423178000000,4343,423178000000,FL_wheel_link,-0.08973453365351364,-1.27926017565159,0.7248052471474239,-0.01165459212434841,-0.001810022203258048,-0.010231214001657293
423179000000,4344,423179000000,FL_wheel_link,0.046613381712724895,0.07798769123266111,-0.1919502045102798,0.006827485944145068,-0.002128207846827662,-0.004208710383953031
423180000000,4345,423180000000,FL_wheel_link,0.12286413742044483,-0.2325871733440941,-0.10813516220502212,0.018420087299922575,0.006359583068603067,0.015566630433615388
423181000000,4346,423181000000,FL_wheel_link,-0.11592187098099999,-1.6905604690838305,1.0693879108469557,-0.024236267984728672,-0.005342017629386603,-0.013083812794271555
423182000000,4347,423182000000,FL_wheel_link,0.040377812468905816,-0.04440820587775588,-0.06798412427803269,0.001224658013960777,0.00012086117239503696,-4.359394114940822e-05
423183000000,4348,423183000000,FL_wheel_link,0.07677689218108966,-1.1318970091745082,0.2976927621755765,0.009224595947437053,0.001883529137820077,0.008414151702054996
423184000000,4349,423184000000,FL_wheel_link,-0.005677788801005083,0.0004975273772220415,0.006661390840634421,-0.00019892123660757459,-0.00010931285266126866,-0.00017957921342507348
423185000000,4350,423185000000,FL_wheel_link,-0.06683155026245008,-1.409950157074888,0.6078016651597978,-0.007029954429822968,-0.0024072083512349887,-0.006090034252266251
423186000000,4351,423186000000,FL_wheel_link,0.007926949756852314,-0.047636034049924954,0.005578402540784434,-0.0006980227063579514,-0.00012370347119474302,-0.0008362905902648636
423187000000,4352,423187000000,FL_wheel_link,0.05609809553790515,-1.032507117250887,0.3099835728484768,0.007202027261503371,0.0023138094313786845,0.007034923328892981
423188000000,4353,423188000000,FL_wheel_link,-0.04297593697589523,-0.07008253635978542,0.06435422180184798,0.00218702644602621,0.0005359841385547257,0.0015323172122830217
423189000000,4354,423189000000,FL_wheel_link,-0.0981087319600007,-1.330977519806259,0.6585149797649187,-0.011371888353192692,-0.0029038854192167092,-0.009088788019147887
423190000000,4355,423190000000,FL_wheel_link,0.0438970629514831,-0.06081948611200423,-0.038773594239438935,0.000361043427821965,7.465362185959098e-06,-1.1939957171804675e-05
423190000000,4356,423191000000,FL_wheel_link,0.07545661229785477,-1.162124384980283,0.3430590267920802,0.00886577148621258,0.0026833674038196174,0.008840726826511835
423192000000,4357,423192000000,FL_wheel_link,-0.005165845749083601,-0.0008534707474904706,0.008330025831055498,-0.00020408481552916955,-4.7331883440212645e-05,-0.00012301506921442632
423193000000,4358,423193000000,FL_wheel_link,-0.0663818751936952,-1.4122971082378566,0.6277991264277605,-0.007508472843869786,-0.0020164513820158997,-0.00608723222923002
423194000000,4359,423194000000,FL_wheel_link,0.005728822024399227,-0.04667651357169026,0.005682755473935557,-0.00069889810327638,-9.419131686151834e-05,-0.0009063819373916214
423195000000,4360,423195000000,FL_wheel_link,0.05335855185854657,-1.0456328354204223,0.3242520552651257,0.006886535458541549,0.002217625913729827,0.006765005887064631
423196000000,4361,423196000000,FL_wheel_link,-0.0168150485890214,-0.05874532634112826,0.023525546146488375,0.002868929345807184,0.0008068117848514676,0.0022097430312553387
423197000000,4362,423197000000,FL_wheel_link,-0.1040389451191015,-1.3604413356013274,0.6771915095133119,-0.011782983735444012,-0.003051489848016201,-0.009451074493856142
423198000000,4363,423198000000,FL_wheel_link,0.04332209838127761,-0.04936122807561346,-0.04516770440900214,0.0006649460548781099,5.973197657278546e-05,0.00020357808070772983
423199000000,4364,423199000000,FL_wheel_link,0.14462426545069357,-1.1193491850702488,0.3459926413791542,0.00883116107616536,0.001332920576183498,0.009288182125376831
423200000000,4365,423200000000,FL_wheel_link,-0.00617971037624195,-0.0034935369878291937,0.008933928537664254,-0.000252076334146688,-8.093882395583165e-05,-9.027995280057244e-05
423201000000,4366,423201000000,FL_wheel_link,-0.11127448400899498,-1.2110383923623107,0.6549699154940951,-0.0043120650128235785,-0.0007587444069829525,-0.012218392539438912
423202000000,4367,423202000000,FL_wheel_link,-0.004836711644266172,0.054070729651578095,-0.06723654438465418,0.002777163107590323,-0.0004707307025145143,-0.0016086691276883535
423203000000,4368,423203000000,FL_wheel_link,0.08199974039672836,-1.092418145003763,0.40628504405929855,0.003114319574946101,0.0010929104292067694,0.006473493398875656
423204000000,4369,423204000000,FL_wheel_link,-0.0009726130809149524,-0.0024226809296730733,0.0008066256876460528,4.247524469292585e-05,7.38010088930639e-07,6.866009389961373e-05
423205000000,4370,423205000000,FL_wheel_link,-0.026102367305103402,-1.5385274277734613,0.6310343699089965,-0.004755853895569596,-0.0012190901533512908,-0.0031554400788620473
423206000000,4371,423206000000,FL_wheel_link,0.007894396931299738,-0.052426917686930856,0.014827642801974131,-0.0008999858578831814,-0.00020888151203484205,-0.0009716267592604933
423207000000,4372,423207000000,FL_wheel_link,0.03307241386099699,-0.9206623176117223,0.29498095199562163,0.005703879227060403,0.0017148972554900726,0.005440246983265068
423208000000,4373,423208000000,FL_wheel_link,-0.003561451450628867,-0.0025195650017260417,0.0058999160823215765,-0.00010919849370062672,-2.2491981668864536e-05,-4.7213481729127465e-05
423209000000,4374,423209000000,FL_wheel_link,-0.03695971107920887,-1.653852112980923,0.6860987404419803,-0.005230618073777271,-0.0013037755470405137,-0.0037706856597054935
423210000000,4375,423210000000,FL_wheel_link,0.00305915425716484,-0.014568270772560009,-0.006205414546817261,-1.1455396445010044e-05,6.38775004737606e-06,-0.00030645604506655377
423211000000,4376,423211000000,FL_wheel_link,0.09341178335583701,-0.17789054872013424,-0.14928205302560393,0.01667067685604164,0.004486329223016832,0.012767246329682052
423212000000,4377,423212000000,FL_wheel_link,-0.35556216623994547,-0.811258212209238,1.0037145100399396,-0.03776580691409325,-0.006364578373681182,-0.028127572146029414
423213000000,4378,423213000000,FL_wheel_link,0.3597220481307411,-1.4732624402710752,0.0639445725216852,0.025916283037649698,0.0052802040690434465,0.024044045881339324
423214000000,4379,423214000000,FL_wheel_link,-0.007083991166157926,0.003416221726734452,-0.0004215100574102562,-5.160738577968669e-05,-0.0001858599960680151,-0.00021301070076910135
423215000000,4380,423215000000,FL_wheel_link,-0.09772128179075756,-1.1721234140944852,0.4983217459639536,-0.007389540661051427,-0.0036296306616092323,-0.007992010752929369
423216000000,4381,423216000000,FL_wheel_link,0.0036330285904310512,-0.08159495514904141,0.01971062541546833,-0.0015061621163622455,-0.00027813600603495325,-0.0018709515021720175
423217000000,4382,423217000000,FL_wheel_link,0.07146544627433182,-1.1949936218810697,0.34233697535889585,0.009951387438288804,0.002668617832420038,0.009401055740698574
423217000000,4383,423218000000,FL_wheel_link,-0.006878340865591833,-0.0008048102025999369,0.010114153644275453,-0.0002352473143074272,-7.657545181945925e-05,-0.00018353661084640047
423219000000,4384,423219000000,FL_wheel_link,-0.08347449265367124,-1.3501317090418872,0.6180622261688108,-0.00818223336648001,-0.00238924617673171,-0.006918733876027079
423220000000,4385,423220000000,FL_wheel_link,0.0060981244320579605,-0.05096450684485508,0.006885041287686506,-0.000767118260225979,-0.0001145258277667445,-0.0009989421429122763
423221000000,4386,423221000000,FL_wheel_link,0.055422702635617355,-1.0986673754516878,0.34129612435539947,0.007735322320967812,0.002459607945284104,0.007616638855381801
423222000000,4387,423222000000,FL_wheel_link,-0.019918107604532533,-0.051011779143739985,0.028661474459768667,0.0022208220579547455,0.0005946808094892497,0.0017205355328291675
423223000000,4388,423223000000,FL_wheel_link,-0.10453327044427835,-1.323476923625871,0.6604546271574274,-0.011211840025058503,-0.0028850861306785754,-0.009039585054077894
423224000000,4389,423224000000,FL_wheel_link,0.038031196473933104,-0.057740596764678166,-0.03286515948124366,0.00023360994254099623,-1.3087699174506769e-05,-0.00015149926089225388
423225000000,4390,423225000000,FL_wheel_link,0.07275604925041584,-1.1673431792661642,0.3471336608339082,0.009005040328875225,0.0027175254420326554,0.008934518663824697
423226000000,4391,423226000000,FL_wheel_link,-0.005656251652157988,-0.0009113357038623583,0.009094720969665581,-0.0002182228599587414,-5.329705369156609e-05,-0.0001420743990279964
423227000000,4392,423227000000,FL_wheel_link,-0.06984699152242546,-1.4019190414740348,0.628190579545352,-0.007666467440778676,-0.002072858856805773,-0.006237593817746882
423228000000,4393,423228000000,FL_wheel_link,0.00492503675008513,-0.04676969212225862,0.006895492426321856,-0.000733236756086363,-0.00010313408363629039,-0.0009395698479885881
423229000000,4394,423229000000,FL_wheel_link,0.052671461779496304,-1.0562893673507587,0.32875216942412977,0.006939667954577767,0.0022391117750270215,0.006840621295273627
423230000000,4395,423230000000,FL_wheel_link,-0.0109412894621981,-0.054312158476486336,0.01595694042847258,0.0029278120304424764,0.0007966317638233811,0.0022663938886835983
423231000000,4396,423231000000,FL_wheel_link,-0.10574552545085364,-1.3622226397378938,0.6796733031107991,-0.011801449865129616,-0.0030572669111821244,-0.00947842922870462
423232000000,4397,423232000000,FL_wheel_link,0.04225857410223264,-0.048388200425462234,-0.04395603996884282,0.0006441375045884331,5.5041038265089045e-05,0.00019023959995371104
423233000000,4398,423233000000,FL_wheel_link,0.11196663705398435,-1.170934507079957,0.38905438002813975,0.0077880686085479755,0.0033568126038811662,0.01029498025410341
423234000000,4399,423234000000,FL_wheel_link,-0.008051836022365562,0.0017868550161022915,0.0015860352206488574,-6.645187647426272e-05,-9.067797926560227e-05,-0.00021165438723701722
423234000000,4400,423235000000,FL_wheel_link,-0.10694906138273078,-1.1453481671121657,0.5929335491751885,-0.0030318866286433823,-0.002648937543008273,-0.014657330598195586
423236000000,4401,423236000000,FL_wheel_link,0.0027490937963616305,0.03607784979798302,-0.04736353722850197,0.0021297893563604884,-0.00035610460793544774,-0.0011102642297559453
423237000000,4402,423237000000,FL_wheel_link,0.11049565838357486,-1.086962181167495,0.39207397663543275,0.0038000059930387393,0.0010653512222835444,0.0079694350323395
423238000000,4403,423238000000,FL_wheel_link,-0.0014074881345633224,-0.0028203249779036746,0.0020989103311270588,1.1928428074713948e-05,-1.1932665023808703e-05,6.245582510763243e-05
423239000000,4404,423239000000,FL_wheel_link,-0.030513065732731437,-1.5487511169232293,0.6438532572826374,-0.005594893289615401,-0.001614748261051041,-0.00391421946192843
423240000000,4405,423240000000,FL_wheel_link,0.009412708777208456,-0.042873412859339814,0.008738666490595022,-0.000712596189465357,-0.0001623161571183221,-0.0006223803660713361
423241000000,4406,423241000000,FL_wheel_link,0.03336622086312288,-0.9551694267472935,0.31103670486818114,0.005979551156462709,0.0018765011203672492,0.005800851636031061
423241000000,4407,423242000000,FL_wheel_link,-0.0034957073084402246,-0.0026251916845846774,0.005667489395936843,-8.816609067391501e-05,-1.7567471689678835e-05,-3.207504277927611e-05
423242000000,4408,423243000000,FL_wheel_link,-0.0428177892166704,-1.6018548862623558,0.6743293821459336,-0.005934579679783314,-0.0015203700824541959,-0.004441677321663687
423244000000,4409,423244000000,FL_wheel_link,0.008695020799247671,-0.024679544762262026,-0.005761320539118598,-0.0001242631476089411,-3.1318857929500094e-05,-0.0003076099652024425
423245000000,4410,423245000000,FL_wheel_link,0.023901974612345556,-0.9063514601701049,0.30358499900971414,0.005112479444964137,0.0016749138470824403,0.004914306120184281
423246000000,4411,423246000000,FL_wheel_link,-0.0031589394225591374,-0.0023463153464399365,0.005039326044870423,-7.842326480280705e-05,-1.486906652925016e-05,-2.8975657003632345e-05
423247000000,4412,423247000000,FL_wheel_link,-0.03266916640468143,-1.6866947217723662,0.6932410778490359,-0.0045244647176220735,-0.0010484008195844497,-0.0031022092295162973
423247000000,4413,423248000000,FL_wheel_link,-0.0030671602639223312,-0.009061034894865939,-0.0011071092391623369,-9.758154293334639e-05,-3.1597465221761223e-06,-0.00040048893389035194
423249000000,4414,423249000000,FL_wheel_link,0.012429102123297064,-0.7817572906596462,0.27285544525063654,0.0027914779270003754,0.0008598915536299693,0.00276948346525443
423250000000,4415,423250000000,FL_wheel_link,-0.001865264705663303,-0.0015492156802994065,0.002982522970026065,-4.856393602273779e-05,-1.605498425822086e-05,-1.8049919858607385e-05
423251000000,4416,423251000000,FL_wheel_link,0.004765252945938048,-1.941675229219199,0.7738646256121713,-0.0007910004671586293,0.0009167813645160923,0.0011918737694258062
423252000000,4417,423252000000,FL_wheel_link,-0.02770088392016875,0.02360984205159919,-0.010596336136830075,-0.0007881239483992658,-0.0013187441588684997,-0.0018083153408451837
423253000000,4418,423253000000,FL_wheel_link,0.0003524587829091331,-0.00012746983179646868,-0.0009997910331913686,-8.618072565832654e-06,7.765329781588645e-06,3.5446451785697516e-05
423254000000,4419,423254000000,FL_wheel_link,-0.03153245851025244,-1.8549671632386222,0.7671356437674242,-0.0011581918129402685,0.0007872644126488874,0.00030744537104979483
423255000000,4420,423255000000,FL_wheel_link,-0.00032537660717686136,0.011420898879097138,-0.05098896111537052,0.001233980871992514,-0.0005119554563835291,7.444866752602257e-05
423256000000,4421,423256000000,FL_wheel_link,8.565715449028876e-05,-0.00013076868888591873,-0.0002978691872498877,-1.9056546403335294e-06,1.941966638500605e-06,1.8646955293353727e-05
423257000000,4422,423257000000,FL_wheel_link,0.013852967589282783,-1.9558965840090874,0.8267547237259456,-0.0014412053487928818,0.001338482248186752,0.0024080943299269577
423258000000,4423,423258000000,FL_wheel_link,-0.00038707236010598065,0.0033262065338320723,-0.009965729239060011,0.00018796407224327272,-7.974084154528573e-05,-2.134048218237172e-05
423259000000,4424,423259000000,FL_wheel_link,0.05683566466916762,-0.08010716658585518,-0.12492840528010013,0.009824882905599519,0.0018887001594089306,0.006885050695686991
423260000000,4425,423260000000,FL_wheel_link,-0.14218206699636937,-1.3880223677994166,0.8150297386867675,-0.013247833991817264,-0.003371110608448252,-0.016690431069545285
423261000000,4426,423261000000,FL_wheel_link,0.0591601961484985,0.03226389587791577,-0.125922693330501,0.0050677650600568095,-0.0010333274216372584,-0.0022259588479192328
423262000000,4427,423262000000,FL_wheel_link,0.1355540004754754,-0.21927677109322313,-0.16018972074740062,0.01965406061437155,0.006058750501000673,0.015918451026378164
423263000000,4428,423263000000,FL_wheel_link,-0.11702391638643739,-1.699912477367954,1.039243424487192,-0.02408204510089831,-0.006005696311112644,-0.013849684172853021
423264000000,4429,423264000000,FL_wheel_link,0.0743880030069129,-0.0682795309385983,-0.0630811974747564,0.0008540480278451151,-0.00016426378650165823,0.0009022129402362854
423265000000,4430,423265000000,FL_wheel_link,0.08432879562000375,-1.1159606125962318,0.2953473914956143,0.008643774887383139,0.0017674394809352569,0.008244437016224983
423266000000,4431,423266000000,FL_wheel_link,-0.024256267445370898,-0.03428570720609978,0.01005803286504382,0.0019140354305279318,1.2945409456565217e-05,0.0010353809127322795
423267000000,4432,423267000000,FL_wheel_link,-0.09474913904894472,-1.3053951127721672,0.6382147684493156,-0.010848711535040216,-0.0029693115735956086,-0.00876291574533667
423268000000,4433,423268000000,FL_wheel_link,0.041197264492571904,-0.0660687769932675,-0.031958665368365086,0.00012129034166064002,-4.285958971203155e-05,-0.00022251469597907918
423269000000,4434,423269000000,FL_wheel_link,0.07347536007229627,-1.1664478803637874,0.3448545452481381,0.009015460441970668,0.002704622909049594,0.008910312016300943
423270000000,4435,423270000000,FL_wheel_link,-0.005759724942428866,-0.0007960983832568148,0.009172600132549988,-0.00021752262556301344,-5.2413930233237466e-05,-0.00014531202599009645
423271000000,4436,423271000000,FL_wheel_link,-0.07212802377648203,-1.3986432108597215,0.6286313206022218,-0.007616180888565347,-0.002019835032988625,-0.006239637644409464
423272000000,4437,423272000000,FL_wheel_link,0.004924671514051668,-0.04703853840407735,0.0050540707182593955,-0.0006778599508467448,-7.960332425876841e-05,-0.0009615726499896833
423273000000,4438,423273000000,FL_wheel_link,0.050405806941244524,-1.052813657346383,0.3299874802383479,0.006923395837690136,0.0022712803149214297,0.006807493151089133
423274000000,4439,423274000000,FL_wheel_link,-0.013691590225706714,-0.05620411420834938,0.020612012617852876,0.002878162360516288,0.0008081167206402865,0.002232471217625649
423275000000,4440,423275000000,FL_wheel_link,-0.10755310604784729,-1.3568446698072865,0.6785489984926756,-0.01172086579979741,-0.0030172857964960286,-0.009448314927066903
423276000000,4441,423276000000,FL_wheel_link,0.040902249381228724,-0.04830428396227608,-0.04371767930314577,0.0006389130628542148,6.566842053263165e-05,0.00013614497995150323
423277000000,4442,423277000000,FL_wheel_link,0.07128075930817318,-1.1531045469167984,0.3461856443001601,0.008718672934690912,0.0026563228585354897,0.008736448588821244
423278000000,4443,423278000000,FL_wheel_link,-0.005617746275172312,-0.0008391326281204221,0.009095243208581582,-0.00022267002698543443,-5.2997380506081566e-05,-0.00014226695185165836
423279000000,4444,423279000000,FL_wheel_link,-0.06800743535528991,-1.4199141726314426,0.6319458797021581,-0.007328519078103605,-0.001969907128059299,-0.005928880822660637
423280000000,4445,423280000000,FL_wheel_link,0.0026440211086124488,-0.043984921353235916,0.008775710568238589,-0.0007574058530685193,-0.00010586523674993022,-0.0009506675271256277
423281000000,4446,423281000000,FL_wheel_link,0.053595533587914634,-1.0375764188918175,0.3176077912601716,0.006999569889146919,0.00216501958715069,0.0067098604725738305
423282000000,4447,423282000000,FL_wheel_link,-0.025649561131736387,-0.06513919176206373,0.039632765558643986,0.00262636067265981,0.0008199859272810782,0.002137824299594579
423283000000,4448,423283000000,FL_wheel_link,-0.2784679164498737,-0.620909831378901,0.7328207294317057,-0.027608912210707125,-0.004473086829070496,-0.021901801732991368
423284000000,4449,423284000000,FL_wheel_link,0.34461638263880034,-1.4251344729811897,0.10675084473581001,0.024503179324207237,0.0059028557887583905,0.02377669834881983
423285000000,4450,423285000000,FL_wheel_link,-0.006485036635712622,0.0030309697752811037,-0.004201311833016228,5.7148300399178665e-05,-0.0001580379732196134,-0.00014630618878484858
423286000000,4451,423286000000,FL_wheel_link,-0.11028490346192704,-1.2362253311671574,0.5198755584841589,-0.007845165134231486,-0.00392262716709359,-0.008909613457563458
423287000000,4452,423287000000,FL_wheel_link,0.0037510916924599954,-0.05778544364361239,0.004624489883981998,-0.000873977476993468,-0.00015150908007046824,-0.0013742521812794947
423288000000,4453,423288000000,FL_wheel_link,0.09960289285690216,-1.1850687181718256,0.38091667080836433,0.008336913708011765,0.0030569337471207454,0.010076521628707275
423289000000,4454,423289000000,FL_wheel_link,-0.008026270952897952,0.0021845442749286,0.0025129156194687247,-7.586707699202332e-05,-9.54881421440236e-05,-0.00020989067147843764
423290000000,4455,423290000000,FL_wheel_link,-0.09632736969608685,-1.1952303515500948,0.6151557552844591,-0.004752407615267736,-0.0022190615235496637,-0.01207437320788592
423291000000,4456,423291000000,FL_wheel_link,-0.0094323322071155,0.07764974759283876,-0.09108737631489097,0.0038384670367716703,-0.0007129706391913993,-0.002423338101208452
423292000000,4457,423292000000,FL_wheel_link,0.09311204234610809,-1.1050068790215082,0.42643518311176487,0.0028051587637943996,0.00103666779286068,0.00712745160429247
423293000000,4458,423293000000,FL_wheel_link,-0.001465312907675164,-0.0027256076325631417,0.001972219073004518,2.002625695848371e-05,-4.361062271678978e-06,5.76081348630027e-05
423294000000,4459,423294000000,FL_wheel_link,-0.028478389284380845,-1.5318194979166238,0.63486855136876,-0.004775830704387908,-0.0012447512528409542,-0.0031870977706688532
423295000000,4460,423295000000,FL_wheel_link,0.005820782415344184,-0.05354564687638966,0.018199239588476853,-0.0010394145230299215,-0.00018725135689511512,-0.0009476952834281859
423296000000,4461,423296000000,FL_wheel_link,0.032909840480550234,-0.9336671205961924,0.30343903509183245,0.005769985973002127,0.0017993041062409419,0.005597201838630566
423297000000,4462,423297000000,FL_wheel_link,-0.0036156641227718307,-0.0025765296936686496,0.006029676235334728,-0.00010666485964094051,-2.1323974796567412e-05,-4.5851535676838084e-05
423298000000,4463,423298000000,FL_wheel_link,-0.038798910584236124,-1.6369281008741043,0.6839059874806419,-0.005499342569002783,-0.0013500683084264815,-0.003983845952533751
423299000000,4464,423299000000,FL_wheel_link,0.0008124380271312391,0.0014656987202956025,-0.004250449737819981,9.203370856667832e-05,-2.1352708062989847e-05,9.91916973109247e-06
423300000000,4465,423300000000,FL_wheel_link,0.010869224743375594,-0.8985006317396537,0.32039787798994324,0.0036055378798594776,0.001280121566670732,0.0035912336452138677
423301000000,4466,423301000000,FL_wheel_link,-0.00113529950188921,-0.0017568761134347283,0.0007474820494609182,3.792046480404293e-05,8.287250114670405e-06,4.5974795649016524e-05
423302000000,4467,423302000000,FL_wheel_link,-0.0159529134576884,-1.7413310031894782,0.6926364457345351,-0.002722651335532834,-0.00041093323358210444,-0.0013839612535433005
423303000000,4468,423303000000,FL_wheel_link,-0.01044780212493311,-0.009498502794917246,0.015550033491351794,-0.0005170839333978294,-0.00010685490300832079,-0.0006194641654924755
423304000000,4469,423304000000,FL_wheel_link,-0.08491648903940813,-0.21087494384744568,0.22514694203308605,-0.008713215698580232,-0.0013475518459748026,-0.00724334443876821
423305000000,4470,423305000000,FL_wheel_link,0.14685331474132596,-1.474646941059062,0.3435647294457867,0.014679715718600996,0.0037049484441683544,0.013676609117145518
423306000000,4471,423306000000,FL_wheel_link,-0.005642615984949462,-8.830849843813457e-05,0.007540421402793585,-0.00021290119960678475,-7.958840496234051e-05,-0.00013718811408086238
423307000000,4472,423307000000,FL_wheel_link,-0.09155080065052634,-1.246275384344763,0.5983076718495736,-0.009435323487014514,-0.0026781691068646627,-0.00783917139383274
423308000000,4473,423308000000,FL_wheel_link,0.006111573939869287,-0.06374083340553717,0.012941836968942405,-0.0011808713125289196,-0.00023716107502148035,-0.0013557525158396006
423309000000,4474,423309000000,FL_wheel_link,0.0804369512618538,-1.2048660041293937,0.3402085556906048,0.009939675105176148,0.002726713548835357,0.009543199142651622
423310000000,4475,423310000000,FL_wheel_link,-0.0054006882587376535,-0.0006833600656402765,0.007876418262117699,-0.00019028667675774586,-6.13075871206567e-05,-0.00013051571564090276
423311000000,4476,423311000000,FL_wheel_link,-0.03236972017015105,-1.363303264660021,0.6777808784742398,-0.010336010525618758,-0.0020945675066506657,-0.006097069642494231
423312000000,4477,423312000000,FL_wheel_link,0.010357575684874186,0.09518688919245048,-0.21347815250416333,0.0064166543833555495,-0.002960043034574011,-0.005445482631940461
423313000000,4478,423313000000,FL_wheel_link,0.12363910974510907,-0.24275445122729186,-0.07256612680032534,0.017543251682806897,0.006822353465895852,0.01558442655417763
423314000000,4479,423314000000,FL_wheel_link,-0.1632034689750036,-1.6287855892339689,1.1031389032403116,-0.02332154387855375,-0.003274923341333333,-0.014919724294950292
423315000000,4480,423315000000,FL_wheel_link,0.04388373273428817,-0.055839432974563466,-0.05404414712131088,0.0007052575774198494,4.079720565802359e-05,0.00013036969403315674
423316000000,4481,423316000000,FL_wheel_link,0.10453303368724665,-1.1633093560218943,0.306768117667525,0.009402941474677217,0.0019104282784413395,0.00963608792728287
423317000000,4482,423317000000,FL_wheel_link,-0.007199993467472696,0.003174313408529969,0.001245651711736868,-0.00010317889911120967,-0.00016443807778249072,-0.00023951609574968482
423318000000,4483,423318000000,FL_wheel_link,-0.03191911785044543,-1.410420431283577,0.6337624790182053,-0.008957857304345871,-0.0030778336688149495,-0.005603454773425429
423319000000,4484,423319000000,FL_wheel_link,-0.00034101216886885544,0.007936179493360982,-0.021290123858620034,0.0005366996091592769,-4.4693801466478444e-05,1.7652970166343976e-05
423320000000,4485,423320000000,FL_wheel_link,0.03626816460465232,-1.1080255228651124,0.3815939743613029,0.006973998852893477,0.0007619108755099772,0.004084811494752294
423321000000,4486,423321000000,FL_wheel_link,-0.03831440414010742,0.11643065649626291,-0.1270686524966909,0.003992108182017891,-0.0022834806840186803,-0.004506924742995579
423322000000,4487,423322000000,FL_wheel_link,-0.05621274442812263,-1.3013852291971189,0.6761145964581992,-0.007694430656541511,0.00024300365606881396,-0.0038361627404569745
423323000000,4488,423323000000,FL_wheel_link,0.006046338004152158,-0.0006644952610954922,-0.01315713533613908,0.00045493595934791123,9.570314143212784e-05,0.00025932711114408206
423324000000,4489,423324000000,FL_wheel_link,0.035783220466623245,-1.2050765173598967,0.4141379282818255,0.006152143386252733,0.002436172949805217,0.006266021151953031
423325000000,4490,423325000000,FL_wheel_link,-0.004204112997801098,0.0005056761333941778,0.006430229166530192,-0.00014424701403115624,-3.3337973243304506e-05,-0.00012458947390863676
423326000000,4491,423326000000,FL_wheel_link,-0.04048689629881236,-1.4678741275619516,0.6226380231933039,-0.005958448571557148,-0.0014033958715745558,-0.004521024874667768
423327000000,4492,423327000000,FL_wheel_link,-0.07155325902489697,0.11898643269442756,-0.19845469969351176,-0.055739718004428444,0.0012405127290535268,-0.0034722528280317737
423328000000,4493,423328000000,FL_wheel_link,-0.13064535486751472,-0.19199805255584892,-0.6783315240539053,-0.04494585554750258,-0.001280026663234353,-0.013696641924797828
423329000000,4494,423329000000,FL_wheel_link,-0.11471153053223004,-0.1132763618383434,-0.4119581400656994,-0.05288873071676484,0.0031161934524073405,-0.013752665218383161
423330000000,4495,423330000000,FL_wheel_link,0.19050146550268288,-0.5592566631581879,-0.11613885968316086,-0.0019935950617406073,0.0006430007177376453,-0.006377802352547759
423331000000,4496,423331000000,FL_wheel_link,0.4551348799520232,-0.9680583129117901,-0.5765666945049377,0.011552878733370743,-0.008112034531307682,0.0018259775675168244
423332000000,4497,423332000000,FL_wheel_link,0.23793197054235854,-0.5398232422721072,-0.12628973117020245,-0.002319018579728325,-0.004113591365262379,-0.002736902821168355
423333000000,4498,423333000000,FL_wheel_link,0.10508235209705068,-0.4058108616906884,0.08536619947945963,-0.006118585685048192,-0.0007745307844929114,-0.004623900782794302
423334000000,4499,423334000000,FL_wheel_link,0.26618941984016,-1.211687545314689,-0.012569241640973172,0.01182479733826142,-0.0009441135546274198,0.00813076437912432
423335000000,4500,423335000000,FL_wheel_link,6.709971019039646,24.494866218304175,-0.7363854269921406,-0.5636967468547717,0.18715139118210433,0.6795784479351151
423336000000,4501,423336000000,FL_wheel_link,11.213820312461436,15.900966468986232,5.944818548410559,-1.0822408616596286,0.3298823374326846,1.1825636318062736
423337000000,4502,423337000000,FL_wheel_link,8.230486729185595,13.470084263908506,-0.42098172049090365,-0.3685482773550738,0.23606944886255116,0.8594913006921266
423338000000,4503,423338000000,FL_wheel_link,7.1306583696275725,12.002995163671553,1.8005717426018437,-0.5155873690431072,0.2109778944775776,0.7518452256280153
423339000000,4504,423339000000,FL_wheel_link,9.28963642564238,13.077535039654405,-1.3878221801262223,-0.24146498975199393,0.274604484728759,0.9816848280451366
423340000000,4505,423340000000,FL_wheel_link,5.852089074123894,9.517729325935909,0.9121849282504151,-0.34806484171008434,0.17532364784375193,0.6202972847449266
423341000000,4506,423341000000,FL_wheel_link,8.070295137518695,11.57659944507149,-1.5915908251488462,-0.1749306304124158,0.23870568607982964,0.8541800787740761
423342000000,4507,423342000000,FL_wheel_link,-0.04654701521979543,-0.6589134467566717,0.946184305374012,-0.04404154768852727,0.002374694425916456,0.001591308291674129
423343000000,4508,423343000000,FL_wheel_link,0.39731198844568383,-1.3969856046282445,-0.2928191684059882,0.0275134044043441,-0.00037814206826944276,0.01586774030116974
423344000000,4509,423344000000,FL_wheel_link,-0.036301940434715574,-0.01477570976891346,-0.036291445284481555,6.067155911676091e-05,-0.0014691680823154364,-0.0040639565026084614
423345000000,4510,423345000000,FL_wheel_link,-0.2420112589943667,-0.5861258583136988,0.5916879412460627,-0.023353084636008895,-0.004665290498961345,-0.021924978013507825
423346000000,4511,423346000000,FL_wheel_link,0.2990879297154821,-1.3757662704335092,-0.050543623239660634,0.023594073294453222,0.001975248486163105,0.01642452565083314
423347000000,4512,423347000000,FL_wheel_link,-0.3671922590168528,-0.6899059231439801,0.7907129132449895,-0.030541316092776327,-0.007150512489755947,-0.030817513940098143
423348000000,4513,423348000000,FL_wheel_link,0.327357958351555,-0.22230278410218166,-0.6585647480488468,0.03731231391892405,0.007004554029104496,0.024528495564955413
423349000000,4514,423349000000,FL_wheel_link,-0.32559013455692637,-0.8859873512701442,1.0013856742415426,-0.037939561190877685,-0.008914192877265036,-0.03183693465255902
423350000000,4515,423350000000,FL_wheel_link,0.3521144570360645,-0.27903860844351847,-0.642838424941761,0.04011142816586622,0.008582653827642634,0.02803013528458865
423351000000,4516,423351000000,FL_wheel_link,-0.29741471518648266,-0.947119535438989,1.0673058182780875,-0.04021125168062006,-0.00949429740047755,-0.03135137602597439
423352000000,4517,423352000000,FL_wheel_link,0.3491256038877635,-0.2962360701154683,-0.6350654788477081,0.04089968711193875,0.008781434744190414,0.028955782637112203
423353000000,4518,423353000000,FL_wheel_link,-0.2798795715526113,-0.9595872498778546,1.0800120621825153,-0.04059498455265789,-0.009611044401963056,-0.030620540740946587
423354000000,4519,423354000000,FL_wheel_link,0.337335023127063,-0.3036741256835073,-0.6202399410590724,0.040835562040635695,0.008686213988039437,0.029022475239331765
423355000000,4520,423355000000,FL_wheel_link,-0.271406508622159,-0.952218140915941,1.074224788309421,-0.04030311521519814,-0.00954188658991519,-0.029994089818740063
423356000000,4521,423356000000,FL_wheel_link,0.324513626542265,-0.309327754214875,-0.6005929616535797,0.04046589561549608,0.008597589408113145,0.02885031066766807
423357000000,4522,423357000000,FL_wheel_link,-0.26925474349072276,-0.9380286724455957,1.0638477350208098,-0.039835464712795386,-0.0094136001455312,-0.029551542551797195
423358000000,4523,423358000000,FL_wheel_link,0.31357204973587915,-0.3148082831523484,-0.580385181389801,0.04004366560893584,0.008570465028312239,0.02865682453363438
423359000000,4524,423359000000,FL_wheel_link,-0.27032154944696685,-0.9233975717318306,1.0543421864615883,-0.03939838892961965,-0.009288334069922341,-0.029260281797030777
423360000000,4525,423360000000,FL_wheel_link,0.3052651766324719,-0.32001507487972225,-0.5625844536675398,0.039675789283011,0.00859082175513035,0.028505690449989393
423361000000,4526,423361000000,FL_wheel_link,-0.27278768339125825,-0.9107245124555746,1.047209061919327,-0.0390531077153803,-0.009187472045127962,-0.0290806410456877
423362000000,4527,423362000000,FL_wheel_link,0.2994311096876855,-0.32467068136259897,-0.5483399258107916,0.039391180945041855,0.008635855323260175,0.028403869464652128
423363000000,4528,423363000000,FL_wheel_link,-0.275627251691179,-0.9005972527246526,1.0424801025534889,-0.038803763353476656,-0.009114965093290352,-0.028976111241629715
423364000000,4529,423364000000,FL_wheel_link,0.2955868461459099,-0.328676921918125,-0.5376202056748717,0.039185548709424374,0.00868936724430827,0.028342049402128165
423365000000,4530,423365000000,FL_wheel_link,-0.27780399352143265,-0.8932930576850472,1.0398502152764955,-0.038641399187416874,-0.009071572503756422,-0.028904687424836477
423366000000,4531,423366000000,FL_wheel_link,0.29321395573651504,-0.3319800674384411,-0.5300362508284774,0.039045278572457334,0.008740715288838017,0.028306784237411422
423367000000,4532,423367000000,FL_wheel_link,-0.2795020229569184,-0.8880246743527364,1.038646488866288,-0.03853959670223106,-0.009048662035171564,-0.02885814906834394
423368000000,4533,423368000000,FL_wheel_link,0.2918549939266752,-0.3347410900426999,-0.5247449466072246,0.03895107637965299,0.008787949155330578,0.028288635941035922
423369000000,4534,423369000000,FL_wheel_link,-0.280726907243552,-0.8842552410169761,1.0383797523084328,-0.038479016064446085,-0.009040471872328173,-0.02882512263143914
423370000000,4535,423370000000,FL_wheel_link,0.2911719276004371,-0.33697491315423456,-0.5213399991718431,0.038890928569819,0.008826344741254898,0.028278300633676326
423371000000,4536,423371000000,FL_wheel_link,-0.28155138752584025,-0.8815434228612257,1.0387178880894044,-0.03844557921162558,-0.009042217285703738,-0.028798790697372508
423372000000,4537,423372000000,FL_wheel_link,0.2909510111770216,-0.33885263460719994,-0.5191784937723404,0.0388525269098796,0.00885911612580235,0.028273038681208777
423373000000,4538,423373000000,FL_wheel_link,-0.28211782318021605,-0.8795203171245296,1.039442600967585,-0.03842966858941112,-0.009050428924381551,-0.02877709085963112
423374000000,4539,423374000000,FL_wheel_link,0.2910308170165651,-0.34047402721650644,-0.5178801303215766,0.03882886388036917,0.008887378713143096,0.028270577272654265
423375000000,4540,423375000000,FL_wheel_link,-0.2825412552208616,-0.8779174455671619,1.0404130971593761,-0.03842481161027071,-0.009062689525730423,-0.02875889033956318
423376000000,4541,423376000000,FL_wheel_link,0.28864727907746224,-0.34266231331462954,-0.5151053672960524,0.038792351740258114,0.008871909029550106,0.02822128149576965
423377000000,4542,423377000000,FL_wheel_link,-0.2814120524935234,-0.8759964805253063,1.0395286992034316,-0.03835647782637102,-0.009060443890049981,-0.02867269176188501
423378000000,4543,423378000000,FL_wheel_link,0.2887257626277763,-0.34405343723804904,-0.5130767335577975,0.038725440842820404,0.008901112158400334,0.028197088248910276
423379000000,4544,423379000000,FL_wheel_link,-0.281305510080645,-0.8745753456569445,1.0398878193429149,-0.03833385382382027,-0.009068580143620055,-0.02864058288371745
423380000000,4545,423380000000,FL_wheel_link,0.2890779376802332,-0.345326183561909,-0.5122357990748441,0.03869612041116237,0.00892628502774113,0.028187531471932082
423381000000,4546,423381000000,FL_wheel_link,-0.2814965480594023,-0.8733220327234656,1.040703226974481,-0.038327384669618575,-0.009080912132155483,-0.028623813994947733
423382000000,4547,423382000000,FL_wheel_link,0.2895030844038292,-0.3465514008470314,-0.5118822297131973,0.03868212142487042,0.008948487429081239,0.028182864306934396
423383000000,4548,423383000000,FL_wheel_link,-0.28176914080283855,-0.8721381193349874,1.0417249785434366,-0.03832803650725298,-0.009095456072908516,-0.028611153653418032
423384000000,4549,423384000000,FL_wheel_link,0.2812134398248634,-0.3543567408610157,-0.49735662633079764,0.038576025321670794,0.008967587504574015,0.02813127581431884
423385000000,4550,423385000000,FL_wheel_link,-0.27848651240497446,-0.8689581457500664,1.0364254782200457,-0.03809447060865581,-0.009056998144440866,-0.02839850944050292
423386000000,4551,423386000000,FL_wheel_link,0.24534813503119085,-0.3778466017152733,-0.43893562708149114,0.037900575710833974,0.00888668353648708,0.0277049943985012
423387000000,4552,423387000000,FL_wheel_link,-0.2620659685907412,-0.8573482754320676,1.006447395260254,-0.03700682290849238,-0.008825941555838554,-0.027502229619921194
423388000000,4553,423388000000,FL_wheel_link,0.2408325015801837,-0.3682726122448145,-0.4332771669821827,0.03705308926325775,0.00863506863611313,0.02702840912118253
423389000000,4554,423389000000,FL_wheel_link,-0.2532471499289812,-0.8533314463506216,0.9915179222203441,-0.03650385838803437,-0.008724162115111988,-0.02712780084943135
423390000000,4555,423390000000,FL_wheel_link,0.24158511437049196,-0.3646698873307606,-0.4318254949468842,0.036712823832261765,0.008595463052805345,0.026798758260761342
423391000000,4556,423391000000,FL_wheel_link,-0.249891864235008,-0.8529423948925771,0.9861817575952755,-0.036319066428109774,-0.008688427650281154,-0.02702811990383635
423392000000,4557,423392000000,FL_wheel_link,0.24395077568821583,-0.3630890544441858,-0.4328187486751447,0.03658142469758941,0.008613330976780725,0.02672710618974853
423393000000,4558,423393000000,FL_wheel_link,-0.2483986638595318,-0.8538707732477229,0.9849156696848201,-0.03626722170890709,-0.008685006767320343,-0.027016216200131074
423394000000,4559,423394000000,FL_wheel_link,0.2465494220329944,-0.3622595438490518,-0.4351884580356288,0.03654475553398615,0.008637464497039192,0.026710547823885718
423395000000,4560,423395000000,FL_wheel_link,-0.24755904412633234,-0.8550757004245391,0.9853868538557142,-0.03627019658643952,-0.008697472944028919,-0.027026407903562838
423396000000,4561,423396000000,FL_wheel_link,0.24886402693067253,-0.36182765501620545,-0.4380141186938236,0.036548962015190846,0.008655957925179607,0.026710857600113234
423397000000,4562,423397000000,FL_wheel_link,-0.1236721896902433,-1.3476586754650226,0.8640992134314508,-0.02197801557498092,-0.009118661922358053,-0.017761141639308132
423398000000,4563,423398000000,FL_wheel_link,0.014435792487952296,-0.0021057998281345303,-0.015151278619011447,0.00019351397841940602,-8.850488593254737e-05,0.00031773376813025445
423399000000,4564,423399000000,FL_wheel_link,0.20649439424926258,-0.3230931176226775,-0.29366069702586833,0.02973257611404416,0.009010285989802516,0.0228654434334263
423400000000,4565,423400000000,FL_wheel_link,0.1422736482308763,6.60039015000389,0.12492316566253048,-0.3820862061009564,0.0040108741726835526,0.008269934181263372
423401000000,4566,423401000000,FL_wheel_link,1.766391805305092,6.315582059714659,-0.48759826075275603,-0.2919115425633827,0.08884466866281701,0.16176360109173873
423402000000,4567,423402000000,FL_wheel_link,0.2618326782666924,-0.08659185079370943,-0.19465901924020454,0.010358235273848802,0.010693701090006948,0.025041189058042475
423403000000,4568,423403000000,FL_wheel_link,1.1084600412580374,13.172666001266144,0.5011567080091575,-0.7407530141159197,0.0739122470125893,0.11784698767307966
423404000000,4569,423404000000,FL_wheel_link,0.3093787276582847,0.006365334813937168,-0.3613132021629367,0.00827980365512707,0.009632501980601497,0.027689631302377185
423405000000,4570,423405000000,FL_wheel_link,-1.0753487515238533,0.20266576315133272,1.2027140517718975,-0.10782065297697296,-0.03914470723308491,-0.08763470493328343
423406000000,4571,423406000000,FL_wheel_link,0.2065642377178338,-0.36957776505900225,-0.37504727702513596,0.034575769822251676,0.008607218378357082,0.024983308711784596
423407000000,4572,423407000000,FL_wheel_link,-0.8816679429955966,5.636116593882661,2.2723543551282255,-0.5157134840518367,-0.045507386028560845,-0.0849190918411604
423408000000,4573,423408000000,FL_wheel_link,0.1340968025155272,-0.27287997481625,-0.14634752001946708,0.014351788832076579,0.006648612547385379,0.019885147674864
423409000000,4574,423409000000,FL_wheel_link,-0.5221759519606167,-0.4563573660808157,0.9669659905729026,-0.05060276919581899,-0.015205391534623657,-0.04214324332796414
423410000000,4575,423410000000,FL_wheel_link,0.2940495728970359,-0.33910514998746405,-0.4774365735162006,0.03685681437473959,0.009644608003307284,0.026913061680380053
423411000000,4576,423411000000,FL_wheel_link,-0.9214146235414749,0.02268101926965388,1.349410130009971,-0.11482376560050486,-0.0417750321362069,-0.08536443046471812
423412000000,4577,423412000000,FL_wheel_link,0.3150504011025546,-0.36338542348371516,-0.5064578877099999,0.03933835100373394,0.010321084877267435,0.028778553404389725
423413000000,4578,423413000000,FL_wheel_link,-1.1469031178077318,0.3245034185455812,1.5246404179466575,-0.14897155571668144,-0.0561259391990582,-0.10881613341063553
423414000000,4579,423414000000,FL_wheel_link,0.3050867065245884,-0.3669038505955196,-0.4944322320277605,0.039104137535734,0.010206571500505237,0.02857902522599763
423415000000,4580,423415000000,FL_wheel_link,-0.31268823500434184,-0.8281843673063822,1.061943130695169,-0.038344569073184356,-0.009293844599484914,-0.028969150020121057
423416000000,4581,423416000000,FL_wheel_link,0.3067167636445685,-0.35337823275137514,-0.5345840465065894,0.03929074255119249,0.009446456693330083,0.028310638947892246
423417000000,4582,423417000000,FL_wheel_link,-0.3012119884081527,-0.8539343957786105,1.0855626355498404,-0.039197019376715006,-0.009582085640572245,-0.028937427864866045
423418000000,4583,423418000000,FL_wheel_link,0.3059546942051624,-0.35737128168807736,-0.5390947408271038,0.03960431946751356,0.009410726234120924,0.028458713630837164
423419000000,4584,423419000000,FL_wheel_link,-0.29300178031298785,-0.8613043055445571,1.0892005471034174,-0.03932205561882764,-0.009657251965042395,-0.02873030877050873
423420000000,4585,423420000000,FL_wheel_link,0.3034664416273485,-0.35883023419783755,-0.5375312875543721,0.03956524297101482,0.0093562334638775,0.028392074606619997
423421000000,4586,423421000000,FL_wheel_link,-0.28855464994592106,-0.8616574869988068,1.0872271133153353,-0.03923494975477527,-0.009659448120011231,-0.02855917582959669
423422000000,4587,423422000000,FL_wheel_link,0.30063148967214914,-0.3603303616118737,-0.5327465547796247,0.0394224864073923,0.009331539628404337,0.0282878284937377
423423000000,4588,423423000000,FL_wheel_link,-0.2866555023644331,-0.8590479779566166,1.0839103826142897,-0.03908949753905628,-0.009635864753282854,-0.028439528171614367
423424000000,4589,423424000000,FL_wheel_link,0.2982899136813003,-0.3620223305662333,-0.5271917109038506,0.03926605548128139,0.009334984922832119,0.02819540894479524
423425000000,4590,423425000000,FL_wheel_link,-0.28626220832573857,-0.8555302265989434,1.0809820608475338,-0.0389513767425614,-0.00960926796923187,-0.02836349809165415
423426000000,4591,423426000000,FL_wheel_link,0.2965993217792954,-0.36387264546801834,-0.5219522291175808,0.03912957525450423,0.00935759271646057,0.028127144819689802
423427000000,4592,423427000000,FL_wheel_link,-0.286629139501175,-0.8520202356742337,1.0789204195680089,-0.038841118944536,-0.009588769737676094,-0.02831689359916885
423428000000,4593,423428000000,FL_wheel_link,0.2955144497951922,-0.3656833556791722,-0.5177199652396569,0.039024456157212235,0.009387008253422063,0.028079813629488977
423429000000,4594,423429000000,FL_wheel_link,-1.314341966812329,2.5761832659478525,2.3432037878319134,-0.35584077989720825,-0.07313374298672068,-0.1319191264473098
423430000000,4595,423430000000,FL_wheel_link,0.19017133566557698,-0.39938990529978585,-0.4009831646157668,0.03720813198345313,0.006119491107256167,0.020218705395737783
423431000000,4596,423431000000,FL_wheel_link,-0.33108285591995207,-0.7519028569348065,1.0013253041120507,-0.03577889067287603,-0.00857385163586282,-0.028349646573103522
423432000000,4597,423432000000,FL_wheel_link,0.275317567397854,-0.37560502261970585,-0.448811699338516,0.03727396107572092,0.009742336358063246,0.027351629112775565
423433000000,4598,423433000000,FL_wheel_link,-0.318866801938096,-0.7954220781585097,1.0485096440924255,-0.03748405554763103,-0.0091237569096819,-0.028585870982507214
423434000000,4599,423434000000,FL_wheel_link,0.28674383345294713,-0.3773953302827106,-0.47753833962478887,0.038222619336705524,0.009752254647922136,0.027870358305782047
423435000000,4600,423435000000,FL_wheel_link,-1.3627671180429617,1.832613852312358,2.0523540379845544,-0.2843213581838516,-0.07272408132368278,-0.13334577932815495
423436000000,4601,423436000000,FL_wheel_link,0.19257278499022729,-0.41579910189031716,-0.4121398411168137,0.03847099833665409,0.006126005227522463,0.020300645633603745
423437000000,4602,423437000000,FL_wheel_link,-0.34078846078527153,-0.7479130155018315,1.0151438110285964,-0.036130188123685236,-0.008698594652085955,-0.028632029798496966
423438000000,4603,423438000000,FL_wheel_link,0.27851987758253804,-0.3813659423128843,-0.4524256834852289,0.03753851348949696,0.009858633234296655,0.027530376635322235
423439000000,4604,423439000000,FL_wheel_link,-0.3225534385286359,-0.792633212519766,1.058460091030915,-0.03771251042951905,-0.009232158140434772,-0.028647266964477412
423440000000,4605,423440000000,FL_wheel_link,0.28894059527319216,-0.38223789936598107,-0.47994997067097894,0.03837695386366696,0.009828296009743363,0.027963298083204545
423441000000,4606,423441000000,FL_wheel_link,-0.3103495098977153,-0.8140643769701312,1.0767075482054234,-0.038381585416114174,-0.009486284033867854,-0.028522138349251287
423442000000,4607,423442000000,FL_wheel_link,0.2936375335594572,-0.3813420195135276,-0.49576484240120317,0.03874644309948875,0.009746848091040353,0.028091837388031768
423443000000,4608,423443000000,FL_wheel_link,-1.5400277825806339,0.9225011169538971,1.7507404334421925,-0.20384159367714294,-0.08096154892524013,-0.1487723226315772
423444000000,4609,423444000000,FL_wheel_link,0.30285653143286273,-0.4212916519661784,-0.46037992557182283,0.04111064958079304,0.01178114340063992,0.030294659100007747
423445000000,4610,423445000000,FL_wheel_link,-0.3261314801675177,-0.7704872474594587,1.0393942882446126,-0.036938753661543935,-0.009056562616538213,-0.028419310497577864
423446000000,4611,423446000000,FL_wheel_link,0.2843754421486072,-0.3834632525467257,-0.4707745799151952,0.03796098731511184,0.009790292224600624,0.02764883903132956
423447000000,4612,423447000000,FL_wheel_link,-0.3132490422987838,-0.8017812613478914,1.070249031577797,-0.038049010203844984,-0.00943094746522113,-0.028425170877174596
423448000000,4613,423448000000,FL_wheel_link,0.2917484229238444,-0.38505338474512774,-0.488381141221919,0.03852123790367998,0.009798198962923714,0.02795682565700074
423449000000,4614,423449000000,FL_wheel_link,-0.30509538986231505,-0.8160452949074004,1.0829932990962732,-0.038502429071044064,-0.00960521896980946,-0.028341542778883067
423450000000,4615,423450000000,FL_wheel_link,0.2950228358768813,-0.38511796645765595,-0.49830711540574363,0.03875785487045969,0.009759212401380979,0.028044802982730873
423451000000,4616,423451000000,FL_wheel_link,-1.1991864562087777,0.4406833889977711,1.5547044432982178,-0.15592497084023396,-0.06031645667789133,-0.114380058218508
423452000000,4617,423452000000,FL_wheel_link,0.2878097970555733,-0.3959406220794487,-0.4629717967459914,0.03856622648003234,0.010278673979243364,0.028085633347666505
423453000000,4618,423453000000,FL_wheel_link,-0.30853490691314134,-0.7907224339491241,1.0591433093234537,-0.03756669651731377,-0.009352729626081144,-0.02803122385369373
423454000000,4619,423454000000,FL_wheel_link,0.288884012965549,-0.3875412867961468,-0.47966433821225124,0.03817399887525088,0.009804807665551581,0.027730450000308868
423455000000,4620,423455000000,FL_wheel_link,-0.30495836549864885,-0.80804208487677,1.0795851254305393,-0.03828406482265904,-0.009589204468493774,-0.02819016741515183
423456000000,4621,423456000000,FL_wheel_link,0.29395062748671524,-0.3888573692689889,-0.49241937032389105,0.0385777659584943,0.009812468025002088,0.027939824828182233
423457000000,4622,423457000000,FL_wheel_link,-1.022028516974686,0.19483979834928328,1.4520178172644105,-0.13121095253874898,-0.049822770623714444,-0.09670172550124935
423458000000,4623,423458000000,FL_wheel_link,0.29153179285920194,-0.40140454262378467,-0.46665117773715437,0.03876209933698331,0.010366421840510278,0.028231771817743473
423459000000,4624,423459000000,FL_wheel_link,-0.30441517744277513,-0.7954358006064425,1.0689232662674362,-0.037828358522156644,-0.009487617881614731,-0.027930797856360066
423460000000,4625,423460000000,FL_wheel_link,0.2911050095643391,-0.3913419297960441,-0.48255022953715854,0.038270074607196204,0.00984958419398867,0.027772948301280784
423461000000,4626,423461000000,FL_wheel_link,-0.30323828666272434,-0.8078071189079364,1.08507861472831,-0.038386875173396104,-0.00967283392187982,-0.02810550178350549
423462000000,4627,423462000000,FL_wheel_link,0.29514570682201113,-0.39246555891492707,-0.49331153154219565,0.038602140320129125,0.009851068938913292,0.027935042527141817
423463000000,4628,423463000000,FL_wheel_link,-0.30086716941387676,-0.8134223814253374,1.091946070778255,-0.03861177403083625,-0.009763364194285694,-0.028110152569136834
423464000000,4629,423464000000,FL_wheel_link,0.296932326637536,-0.39309323546400754,-0.49860374284600956,0.038730836833421066,0.00983774674174958,0.02797852251172142
423465000000,4630,423465000000,FL_wheel_link,-0.2987173591689485,-0.8159509221265522,1.0951183672495355,-0.03870331561884313,-0.009813523878201282,-0.028069347063034496
423466000000,4631,423466000000,FL_wheel_link,0.29770265361998394,-0.3938376601066539,-0.5008206670820582,0.03877005062232262,0.009831123142202422,0.027979388762393087
423467000000,4632,423467000000,FL_wheel_link,-0.2973273658382043,-0.8165814599483437,1.0966146992485188,-0.0387318795582134,-0.009842387571124957,-0.028025592746264226
423468000000,4633,423468000000,FL_wheel_link,0.2980305912688939,-0.3947576041573423,-0.5014254514097206,0.038770049217024705,0.009833243790482154,0.027965510897256445
423469000000,4634,423469000000,FL_wheel_link,-1.0160103797832454,0.19479681115401143,1.4530103047133853,-0.13053032924898766,-0.049860408797115854,-0.09632882757668274
423470000000,4635,423470000000,FL_wheel_link,0.2940861161406628,-0.4082282583021089,-0.46954589170479366,0.03885162924968804,0.010440096581395986,0.028233805632362448
423471000000,4636,423471000000,FL_wheel_link,-0.30212703803625207,-0.7912506850982088,1.0748210288431934,-0.037861008481513574,-0.009599937465177044,-0.0277563410325282
423472000000,4637,423472000000,FL_wheel_link,0.29227084661664604,-0.39822922138511185,-0.48129710468547837,0.03821365100064752,0.009922658016118717,0.027702067288039138
423473000000,4638,423473000000,FL_wheel_link,-0.3030257015016386,-0.8007872425285398,1.0898889161866079,-0.038367708838934034,-0.009763467990434881,-0.027961271979215427
423474000000,4639,423474000000,FL_wheel_link,0.29600077933366,-0.4000041691085143,-0.4900531198084813,0.03851776156683043,0.009948436077595518,0.027866712479030113
423475000000,4640,423475000000,FL_wheel_link,-0.3018854615662629,-0.8049765186391977,1.0966262161947036,-0.0385797183089696,-0.009846652649587935,-0.027986384242600658
423476000000,4641,423476000000,FL_wheel_link,0.2976995935925791,-0.4010121357097825,-0.49458228075836574,0.03864429852168675,0.009948075992549689,0.027918084993027996
423477000000,4642,423477000000,FL_wheel_link,-0.30052405410794236,-0.8067563771054618,1.0999708912098327,-0.03867240349054673,-0.009895167943175577,-0.02796116553562216
423478000000,4643,423478000000,FL_wheel_link,0.2984897035650639,-0.4019367705663537,-0.4966972752274531,0.03869119956696742,0.009946646157428012,0.027926513720678156
423479000000,4644,423479000000,FL_wheel_link,-0.29953021940918023,-0.8070909860451305,1.1017637225961996,-0.03870866786222605,-0.009925442807576663,-0.027925683532810032
423480000000,4645,423480000000,FL_wheel_link,0.2988657019843075,-0.402960882830142,-0.4973848558922185,0.03870037130882146,0.009951109372353252,0.027919109002453063
