%time,field.header.seq,field.header.stamp,field.header.frame_id,field.wrench.force.x,field.wrench.force.y,field.wrench.force.z,field.wrench.torque.x,field.wrench.torque.y,field.wrench.torque.z
423137000000,4296,423131000000,FR_wheel_link,0.48098571311273464,11.596792856467786,-10.023743441729572,0.3023111338450675,0.022589432193707563,0.0407499435073362
423137000000,4297,423132000000,FR_wheel_link,0.02191551068325724,-0.149389297170431,0.10168657566703974,0.008348789632524388,-0.0010748050949689694,0.0015908910404296556
423137000000,4298,423133000000,FR_wheel_link,-0.7938335097097058,17.30863014782982,-11.456100067096784,0.13547627555149463,-0.040225591084839314,-0.07211010320369815
423137000000,4299,423134000000,FR_wheel_link,-1.0998883515276765,2.5828665406455045,-0.23891061457684892,-0.11734442765408203,-0.0595118523800348,-0.10178668675770956
423137000000,4300,423135000000,FR_wheel_link,0.8597527412274264,13.012689165455114,-11.104299433700627,0.3181126430738307,0.04678520876034927,0.0790004831339249
423137000000,4301,423136000000,FR_wheel_link,0.04188342674891298,-0.0764446925962766,-0.017383558768435673,0.004715518909790967,0.0025817297475231944,0.004107365514487982
423137000000,4302,423137000000,FR_wheel_link,-0.6687615966023115,19.806231422161378,-13.201715422858825,0.1631868050767789,-0.0351878550544466,-0.06000430542792126
423138000000,4303,423138000000,FR_wheel_link,-0.7537157847932962,1.7152227688575212,-0.08122892255773742,-0.08580055564519198,-0.04079226331695043,-0.06973993019676154
423138000000,4304,423139000000,FR_wheel_link,0.6658180147457671,12.11566846381502,-10.069191532445561,0.2730771067867534,0.036137317187529557,0.0614676092266223
423140000000,4305,423140000000,FR_wheel_link,0.031128537317394338,-0.0402356319440462,-0.06291289747721089,0.006985834911101669,0.0033752479948150615,0.005419886567639294
423141000000,4306,423141000000,FR_wheel_link,-0.9636254675764029,19.897254131603603,-12.831438695780179,0.12976767618158147,-0.05076978107286072,-0.0860840280133834
423142000000,4307,423142000000,FR_wheel_link,-1.2153287313134382,2.074572713698552,0.15053978666711718,-0.12863564365281854,-0.06710813392719321,-0.11395741221059968
423143000000,4308,423143000000,FR_wheel_link,0.8158771693437039,12.57888107231342,-10.763814248438019,0.3119441750602841,0.04380574668650776,0.07499597949945688
423144000000,4309,423144000000,FR_wheel_link,0.041834292088550454,-0.07872449365831549,-0.016961431272246214,0.004874685084646103,0.002532609913309761,0.0040991685894330235
423145000000,4310,423145000000,FR_wheel_link,-0.9064943748302721,19.3245964386648,-13.311964183216022,0.20316951170507655,-0.050491205250507404,-0.08465814101903354
423146000000,4311,423146000000,FR_wheel_link,-0.2390958850537845,1.7205521873333847,-0.09929073473279565,-0.08592256622598293,-0.009758299885046435,-0.018793480331850288
423147000000,4312,423147000000,FR_wheel_link,0.23724259166575035,10.428635488672853,-9.337450190089685,0.30739530237019663,0.007874707233000537,0.01705147745578975
423148000000,4313,423148000000,FR_wheel_link,0.056913505459584283,-0.03775600209491356,-0.0008550660274023684,0.0020436892542155254,0.003412961764679391,0.005615263747717639
423149000000,4314,423149000000,FR_wheel_link,-1.2880464466970905,19.290153953188756,-14.015323131236833,0.2607528822831041,-0.06705146747887307,-0.11884914709881433
423149000000,4315,423150000000,FR_wheel_link,-0.028656073579266854,0.021954843682834506,-0.021466892968583673,0.001129567061418437,-0.001801180286196278,-0.0024590092298086216
423149000000,4316,423151000000,FR_wheel_link,0.15035986171757942,11.141225907715288,-8.96648506605223,0.2311493210611838,0.00717769240245246,0.013264329396407433
423149000000,4317,423152000000,FR_wheel_link,0.010393347644118705,-0.006896304017075992,-0.02327100980837418,0.002350821318423531,0.0006896874641022091,0.0011328131100700513
423149000000,4318,423153000000,FR_wheel_link,-0.4760216807320674,22.109438290979178,-15.812612458238277,0.27963553676880193,-0.026247823442975247,-0.044226692034317776
423149000000,4319,423154000000,FR_wheel_link,-0.08648330941331311,0.7931443080157825,-0.1348036402721815,-0.033222841226434284,-0.0032764367185424996,-0.0066088157097016625
423149000000,4320,423155000000,FR_wheel_link,0.1430148954087178,9.150507582558731,-6.889972186076035,0.14293129429092674,0.007538674478373041,0.01362745187273168
423156000000,4321,423156000000,FR_wheel_link,0.008060728149283831,-0.006128814205144132,-0.01406464965665029,0.001565595952174548,0.0005047520059895296,0.0008639519363033042
423157000000,4322,423157000000,FR_wheel_link,-0.16551762285189575,25.702716681813367,-18.582040336893833,0.3402095462751212,-0.007626677545270556,-0.013454778816101298
423158000000,4323,423158000000,FR_wheel_link,0.010036612932440403,-0.1559256268168842,0.08704771420388674,-0.001633726162150753,-1.164714928288669e-05,0.0001204615558925157
423159000000,4324,423159000000,FR_wheel_link,-0.0008404682438739473,0.005444142223634664,-0.0032433739343534092,-1.709100523519721e-05,-3.363635280953599e-05,-5.9087983078060524e-05
423160000000,4325,423160000000,FR_wheel_link,0.39190339310556954,22.90787327506343,-17.091305010571613,0.347384695092853,0.02362415241438695,0.03910132657039063
423161000000,4326,423161000000,FR_wheel_link,0.00433872522251294,-0.004319192868368286,-0.009598616739915954,0.0014090204937732,-0.00032438813715195337,0.00040016851880970007
423162000000,4327,423162000000,FR_wheel_link,0.051760245484785375,0.15710007354026717,-0.29256923019118464,0.009041048976111467,0.003754521351104698,0.005794181770060981
423163000000,4328,423163000000,FR_wheel_link,-1.2346936386595795,23.54051928543835,-15.254020195701976,0.16457488867403305,-0.06555584275261002,-0.11078167628878624
423164000000,4329,423164000000,FR_wheel_link,-1.475621873248321,2.235449735518448,0.241882001803194,-0.145891928514845,-0.0822306376830016,-0.13915224108092872
423165000000,4330,423165000000,FR_wheel_link,0.5776592829425486,12.422095855385615,-10.32425884707022,0.2800229434989637,0.030352539727913436,0.052394656402809325
423166000000,4331,423166000000,FR_wheel_link,0.021339255614245912,-0.0422612304796322,-0.04189173380824376,0.006106355823193539,0.0026916696307153314,0.004518551411695998
423167000000,4332,423167000000,FR_wheel_link,-3.284461315026846,13.640208364848263,-4.266633559378164,-0.31107158536804325,-0.16941071122439097,-0.2928284491024915
423168000000,4333,423168000000,FR_wheel_link,0.15930723199811592,14.569923940273515,-12.518581589479387,0.3499447444932966,0.00013371585438993333,0.00430330160010442
423169000000,4334,423169000000,FR_wheel_link,0.057082545238031045,-0.06312275583294238,-0.0318187472615651,0.003891874949555563,0.0034971477001085995,0.005782143064066714
423170000000,4335,423170000000,FR_wheel_link,-0.6377699813186393,18.25894121973537,-11.941186489306144,0.13365912010723602,-0.03367558218388623,-0.05531588871442025
423171000000,4336,423171000000,FR_wheel_link,-1.0684149264704617,2.434164783272158,-0.11128882467350004,-0.1223214491747025,-0.05780769798014083,-0.09880430296822726
423172000000,4337,423172000000,FR_wheel_link,0.9111923061090246,12.783987530202365,-11.006906393022996,0.3232098076013245,0.04926579529936303,0.0843916452336186
423173000000,4338,423173000000,FR_wheel_link,0.04495131990687122,-0.08369198813235931,-0.016962626857792974,0.005057912552914802,0.002742233420692279,0.004444954357292038
423174000000,4339,423174000000,FR_wheel_link,-0.6337839401257783,19.586766695567515,-13.101392614964123,0.16726923607460356,-0.03321232540414819,-0.05601465492227105
423175000000,4340,423175000000,FR_wheel_link,-0.7518820600480349,1.6967806637954483,-0.08441230546422326,-0.08442545398130857,-0.040717459565916825,-0.06956913668444833
423176000000,4341,423176000000,FR_wheel_link,0.6692154712003067,12.04526777744411,-10.017277054307282,0.2725295097839126,0.036559369833813034,0.06217913904498476
423177000000,4342,423177000000,FR_wheel_link,0.027703453387440242,-0.04547429132465709,-0.05339402177594342,0.0069179449717543225,0.0034034908993886455,0.005453735733487055
423178000000,4343,423178000000,FR_wheel_link,-1.6291152732535936,18.376235112836923,-12.596527752298249,0.1874417576390566,-0.08616094563051176,-0.14917794267243784
423179000000,4344,423179000000,FR_wheel_link,-1.3338468161377153,0.7733052609273913,-1.0898726615998051,0.05735674482995816,-0.07664963702750412,-0.12841491152134596
423180000000,4345,423180000000,FR_wheel_link,0.12023142885481862,0.31444224897731843,-0.6490673061966835,0.02018894936782846,0.009032284105427918,0.012379840780068097
423181000000,4346,423181000000,FR_wheel_link,-1.7639872085998114,22.53692291020725,-15.07252122100939,0.22148719623536164,-0.09594569942605437,-0.16044958783415422
423182000000,4347,423182000000,FR_wheel_link,-1.426863954836446,2.55943292398719,0.26944247079479866,-0.16691154829167992,-0.07829734561399637,-0.13324468104763681
423183000000,4348,423183000000,FR_wheel_link,0.6623570246599968,12.544734223838473,-10.568208594965084,0.2968249908687513,0.03465201621883108,0.06069517416571879
423184000000,4349,423184000000,FR_wheel_link,0.03569698137261053,-0.0775427708362837,-0.01103341185275356,0.004240901949251714,0.0021316026592539373,0.0035280830695822076
423185000000,4350,423185000000,FR_wheel_link,-0.677888447280691,20.118136259297632,-13.488794235774515,0.17392467677464096,-0.03618155557338893,-0.06047987058536845
423186000000,4351,423186000000,FR_wheel_link,-0.758045310430409,1.6273086087177973,-0.06768682106072599,-0.08228712577609695,-0.0412416179545709,-0.0703312260860741
423187000000,4352,423187000000,FR_wheel_link,0.4924827092431743,11.708982114704462,-9.490879093730754,0.2401679959359626,0.026562066110023822,0.04520531223866568
423188000000,4353,423188000000,FR_wheel_link,-0.001730916706818416,-0.027639690501979078,-0.016899188870340053,0.007265582909880084,0.003475620458186213,0.005488472585406222
423189000000,4354,423189000000,FR_wheel_link,-1.0553857445634431,19.700256618916598,-12.569371126150475,0.11547233630928588,-0.05577238785012452,-0.0946754204528577
423190000000,4355,423190000000,FR_wheel_link,-1.3823369002478938,2.392388774006571,0.1437397085658535,-0.14532898144245948,-0.07628570678306319,-0.1295629483124551
423191000000,4356,423191000000,FR_wheel_link,0.7335150475882992,12.691660168670875,-10.726650154664497,0.3022505360136329,0.039370093607208154,0.06738141543948274
423192000000,4357,423192000000,FR_wheel_link,0.037407107977079315,-0.07450511952392849,-0.013473739754685486,0.00431901554408799,0.0022805260221834696,0.0036782636203832
423193000000,4358,423193000000,FR_wheel_link,-0.6708755982443417,20.121248533402092,-13.462265986547703,0.17039887327716136,-0.03546118903973393,-0.060034439425363975
423194000000,4359,423194000000,FR_wheel_link,-0.7456932425218232,1.6538563366777357,-0.07077189989827251,-0.08347967695064225,-0.04043936256147149,-0.06907367586311922
423195000000,4360,423195000000,FR_wheel_link,0.53625095577075,11.867416690897729,-9.65814511138705,0.24869349541328573,0.02920977715688007,0.04963060274963513
423196000000,4361,423196000000,FR_wheel_link,0.023218877765004566,-0.030700804978327535,-0.06252945841499828,0.007000833901873151,0.0034242218751766736,0.0054098760804226955
423197000000,4362,423197000000,FR_wheel_link,-1.0126036129237086,20.09352747856213,-12.899805172402983,0.12564419806052696,-0.053369803879753826,-0.09052756129258674
423198000000,4363,423198000000,FR_wheel_link,-1.2512290127598733,2.09730272689216,0.180241227075018,-0.13288974416604846,-0.06912015151300796,-0.1173701057352168
423199000000,4364,423199000000,FR_wheel_link,0.36536110425894197,11.06427473404085,-9.768091711982258,0.31286279636456793,0.014617926501152491,0.02842901695675487
423200000000,4365,423200000000,FR_wheel_link,0.066623065892793,-0.03163442838122177,0.00013019557865490573,0.0017369349059096267,0.004037193245665175,0.00666388318595343
423201000000,4366,423201000000,FR_wheel_link,-1.696243483357824,18.13244310923272,-13.260969137573982,0.2532585618743896,-0.0879721007674792,-0.1556185204043549
423202000000,4367,423202000000,FR_wheel_link,-0.04693648447351032,0.018368574178368707,-0.034685987629269374,0.0015477375505843,-0.0029535304046208735,-0.004997646306867019
423203000000,4368,423203000000,FR_wheel_link,0.16063712395514962,11.517766884941132,-9.697038249898593,0.27993722084693723,0.006601816775925973,0.01310640163983829
423204000000,4369,423204000000,FR_wheel_link,0.01612264903207901,-0.017688774715965278,-0.027733277945625558,0.00327984179034394,0.0010438314254327622,0.0017099431280494788
423205000000,4370,423205000000,FR_wheel_link,-0.5450392444756806,21.052260764319225,-14.558936810963065,0.21953798869514063,-0.029432939623269882,-0.04949925575232135
423206000000,4371,423206000000,FR_wheel_link,-0.7673790643935641,1.6660489616485095,-0.10583846775660607,-0.08115738665578628,-0.041993638685200646,-0.07157990908222314
423207000000,4372,423207000000,FR_wheel_link,0.37344297126470805,10.52908188333006,-8.412573273189668,0.20758453020623496,0.02079982767718738,0.035481140732188596
423208000000,4373,423208000000,FR_wheel_link,0.02804712665389659,-0.032622456710702775,-0.02721507225699102,0.003972940278981154,0.0017314061792949263,0.002872506052821727
423209000000,4374,423209000000,FR_wheel_link,-0.5176721456228908,22.730507162329808,-15.714928132239475,0.2355930909031367,-0.027724524464053085,-0.04683205466737829
423210000000,4375,423210000000,FR_wheel_link,-0.3246075328172927,0.6983857796856765,0.01486800583584555,-0.03992275981918547,-0.01755541843234681,-0.030044271710658755
423211000000,4376,423211000000,FR_wheel_link,0.09070424230576364,0.29470470716520464,-0.542021875229417,0.016004962661382852,0.006220514924132394,0.009838284857703638
423212000000,4377,423212000000,FR_wheel_link,-3.5375280340397364,16.538779115794338,-6.074287501823435,-0.2829847335359452,-0.18111597571687638,-0.31314077170387666
423213000000,4378,423213000000,FR_wheel_link,0.10890848159444788,15.042081002844167,-12.967134370523139,0.3677646241525981,-0.00384781035248407,-0.0013050417078870752
423214000000,4379,423214000000,FR_wheel_link,0.04973936255344003,-0.07153524874459136,-0.026326233188567562,0.003339925476059974,0.0030124336162091325,0.005051877005271445
423215000000,4380,423215000000,FR_wheel_link,-0.6489237453125298,17.56852206775848,-11.502165118693473,0.1306502964555337,-0.03448022232153486,-0.05633098400552186
423216000000,4381,423216000000,FR_wheel_link,-1.2495941622802844,2.834981093728561,-0.15543804597580219,-0.13996317041641715,-0.06770579729012101,-0.11566006605413968
423217000000,4382,423217000000,FR_wheel_link,0.9122106731507436,12.865096236151444,-11.099426804318137,0.3275654138767137,0.04922579381613165,0.08452793156310891
423217000000,4383,423218000000,FR_wheel_link,0.04488551423910206,-0.0855965517899169,-0.016307847541036723,0.005099689826530142,0.002749614852548838,0.004466053998747272
423219000000,4384,423219000000,FR_wheel_link,-0.6616308232261705,19.387964063600975,-12.895355383553298,0.15948159351154875,-0.03456893310894725,-0.0582982535980326
423220000000,4385,423220000000,FR_wheel_link,-0.8155475752378624,1.79605172722173,-0.07403023137496986,-0.09088906371812143,-0.044239255038156206,-0.07554372547083046
423221000000,4386,423221000000,FR_wheel_link,0.7046317125588972,12.149030971631827,-10.157056054993376,0.2797413408952794,0.03850836550294894,0.0655155580589544
423222000000,4387,423222000000,FR_wheel_link,0.024497602241484152,-0.05212530487858555,-0.04076376045062814,0.006699099786669569,0.0033435148937334207,0.005358152326238945
423223000000,4388,423223000000,FR_wheel_link,-0.956453048820106,19.474594299187572,-12.519458561044532,0.12351368700550298,-0.05008593967662335,-0.08502448108505223
423224000000,4389,423224000000,FR_wheel_link,-1.2865152206837225,2.273011531775488,0.11938781651857475,-0.13632109065527984,-0.07088591795279839,-0.12044481063159836
423225000000,4390,423225000000,FR_wheel_link,0.8028112402826655,12.662219308587638,-10.792617775385725,0.3100733531629897,0.04328141043594417,0.07401060442120512
423226000000,4391,423226000000,FR_wheel_link,0.04031347656397985,-0.07772218526795022,-0.014982403844576185,0.004660455390906062,0.002464951545751913,0.003979493252192473
423227000000,4392,423227000000,FR_wheel_link,-0.6539274105338162,19.976597154771245,-13.370105512104256,0.17012761858119946,-0.034446209267087524,-0.058292166014384986
423228000000,4393,423228000000,FR_wheel_link,-0.7375798150951758,1.6492326198641079,-0.07640695320982924,-0.0825959283988533,-0.039973785698815864,-0.06828597659602334
423229000000,4394,423229000000,FR_wheel_link,0.5749185488727617,11.925634826505561,-9.766590443033147,0.2557945912011217,0.03139952068116551,0.0533625458564002
423230000000,4395,423230000000,FR_wheel_link,0.02952159095419959,-0.03302954807974382,-0.06827188259207977,0.007018525799473474,0.003393983628297368,0.005406154866769507
423231000000,4396,423231000000,FR_wheel_link,-0.9959292657539756,20.09917482537868,-12.918387223527024,0.12721060065829348,-0.05238881786833042,-0.08886914506353102
423232000000,4397,423232000000,FR_wheel_link,-1.2254513466190806,2.0549698533198093,0.17652134173112033,-0.13016936224343273,-0.0677040891941268,-0.11494640428543446
423233000000,4398,423233000000,FR_wheel_link,0.4271782962901529,12.066390853834836,-10.298035504418838,0.2967225971626748,0.021830536978123725,0.03714786446910742
423234000000,4399,423234000000,FR_wheel_link,0.06271332723552438,-0.021214930605385315,-0.03315614440484228,0.003946562410759299,0.00391432165967635,0.0064734808375763115
423234000000,4400,423235000000,FR_wheel_link,-2.0536176836713844,17.564113463787987,-13.2785910183101,0.29149646240463895,-0.10954897691016433,-0.19003312075955284
423236000000,4401,423236000000,FR_wheel_link,-0.060631391746916036,0.005486006048021545,-0.036038611215648296,0.0027643065376275434,-0.003961938380272464,-0.0065728006596944746
423237000000,4402,423237000000,FR_wheel_link,0.10262355775850374,10.828311424131881,-9.458606539641984,0.2967364423285364,0.0021600987691799724,0.00661298653762054
423238000000,4403,423238000000,FR_wheel_link,0.01866797645389494,-0.034243475641397216,-0.029799683209470566,0.004350922591791535,0.0011750950568287697,0.0019389322016247176
423239000000,4404,423239000000,FR_wheel_link,-0.6238980770359532,21.356530210499265,-14.677374489622535,0.2150619565179083,-0.03404406276955552,-0.0570442785068158
423240000000,4405,423240000000,FR_wheel_link,-0.618053012510652,1.2857344675240119,-0.08328285410372041,-0.061748688107118616,-0.03385846987048485,-0.05758287947850825
423241000000,4406,423241000000,FR_wheel_link,0.4088639694815215,10.821459018780738,-8.690497867383897,0.21754829231583633,0.022903393033811826,0.038950163997428004
423242000000,4407,423242000000,FR_wheel_link,0.02950764495583836,-0.03462086293883512,-0.027419119192877376,0.004135081766233866,0.0018416980722709276,0.0030229824173163143
423242000000,4408,423243000000,FR_wheel_link,-0.5762441355893602,22.235709457988214,-15.237850269023076,0.21879680292428372,-0.03088250756379623,-0.05219325383021276
423244000000,4409,423244000000,FR_wheel_link,-0.47134485532825754,0.9441601988996615,0.0025931753988524403,-0.05184943615241197,-0.02575331121704967,-0.04386880147214973
423245000000,4410,423245000000,FR_wheel_link,0.3961139208047877,10.422699377872165,-8.302003621776377,0.2033718772291924,0.02238546447944309,0.037873769677359205
423246000000,4411,423246000000,FR_wheel_link,0.02780755383653685,-0.03041747140919852,-0.025694529528709938,0.0037713544025869228,0.001729175217166356,0.0028409991609216565
423247000000,4412,423247000000,FR_wheel_link,-0.44687437064144575,22.961515246603657,-15.99668772960826,0.24859734277437184,-0.023786079306038897,-0.04022409023457332
423247000000,4413,423248000000,FR_wheel_link,-0.1945974103291797,0.5076887058665066,-0.003914769116251195,-0.027640494996861182,-0.010314538663729878,-0.017787635809931576
423249000000,4414,423249000000,FR_wheel_link,0.21878836306799787,9.41094035016886,-7.260749827566711,0.16340542477512324,0.012348689157776472,0.021055652967554427
423250000000,4415,423250000000,FR_wheel_link,0.016070037303714056,-0.016639862600847266,-0.017053234684247,0.0024049273246562345,0.0009873925295234667,0.001651557758001046
423251000000,4416,423251000000,FR_wheel_link,-0.14588191251199767,25.099012199335522,-18.141908570528386,0.3268131339551446,-0.0069326160530476175,-0.012796173536987143
423252000000,4417,423252000000,FR_wheel_link,0.003761498907553399,-0.062459761928435435,0.0695961774869633,0.0014590733820119442,4.634873239659458e-05,0.001513911318789672
423253000000,4418,423253000000,FR_wheel_link,-0.00106673788539994,0.0018761354243921253,-0.0005569935164429073,-1.0543172438360038e-05,-6.417949576595048e-05,-9.827067373338911e-05
423254000000,4419,423254000000,FR_wheel_link,0.17653877304469034,23.847089434359418,-17.439154324121247,0.3303647475378258,0.012033405267579393,0.019055687651305164
423255000000,4420,423255000000,FR_wheel_link,-0.001677605189739249,0.05735054130348596,-0.04191372274378619,0.0010967801974883242,-0.0006253340873384043,-8.104821748361634e-06
423256000000,4421,423256000000,FR_wheel_link,-0.000604308044940063,-0.0005461198638717125,0.000747361413668207,-2.5655493998497015e-06,-3.169049952990778e-05,-4.236989249189492e-05
423257000000,4422,423257000000,FR_wheel_link,-0.028702079571930383,24.183200527175572,-17.98224476948624,0.36373834792280024,-0.000399961735633253,-0.001860264489612004
423258000000,4423,423258000000,FR_wheel_link,0.0168382561284997,0.032039832948198836,-0.008729468904687896,-0.0006086765286468703,0.0009690901524444613,0.0017106735378250373
423259000000,4424,423259000000,FR_wheel_link,0.05554864832938804,0.16023257415361786,-0.30136450685978866,0.009812769503071158,0.0031026745918780177,0.005816138937528293
423260000000,4425,423260000000,FR_wheel_link,-2.249160553312537,21.067031005685834,-14.73262667847937,0.2444328650319639,-0.1192322226913873,-0.20633263034761604
423261000000,4426,423261000000,FR_wheel_link,-1.1206958261388291,0.671695765736919,-0.9121515570779712,0.04633175037657625,-0.06454694205648334,-0.10872226609394932
423262000000,4427,423262000000,FR_wheel_link,0.13581053585138134,0.3317132150666897,-0.6844861960442677,0.021128344246459898,0.008971699018439513,0.013087070524214813
423263000000,4428,423263000000,FR_wheel_link,-1.805205335256038,23.149669204922866,-15.37283221020224,0.21625237952926227,-0.09880296335386786,-0.16450232110031013
423264000000,4429,423264000000,FR_wheel_link,-1.6136273343231298,2.381402103395086,0.2146984827193012,-0.15003513108137506,-0.09029484299124654,-0.15237332218924837
423265000000,4430,423265000000,FR_wheel_link,0.5242397499117946,12.407901056260316,-10.350730839793306,0.2844448746786012,0.02673875087024924,0.047345930399503244
423266000000,4431,423266000000,FR_wheel_link,0.012170923023642744,-0.055852175683504125,-0.01793173429747561,0.00599545123715056,0.002212789867810216,0.004207483532153113
423267000000,4432,423267000000,FR_wheel_link,-1.0658054512294042,19.29462181468508,-12.29795382585571,0.11228044532696319,-0.05647523295790069,-0.09555627707394658
423268000000,4433,423268000000,FR_wheel_link,-1.4178021826986837,2.513082833781868,0.1123109708299444,-0.14880628639052304,-0.07812774796995611,-0.13273670848781316
423269000000,4434,423269000000,FR_wheel_link,0.7387579848027959,12.721058874782571,-10.744411529250442,0.30235003507079344,0.03978965591429623,0.06810292238526636
423270000000,4435,423270000000,FR_wheel_link,0.03789938315366753,-0.07617681158049767,-0.012111434411027874,0.004239550099384328,0.002334581157801165,0.003760957336630362
423271000000,4436,423271000000,FR_wheel_link,-0.6731833873122701,19.95638906540735,-13.30580581366275,0.16506521830389823,-0.035307566411070995,-0.05987166963430722
423272000000,4437,423272000000,FR_wheel_link,-0.773565426673557,1.72162137725985,-0.06117847773710294,-0.0882609730231708,-0.04188154543720232,-0.0715939325135039
423273000000,4438,423273000000,FR_wheel_link,0.5667246488745787,11.897019676111737,-9.71288196749996,0.25227432482162127,0.03108571919991327,0.05275052368306446
423274000000,4439,423274000000,FR_wheel_link,0.027372825414937456,-0.03424656939912905,-0.06370999087254493,0.006905162726318242,0.0034471837385147133,0.0054495954360602224
423275000000,4440,423275000000,FR_wheel_link,-0.9893074139673841,20.020036015921917,-12.853720106425742,0.12539645531690732,-0.051900032105134844,-0.08810363694451082
423275000000,4441,423276000000,FR_wheel_link,-1.2307747633393193,2.0868867426397752,0.17810482875630254,-0.13217719760740912,-0.0679062898165125,-0.11536416670104864
423277000000,4442,423277000000,FR_wheel_link,0.7842272519828426,12.51052832051977,-10.654360032877477,0.305680958940614,0.042262502142980045,0.07227661001207424
423278000000,4443,423278000000,FR_wheel_link,0.04068474386504677,-0.07873176489587372,-0.014818419048993193,0.004671225656930863,0.002479196886622374,0.0040045844808217
423279000000,4444,423279000000,FR_wheel_link,-0.6077115561175015,20.112021582285497,-13.538983538032719,0.17816639293064548,-0.03191623488228602,-0.05400381501320506
423280000000,4445,423280000000,FR_wheel_link,-0.6738919908190336,1.5433359654085073,-0.0838805483448099,-0.07609614315965471,-0.03644936136256535,-0.06230998526227721
423281000000,4446,423281000000,FR_wheel_link,0.54474967771201,11.783827503916093,-9.599193763052247,0.24778170823069304,0.02982504066049549,0.05064826783816362
423282000000,4447,423282000000,FR_wheel_link,0.019840927267290948,-0.034070653823198724,-0.05192975640213645,0.00714726779067894,0.003437831162636761,0.0054760500876466596
423283000000,4448,423283000000,FR_wheel_link,-3.2664220270922906,13.747713670316545,-4.354736944514836,-0.30771083687941425,-0.1682204784757388,-0.29086454556550123
423284000000,4449,423284000000,FR_wheel_link,0.2063518365515722,14.104402146326613,-12.37044467027884,0.36117779345064815,0.002524500740704254,0.008160445657487594
423285000000,4450,423285000000,FR_wheel_link,0.06420773192093442,-0.042673381696883235,-0.04314903840075336,0.004090279954901186,0.003996554876769094,0.006605627993861555
423286000000,4451,423286000000,FR_wheel_link,-0.6005011883218065,18.75516862453701,-12.278664021544827,0.13840114874834258,-0.03170870327572394,-0.0516160087585969
423287000000,4452,423287000000,FR_wheel_link,-0.9882633158456982,2.233570180240292,-0.0737582260400299,-0.11507555590754183,-0.05345386538458744,-0.09137638655500581
423288000000,4453,423288000000,FR_wheel_link,0.5946912598496397,12.271139049586889,-10.594709264794268,0.3139777554680244,0.031146318344178685,0.05347357072695927
423289000000,4454,423289000000,FR_wheel_link,0.06348854523256749,-0.04472653689803288,-0.023295966762810892,0.003981003312468114,0.003931615606065379,0.0064519567750967455
423290000000,4455,423290000000,FR_wheel_link,-1.6818425730372288,17.702287134049573,-13.031688159002819,0.26115878737331977,-0.08937481764090549,-0.15496598486674382
423291000000,4456,423291000000,FR_wheel_link,-0.05136990742874122,-0.0004222328790868448,-0.04071459335346546,0.0029114163901132026,-0.0033364340911006376,-0.005675821767721306
423292000000,4457,423292000000,FR_wheel_link,0.13254088583831658,11.158575611474063,-9.637863373290772,0.2963927554502268,0.00457091869027397,0.01019526328768907
423293000000,4458,423293000000,FR_wheel_link,0.0166149185284286,-0.024378037910755834,-0.02713073938461296,0.003608806207978837,0.0010787736813491794,0.0017700827570938092
423294000000,4459,423294000000,FR_wheel_link,-0.551349143757407,20.921853527580154,-14.460890615381057,0.21800948147854757,-0.029705725789877648,-0.04994520042137147
423295000000,4460,423295000000,FR_wheel_link,-0.7197235152654695,1.591737308231761,-0.12141504987234109,-0.07539777583390687,-0.039268387530871945,-0.0669562415812039
423296000000,4461,423296000000,FR_wheel_link,0.3666781991664041,10.627251605505652,-8.483321260471685,0.2089639304840465,0.020560851942845973,0.03500364926861135
423297000000,4462,423297000000,FR_wheel_link,0.027353015840510805,-0.03258380863210256,-0.026250938776023164,0.0039293503726652215,0.0017046617160483804,0.0028171190050679668
423298000000,4463,423298000000,FR_wheel_link,-0.5569137883067556,22.57638552581449,-15.530931110129208,0.22706659663870818,-0.029805051009777515,-0.050414315191016794
423299000000,4464,423299000000,FR_wheel_link,-0.009174034505362784,0.01766500630302976,0.008846313850500567,-0.0015086099967651693,-0.0005507304723499207,-0.0008663063280934078
423300000000,4465,423300000000,FR_wheel_link,0.41914449619852556,10.567538060947536,-8.368312090539227,0.20252958391155557,0.023760839363047237,0.0400964144383993
423301000000,4466,423301000000,FR_wheel_link,0.017724730390074155,-0.01076907713414433,-0.02076856819683414,0.0024076024509577013,0.0011542822872218333,0.0018552941235127187
423302000000,4467,423302000000,FR_wheel_link,-0.3541047327373956,23.277040597681776,-16.421438341290855,0.26927763720680153,-0.01867387476823958,-0.03171270697306251
423303000000,4468,423303000000,FR_wheel_link,-0.04362262128118546,0.3072333224037549,-0.07911909990147988,-0.009443779994034797,-0.0021084295375113273,-0.003797753470441813
423304000000,4469,423304000000,FR_wheel_link,-1.3687303550454084,5.089934741943876,-1.3578102369147835,-0.14052412158200803,-0.07129890671541102,-0.12308728179905343
423305000000,4470,423305000000,FR_wheel_link,0.9425532299959909,16.00817574800234,-13.701015143058651,0.39305942192715626,0.0486746379454505,0.08426037442311891
423306000000,4471,423306000000,FR_wheel_link,0.05259276737973362,-0.10050912139744475,-0.025176048177278712,0.006037153108339234,0.003158566296165702,0.005112011088724772
423307000000,4472,423307000000,FR_wheel_link,-0.668851393491992,18.134247810859783,-11.959213066046315,0.1421753505207492,-0.03497165840008058,-0.058983388229334424
423308000000,4473,423308000000,FR_wheel_link,-0.956784525308135,2.167582382647712,-0.14053267862302987,-0.10418833136306523,-0.05197040654335499,-0.08866160981324644
423309000000,4474,423309000000,FR_wheel_link,0.9739198991946174,12.975864445097887,-11.280850808460785,0.33766455880950363,0.05214247957794208,0.08942290731996325
423310000000,4475,423310000000,FR_wheel_link,0.047110531519084925,-0.082172911425495,-0.021796723429198625,0.005554075134411927,0.0028471519830665496,0.004614201959324068
423311000000,4476,423311000000,FR_wheel_link,-1.0785049126254451,18.59324313806405,-12.871979315886094,0.20272890231542912,-0.059353959252012714,-0.10034421754052682
423312000000,4477,423312000000,FR_wheel_link,-1.246822157610353,1.0625950567546947,-1.02365431500277,0.037163513562846244,-0.070862608336089,-0.11798175698663652
423313000000,4478,423313000000,FR_wheel_link,0.08556341367102886,0.3252982441316774,-0.6303283442256548,0.017824656087750617,0.007480420900269786,0.008968570022703546
423314000000,4479,423314000000,FR_wheel_link,-1.785253364496584,22.35595696240298,-15.184411136725068,0.23100297317293825,-0.09294289044253161,-0.160689288488035
423315000000,4480,423315000000,FR_wheel_link,-1.3735999958279066,2.4174316290254514,0.14440071213790104,-0.146108348889917,-0.07565400632842614,-0.12847491472061284
423316000000,4481,423316000000,FR_wheel_link,0.6385392032964545,12.361822254423904,-10.743639629845944,0.32370450606495726,0.032048437405239515,0.05705081313149786
423317000000,4482,423317000000,FR_wheel_link,0.05599190831371127,-0.06616603340415109,-0.023018894098377894,0.004777597851480574,0.003347816544517046,0.005600200696404638
423318000000,4483,423318000000,FR_wheel_link,-0.8917785312641113,19.332709733519682,-13.264886346994853,0.20060607620287693,-0.05029143722590528,-0.08267034349822275
423319000000,4484,423319000000,FR_wheel_link,0.013709758517256549,0.09529599274924921,0.00813515981370388,-0.0052609127941824875,0.0009703852092161285,0.0016790503325445326
423320000000,4485,423320000000,FR_wheel_link,0.7199850529625662,12.384520655121463,-10.667325614691235,0.32204015676466063,0.03808679389575212,0.06588126787603947
423321000000,4486,423321000000,FR_wheel_link,0.02347649859104773,-0.07971267509150191,0.03805814389790341,0.004041334517029089,0.0005954804691633933,0.0023879145891426276
423322000000,4487,423322000000,FR_wheel_link,-0.6569095225840815,17.608959083499155,-11.71159001590043,0.14047209574579,-0.03282418875906201,-0.05865059748514057
423323000000,4488,423323000000,FR_wheel_link,-0.02171745258861467,0.08355193059384462,-0.007707611362311906,-0.0035328238321908497,-0.0011838075931349945,-0.0020025497554743256
423324000000,4489,423324000000,FR_wheel_link,0.7769481949001844,13.823939169341688,-11.29724105691513,0.2941979781752331,0.04324425586688524,0.07260948920703184
423325000000,4490,423325000000,FR_wheel_link,0.030473427408619656,-0.0658887409584537,-0.0037894979757824195,0.00309698235133843,0.0018464799720917966,0.0029329636238558097
423326000000,4491,423326000000,FR_wheel_link,-0.591744751707763,20.592896100617473,-13.977744097435679,0.1896456658850908,-0.03172257044267997,-0.053897987080730514
423327000000,4492,423327000000,FR_wheel_link,-1.0925803316881113,3.6875989499315285,0.3315847987926883,-0.3126906004041921,-0.05407985786400885,-0.09659214793553338
423328000000,4493,423328000000,FR_wheel_link,-2.6499946429607317,19.730181895061836,-5.2353409955594365,-0.7067314290549604,-0.13843386663293572,-0.2412502165362682
423329000000,4494,423329000000,FR_wheel_link,-8.393521801887694,21.21205705349412,1.2303737633083398,-1.377768222952977,-0.44273486327531,-0.7660978029433364
423330000000,4495,423330000000,FR_wheel_link,-11.071925290029949,21.804847066265154,0.5071888518007541,-1.2460117854479469,-0.603470467791436,-1.0284189754285806
423331000000,4496,423331000000,FR_wheel_link,-7.11297127234934,22.919082278906835,-8.328409852258346,-0.48227272237053,-0.4127465757307126,-0.6818020006325646
423332000000,4497,423332000000,FR_wheel_link,-5.229400681752079,13.579233048897574,-3.607283629195198,-0.40411204747787327,-0.29723264626963963,-0.49724922113262693
423333000000,4498,423333000000,FR_wheel_link,-6.024618886590868,11.94231364764108,-0.539838932604914,-0.6000465197529482,-0.3301304309909773,-0.5611245040348704
423334000000,4499,423334000000,FR_wheel_link,-3.0169401345028795,18.507433071488805,-10.416025170821767,-0.04986366134303938,-0.17516958207218306,-0.28972873053697945
423335000000,4500,423335000000,FR_wheel_link,0.2505541635823775,-0.6700692974988512,1.4849903362552306,-0.055617500566431444,0.008923965232218119,0.020739028500750017
423336000000,4501,423336000000,FR_wheel_link,-0.4464698255337592,-0.6113739732889177,-0.22354861149784297,0.00576025470408097,0.00017641786487003215,-0.0027205177190152163
423337000000,4502,423337000000,FR_wheel_link,-0.09944644793480976,-0.3220951395345033,-0.19940444944618763,0.008317033785310323,0.0035931580432315004,0.012387497425049502
423338000000,4503,423338000000,FR_wheel_link,-0.24109317532872235,-0.5466617211319077,0.30821889816529136,-0.009957195463585667,0.0038532768974932742,0.002179237258072256
423339000000,4504,423339000000,FR_wheel_link,-0.22481161094156585,-0.3249899834944828,-0.3317538248494426,0.01143848011842336,0.008577301164629339,0.011966803302671743
423340000000,4505,423340000000,FR_wheel_link,-0.24476265685812765,-0.49099011801966175,0.3420122837765103,-0.010701974115212223,0.00368614804564808,0.0002677546615248475
423341000000,4506,423341000000,FR_wheel_link,-0.20358791169488072,-0.29090821740011014,-0.22834900164663685,0.009228856172886504,0.007424104979631164,0.010753040914611475
423342000000,4507,423342000000,FR_wheel_link,-4.981724504721804,18.699814271538184,-5.648692369194881,-0.44945775480318867,-0.2591224998784197,-0.4456100327067387
423343000000,4508,423343000000,FR_wheel_link,-1.914414767551878,17.74253859543976,-12.290581813571038,0.15564502436706076,-0.12125771636261706,-0.19407883799371414
423344000000,4509,423344000000,FR_wheel_link,-0.030592097359551554,0.009331474317664743,0.009848471144196675,-0.0034059896497850195,-0.002364816581080719,-0.0031600666310712096
423345000000,4510,423345000000,FR_wheel_link,-3.737733804314864,13.522185615682746,-3.7273962634940965,-0.36303138783917405,-0.19588379752706492,-0.3369719742243182
423346000000,4511,423346000000,FR_wheel_link,-0.6108663910382317,15.974192162894091,-12.324483053864881,0.25716576180047657,-0.04375815696496847,-0.06719139362579132
423347000000,4512,423347000000,FR_wheel_link,-4.613470786587018,18.173495912277374,-6.868631361524363,-0.8514636833325276,-0.327481618082892,-0.3462311298433381
423348000000,4513,423348000000,FR_wheel_link,0.036921603566104966,0.958317043813055,-1.152604406609885,0.005203124200784849,-0.010739747483551903,6.9814946827905e-05
423349000000,4514,423349000000,FR_wheel_link,-5.547558881894927,19.916972476763316,-8.340755229610378,-0.8594165111828529,-0.40124805765925287,-0.4199057790532338
423350000000,4515,423350000000,FR_wheel_link,0.004627263368185919,1.0078834328124537,-1.2567218319500446,0.009405973591263637,-0.012561997422676111,-0.0015302024746906722
423351000000,4516,423351000000,FR_wheel_link,-5.837846240797193,20.164172455361168,-8.771601339036074,-0.84141781387826,-0.42507132649326373,-0.4433134605220216
423352000000,4517,423352000000,FR_wheel_link,-0.01912334947651373,1.0101341369535697,-1.2641442096628743,0.011048569088249421,-0.013581437519826397,-0.002342619136699274
423353000000,4518,423353000000,FR_wheel_link,-5.922866884407821,20.04070516275121,-8.83068422608054,-0.8263243479905737,-0.43251049580483386,-0.4503819003418733
423354000000,4519,423354000000,FR_wheel_link,-0.034520507424338154,0.9949831230013955,-1.2413936575095255,0.011493151048200626,-0.013824001507110323,-0.002565043793140716
423355000000,4520,423355000000,FR_wheel_link,-5.899687779982601,19.80232756034261,-8.758097302922067,-0.8136640446380399,-0.4311668575973907,-0.44877210840430104
423356000000,4521,423356000000,FR_wheel_link,-0.04315087077775376,0.9760427343389798,-1.2133091501318995,0.011467266567896133,-0.013560557076134318,-0.0024209030241328852
423357000000,4522,423357000000,FR_wheel_link,-5.8258855236896565,19.55663750370914,-8.654018217278109,-0.8032496821802804,-0.4256194747313454,-0.4430570873936768
423358000000,4523,423358000000,FR_wheel_link,-0.047190698613741255,0.9587204221219583,-1.188837046242885,0.011314752146294111,-0.0130639494874337,-0.0021066174038032017
423359000000,4524,423359000000,FR_wheel_link,-5.738167953364869,19.341382488912778,-8.559766632169547,-0.794430196943357,-0.418853949333231,-0.4361820397724979
423360000000,4525,423360000000,FR_wheel_link,-0.04842622900521759,0.9447664385496248,-1.1703367468265744,0.01116322944814586,-0.012517079896360738,-0.0017488387803941989
423361000000,4526,423361000000,FR_wheel_link,-5.65591152814769,19.17034700053778,-8.487644341754597,-0.7871926284842201,-0.4124432580809931,-0.4296995902798227
423362000000,4527,423362000000,FR_wheel_link,-0.04820519447268529,0.9342268174123165,-1.1575190348275466,0.011054214198471067,-0.012023729130514069,-0.001423137174195481
423363000000,4528,423363000000,FR_wheel_link,-5.5867484207411,19.042077513434943,-8.43809612010064,-0.7813660576661539,-0.40701991563143275,-0.42422782756479394
423364000000,4529,423364000000,FR_wheel_link,-0.04744865024173933,0.926508791773581,-1.1492303712633904,0.010993042914098443,-0.011630539989444896,-0.0011668288475771749
423365000000,4530,423365000000,FR_wheel_link,-5.535818642024774,18.948374628650388,-8.408676374078807,-0.7764888044898781,-0.40303105660178495,-0.42019288933859317
423366000000,4531,423366000000,FR_wheel_link,-0.04650219166484609,0.9210353898607693,-1.1441837138605258,0.010955315554634162,-0.011334820635034323,-0.000977054117909754
423367000000,4532,423367000000,FR_wheel_link,-5.499593949591704,18.882991609306032,-8.393643726174329,-0.7725773173610893,-0.4001909333753273,-0.41731291867600445
423368000000,4533,423368000000,FR_wheel_link,-0.04561912414149366,0.9171598330270505,-1.1413081947851929,0.010928618032947627,-0.011123404145268813,-0.0008477835479330655
423369000000,4534,423369000000,FR_wheel_link,-5.475229434899754,18.838370716322874,-8.38859532678223,-0.7694205936452505,-0.39828032377250716,-0.41536597071088077
423370000000,4535,423370000000,FR_wheel_link,-0.04487198893350841,0.914389179722918,-1.1398245375799685,0.010906843446132023,-0.010981672711791943,-0.0007669648121972269
423371000000,4536,423371000000,FR_wheel_link,-5.459777860448614,18.808241491209014,-8.390196342965837,-0.766817710603197,-0.3970696730919377,-0.4141209866508527
423372000000,4537,423372000000,FR_wheel_link,-0.044237606020174236,0.912357351058905,-1.1392665637478112,0.0108845239032296,-0.010888618568331263,-0.0007211814609067941
423373000000,4538,423373000000,FR_wheel_link,-5.450316594297359,18.787950385576206,-8.396127341789214,-0.7646088420076719,-0.39632848041180324,-0.4133473110227516
423374000000,4539,423374000000,FR_wheel_link,-0.04366853633118134,0.9108051958276578,-1.139310203727314,0.010860923269305364,-0.010827507628800864,-0.000697747498869713
423375000000,4540,423375000000,FR_wheel_link,-5.444497108854857,18.77385566218377,-8.404778215946147,-0.7626509444924349,-0.39587198133208984,-0.41285980357354635
423376000000,4541,423376000000,FR_wheel_link,-0.045762864506928846,0.9079360794973761,-1.1344555438487265,0.010814437135013217,-0.01083365961415291,-0.00071803630615434
423377000000,4542,423377000000,FR_wheel_link,-5.447486588517007,18.74923083334106,-8.401380192908173,-0.7608407525327552,-0.3961535320798934,-0.41309064443381527
423378000000,4543,423378000000,FR_wheel_link,-0.045899066368776276,0.9062494943703712,-1.1335199284154094,0.010712790920053391,-0.010829489339722689,-0.0007677551381345186
423379000000,4544,423379000000,FR_wheel_link,-5.449839942811277,18.743709647399452,-8.407757396562783,-0.7597336965602343,-0.39633364860722725,-0.4132454390117783
423380000000,4545,423380000000,FR_wheel_link,-0.04569179016517533,0.9052043016911964,-1.1336080046564732,0.010630500553198901,-0.010821213459331276,-0.0007964475312949203
423381000000,4546,423381000000,FR_wheel_link,-5.451003060683991,18.741621163030384,-8.417454651536366,-0.7586261979460283,-0.3964110298035619,-0.41330153902931077
423382000000,4547,423382000000,FR_wheel_link,-0.045361222662750444,0.9043334140294741,-1.1340740137860896,0.01056805817739369,-0.010811175816940277,-0.000815522723937808
423383000000,4548,423383000000,FR_wheel_link,-5.451158400368541,18.738941885230908,-8.428440532563265,-0.7573680094624721,-0.3964109974890855,-0.4132788253469899
423384000000,4549,423384000000,FR_wheel_link,-0.05379240352724046,0.8987180888846514,-1.118265875195664,0.010417316708551762,-0.010806980537652855,-0.0008750922710721365
423385000000,4550,423385000000,FR_wheel_link,-5.464496946499135,18.692089331751713,-8.398745079859161,-0.7559920857166612,-0.397567362345708,-0.4143482323443264
423385000000,4551,423386000000,FR_wheel_link,-0.09074918970493806,0.8751895783353663,-1.0445966631309633,0.009642444647140888,-0.011028422332756728,-0.0013184731261563364
423387000000,4552,423387000000,FR_wheel_link,-5.541246465776231,18.517837831109887,-8.213340835335291,-0.7574329382392472,-0.4040736500089875,-0.420594879262591
423388000000,4553,423388000000,FR_wheel_link,-0.09998624915148657,0.864272962323945,-1.0156506422951392,0.00840950748818689,-0.011760364388318104,-0.002225772100463758
423389000000,4554,423389000000,FR_wheel_link,-5.635745869503903,18.552800433830647,-8.140050123584805,-0.7659765778256914,-0.41152829267059265,-0.4280419891669197
423390000000,4555,423390000000,FR_wheel_link,-0.10417284486454287,0.8636932156087774,-1.0071099239027805,0.007474849646593108,-0.012216934998186846,-0.0027965140466805964
423391000000,4556,423391000000,FR_wheel_link,-5.710172433190969,18.654111143378614,-8.129537895596155,-0.7745662877974963,-0.4172149352487093,-0.4338107068298022
423392000000,4557,423392000000,FR_wheel_link,-0.10627107244762324,0.8665040914299672,-1.005892050054519,0.006823118732311486,-0.012551487008358677,-0.0032012273670083084
423393000000,4558,423393000000,FR_wheel_link,-5.7687243578165575,18.75721414906544,-8.143079280441198,-0.7813251103960335,-0.42164041646233735,-0.4383188667993587
423394000000,4559,423394000000,FR_wheel_link,-0.10743335505917445,0.8698273934074348,-1.0073614309428502,0.006375749715292588,-0.012816664007145342,-0.0035033984721249646
423395000000,4560,423395000000,FR_wheel_link,-5.813916132708756,18.8425124397438,-8.164731807322296,-0.786032922211554,-0.4250508593663652,-0.4417889381831792
423396000000,4561,423396000000,FR_wheel_link,-0.10806998417205477,0.8725913995577117,-1.0096197893580767,0.0060709663034202565,-0.013023442615284094,-0.003727516740051214
423397000000,4562,423397000000,FR_wheel_link,-4.084754388983686,22.713943338753403,-14.5820760904277,-0.5868903326306258,-0.3048837699732472,-0.31179488972314384
423398000000,4563,423398000000,FR_wheel_link,-0.235758929975549,0.14321640278865158,0.10155048084426323,-0.01704057301958207,-0.018898213620096208,-0.018316141896555012
423399000000,4564,423399000000,FR_wheel_link,0.2580432768181781,0.4495983191673391,-1.0840843892757788,0.03023255450367061,0.01578673409490545,0.02166075808866377
423400000000,4565,423400000000,FR_wheel_link,-1.9622368495493143,23.387638655534527,-13.530750845468416,-0.719501513897744,-0.14694847986882345,-0.14926009365493428
423401000000,4566,423401000000,FR_wheel_link,-0.057670682410083704,0.03792256957364086,0.3940892640919475,-0.02947062055165152,-0.007872990068236762,-0.004031943467580648
423402000000,4567,423402000000,FR_wheel_link,0.18701311879752497,0.3172639303451801,-0.7696663679457009,0.022163914043443252,0.0102528760478209,0.01535180487504555
423403000000,4568,423403000000,FR_wheel_link,-0.9689786385265853,17.82531614235633,-5.0155986937011745,-0.9794895267905576,-0.050851668575080125,-0.06190756658534255
423404000000,4569,423404000000,FR_wheel_link,0.18786054956558101,0.8222600248590108,-0.9120898910999866,-0.0018001988852948039,0.006059282972683955,0.014931657117761189
423405000000,4570,423405000000,FR_wheel_link,-2.6621830763748107,17.868652995200797,-7.482431079404279,-0.77760160793932,-0.17568693685239384,-0.19327117581664477
423406000000,4571,423406000000,FR_wheel_link,0.030662983213275125,0.8171718602255078,-0.9715051007763351,0.006162687095328133,1.6916526893714923e-05,0.007967047344147203
423407000000,4572,423407000000,FR_wheel_link,-2.4560975429207135,18.14803533638193,-7.8816399460685975,-0.7603160527303154,-0.18089292213481467,-0.18787947236447897
423408000000,4573,423408000000,FR_wheel_link,0.0031442756965114893,0.7419126047842333,-0.8206989344244684,0.004312588885562662,0.00021657228636564598,0.007006321628411463
423409000000,4574,423409000000,FR_wheel_link,-3.774453798074443,16.891025958548756,-7.334801977593311,-0.7090381320212084,-0.26419835885225995,-0.28080098710243917
423410000000,4575,423410000000,FR_wheel_link,0.024105589766134805,0.8375069252770329,-1.1088595171434397,0.008833338795815741,-0.005486062500618125,0.0025748521489068798
423411000000,4576,423411000000,FR_wheel_link,-4.141889631198007,18.38210129643921,-8.493171634745499,-0.7245072771681723,-0.2986720527893421,-0.31306314818204506
423412000000,4577,423412000000,FR_wheel_link,0.01128324925882962,0.8690877845001164,-1.175725690697118,0.011037812953529411,-0.006913009487769677,0.0016785179209694437
423413000000,4578,423413000000,FR_wheel_link,-4.1555802374205175,18.745986167724695,-8.839519145486015,-0.7222979139116268,-0.30300387375878135,-0.3160273037751934
423414000000,4579,423414000000,FR_wheel_link,0.00030709714090615403,0.8621805933739182,-1.1548121952330475,0.011018806022072681,-0.007163520701031361,0.0014381884671883613
423415000000,4580,423415000000,FR_wheel_link,-5.019336715979183,18.220762542135724,-8.57678253752167,-0.7034079013615325,-0.36241922795855586,-0.37867322863865155
423416000000,4581,423416000000,FR_wheel_link,-0.006887429517106969,0.8896585532408199,-1.1940453528665218,0.012183250629899788,-0.008770680884709496,0.0007107639786239933
423417000000,4582,423417000000,FR_wheel_link,-5.203471300713817,18.44512427708816,-8.76261643558548,-0.7044643272078339,-0.3771389361998608,-0.3932475159196527
423418000000,4583,423418000000,FR_wheel_link,-0.017871111760034808,0.8939654346672301,-1.1959644265592881,0.01234054748164702,-0.00954320562801231,0.00011123157007997871
423419000000,4584,423419000000,FR_wheel_link,-5.299314651348398,18.498943546201502,-8.798849241139795,-0.7051399599946988,-0.38485710713981064,-0.4008510744172579
423420000000,4585,423420000000,FR_wheel_link,-0.025276556014834695,0.8927425134948698,-1.1888282095708123,0.01211868912745496,-0.009976703454290265,-0.000294080914073453
423421000000,4586,423421000000,FR_wheel_link,-5.349079112962036,18.51010994390026,-8.79180399916848,-0.7063440621186932,-0.38883010563388887,-0.4047698489307115
423422000000,4587,423422000000,FR_wheel_link,-0.030073353135772696,0.8897554799397067,-1.1801374693247146,0.01178010558598819,-0.010167720178001684,-0.0005276737648758611
423423000000,4588,423423000000,FR_wheel_link,-5.370663120075177,18.50383330498652,-8.772755989667656,-0.7073120436416093,-0.3905176964032662,-0.4064367354430135
423424000000,4589,423424000000,FR_wheel_link,-0.032853147422024886,0.8865844990103824,-1.1727063191805882,0.0114499841306965,-0.010215774864884723,-0.0006476849287239354
423425000000,4590,423425000000,FR_wheel_link,-5.376559625026463,18.491668512478135,-8.75499923958851,-0.707764289551128,-0.3909402508902806,-0.4068529674918758
423426000000,4591,423426000000,FR_wheel_link,-0.03427788237277146,0.8837454758996541,-1.167185869477623,0.01117416362492961,-0.010188604398767424,-0.0006997445472116573
423427000000,4592,423427000000,FR_wheel_link,-5.374554796432594,18.478055434446098,-8.74277533097568,-0.7076550719992352,-0.3907341254372987,-0.40664292987453077
423428000000,4593,423428000000,FR_wheel_link,-0.034829794464773356,0.8813557869311062,-1.1634752581821919,0.010963485874662367,-0.010131388505064674,-0.0007147166994200861
423429000000,4594,423429000000,FR_wheel_link,-4.026388961391161,19.261133722058734,-9.263126513352251,-0.7252600975772493,-0.30372635072298204,-0.3113670751278786
423430000000,4595,423430000000,FR_wheel_link,-0.013122642685132746,0.8100058513892661,-1.0165372601362694,0.007212553893517694,-0.005652379044990735,0.001957482134632344
423431000000,4596,423431000000,FR_wheel_link,-4.737305433583458,17.688306904505428,-8.107665211125607,-0.7020462740491415,-0.33940349397292596,-0.3558219114771116
423432000000,4597,423432000000,FR_wheel_link,-0.01414776285864966,0.8434589016439263,-1.1086561245901296,0.009313002120311782,-0.0068556783959061035,0.0014987457966926206
423433000000,4598,423433000000,FR_wheel_link,-4.9517906647809085,18.021004241900055,-8.469524762672641,-0.6963188064249263,-0.3567192977116445,-0.3728775885736704
423434000000,4599,423434000000,FR_wheel_link,-0.016498526142923353,0.858240499283925,-1.1443321502296828,0.010468437230013046,-0.007790092921298299,0.0009679915443193023
423435000000,4600,423435000000,FR_wheel_link,-3.892828915994001,18.849364271847605,-9.087894815478121,-0.7077909176511982,-0.2901651140529211,-0.29920780551813253
423436000000,4601,423436000000,FR_wheel_link,0.0012007835813163115,0.8103193837561041,-1.0398461066327425,0.007838208380855572,-0.004778644359396197,0.0028650019602448826
423437000000,4602,423437000000,FR_wheel_link,-4.637658388322208,17.63118961822929,-8.197978043593604,-0.6897944968477155,-0.33148813175954134,-0.34782103287725447
423438000000,4603,423438000000,FR_wheel_link,-0.006314726033809004,0.8412817168698703,-1.1219094504486888,0.009939429061901421,-0.006372308905243007,0.001974609124220911
423439000000,4604,423439000000,FR_wheel_link,-4.8932928589010025,17.940452866907357,-8.53613207735385,-0.6840325323930975,-0.35223059999932377,-0.3682165841783804
423440000000,4605,423440000000,FR_wheel_link,-0.01186199855524378,0.8548730038832922,-1.1528845387337732,0.010929157690708445,-0.007526793588027104,0.0012131923647621158
423441000000,4606,423441000000,FR_wheel_link,-5.045245550973998,18.08305811805738,-8.688532595941773,-0.6814543256393283,-0.36457317434408143,-0.38033904252529765
423442000000,4607,423442000000,FR_wheel_link,-0.017295484454091015,0.8615685409100706,-1.1645758588052677,0.011283648433489975,-0.00834691951412068,0.0006139097973078959
423443000000,4608,423443000000,FR_wheel_link,-4.035633425881372,18.8061707131003,-9.140410951600886,-0.697875745485729,-0.29987162299964837,-0.3098090559967388
423444000000,4609,423444000000,FR_wheel_link,-0.013928801659330359,0.8195939848476967,-1.0831421393872447,0.008693143447683153,-0.005668095780613059,0.0020342236699562723
423445000000,4610,423445000000,FR_wheel_link,-4.817868151823669,17.773603513804588,-8.408653923470187,-0.6817646722594565,-0.34617255853080997,-0.3621307542485781
423446000000,4611,423446000000,FR_wheel_link,-0.011671279690803948,0.8453259259027708,-1.1362517133038301,0.010294876842586538,-0.007272720303563358,0.0012843873336239242
423447000000,4612,423447000000,FR_wheel_link,-5.005687077942788,18.004269839260694,-8.650293224087124,-0.6783787172752284,-0.3613561716325891,-0.3770809959550555
423448000000,4613,423448000000,FR_wheel_link,-0.01577075718519022,0.8546837283969673,-1.157651983491056,0.010883169150985935,-0.008074768114264027,0.0007240675597410894
423449000000,4614,423449000000,FR_wheel_link,-5.11362435894932,18.11087982770158,-8.75798194409748,-0.6770041813671404,-0.3700799165675788,-0.38566233905800706
423450000000,4615,423450000000,FR_wheel_link,-0.019620917987964226,0.8590893432842149,-1.165442619057874,0.011061877341404902,-0.008635193092367911,0.00029397273590063425
423451000000,4616,423451000000,FR_wheel_link,-4.24434104029684,18.636627543570775,-9.054237864920308,-0.6925381615032405,-0.31118150411997825,-0.32306007064183007
423452000000,4617,423452000000,FR_wheel_link,-0.018801464109364396,0.8230467923398519,-1.1075872534286884,0.009658288828887618,-0.007365802343559348,0.0008314208095866442
423453000000,4618,423453000000,FR_wheel_link,-4.999514881289713,17.857462982350732,-8.578720250622341,-0.6725654993720139,-0.36108930522256133,-0.3766272238212024
423454000000,4619,423454000000,FR_wheel_link,-0.017443588347438255,0.8459528449094744,-1.1462423383795264,0.010451589932427787,-0.008030783263051702,0.0005964259278823622
423455000000,4620,423455000000,FR_wheel_link,-5.101636809081528,18.045199532735484,-8.742715630823701,-0.6728633139145374,-0.36915137364439365,-0.3846379460540683
423456000000,4621,423456000000,FR_wheel_link,-0.018897809581444436,0.8530712731931112,-1.1607042274055694,0.010745028878514603,-0.008477763776142452,0.0003113038546278612
423457000000,4622,423457000000,FR_wheel_link,-4.359291634092433,18.48135436634977,-8.987158882514727,-0.6861876982424244,-0.31802515488401834,-0.3306950445688018
423458000000,4623,423458000000,FR_wheel_link,-0.020913300124991985,0.8260020503732395,-1.1209609490383285,0.009972181030505406,-0.007694707464874097,0.0005212175925639107
423459000000,4624,423459000000,FR_wheel_link,-5.04934340022407,17.880279971252612,-8.662193477857869,-0.6666704227111984,-0.36517572405463755,-0.3805387675539351
423460000000,4625,423460000000,FR_wheel_link,-0.017982218644451653,0.8447231122602152,-1.1515286353352647,0.010502416943796788,-0.008197096904980007,0.00041907389309584267
423461000000,4626,423461000000,FR_wheel_link,-5.123011561462185,18.03980264490219,-8.793918659006565,-0.6676312377848845,-0.3709123114358562,-0.386265186119505
423462000000,4627,423462000000,FR_wheel_link,-0.01881147713234338,0.8506032078260906,-1.1629068262818913,0.01069756746042932,-0.00853445277161999,0.0002139525811823956
423463000000,4628,423463000000,FR_wheel_link,-5.170662424820874,18.104593861898845,-8.854153592026709,-0.6673050698821598,-0.37469203382796956,-0.38999766381719503
423464000000,4629,423464000000,FR_wheel_link,-0.02031875593564969,0.8527862795894595,-1.1669839499464518,0.010737250452998597,-0.008789930959756104,1.713970617784504e-05
423465000000,4630,423465000000,FR_wheel_link,-5.204145415227089,18.1358083384449,-8.885850643638353,-0.6668318270048691,-0.3773616001657355,-0.3926204402436336
423466000000,4631,423466000000,FR_wheel_link,-0.021608961477963595,0.8531976835782096,-1.1681244189896915,0.01068609929374844,-0.008954234324859122,-0.00013139025830968495
423467000000,4632,423467000000,FR_wheel_link,-5.2252986247178175,18.150371028341766,-8.90384650412148,-0.6662699120797241,-0.37904329719297924,-0.3942646480388368
423468000000,4633,423468000000,FR_wheel_link,-0.022438173534276684,0.852757699340277,-1.1681243216236505,0.010600486519469748,-0.009044913310169753,-0.00023008637514469358
423469000000,4634,423469000000,FR_wheel_link,-4.4270888360583,18.50729961072046,-9.085608118984153,-0.6789563263491227,-0.3234152383558336,-0.33587229660173573
423470000000,4635,423470000000,FR_wheel_link,-0.023122789582056547,0.8219852731301884,-1.1228308204259745,0.009671348686386739,-0.007991556504961151,0.00015580004984506204
423471000000,4636,423471000000,FR_wheel_link,-5.086768387034155,17.871029161016157,-8.731837135973311,-0.6592527048328195,-0.3681658829877219,-0.3833252893896626
423472000000,4637,423472000000,FR_wheel_link,-0.018421422645196972,0.838846096849791,-1.1515769531489,0.01016768704071083,-0.008279231539635737,0.0002134486963333073
423473000000,4638,423473000000,FR_wheel_link,-5.133182936670371,18.003776392084788,-8.850977225514356,-0.6592671713168737,-0.3717207865250415,-0.3868839089321314
423474000000,4639,423474000000,FR_wheel_link,-0.017901118823442252,0.8436471962364034,-1.1626845100790548,0.01038752362795674,-0.008468076027085896,0.0001252755635284857
423475000000,4640,423475000000,FR_wheel_link,-5.162574237074424,18.04897574753144,-8.906642084056363,-0.6578376111868628,-0.37405755180838673,-0.3891728992303546
423476000000,4641,423476000000,FR_wheel_link,-0.018424082302258227,0.8452864263599722,-1.1670685637460794,0.010472988848433375,-0.008629183261063838,1.089789743319346e-05
423477000000,4642,423477000000,FR_wheel_link,-5.1840957968276475,18.067548013435513,-8.937150926867496,-0.6564987695580665,-0.3757864959176077,-0.3908519418252512
423478000000,4643,423478000000,FR_wheel_link,-0.019063115497100824,0.8454049450797625,-1.168691496518453,0.01047329878569407,-0.008739774108954237,-8.542408836991307e-05
423479000000,4644,423479000000,FR_wheel_link,-5.198094887053809,18.073502948537318,-8.955609530887704,-0.6552314499054395,-0.3769132143180105,-0.39193513950761893
423480000000,4645,423480000000,FR_wheel_link,-0.019491016218460833,0.8448004513078402,-1.1691413617243143,0.010432641807461458,-0.008800569215532423,-0.0001525579751635641
423481000000,4646,423481000000,FR_wheel_link,-5.20569198554744,18.07234430878514,-8.968175684323581,-0.6539348294298597,-0.37752397488210915,-0.3925086409829736
423482000000,4647,423482000000,FR_wheel_link,-0.01964819207963958,0.8438450218622545,-1.169155466551174,0.010378165252764738,-0.008822741418504185,-0.00019303166979526214
423483000000,4648,423483000000,FR_wheel_link,-5.208485600906183,18.066772557987846,-8.978008063579033,-0.652542768910371,-0.3777483011070591,-0.39269966765682107
423484000000,4649,423484000000,FR_wheel_link,-0.019574367265636494,0.8427102773484441,-1.1690698222913982,0.010324483210586466,-0.008818599938925548,-0.00021330940745498567
423485000000,4650,423485000000,FR_wheel_link,-5.207966133263236,18.0582767368485,-8.986711609160208,-0.6510280767810599,-0.37770763873533875,-0.39262746027375517
423486000000,4651,423486000000,FR_wheel_link,-0.019334089652614128,0.8414756568645411,-1.1690208073992767,0.010278326265478218,-0.008798245970649723,-0.00021984096064165477
423487000000,4652,423487000000,FR_wheel_link,-5.205360682674796,18.04758282540001,-8.995110425650783,-0.6493716325382296,-0.37750270202356984,-0.39239068176587877
423488000000,4653,423488000000,FR_wheel_link,-0.01897724758061753,0.8401854751006497,-1.1690527505764086,0.010240591870496895,-0.008767644880039258,-0.00021717081218727027
