%time,field.header.seq,field.header.stamp,field.header.frame_id,field.name0,field.name1,field.name2,field.name3,field.position0,field.position1,field.position2,field.position3,field.velocity0,field.velocity1,field.velocity2,field.velocity3,field.effort0,field.effort1,field.effort2,field.effort3
423137000000,128859,423131000000,,BL_TO_BASELINK,BR_TO_BASELINK,FL_TO_BASELINK,FR_TO_BASELINK,3.098729617998643,3.4994949950797034,1.9424613497871839,2.2178510419020547,0.017866442353596718,-0.0207667217240513,0.0009346297242368278,0.011340727248335947,0.0,0.0,0.0,0.0
423137000000,128860,423132000000,,BL_TO_BASELINK,BR_TO_BASELINK,FL_TO_BASELINK,FR_TO_BASELINK,3.09872964659988,3.4995142795440524,1.9424611224630013,2.217850869872523,2.864800867722478e-05,0.019285628503871385,-0.00022733865059565428,-0.00017204135361122835,0.0,0.0,0.0,0.0
423137000000,128861,423133000000,,BL_TO_BASELINK,BR_TO_BASELINK,FL_TO_BASELINK,FR_TO_BASELINK,3.0987257802492305,3.499514055571546,1.9424608781330441,2.21783749316905,-0.0038688126026754834,-0.00022391994784446301,-0.00024433223366992097,-0.013380813028904965,0.0,0.0,0.0,0.0
423137000000,128862,423134000000,,BL_TO_BASELINK,BR_TO_BASELINK,FL_TO_BASELINK,FR_TO_BASELINK,3.098725767921376,3.4995140035622354,1.94246078892637,2.2178210887811893,-1.2322238321784557e-05,-5.200749509873953e-05,-8.920670456074621e-05,-0.01640541307901082,0.0,0.0,0.0,0.0
423137000000,128863,423135000000,,BL_TO_BASELINK,BR_TO_BASELINK,FL_TO_BASELINK,FR_TO_BASELINK,3.09874564433197,3.499514072383664,1.9424609002324544,2.217837043681774,0.019879388760359638,6.933426936552717e-05,0.00011180462906012004,0.01595940968919775,0.0,0.0,0.0,0.0
423137000000,128864,423136000000,,BL_TO_BASELINK,BR_TO_BASELINK,FL_TO_BASELINK,FR_TO_BASELINK,3.0987456443330075,3.4995140723835503,1.9424609002325113,2.2178370436813246,5.422037065855312e-09,-3.8484085883305763e-10,1.1269580234285481e-10,-2.9668335149724e-10,0.0,0.0,0.0,0.0
423137000000,128865,423137000000,,BL_TO_BASELINK,BR_TO_BASELINK,FL_TO_BASELINK,FR_TO_BASELINK,3.0987380674922225,3.499514195912192,1.942460981659094,2.217825870851513,-0.007578524808651652,0.00012362131244317287,8.148407570978886e-05,-0.011175199853148368,0.0,0.0,0.0,0.0
423138000000,128866,423138000000,,BL_TO_BASELINK,BR_TO_BASELINK,FL_TO_BASELINK,FR_TO_BASELINK,3.098738059052259,3.4995141627047426,1.9424609232577996,2.217814491097222,-8.439104076404455e-06,-3.3206370613877295e-05,-5.840028459628589e-05,-0.011380269881372094,0.0,0.0,0.0,0.0
423139000000,128867,423139000000,,BL_TO_BASELINK,BR_TO_BASELINK,FL_TO_BASELINK,FR_TO_BASELINK,3.09875325004392,3.4995139484964133,1.942460769231964,2.2178283687474973,0.015193324347824515,-0.00021402435805923173,-0.00015374091040146892,0.013880608946106397,0.0,0.0,0.0,0.0
423140000000,128868,423140000000,,BL_TO_BASELINK,BR_TO_BASELINK,FL_TO_BASELINK,FR_TO_BASELINK,3.098775467844245,3.499513841186789,1.9424606657148882,2.2178282963399916,0.022217806138898965,-0.00010731009510975276,-0.0001035172354020078,-7.240729650598646e-05,0.0,0.0,0.0,0.0
423141000000,128869,423141000000,,BL_TO_BASELINK,BR_TO_BASELINK,FL_TO_BASELINK,FR_TO_BASELINK,3.098760029116903,3.4995139037808682,1.9424606853748028,2.217809687149133,-0.015442765717678015,6.282357541134015e-05,1.9848870279587372e-05,-0.01861094437835734,0.0,0.0,0.0,0.0
423142000000,128870,423142000000,,BL_TO_BASELINK,BR_TO_BASELINK,FL_TO_BASELINK,FR_TO_BASELINK,3.098760019189113,3.499513855286513,1.9424606091783811,2.2177965009624536,-9.91315333963988e-06,-4.8487763264409844e-05,-7.622369358567874e-05,-0.013186870485491723,0.0,0.0,0.0,0.0
423143000000,128871,423143000000,,BL_TO_BASELINK,BR_TO_BASELINK,FL_TO_BASELINK,FR_TO_BASELINK,3.0987786507198756,3.499513893285102,1.942460687676835,2.217812948440802,0.018634301184109307,3.8572657532758015e-05,7.90548185247257e-05,0.01645212570175017,0.0,0.0,0.0,0.0
423144000000,128872,423144000000,,BL_TO_BASELINK,BR_TO_BASELINK,FL_TO_BASELINK,FR_TO_BASELINK,3.0987786507179997,3.499513893284939,1.9424606876767925,2.217812948439221,2.1528060289294215e-09,-3.2965317108002434e-10,-8.376452829972347e-11,-3.6117897388165954e-10,0.0,0.0,0.0,0.0
423145000000,128873,423145000000,,BL_TO_BASELINK,BR_TO_BASELINK,FL_TO_BASELINK,FR_TO_BASELINK,3.0987662944743057,3.4995151463439482,1.9424617293287447,2.2177970137017127,-0.012356011027232834,0.001253107156752583,0.0010422590575099137,-0.01593854437493789,0.0,0.0,0.0,0.0
423146000000,128874,423146000000,,BL_TO_BASELINK,BR_TO_BASELINK,FL_TO_BASELINK,FR_TO_BASELINK,3.0987662816568946,3.4995151128913973,1.9424616588594255,2.2177818709875137,-1.2820441968198343e-05,-3.345394989306624e-05,-7.047108898394772e-05,-0.015142747601978507,0.0,0.0,0.0,0.0
423147000000,128875,423147000000,,BL_TO_BASELINK,BR_TO_BASELINK,FL_TO_BASELINK,FR_TO_BASELINK,3.098781995866739,3.4995247587279072,1.9424617403306037,2.2177893016210373,0.015717498029579564,0.009646789108952012,8.17455397632734e-05,0.0074320258341302806,0.0,0.0,0.0,0.0
423148000000,128876,423148000000,,BL_TO_BASELINK,BR_TO_BASELINK,FL_TO_BASELINK,FR_TO_BASELINK,3.0987819958774185,3.4995247587312326,1.9424617403305042,2.2177893016202876,2.600768050226021e-08,3.4925244796896182e-09,-1.721394814885313e-10,7.875278701732769e-09,0.0,0.0,0.0,0.0
423149000000,128877,423149000000,,BL_TO_BASELINK,BR_TO_BASELINK,FL_TO_BASELINK,FR_TO_BASELINK,3.098770166973992,3.4995193434876883,1.9424624624931575,2.2177836643534654,-0.011827939237670981,-0.005414514877947414,0.0007221240880127006,-0.005636489524720185,0.0,0.0,0.0,0.0
423149000000,128878,423150000000,,BL_TO_BASELINK,BR_TO_BASELINK,FL_TO_BASELINK,FR_TO_BASELINK,3.0987701727143886,3.4995235071569093,1.9424624112553754,2.2177836280164804,5.734216082923117e-06,0.0041637696566028835,-5.12395580150901e-05,-3.633868796788309e-05,0.0,0.0,0.0,0.0
423149000000,128879,423151000000,,BL_TO_BASELINK,BR_TO_BASELINK,FL_TO_BASELINK,FR_TO_BASELINK,3.0987767453750124,3.499524154997312,1.9424630359896042,2.2177916377907287,0.006572980304268269,0.0006478363485065888,0.0006247341800475967,0.008010076907848423,0.0,0.0,0.0,0.0
423149000000,128880,423152000000,,BL_TO_BASELINK,BR_TO_BASELINK,FL_TO_BASELINK,FR_TO_BASELINK,3.098776745370227,3.4995241549976495,1.9424630359895882,2.217791637787906,-6.266134517513011e-09,-1.3249255338687593e-10,4.1574207618189085e-11,-1.4676081825509835e-09,0.0,0.0,0.0,0.0
423149000000,128881,423153000000,,BL_TO_BASELINK,BR_TO_BASELINK,FL_TO_BASELINK,FR_TO_BASELINK,3.098771258422662,3.4995241742612144,1.9424630728431769,2.21778386691037,-0.0055585182935857635,3.891088560241385e-05,-1.3449785278838388e-05,-0.007773088730293769,0.0,0.0,0.0,0.0
423149000000,128882,423154000000,,BL_TO_BASELINK,BR_TO_BASELINK,FL_TO_BASELINK,FR_TO_BASELINK,3.098771253404065,3.4995241625440503,1.9424630468615458,2.2177786374002153,-5.025443025242875e-06,-1.1721372524183503e-05,-2.5993235745424247e-05,-0.005231143002772249,0.0,0.0,0.0,0.0
423149000000,128883,423155000000,,BL_TO_BASELINK,BR_TO_BASELINK,FL_TO_BASELINK,FR_TO_BASELINK,3.098775270300104,3.4995244663814677,1.9424633339985,2.2177839818425014,0.004017076616195162,0.0003037811832944746,0.00028707692511928656,0.005345005323976605,0.0,0.0,0.0,0.0
423156000000,128884,423156000000,,BL_TO_BASELINK,BR_TO_BASELINK,FL_TO_BASELINK,FR_TO_BASELINK,3.098775270296823,3.4995244663815335,1.9424633339984023,2.217783981840107,-4.21365088654202e-09,-1.1184653897489127e-11,-1.343446430490669e-10,-1.2111769503997394e-09,0.0,0.0,0.0,0.0
423157000000,128885,423157000000,,BL_TO_BASELINK,BR_TO_BASELINK,FL_TO_BASELINK,FR_TO_BASELINK,3.098770959123925,3.4995216749116835,1.9424606655408372,2.2177768859113023,-0.0043287134254021845,-0.0027875811571155444,-0.002678457299841761,-0.007087816771663401,0.0,0.0,0.0,0.0
423158000000,128886,423158000000,,BL_TO_BASELINK,BR_TO_BASELINK,FL_TO_BASELINK,FR_TO_BASELINK,3.09877095911971,3.4995216749117395,1.942460665540871,2.21777688590978,-6.3864073084258545e-09,1.2115448149384832e-10,1.188177630828506e-10,-1.3616612565140254e-09,0.0,0.0,0.0,0.0
423159000000,128887,423159000000,,BL_TO_BASELINK,BR_TO_BASELINK,FL_TO_BASELINK,FR_TO_BASELINK,3.0987709591164343,3.499521674911793,1.9424606655409065,2.217776885908698,-5.203696658360839e-09,1.0487068342630163e-10,1.0215673793001478e-10,-1.0945971756488697e-09,0.0,0.0,0.0,0.0
423160000000,128888,423160000000,,BL_TO_BASELINK,BR_TO_BASELINK,FL_TO_BASELINK,FR_TO_BASELINK,3.0987674461198615,3.499521652839465,1.9424606489002585,2.217779013637161,-0.003512367200751473,-2.2236201572320598e-05,-1.6650300104277798e-05,0.002128345704287744,0.0,0.0,0.0,0.0
423161000000,128889,423161000000,,BL_TO_BASELINK,BR_TO_BASELINK,FL_TO_BASELINK,FR_TO_BASELINK,3.0987678970411316,3.499521649966158,1.9424606459084615,2.2177790114896645,0.00045104048397613845,-2.872237953512047e-06,-2.990888729097717e-06,-2.1470761842248137e-06,0.0,0.0,0.0,0.0
423162000000,128890,423162000000,,BL_TO_BASELINK,BR_TO_BASELINK,FL_TO_BASELINK,FR_TO_BASELINK,3.098798883533197,3.4995214814082685,1.9424604877371472,2.217778904130041,0.030986511001445796,-0.00016855841736310162,-0.00015817156912831254,-0.00010735991930016509,0.0,0.0,0.0,0.0
423163000000,128891,423163000000,,BL_TO_BASELINK,BR_TO_BASELINK,FL_TO_BASELINK,FR_TO_BASELINK,3.0987693898837865,3.499521847199701,1.9424607839263714,2.217750267739266,-0.020957691323911884,-0.00017408803954067215,-0.00021195821107036078,-0.021364145942423515,0.0,0.0,0.0,0.0
423164000000,128892,423164000000,,BL_TO_BASELINK,BR_TO_BASELINK,FL_TO_BASELINK,FR_TO_BASELINK,3.0987693802489495,3.4995217981928546,1.9424607036035937,2.217735890692113,-9.660916564645239e-06,-4.909880993116643e-05,-8.0493605759447e-05,-0.014409555710001245,0.0,0.0,0.0,0.0
423165000000,128893,423165000000,,BL_TO_BASELINK,BR_TO_BASELINK,FL_TO_BASELINK,FR_TO_BASELINK,3.0987838327312893,3.4995217414337523,1.9424606876057382,2.2177489442631106,0.014455201880610096,-5.618794749731766e-05,-1.5428021827790933e-05,0.01305862135207159,0.0,0.0,0.0,0.0
423166000000,128894,423166000000,,BL_TO_BASELINK,BR_TO_BASELINK,FL_TO_BASELINK,FR_TO_BASELINK,3.0988038498320343,3.4995216502948656,1.9424605983888128,2.217748880887937,0.02001710614571214,-9.113921748678949e-05,-8.921719101869299e-05,-6.336754846400852e-05,0.0,0.0,0.0,0.0
423167000000,128895,423167000000,,BL_TO_BASELINK,BR_TO_BASELINK,FL_TO_BASELINK,FR_TO_BASELINK,3.098803807147341,3.4995214877449206,1.9424603098015396,2.217674563750778,-4.271145211599825e-05,-0.0001625518066094428,-0.00028859233482417257,-0.07431837261708052,0.0,0.0,0.0,0.0
423168000000,128896,423168000000,,BL_TO_BASELINK,BR_TO_BASELINK,FL_TO_BASELINK,FR_TO_BASELINK,3.0988404851616274,3.499522610618853,1.9424614532585274,2.217711156535076,0.014042325830508798,0.0007134936878479096,0.0006626433405525194,0.013320083499428068,0.0,0.0,0.0,0.0
423169000000,128897,423169000000,,BL_TO_BASELINK,BR_TO_BASELINK,FL_TO_BASELINK,FR_TO_BASELINK,3.0988404851384423,3.4995226106186115,1.9424614532584066,2.217711156517833,-2.3515014286462632e-08,-4.854441067875248e-10,-2.3940721627369044e-10,6.48670972665244e-09,0.0,0.0,0.0,0.0
423170000000,128898,423170000000,,BL_TO_BASELINK,BR_TO_BASELINK,FL_TO_BASELINK,FR_TO_BASELINK,3.098832959900541,3.4995225392675833,1.9424613291412935,2.2176961985120283,-0.0075285540070274114,-7.116603780744565e-05,-0.00012426271304987607,-0.014961373757966662,0.0,0.0,0.0,0.0
423171000000,128899,423171000000,,BL_TO_BASELINK,BR_TO_BASELINK,FL_TO_BASELINK,FR_TO_BASELINK,3.098832947331548,3.4995224883778144,1.9424612405124506,2.2176813455300923,-1.2560544642017252e-05,-5.0889589287134857e-05,-8.862871966386354e-05,-0.014854142071200532,0.0,0.0,0.0,0.0
423172000000,128900,423172000000,,BL_TO_BASELINK,BR_TO_BASELINK,FL_TO_BASELINK,FR_TO_BASELINK,3.098854857173807,3.499522545500038,1.9424613348534834,2.217698480883751,0.021911221084378263,5.7297258184181923e-05,9.451900858175287e-05,0.01713791327328071,0.0,0.0,0.0,0.0
423173000000,128901,423173000000,,BL_TO_BASELINK,BR_TO_BASELINK,FL_TO_BASELINK,FR_TO_BASELINK,3.0988548571732384,3.4995225454998637,1.9424613348533768,2.2176984808782123,1.2382826847234796e-08,-3.46699608258505e-10,-2.1372711586642446e-10,-2.0767913846975183e-09,0.0,0.0,0.0,0.0
423174000000,128902,423174000000,,BL_TO_BASELINK,BR_TO_BASELINK,FL_TO_BASELINK,FR_TO_BASELINK,3.0988505667431454,3.4995226054807995,1.9424613539497813,2.217688008017703,-0.004292234863523908,6.007672454016143e-05,1.9156670033977294e-05,-0.01047525690947244,0.0,0.0,0.0,0.0
423175000000,128903,423175000000,,BL_TO_BASELINK,BR_TO_BASELINK,FL_TO_BASELINK,FR_TO_BASELINK,3.0988505584340658,3.499522572544026,1.9424612962301033,2.2176771767298504,-8.301136458374603e-06,-3.293574466384924e-05,-5.7718324014768146e-05,-0.010831844690227719,0.0,0.0,0.0,0.0
423176000000,128904,423176000000,,BL_TO_BASELINK,BR_TO_BASELINK,FL_TO_BASELINK,FR_TO_BASELINK,3.0988683027983512,3.4995223017558326,1.9424610914279459,2.217691123380771,0.017748725223957474,-0.0002705586576703181,-0.00020445030798731285,0.013953808945433214,0.0,0.0,0.0,0.0
423177000000,128905,423177000000,,BL_TO_BASELINK,BR_TO_BASELINK,FL_TO_BASELINK,FR_TO_BASELINK,3.0988923510737827,3.4995221857017205,1.942460979450587,2.217691045035725,0.024048276365383654,-0.00011605446134530309,-0.00011197770915791563,-7.834461341483037e-05,0.0,0.0,0.0,0.0
423178000000,128906,423178000000,,BL_TO_BASELINK,BR_TO_BASELINK,FL_TO_BASELINK,FR_TO_BASELINK,3.0988715778700495,3.4995047172381595,1.9424614664322242,2.217674291144636,-0.020772376369544546,-0.017469767135368727,0.0004868626991133482,-0.01675521120000638,0.0,0.0,0.0,0.0
423179000000,128907,423179000000,,BL_TO_BASELINK,BR_TO_BASELINK,FL_TO_BASELINK,FR_TO_BASELINK,3.098871579592762,3.499510311430619,1.9424617131011512,2.217680365277829,1.7188251236414497e-06,0.00559459768103041,0.0002466329610693774,0.006074373942731268,0.0,0.0,0.0,0.0
423180000000,128908,423180000000,,BL_TO_BASELINK,BR_TO_BASELINK,FL_TO_BASELINK,FR_TO_BASELINK,3.0989364618077406,3.499509907426077,1.942461344558847,2.2176801229153327,0.06488334685118691,-0.0004040105942412775,-0.00036855752598489305,-0.00024236096914229815,0.0,0.0,0.0,0.0
423181000000,128909,423181000000,,BL_TO_BASELINK,BR_TO_BASELINK,FL_TO_BASELINK,FR_TO_BASELINK,3.0989014984312924,3.4995105927032313,1.942461898971711,2.217642779001798,-0.021537697334646597,0.000441133897470445,0.00028397182844958416,-0.024135200082173607,0.0,0.0,0.0,0.0
423182000000,128910,423182000000,,BL_TO_BASELINK,BR_TO_BASELINK,FL_TO_BASELINK,FR_TO_BASELINK,3.098901485942127,3.49951053764711,1.9424618042946964,2.2176271164486323,-1.240452808984327e-05,-5.517230360667022e-05,-9.456022159818125e-05,-0.01571666365246252,0.0,0.0,0.0,0.0
423183000000,128911,423183000000,,BL_TO_BASELINK,BR_TO_BASELINK,FL_TO_BASELINK,FR_TO_BASELINK,3.098919962255449,3.499510523901696,1.9424618239522502,2.2176414435016465,0.018478953527040095,-1.3507574236853656e-05,1.9889769967289944e-05,0.01433053595059053,0.0,0.0,0.0,0.0
423184000000,128912,423184000000,,BL_TO_BASELINK,BR_TO_BASELINK,FL_TO_BASELINK,FR_TO_BASELINK,3.098919962248866,3.4995105239036253,1.942461823952197,2.2176414434811598,2.744203747920282e-09,1.9735357705691348e-09,-1.0825487381516119e-10,-1.5315395288789668e-09,0.0,0.0,0.0,0.0
423185000000,128913,423185000000,,BL_TO_BASELINK,BR_TO_BASELINK,FL_TO_BASELINK,FR_TO_BASELINK,3.0989168816178907,3.499510577083938,1.942461836126462,2.2176313945001347,-0.00308185189982874,5.32636988631735e-05,1.2166298294861988e-05,-0.010050964120074751,0.0,0.0,0.0,0.0
423186000000,128914,423186000000,,BL_TO_BASELINK,BR_TO_BASELINK,FL_TO_BASELINK,FR_TO_BASELINK,3.0989168730786254,3.4995105455690547,1.942461781089051,2.2176212948875715,-8.537810444481791e-06,-3.155861066674731e-05,-5.5106375647141076e-05,-0.010100025961145242,0.0,0.0,0.0,0.0
423187000000,128915,423187000000,,BL_TO_BASELINK,BR_TO_BASELINK,FL_TO_BASELINK,FR_TO_BASELINK,3.0989365398771316,3.49950910211533,1.9424606504272202,2.2176365916442915,0.01975276914308051,-0.0014623106401082404,-0.0011242146267096808,0.015297384737200824,0.0,0.0,0.0,0.0
423188000000,128916,423188000000,,BL_TO_BASELINK,BR_TO_BASELINK,FL_TO_BASELINK,FR_TO_BASELINK,3.0989587356945023,3.4995089327178155,1.9424604838472206,2.2176364772153327,0.022196501424220444,-0.00016940293012890698,-0.0001665855352556457,-0.00011443041948652408,0.0,0.0,0.0,0.0
423189000000,128917,423189000000,,BL_TO_BASELINK,BR_TO_BASELINK,FL_TO_BASELINK,FR_TO_BASELINK,3.0989443652382107,3.4995089045951113,1.94246041558036,2.217615691926113,-0.014377187322788695,-2.7885718510013702e-05,-6.807977992131023e-05,-0.020787258733760108,0.0,0.0,0.0,0.0
423190000000,128918,423190000000,,BL_TO_BASELINK,BR_TO_BASELINK,FL_TO_BASELINK,FR_TO_BASELINK,3.098944353110701,3.499508849748893,1.9424603238404075,2.217600459408416,-1.2119050050368035e-05,-5.4846219031318144e-05,-9.173919577502507e-05,-0.01523391056818434,0.0,0.0,0.0,0.0
423191000000,128919,423191000000,,BL_TO_BASELINK,BR_TO_BASELINK,FL_TO_BASELINK,FR_TO_BASELINK,3.0989638357535227,3.499508856584124,1.942460369942486,2.2176150808458956,0.019484777959695,7.300493557627075e-06,4.6559165441986336e-05,0.014625623841749598,0.0,0.0,0.0,0.0
423192000000,128920,423192000000,,BL_TO_BASELINK,BR_TO_BASELINK,FL_TO_BASELINK,FR_TO_BASELINK,3.098963835754759,3.4995088565841153,1.9424603699422605,2.217615080837845,1.1763936151598653e-08,-1.1231215089890778e-10,-4.113515309628335e-10,-3.260055439144316e-09,0.0,0.0,0.0,0.0
423193000000,128921,423193000000,,BL_TO_BASELINK,BR_TO_BASELINK,FL_TO_BASELINK,FR_TO_BASELINK,3.098958990452548,3.4995089380341344,1.9424604102334637,2.217604603692548,-0.00484634613316849,8.152058524897587e-05,4.03131977728486e-05,-0.010478897647714954,0.0,0.0,0.0,0.0
423194000000,128922,423194000000,,BL_TO_BASELINK,BR_TO_BASELINK,FL_TO_BASELINK,FR_TO_BASELINK,3.098958982166872,3.4995089055528688,1.9424603535728266,2.217594077241401,-8.279469299685843e-06,-3.2477907141765724e-05,-5.6654606396710355e-05,-0.010526964354518324,0.0,0.0,0.0,0.0
423195000000,128923,423195000000,,BL_TO_BASELINK,BR_TO_BASELINK,FL_TO_BASELINK,FR_TO_BASELINK,3.0989755405577544,3.499508104859096,1.942459828448591,2.217606887200276,0.016573751078656374,-0.0008039052318345365,-0.0005286523267534664,0.012830861218276944,0.0,0.0,0.0,0.0
423196000000,128924,423196000000,,BL_TO_BASELINK,BR_TO_BASELINK,FL_TO_BASELINK,FR_TO_BASELINK,3.0989988698241078,3.499507963500088,1.9424596924664126,2.2176067926139993,0.023330037397450782,-0.0001413587068171407,-0.0001359820063192435,-9.458496185437565e-05,0.0,0.0,0.0,0.0
423197000000,128925,423197000000,,BL_TO_BASELINK,BR_TO_BASELINK,FL_TO_BASELINK,FR_TO_BASELINK,3.098984117735551,3.4995080221542674,1.942459706920829,2.217587266608618,-0.014756048701752015,5.889415242487511e-05,1.4653981738856764e-05,-0.01952769481024764,0.0,0.0,0.0,0.0
423198000000,128926,423198000000,,BL_TO_BASELINK,BR_TO_BASELINK,FL_TO_BASELINK,FR_TO_BASELINK,3.098984098636304,3.499507950121795,1.9424595939179046,2.2175737678748817,-1.9011551163902046e-05,-7.181005644183933e-05,-0.0001127083206307472,-0.013502905223354338,0.0,0.0,0.0,0.0
423199000000,128927,423199000000,,BL_TO_BASELINK,BR_TO_BASELINK,FL_TO_BASELINK,FR_TO_BASELINK,3.0990020028791427,3.4995164711076825,1.9424596781732681,2.217580261744031,0.01790649811943637,0.008522347420627567,8.447611162247688e-05,0.006495644245353362,0.0,0.0,0.0,0.0
423200000000,128928,423200000000,,BL_TO_BASELINK,BR_TO_BASELINK,FL_TO_BASELINK,FR_TO_BASELINK,3.0990020028987413,3.4995164711127,1.9424596781729626,2.2175802617428513,4.629145768098031e-08,5.367442650061616e-09,-6.06935208688486e-10,-2.126028700311089e-09,0.0,0.0,0.0,0.0
423201000000,128929,423201000000,,BL_TO_BASELINK,BR_TO_BASELINK,FL_TO_BASELINK,FR_TO_BASELINK,3.0989937842855557,3.499513447486117,1.9424602950053433,2.217576933554362,-0.00821767054079374,-0.003022973008096126,0.000616879819000422,-0.00332740612255613,0.0,0.0,0.0,0.0
423202000000,128930,423202000000,,BL_TO_BASELINK,BR_TO_BASELINK,FL_TO_BASELINK,FR_TO_BASELINK,3.098993789715461,3.4995197614663818,1.9424602426713662,2.217576899680873,5.418180145678412e-06,0.006314187950826979,-5.2328330132073945e-05,-3.3859046632164075e-05,0.0,0.0,0.0,0.0
423203000000,128931,423203000000,,BL_TO_BASELINK,BR_TO_BASELINK,FL_TO_BASELINK,FR_TO_BASELINK,3.099003852901367,3.49952047040244,1.942460937678069,2.21758802900014,0.01006342443858651,0.0007089384245543996,0.0006950148953663374,0.011129858517418377,0.0,0.0,0.0,0.0
423204000000,128932,423204000000,,BL_TO_BASELINK,BR_TO_BASELINK,FL_TO_BASELINK,FR_TO_BASELINK,3.0990038528964234,3.499520470402474,1.9424609376780353,2.2175880290001366,-5.796090140827714e-09,6.628819715359668e-11,-3.7072987041364414e-11,3.946943969573846e-10,0.0,0.0,0.0,0.0
423205000000,128933,423205000000,,BL_TO_BASELINK,BR_TO_BASELINK,FL_TO_BASELINK,FR_TO_BASELINK,3.098999834946129,3.4995204676877885,1.9424607860809253,2.217581396640931,-0.004036206632111298,-6.1351892673847455e-06,-0.00015233985030441806,-0.006678477483738688,0.0,0.0,0.0,0.0
423206000000,128934,423206000000,,BL_TO_BASELINK,BR_TO_BASELINK,FL_TO_BASELINK,FR_TO_BASELINK,3.098999828647461,3.4995204389867647,1.9424607367149704,2.2175751711124505,-6.298711858741292e-06,-2.8701106012693316e-05,-4.936553884999674e-05,-0.00622578372790027,0.0,0.0,0.0,0.0
423207000000,128935,423207000000,,BL_TO_BASELINK,BR_TO_BASELINK,FL_TO_BASELINK,FR_TO_BASELINK,3.099012809044673,3.4995207464925047,1.942461031650426,2.2175886235590667,0.012980491530313198,0.0003074598219925482,0.0002948655380972491,0.01345261574689059,0.0,0.0,0.0,0.0
423208000000,128936,423208000000,,BL_TO_BASELINK,BR_TO_BASELINK,FL_TO_BASELINK,FR_TO_BASELINK,3.099012809041694,3.4995207464925135,1.942461031650403,2.2175886235590028,-2.8446140980936674e-09,1.7337079688539703e-11,-4.396013240925978e-11,-8.913087976014644e-11,0.0,0.0,0.0,0.0
423209000000,128937,423209000000,,BL_TO_BASELINK,BR_TO_BASELINK,FL_TO_BASELINK,FR_TO_BASELINK,3.099009994713306,3.499520885268101,1.942461131118563,2.2175846535724233,-0.0028156504842453667,0.0001388773567798868,9.946028124633351e-05,-0.003972083593561942,0.0,0.0,0.0,0.0
423210000000,128938,423210000000,,BL_TO_BASELINK,BR_TO_BASELINK,FL_TO_BASELINK,FR_TO_BASELINK,3.0990099919764234,3.4995208721544113,1.9424611082440535,2.217581882710057,-2.737523324933353e-06,-1.311627272288906e-05,-2.2878989905594175e-05,-0.002771404016389813,0.0,0.0,0.0,0.0
423211000000,128939,423211000000,,BL_TO_BASELINK,BR_TO_BASELINK,FL_TO_BASELINK,FR_TO_BASELINK,3.099069426155964,3.4995258997523173,1.9424656661427502,2.2175858332796032,0.059325519670929486,0.0050037842213594835,0.004533024353440579,0.003930263403830583,0.0,0.0,0.0,0.0
423212000000,128940,423212000000,,BL_TO_BASELINK,BR_TO_BASELINK,FL_TO_BASELINK,FR_TO_BASELINK,3.099069368420528,3.499525674380642,1.942465269865032,2.217482675666517,-4.536619874059844e-05,-0.00017179894497333648,-0.00030443119190932955,-0.07813299259070494,0.0,0.0,0.0,0.0
423213000000,128941,423213000000,,BL_TO_BASELINK,BR_TO_BASELINK,FL_TO_BASELINK,FR_TO_BASELINK,3.0991126529131527,3.4995269018218593,1.9424665327868347,2.2175246711469203,0.01392161630628545,0.00045663332192067904,0.00043165069955853307,0.011363311699232204,0.0,0.0,0.0,0.0
423214000000,128942,423214000000,,BL_TO_BASELINK,BR_TO_BASELINK,FL_TO_BASELINK,FR_TO_BASELINK,3.0991126528784516,3.499526901821426,1.9424665327860815,2.2175246711165606,-3.92005982015331e-08,-9.2195988690702e-10,-1.2541041382457818e-09,1.1918373536354276e-08,0.0,0.0,0.0,0.0
423215000000,128943,423215000000,,BL_TO_BASELINK,BR_TO_BASELINK,FL_TO_BASELINK,FR_TO_BASELINK,3.099106894534671,3.4995266878263536,1.9424662483644894,2.2175094076147754,-0.005759169597441265,-0.00021411051398012929,-0.0002845803915890559,-0.015268188430315278,0.0,0.0,0.0,0.0
423216000000,128944,423216000000,,BL_TO_BASELINK,BR_TO_BASELINK,FL_TO_BASELINK,FR_TO_BASELINK,3.099106879375066,3.499526628238371,1.9424661424545988,2.217493963066529,-1.5148905478403613e-05,-5.9587559134356705e-05,-0.00010590830529013523,-0.015446237094480553,0.0,0.0,0.0,0.0
423217000000,128945,423217000000,,BL_TO_BASELINK,BR_TO_BASELINK,FL_TO_BASELINK,FR_TO_BASELINK,3.0991305224350594,3.499526675303514,1.9424662269297848,2.2175112410435336,0.023644625743780796,4.7323828780377816e-05,8.47262888370396e-05,0.017280553570012805,0.0,0.0,0.0,0.0
423217000000,128946,423218000000,,BL_TO_BASELINK,BR_TO_BASELINK,FL_TO_BASELINK,FR_TO_BASELINK,3.099130522433917,3.4995266753034198,1.9424662269296569,2.217511241032838,1.5316581091981418e-08,-1.9396364549228995e-10,-2.3159349091250725e-10,-3.4419466738572213e-09,0.0,0.0,0.0,0.0
423219000000,128947,423219000000,,BL_TO_BASELINK,BR_TO_BASELINK,FL_TO_BASELINK,FR_TO_BASELINK,3.0991266464158294,3.4995267103274834,1.9424662216197603,2.2174997430597507,-0.0038773619604440916,3.511358900251671e-05,-5.256031067915959e-06,-0.011499883674737085,0.0,0.0,0.0,0.0
423220000000,128948,423220000000,,BL_TO_BASELINK,BR_TO_BASELINK,FL_TO_BASELINK,FR_TO_BASELINK,3.099126637586224,3.499526674677858,1.9424661594973784,2.2174882210150955,-8.819458167070443e-06,-3.564904444264966e-05,-6.212162343504149e-05,-0.011522694323624304,0.0,0.0,0.0,0.0
423221000000,128949,423221000000,,BL_TO_BASELINK,BR_TO_BASELINK,FL_TO_BASELINK,FR_TO_BASELINK,3.099145863125104,3.499526473893477,1.942466011518773,2.2175025396837373,0.01922688515224555,-0.0002006081043672437,-0.00014778504850716453,0.014320324534357089,0.0,0.0,0.0,0.0
423222000000,128950,423222000000,,BL_TO_BASELINK,BR_TO_BASELINK,FL_TO_BASELINK,FR_TO_BASELINK,3.099170084302223,3.4995263578835623,1.9424658993749446,2.2175024610649174,0.024221168692595003,-0.00011601009680751312,-0.0001121440681915234,-7.861761568931161e-05,0.0,0.0,0.0,0.0
423223000000,128951,423223000000,,BL_TO_BASELINK,BR_TO_BASELINK,FL_TO_BASELINK,FR_TO_BASELINK,3.099157461179331,3.499526315006319,1.9424658178148064,2.217483316928714,-0.012626757154450555,-4.263564027353478e-05,-8.13596712287111e-05,-0.01914530036363882,0.0,0.0,0.0,0.0
423224000000,128952,423224000000,,BL_TO_BASELINK,BR_TO_BASELINK,FL_TO_BASELINK,FR_TO_BASELINK,3.099157449696296,3.499526263651921,1.9424657313316054,2.217469023287812,-1.1472435764884464e-05,-5.135119901679766e-05,-8.647969526305588e-05,-0.014294957122495396,0.0,0.0,0.0,0.0
423225000000,128953,423225000000,,BL_TO_BASELINK,BR_TO_BASELINK,FL_TO_BASELINK,FR_TO_BASELINK,3.099177995879989,3.4995262792885278,1.9424657869468724,2.2174848009264227,0.020547850242587207,1.5907649912693875e-05,5.5890099361272094e-05,0.015781058729122433,0.0,0.0,0.0,0.0
423226000000,128954,423226000000,,BL_TO_BASELINK,BR_TO_BASELINK,FL_TO_BASELINK,FR_TO_BASELINK,3.099177995880787,3.4995262792884,1.942465786946773,2.2174848009220014,1.2133053227045276e-08,-2.5743231678310163e-10,-1.9672533567438588e-10,-2.2004961516136623e-09,0.0,0.0,0.0,0.0
423227000000,128955,423227000000,,BL_TO_BASELINK,BR_TO_BASELINK,FL_TO_BASELINK,FR_TO_BASELINK,3.099173292897561,3.499526357724271,1.942465824653322,2.2174744993317432,-0.004704726657683641,7.850481368729817e-05,3.7741104070312254e-05,-0.010304155636790968,0.0,0.0,0.0,0.0
423228000000,128956,423228000000,,BL_TO_BASELINK,BR_TO_BASELINK,FL_TO_BASELINK,FR_TO_BASELINK,3.0991732847380042,3.499526325669958,1.9424657686190585,2.217463942703162,-8.152492888789664e-06,-3.2051893404303616e-05,-5.603196825987658e-05,-0.010557136576855418,0.0,0.0,0.0,0.0
423229000000,128957,423229000000,,BL_TO_BASELINK,BR_TO_BASELINK,FL_TO_BASELINK,FR_TO_BASELINK,3.0991895965971175,3.4995258313519617,1.942465398578971,2.2174767765491197,0.016328830021267386,-0.0004971250390989742,-0.0003692582399001847,0.012851179229642401,0.0,0.0,0.0,0.0
423230000000,128958,423230000000,,BL_TO_BASELINK,BR_TO_BASELINK,FL_TO_BASELINK,FR_TO_BASELINK,3.0992136121031564,3.499525711416368,1.9424652831503657,2.217476696216675,0.02401562537771834,-0.00011993499754399048,-0.00011542803145457581,-8.033135778749007e-05,0.0,0.0,0.0,0.0
423231000000,128959,423231000000,,BL_TO_BASELINK,BR_TO_BASELINK,FL_TO_BASELINK,FR_TO_BASELINK,3.0991992650026052,3.4995257764156644,1.942465303547543,2.2174575004231976,-0.014351624504717154,6.55116720564286e-05,2.0848391289237517e-05,-0.01919794735694527,0.0,0.0,0.0,0.0
423232000000,128960,423232000000,,BL_TO_BASELINK,BR_TO_BASELINK,FL_TO_BASELINK,FR_TO_BASELINK,3.0991992553216914,3.499525731481249,1.9424652276223071,2.217444113133279,-9.674881957112691e-06,-4.493464329682548e-05,-7.59257116001652e-05,-0.013387663317550466,0.0,0.0,0.0,0.0
423233000000,128961,423233000000,,BL_TO_BASELINK,BR_TO_BASELINK,FL_TO_BASELINK,FR_TO_BASELINK,3.0992137129134836,3.4995264948573155,1.942465958323771,2.2174577722307625,0.014461587392625205,0.0007635590453804247,0.0007300374620629073,0.013664862653605534,0.0,0.0,0.0,0.0
423234000000,128962,423234000000,,BL_TO_BASELINK,BR_TO_BASELINK,FL_TO_BASELINK,FR_TO_BASELINK,3.099213712909515,3.499526494856976,1.9424659583234885,2.217457772230439,3.4095207135029226e-09,-6.786529159821808e-10,-5.58893943278238e-10,-5.569131310625974e-10,0.0,0.0,0.0,0.0
423235000000,128963,423235000000,,BL_TO_BASELINK,BR_TO_BASELINK,FL_TO_BASELINK,FR_TO_BASELINK,3.0992081161174436,3.4995289236924148,1.9424665382970367,2.217460412031544,-0.005596312965593123,0.002431028173807123,0.0005801520754615385,0.002642219673311885,0.0,0.0,0.0,0.0
423236000000,128964,423236000000,,BL_TO_BASELINK,BR_TO_BASELINK,FL_TO_BASELINK,FR_TO_BASELINK,3.099208121404814,3.4995382914870294,1.942466489902884,2.2174603804658695,5.270046015507521e-06,0.00936779960957745,-4.8394162019171514e-05,-3.1547914420118226e-05,0.0,0.0,0.0,0.0
423237000000,128965,423237000000,,BL_TO_BASELINK,BR_TO_BASELINK,FL_TO_BASELINK,FR_TO_BASELINK,3.0992208811019175,3.49953896956527,1.9424671795658703,2.21747505455642,0.012760018357730366,0.0006780855037181663,0.0006896872820647808,0.014675343071350945,0.0,0.0,0.0,0.0
423238000000,128966,423238000000,,BL_TO_BASELINK,BR_TO_BASELINK,FL_TO_BASELINK,FR_TO_BASELINK,3.099220881094899,3.499538969568233,1.9424671795658153,2.21747505455588,-7.896125560694078e-09,2.382853442339794e-09,-8.893861168368655e-11,9.249474675759872e-10,0.0,0.0,0.0,0.0
423239000000,128967,423239000000,,BL_TO_BASELINK,BR_TO_BASELINK,FL_TO_BASELINK,FR_TO_BASELINK,3.0992173370687794,3.499539002631554,1.9424671646518075,2.2174694236132524,-0.003548722985064227,3.296753316760735e-05,-1.5065694979159161e-05,-0.005637902771292367,0.0,0.0,0.0,0.0
423240000000,128968,423240000000,,BL_TO_BASELINK,BR_TO_BASELINK,FL_TO_BASELINK,FR_TO_BASELINK,3.0992173319188847,3.499538980366122,1.9424671260816346,2.2174628549263744,-5.14829753599233e-06,-2.226781337926441e-05,-3.857048329585031e-05,-0.00656887152359427,0.0,0.0,0.0,0.0
423241000000,128969,423241000000,,BL_TO_BASELINK,BR_TO_BASELINK,FL_TO_BASELINK,FR_TO_BASELINK,3.099231270772929,3.499539368186646,1.942467503848988,2.2174768441977584,0.01393956684369485,0.00038773756327091687,0.0003776912851641886,0.013990266911693972,0.0,0.0,0.0,0.0
423242000000,128970,423242000000,,BL_TO_BASELINK,BR_TO_BASELINK,FL_TO_BASELINK,FR_TO_BASELINK,3.0992312707706056,3.4995393681872677,1.9424675038489632,2.2174768441977406,-5.943949898251644e-10,6.68774509729464e-10,-3.936553340244675e-11,1.5644470094389185e-11,0.0,0.0,0.0,0.0
423242000000,128971,423243000000,,BL_TO_BASELINK,BR_TO_BASELINK,FL_TO_BASELINK,FR_TO_BASELINK,3.099227149170364,3.4995395156758144,1.9424676118493593,2.2174708794392277,-0.0041236763884082515,0.00014762782627991428,0.00010785261203513207,-0.005967591207150403,0.0,0.0,0.0,0.0
423245000000,128972,423244000000,,BL_TO_BASELINK,BR_TO_BASELINK,FL_TO_BASELINK,FR_TO_BASELINK,3.0992271445350994,3.4995394995330598,1.9424675810151868,2.217465752377251,-4.632317069533896e-06,-1.6138183536682123e-05,-3.082944141993404e-05,-0.005127509213249566,0.0,0.0,0.0,0.0
423245000000,128973,423245000000,,BL_TO_BASELINK,BR_TO_BASELINK,FL_TO_BASELINK,FR_TO_BASELINK,3.099239368519701,3.4995398659842456,1.9424679366620836,2.2174785159090042,0.012224423569228749,0.0003663767264680817,0.00035557804851604063,0.012764358960694158,0.0,0.0,0.0,0.0
423246000000,128974,423246000000,,BL_TO_BASELINK,BR_TO_BASELINK,FL_TO_BASELINK,FR_TO_BASELINK,3.0992393685175,3.4995398659844534,1.9424679366620552,2.2174785159085886,-1.5662719506787104e-09,3.308935833667981e-10,-5.2556702045958303e-11,-1.2330252444070489e-10,0.0,0.0,0.0,0.0
423247000000,128975,423247000000,,BL_TO_BASELINK,BR_TO_BASELINK,FL_TO_BASELINK,FR_TO_BASELINK,3.0992379021755063,3.49953996633928,1.9424679914064242,2.2174761389787854,-0.0014702840930890092,0.00010072005941075268,5.498091578135054e-05,-0.002382429029126121,0.0,0.0,0.0,0.0
423248000000,128976,423248000000,,BL_TO_BASELINK,BR_TO_BASELINK,FL_TO_BASELINK,FR_TO_BASELINK,3.0992379003826027,3.4995399583827416,1.9424679771670341,2.217474458319904,-1.7934119800515694e-06,-7.957693130544556e-06,-1.4242038042257092e-05,-0.0016808940967823456,0.0,0.0,0.0,0.0
423249000000,128977,423249000000,,BL_TO_BASELINK,BR_TO_BASELINK,FL_TO_BASELINK,FR_TO_BASELINK,3.099245281773717,3.499540213072673,1.9424682144989749,2.2174826037795867,0.007381295421663733,0.00025469437976153924,0.00023733549638173344,0.008145542605454897,0.0,0.0,0.0,0.0
423250000000,128978,423250000000,,BL_TO_BASELINK,BR_TO_BASELINK,FL_TO_BASELINK,FR_TO_BASELINK,3.099245281771971,3.4995402130727173,1.9424682144989553,2.217482603778599,-1.615086065321486e-09,8.085889813616576e-11,-3.4828198484937456e-11,-3.0042360049317707e-10,0.0,0.0,0.0,0.0
423251000000,128979,423251000000,,BL_TO_BASELINK,BR_TO_BASELINK,FL_TO_BASELINK,FR_TO_BASELINK,3.099246609725135,3.4995346018299935,1.9424625318212136,2.2174845806596295,0.001605414672101903,-0.005252467743951213,-0.005281186413408709,0.0019558847931040214,0.0,0.0,0.0,0.0
423252000000,128980,423252000000,,BL_TO_BASELINK,BR_TO_BASELINK,FL_TO_BASELINK,FR_TO_BASELINK,3.099248268538968,3.4995346154253095,1.9424625397879414,2.217484582423765,0.0016587849677554868,1.3601699236207368e-05,7.972652275383633e-06,1.7688598432548386e-06,0.0,0.0,0.0,0.0
423253000000,128981,423253000000,,BL_TO_BASELINK,BR_TO_BASELINK,FL_TO_BASELINK,FR_TO_BASELINK,3.099248268538229,3.499534615425345,1.9424625397873214,2.2174845824225677,6.76308811904669e-10,-1.5509626612522642e-10,-2.3083989147271167e-10,-1.4913261597859773e-12,0.0,0.0,0.0,0.0
423254000000,128982,423254000000,,BL_TO_BASELINK,BR_TO_BASELINK,FL_TO_BASELINK,FR_TO_BASELINK,3.099243846169772,3.4995345524737456,1.9424627681719144,2.217484352392468,-0.004416829997791949,-6.517139135920648e-05,0.0002243355606420562,-0.0002200136980200539,0.0,0.0,0.0,0.0
423255000000,128983,423255000000,,BL_TO_BASELINK,BR_TO_BASELINK,FL_TO_BASELINK,FR_TO_BASELINK,3.099245394271179,3.4995345541884104,1.9424627663170462,2.2174843484107853,0.0015482132256060656,1.712640163550709e-06,-1.8562836936546721e-06,-3.9822791922856406e-06,0.0,0.0,0.0,0.0
423256000000,128984,423256000000,,BL_TO_BASELINK,BR_TO_BASELINK,FL_TO_BASELINK,FR_TO_BASELINK,3.0992453942699214,3.499534554188437,1.9424627663168703,2.2174843484104834,-8.849964446173975e-10,-1.8176765214511503e-11,-5.4588632659308134e-11,-1.875950545078553e-10,0.0,0.0,0.0,0.0
423257000000,128985,423257000000,,BL_TO_BASELINK,BR_TO_BASELINK,FL_TO_BASELINK,FR_TO_BASELINK,3.099238179492982,3.4995352010539698,1.9424633002998153,2.2174823127269576,-0.007213752123432323,0.0006468710522985043,0.0005340145703106591,-0.0020337857611119415,0.0,0.0,0.0,0.0
423258000000,128986,423258000000,,BL_TO_BASELINK,BR_TO_BASELINK,FL_TO_BASELINK,FR_TO_BASELINK,3.099238179487399,3.4995352010539076,1.9424633002996305,2.217482312724199,-8.725860142083652e-09,-1.4795541441320337e-10,-2.7259918714689357e-10,-2.347527495311086e-09,0.0,0.0,0.0,0.0
423259000000,128987,423259000000,,BL_TO_BASELINK,BR_TO_BASELINK,FL_TO_BASELINK,FR_TO_BASELINK,3.099267131822341,3.499535064978133,1.9424631681427655,2.217482219621809,0.028952338187519796,-0.0001360762612412636,-0.000132157640737509,-9.310211099602256e-05,0.0,0.0,0.0,0.0
423260000000,128988,423260000000,,BL_TO_BASELINK,BR_TO_BASELINK,FL_TO_BASELINK,FR_TO_BASELINK,3.099231012085232,3.499510611852232,1.9424641098299045,2.2174593223151025,-0.022663684663982938,-0.013029952229516013,0.0005936854466942823,-0.012069533107122558,0.0,0.0,0.0,0.0
423261000000,128989,423261000000,,BL_TO_BASELINK,BR_TO_BASELINK,FL_TO_BASELINK,FR_TO_BASELINK,3.099231012324072,3.4995148451108733,1.9424642692881378,2.2174643046778257,6.146554114386813e-07,0.004273605791198692,0.000161804353834002,0.005027135531618055,0.0,0.0,0.0,0.0
423262000000,128990,423262000000,,BL_TO_BASELINK,BR_TO_BASELINK,FL_TO_BASELINK,FR_TO_BASELINK,3.0992922757527435,3.4995144788308163,1.9424639323873318,2.2174640810210207,0.06126394198395516,-0.0003662694550237572,-0.00033690718905710765,-0.00022364239793086493,0.0,0.0,0.0,0.0
423263000000,128991,423263000000,,BL_TO_BASELINK,BR_TO_BASELINK,FL_TO_BASELINK,FR_TO_BASELINK,3.0992538147000097,3.499515170030268,1.9424645092838784,2.217427395259307,-0.021665550919785476,0.0001590017210539741,8.069035246235749e-05,-0.0201818213646191,0.0,0.0,0.0,0.0
423264000000,128992,423264000000,,BL_TO_BASELINK,BR_TO_BASELINK,FL_TO_BASELINK,FR_TO_BASELINK,3.099253803005187,3.4995151203574792,1.942464420530717,2.217412625833335,-1.1672402925062136e-05,-4.9877599557931335e-05,-8.903985363149965e-05,-0.014888171398501453,0.0,0.0,0.0,0.0
423265000000,128993,423265000000,,BL_TO_BASELINK,BR_TO_BASELINK,FL_TO_BASELINK,FR_TO_BASELINK,3.0992703771800763,3.499515057933765,1.9424643957404797,2.2174257770505825,0.0165761471487781,-6.219990894753766e-05,-2.4554160359225446e-05,0.013155544485722571,0.0,0.0,0.0,0.0
423266000000,128994,423266000000,,BL_TO_BASELINK,BR_TO_BASELINK,FL_TO_BASELINK,FR_TO_BASELINK,3.099292401909169,3.499514967233905,1.9424643045636554,2.217425710514707,0.022024721221340252,-9.0700499628147e-05,-9.117700713541857e-05,-6.65062362838996e-05,0.0,0.0,0.0,0.0
423267000000,128995,423267000000,,BL_TO_BASELINK,BR_TO_BASELINK,FL_TO_BASELINK,FR_TO_BASELINK,3.0992798285654395,3.499514871071849,1.9424641711633903,2.217404864868925,-0.012577476502102468,-9.575860568424889e-05,-0.00013305285658555578,-0.020847544403510145,0.0,0.0,0.0,0.0
423268000000,128996,423268000000,,BL_TO_BASELINK,BR_TO_BASELINK,FL_TO_BASELINK,FR_TO_BASELINK,3.099279815834123,3.499514813586293,1.9424640749933175,2.2173890024080194,-1.271695675600544e-05,-5.748796948861282e-05,-9.616974032675141e-05,-0.01586390614082154,0.0,0.0,0.0,0.0
423269000000,128997,423269000000,,BL_TO_BASELINK,BR_TO_BASELINK,FL_TO_BASELINK,FR_TO_BASELINK,3.099300929578847,3.499514807380491,1.9424641074128353,2.2174033986789112,0.021115182962237536,-5.963683092989613e-06,3.266049776849342e-05,0.01439894753879858,0.0,0.0,0.0,0.0
423270000000,128998,423270000000,,BL_TO_BASELINK,BR_TO_BASELINK,FL_TO_BASELINK,FR_TO_BASELINK,3.0993009295831495,3.499514807380409,1.9424641074127322,2.2174033986563124,2.07068823129819e-08,-5.474311004505239e-10,-1.994785933656651e-10,-8.018077118920885e-09,0.0,0.0,0.0,0.0
423271000000,128999,423271000000,,BL_TO_BASELINK,BR_TO_BASELINK,FL_TO_BASELINK,FR_TO_BASELINK,3.0992970087112983,3.499514859440133,1.942464118066919,2.2173922152635583,-0.003922644817491654,5.212933495320031e-05,1.0690200965465455e-05,-0.01118598948165848,0.0,0.0,0.0,0.0
423272000000,129000,423272000000,,BL_TO_BASELINK,BR_TO_BASELINK,FL_TO_BASELINK,FR_TO_BASELINK,3.0992970000654054,3.499514825446992,1.94246405836782,2.2173813726589007,-8.636659920307002e-06,-3.399191647096046e-05,-5.969620080282373e-05,-0.010843212183328128,0.0,0.0,0.0,0.0
423273000000,129001,423273000000,,BL_TO_BASELINK,BR_TO_BASELINK,FL_TO_BASELINK,FR_TO_BASELINK,3.099314377113405,3.4995142597028437,1.9424636602527272,2.2173939824854845,0.017388022196523887,-0.0005677860451539559,-0.00039869113059519574,0.012618941307139957,0.0,0.0,0.0,0.0
423274000000,129002,423274000000,,BL_TO_BASELINK,BR_TO_BASELINK,FL_TO_BASELINK,FR_TO_BASELINK,3.099339020047463,3.499514131350388,1.9424635368451266,2.2173938966873585,0.024643174062866514,-0.00012835164196789428,-0.00012340699271121483,-8.5794708363892e-05,0.0,0.0,0.0,0.0
423275000000,129003,423275000000,,BL_TO_BASELINK,BR_TO_BASELINK,FL_TO_BASELINK,FR_TO_BASELINK,3.099325456793574,3.499514170765563,1.942463532208496,2.217374483188255,-0.013567194802740556,3.9924433938763604e-05,-4.186072229978716e-06,-0.01941555725640253,0.0,0.0,0.0,0.0
423275000000,129004,423276000000,,BL_TO_BASELINK,BR_TO_BASELINK,FL_TO_BASELINK,FR_TO_BASELINK,3.099325441503993,3.4995141046050016,1.9424634234795306,2.2173610452758528,-1.522868436415123e-05,-6.594553630665141e-05,-0.00010839222032209793,-0.01343870332120841,0.0,0.0,0.0,0.0
423277000000,129005,423277000000,,BL_TO_BASELINK,BR_TO_BASELINK,FL_TO_BASELINK,FR_TO_BASELINK,3.099345617909986,3.4995140947699745,1.9424634554159788,2.217376849124335,0.02017786976035737,-9.655060190294495e-06,3.2120240288771584e-05,0.015806352713454867,0.0,0.0,0.0,0.0
423278000000,129006,423278000000,,BL_TO_BASELINK,BR_TO_BASELINK,FL_TO_BASELINK,FR_TO_BASELINK,3.099345617910391,3.499514094769925,1.9424634554158935,2.2173768491189634,9.699548506394984e-09,-1.1817770026456564e-10,-1.5849047768634605e-10,-2.240100027348091e-09,0.0,0.0,0.0,0.0
423279000000,129007,423279000000,,BL_TO_BASELINK,BR_TO_BASELINK,FL_TO_BASELINK,FR_TO_BASELINK,3.099341683931989,3.4995141708594444,1.9424634916432932,2.2173677318819145,-0.00393568381119097,7.61969992027732e-05,3.620358635002263e-05,-0.009119510808067853,0.0,0.0,0.0,0.0
423280000000,129008,423280000000,,BL_TO_BASELINK,BR_TO_BASELINK,FL_TO_BASELINK,FR_TO_BASELINK,3.0993416761798063,3.4995141407257213,1.9424634382415764,2.2173581443744794,-7.74745543624493e-06,-3.013376150414089e-05,-5.340159900370234e-05,-0.00958812176989262,0.0,0.0,0.0,0.0
423281000000,129009,423281000000,,BL_TO_BASELINK,BR_TO_BASELINK,FL_TO_BASELINK,FR_TO_BASELINK,3.0993589851804213,3.499512979932862,1.9424625233910096,2.2173717714688763,0.017351851077584246,-0.0011652905253520304,-0.0009134433371953427,0.013706176993795536,0.0,0.0,0.0,0.0
423282000000,129010,423282000000,,BL_TO_BASELINK,BR_TO_BASELINK,FL_TO_BASELINK,FR_TO_BASELINK,3.0993815341104813,3.499512816979906,1.9424623664902256,2.217371662223014,0.022550405705677814,-0.00016295328915912413,-0.00015690098657846277,-0.00010924573214949121,0.0,0.0,0.0,0.0
423283000000,129011,423283000000,,BL_TO_BASELINK,BR_TO_BASELINK,FL_TO_BASELINK,FR_TO_BASELINK,3.099381491532476,3.4995126552069804,1.9424620790485676,2.217297709803315,-4.260898715799377e-05,-0.0001617746197940667,-0.00028744622530542385,-0.0739535373095618,0.0,0.0,0.0,0.0
423284000000,129012,423284000000,,BL_TO_BASELINK,BR_TO_BASELINK,FL_TO_BASELINK,FR_TO_BASELINK,3.0994191878011854,3.4995138616983112,1.9424633030153302,2.2173360051335074,0.013016780410701007,0.001214942830142421,0.0011282963424315206,0.014127893126021269,0.0,0.0,0.0,0.0
423285000000,129013,423285000000,,BL_TO_BASELINK,BR_TO_BASELINK,FL_TO_BASELINK,FR_TO_BASELINK,3.0994191877702217,3.499513861698208,1.9424633030153284,2.217336005127656,-3.482753856056536e-08,-2.0972717919981454e-10,-2.577755717214636e-12,6.378695713987748e-09,0.0,0.0,0.0,0.0
423286000000,129014,423286000000,,BL_TO_BASELINK,BR_TO_BASELINK,FL_TO_BASELINK,FR_TO_BASELINK,3.099412057469305,3.4995138501958767,1.942463234054296,2.217321535993989,-0.007132154799497397,-1.1418248340257231e-05,-6.890416418937201e-05,-0.014470722772198331,0.0,0.0,0.0,0.0
423287000000,129015,423287000000,,BL_TO_BASELINK,BR_TO_BASELINK,FL_TO_BASELINK,FR_TO_BASELINK,3.0994120457696894,3.4995138035591875,1.9424631523496814,2.217307767817246,-1.1689361451083097e-05,-4.6636536084800756e-05,-8.170439197819485e-05,-0.013769197772401091,0.0,0.0,0.0,0.0
423288000000,129016,423288000000,,BL_TO_BASELINK,BR_TO_BASELINK,FL_TO_BASELINK,FR_TO_BASELINK,3.099429006399502,3.499514419578251,1.9424637231067265,2.2173214087360407,0.016962703663285592,0.0006162226411401787,0.0005709809234223685,0.013647195209779226,0.0,0.0,0.0,0.0
423289000000,129017,423289000000,,BL_TO_BASELINK,BR_TO_BASELINK,FL_TO_BASELINK,FR_TO_BASELINK,3.0994290063961323,3.499514419577922,1.942463723106492,2.21732140873614,1.1379368361659481e-08,-6.573100796297693e-10,-4.6459555907291117e-10,2.2452798387889716e-10,0.0,0.0,0.0,0.0
423290000000,129018,423290000000,,BL_TO_BASELINK,BR_TO_BASELINK,FL_TO_BASELINK,FR_TO_BASELINK,3.0994215665620573,3.499511883765697,1.942464338770776,2.2173190666252474,-0.007439232384899186,-0.0025353035603725123,0.0006157593176128965,-0.002341416244395869,0.0,0.0,0.0,0.0
423291000000,129019,423291000000,,BL_TO_BASELINK,BR_TO_BASELINK,FL_TO_BASELINK,FR_TO_BASELINK,3.0994215761984734,3.4995223086665685,1.942464249860782,2.2173190086513017,9.62149207273848e-06,0.010425842161132431,-8.890802841216884e-05,-5.796440632880413e-05,0.0,0.0,0.0,0.0
423292000000,129020,423292000000,,BL_TO_BASELINK,BR_TO_BASELINK,FL_TO_BASELINK,FR_TO_BASELINK,3.099434015614321,3.499522982476658,1.9424649178531705,2.217331243232218,0.012439880079117097,0.0006738110685203524,0.0006680059251169893,0.012235539724123775,0.0,0.0,0.0,0.0
423293000000,129021,423293000000,,BL_TO_BASELINK,BR_TO_BASELINK,FL_TO_BASELINK,FR_TO_BASELINK,3.099434015608651,3.4995229824783074,1.9424649178531368,2.2173312432321595,-2.397340241253043e-09,5.564165066196392e-10,-3.3414796971054095e-11,7.372183592757597e-11,0.0,0.0,0.0,0.0
423294000000,129022,423294000000,,BL_TO_BASELINK,BR_TO_BASELINK,FL_TO_BASELINK,FR_TO_BASELINK,3.099431703332984,3.499522868476836,1.9424646071769978,2.21732508846695,-0.0023202011480986844,-0.00011284599613628921,-0.00030892440615418485,-0.006163707052707595,0.0,0.0,0.0,0.0
423295000000,129023,423295000000,,BL_TO_BASELINK,BR_TO_BASELINK,FL_TO_BASELINK,FR_TO_BASELINK,3.0994316970582503,3.499522841160239,1.9424645599716577,2.217318621400434,-6.272910684020257e-06,-2.7319618828765616e-05,-4.7209210908764725e-05,-0.006467553788209838,0.0,0.0,0.0,0.0
423296000000,129024,423296000000,,BL_TO_BASELINK,BR_TO_BASELINK,FL_TO_BASELINK,FR_TO_BASELINK,3.099445555091336,3.49952316105524,1.9424648697297933,2.2173319396793936,0.01385829960974007,0.0003198311453808788,0.00030969052731780015,0.013318767692374455,0.0,0.0,0.0,0.0
423297000000,129025,423297000000,,BL_TO_BASELINK,BR_TO_BASELINK,FL_TO_BASELINK,FR_TO_BASELINK,3.099445555088934,3.499523161055725,1.9424648697297613,2.217331939679376,2.824136393492216e-10,5.125494195734603e-10,-5.3455165641147495e-11,1.6343697228915488e-13,0.0,0.0,0.0,0.0
423298000000,129026,423298000000,,BL_TO_BASELINK,BR_TO_BASELINK,FL_TO_BASELINK,FR_TO_BASELINK,3.0994425669667205,3.499523292514107,1.9424649632435198,2.2173268773249077,-0.002990656762282938,0.00013158917732105594,9.327969432764305e-05,-0.005066000775781409,0.0,0.0,0.0,0.0
423299000000,129027,423299000000,,BL_TO_BASELINK,BR_TO_BASELINK,FL_TO_BASELINK,FR_TO_BASELINK,3.0994425669666086,3.4995232925138335,1.9424649632435855,2.217326877324732,2.2407267716642587e-09,-7.347271185551008e-10,1.3402868571932292e-10,-5.651741314532943e-11,0.0,0.0,0.0,0.0
423300000000,129028,423300000000,,BL_TO_BASELINK,BR_TO_BASELINK,FL_TO_BASELINK,FR_TO_BASELINK,3.099450375681151,3.499523872032256,1.9424655171408798,2.217335069093366,0.007809061442717778,0.0005795133187714019,0.0005538941252207826,0.008191964396201859,0.0,0.0,0.0,0.0
423301000000,129029,423301000000,,BL_TO_BASELINK,BR_TO_BASELINK,FL_TO_BASELINK,FR_TO_BASELINK,3.0994503756798277,3.4995238720323627,1.9424655171408531,2.217335069092803,-1.1499597107889059e-10,1.5330756889669894e-10,-3.795195928357753e-11,4.864554419004019e-11,0.0,0.0,0.0,0.0
423302000000,129030,423302000000,,BL_TO_BASELINK,BR_TO_BASELINK,FL_TO_BASELINK,FR_TO_BASELINK,3.0994502425960366,3.499523820332442,1.9424653012380961,2.217333507713281,-0.00014398976803672988,-5.2194160406486036e-05,-0.00021555571380230207,-0.001581909387698494,0.0,0.0,0.0,0.0
423303000000,129031,423303000000,,BL_TO_BASELINK,BR_TO_BASELINK,FL_TO_BASELINK,FR_TO_BASELINK,3.099450240830432,3.499523816094138,1.9424652920649343,2.217331649125512,-1.7648062464875602e-06,-4.237003752794767e-06,-9.169831709676668e-06,-0.0018579627249530515,0.0,0.0,0.0,0.0
423304000000,129032,423304000000,,BL_TO_BASELINK,BR_TO_BASELINK,FL_TO_BASELINK,FR_TO_BASELINK,3.099450223864684,3.499523749777513,1.9424651754823312,2.2173012908286474,-1.6970414895955965e-05,-6.631666874960113e-05,-0.0001165827415083448,-0.030358384328504927,0.0,0.0,0.0,0.0
423305000000,129033,423305000000,,BL_TO_BASELINK,BR_TO_BASELINK,FL_TO_BASELINK,FR_TO_BASELINK,3.0994778311023072,3.49952434796009,1.9424658219098863,2.2173318139435647,0.018755727239255466,0.00010513485078338276,0.0001610454484645956,0.020306423935008026,0.0,0.0,0.0,0.0
423306000000,129034,423306000000,,BL_TO_BASELINK,BR_TO_BASELINK,FL_TO_BASELINK,FR_TO_BASELINK,3.099477831093939,3.4995243479602163,1.9424658219098134,2.2173318139431757,-1.0461368042669061e-08,2.4904144892146096e-10,-1.3896575383476328e-10,1.7474502574110762e-10,0.0,0.0,0.0,0.0
423307000000,129035,423307000000,,BL_TO_BASELINK,BR_TO_BASELINK,FL_TO_BASELINK,FR_TO_BASELINK,3.0994654205449574,3.499524407437838,1.9424658354196893,2.217318745192241,-0.012413939190234615,6.003893359407195e-05,1.3991062506820556e-05,-0.013070581330090167,0.0,0.0,0.0,0.0
423308000000,129036,423308000000,,BL_TO_BASELINK,BR_TO_BASELINK,FL_TO_BASELINK,FR_TO_BASELINK,3.099465410038178,3.499524363885036,1.9424657602527802,2.2173041955595174,-1.0508400915758276e-05,-4.355263235751583e-05,-7.51667294557265e-05,-0.01455040493628381,0.0,0.0,0.0,0.0
423309000000,129037,423309000000,,BL_TO_BASELINK,BR_TO_BASELINK,FL_TO_BASELINK,FR_TO_BASELINK,3.099483817747023,3.4995245321387047,1.942465965351456,2.2173229137246953,0.018409299894538607,0.0001684253757417379,0.00020527091364264984,0.018720703205830018,0.0,0.0,0.0,0.0
423310000000,129038,423310000000,,BL_TO_BASELINK,BR_TO_BASELINK,FL_TO_BASELINK,FR_TO_BASELINK,3.0994838177430992,3.4995245321386514,1.9424659653513672,2.2173229137249457,-2.629033740708664e-09,-1.1402835273233158e-10,-1.8228135841014126e-10,5.522799023660596e-10,0.0,0.0,0.0,0.0
423311000000,129039,423311000000,,BL_TO_BASELINK,BR_TO_BASELINK,FL_TO_BASELINK,FR_TO_BASELINK,3.0994632028902096,3.4995458929788503,1.9424652304342374,2.2173024946753124,-0.020547489008967485,0.021851426713487603,-0.0006955634859284292,-0.02032900471915921,0.0,0.0,0.0,0.0
423312000000,129040,423312000000,,BL_TO_BASELINK,BR_TO_BASELINK,FL_TO_BASELINK,FR_TO_BASELINK,3.0994632017541726,3.4995492724441943,1.942465438056928,2.217303744846962,-1.1241161278336114e-06,0.0033795701443746855,0.00020762461931326756,0.0012502191998165337,0.0,0.0,0.0,0.0
423313000000,129041,423313000000,,BL_TO_BASELINK,BR_TO_BASELINK,FL_TO_BASELINK,FR_TO_BASELINK,3.0995273227836257,3.499548844941896,1.9424650531816816,2.2173034954702864,0.06412581116098025,-0.00042757217517595814,-0.0003849328348507694,-0.00024940785729028747,0.0,0.0,0.0,0.0
423314000000,129042,423314000000,,BL_TO_BASELINK,BR_TO_BASELINK,FL_TO_BASELINK,FR_TO_BASELINK,3.099490442337075,3.4995496180961956,1.9424656666111133,2.2172629818079805,-0.025493048281560945,-0.017635139562843644,0.0002673802806937055,-0.01861888530514067,0.0,0.0,0.0,0.0
423315000000,129043,423315000000,,BL_TO_BASELINK,BR_TO_BASELINK,FL_TO_BASELINK,FR_TO_BASELINK,3.099490431743085,3.4995495685494165,1.94246558318161,2.217249539391105,-1.0555892783179616e-05,-4.975311943248087e-05,-8.349862782875209e-05,-0.013528129452005853,0.0,0.0,0.0,0.0
423316000000,129044,423316000000,,BL_TO_BASELINK,BR_TO_BASELINK,FL_TO_BASELINK,FR_TO_BASELINK,3.0995042146048473,3.49954998302083,1.9424659715878505,2.21726565425136,0.013786039996271923,0.000414537302058449,0.0003884758292392841,0.016120325653005967,0.0,0.0,0.0,0.0
423317000000,129045,423317000000,,BL_TO_BASELINK,BR_TO_BASELINK,FL_TO_BASELINK,FR_TO_BASELINK,3.0995042145835257,3.4995499830201515,1.9424659715872323,2.2172656542489335,-2.9443949394955538e-08,-1.3772176784415668e-09,-1.205607795887187e-09,3.5025890746803734e-09,0.0,0.0,0.0,0.0
423318000000,129046,423318000000,,BL_TO_BASELINK,BR_TO_BASELINK,FL_TO_BASELINK,FR_TO_BASELINK,3.099490744897139,3.4995514453678576,1.942467206643098,2.2172482105063587,-0.013473089115249009,0.0014639101295089232,0.001234141083839447,-0.01745297661978069,0.0,0.0,0.0,0.0
423319000000,129047,423319000000,,BL_TO_BASELINK,BR_TO_BASELINK,FL_TO_BASELINK,FR_TO_BASELINK,3.099490744900386,3.4995514453681684,1.9424672066433466,2.2172482105060496,1.5725263868837658e-08,5.948560914681433e-10,5.613547716942779e-10,-2.491227276552044e-10,0.0,0.0,0.0,0.0
423320000000,129048,423320000000,,BL_TO_BASELINK,BR_TO_BASELINK,FL_TO_BASELINK,FR_TO_BASELINK,3.099497957387925,3.4995538462465188,1.942467321327058,2.217248513804119,0.0072116327652419375,0.0024038298404895535,0.00011495433338166213,0.0003066440184238796,0.0,0.0,0.0,0.0
423321000000,129049,423321000000,,BL_TO_BASELINK,BR_TO_BASELINK,FL_TO_BASELINK,FR_TO_BASELINK,3.0994979762879584,3.4995664320355058,1.9424671772218183,2.2172484025313217,1.8933912244809697e-05,0.01258720079860809,-0.00014410801818401375,-0.00011125942363929622,0.0,0.0,0.0,0.0
423322000000,129050,423322000000,,BL_TO_BASELINK,BR_TO_BASELINK,FL_TO_BASELINK,FR_TO_BASELINK,3.099490791111723,3.4995677712892164,1.9424684377313373,2.2172368200255406,-0.007207733639899041,0.0013376977743131762,0.0012500414026382213,-0.01160355393087777,0.0,0.0,0.0,0.0
423323000000,129051,423323000000,,BL_TO_BASELINK,BR_TO_BASELINK,FL_TO_BASELINK,FR_TO_BASELINK,3.099490791114242,3.4995677712903746,1.9424684377320425,2.2172368200255583,7.885068625812508e-09,2.1487986771873135e-09,1.5401202123517532e-09,1.651851054378095e-09,0.0,0.0,0.0,0.0
423324000000,129052,423324000000,,BL_TO_BASELINK,BR_TO_BASELINK,FL_TO_BASELINK,FR_TO_BASELINK,3.099503089135492,3.499567629574557,1.9424683442287627,2.217247170961917,0.012300689985172777,-0.00014197736047806553,-9.367922551541466e-05,0.010353606298526597,0.0,0.0,0.0,0.0
423325000000,129053,423325000000,,BL_TO_BASELINK,BR_TO_BASELINK,FL_TO_BASELINK,FR_TO_BASELINK,3.0995030891338544,3.499567629574514,1.9424683442286828,2.2172471709570267,3.5529083147745055e-11,-1.480809676268624e-10,-1.1669029631455885e-10,1.0247102819049836e-10,0.0,0.0,0.0,0.0
423326000000,129054,423326000000,,BL_TO_BASELINK,BR_TO_BASELINK,FL_TO_BASELINK,FR_TO_BASELINK,3.0994971434466745,3.499567693740265,1.9424683496994142,2.217239233277599,-0.005951686737370049,6.403973238050531e-05,5.275311188205744e-06,-0.007946636474002249,0.0,0.0,0.0,0.0
423327000000,129055,423327000000,,BL_TO_BASELINK,BR_TO_BASELINK,FL_TO_BASELINK,FR_TO_BASELINK,3.099697125216503,3.4997676276880227,1.9426682298513391,2.2174308226353343,0.1999817575465225,0.19993395568287953,0.19988015396309017,0.1914814646041963,0.0,0.0,0.0,0.0
423328000000,129056,423328000000,,BL_TO_BASELINK,BR_TO_BASELINK,FL_TO_BASELINK,FR_TO_BASELINK,3.0999421085601124,3.5001659740690503,1.943066344583677,2.21770152081408,0.24498732963181608,0.3983363970459519,0.3981062721588857,0.27070651969084575,0.0,0.0,0.0,0.0
423329000000,129057,423329000000,,BL_TO_BASELINK,BR_TO_BASELINK,FL_TO_BASELINK,FR_TO_BASELINK,3.1005419627164663,3.5007654562923456,1.9436653942810551,2.218132232936803,0.599854171904122,0.5994822022256663,0.5990495993726035,0.43068148878295776,0.0,0.0,0.0,0.0
423330000000,129058,423330000000,,BL_TO_BASELINK,BR_TO_BASELINK,FL_TO_BASELINK,FR_TO_BASELINK,3.1011418467669998,3.5013649467484926,1.9442645333962005,2.2185943462126225,0.5998840911226027,0.5994904693702504,0.5991391229020039,0.4620955839818849,0.0,0.0,0.0,0.0
423331000000,129059,423331000000,,BL_TO_BASELINK,BR_TO_BASELINK,FL_TO_BASELINK,FR_TO_BASELINK,3.10164240930148,3.5019646036492977,1.9448640002639852,2.219110881817116,0.5005441968794283,0.5996573610375636,0.5994671877854824,0.5165256106476187,0.0,0.0,0.0,0.0
423332000000,129060,423332000000,,BL_TO_BASELINK,BR_TO_BASELINK,FL_TO_BASELINK,FR_TO_BASELINK,3.1022563602629507,3.502562464794634,1.9454619081291877,2.219630516247239,0.6141320035689584,0.5978612709368537,0.5979080061633297,0.519629921952353,0.0,0.0,0.0,0.0
423333000000,129061,423333000000,,BL_TO_BASELINK,BR_TO_BASELINK,FL_TO_BASELINK,FR_TO_BASELINK,3.1028563061081513,3.5031622088992975,1.9460614867147825,2.2201487499939017,0.5999458689132959,0.5997441189810412,0.5995785991765608,0.5182280164486704,0.0,0.0,0.0,0.0
423334000000,129062,423334000000,,BL_TO_BASELINK,BR_TO_BASELINK,FL_TO_BASELINK,FR_TO_BASELINK,3.103443276052678,3.503761751052899,1.946660970976552,2.220716749194562,0.5869668560220846,0.5995421935925502,0.599484290608093,0.5679998118339873,0.0,0.0,0.0,0.0
423335000000,129063,423335000000,,BL_TO_BASELINK,BR_TO_BASELINK,FL_TO_BASELINK,FR_TO_BASELINK,3.1040451595982326,3.504358527205275,1.9470936238649266,2.221318849380154,0.6018266124131333,0.5967800048322409,0.43257839932449577,0.6021359592526584,0.0,0.0,0.0,0.0
423336000000,129064,423336000000,,BL_TO_BASELINK,BR_TO_BASELINK,FL_TO_BASELINK,FR_TO_BASELINK,3.1046452656062353,3.504958599149248,1.9475728963667756,2.2219183134555944,0.6001052058737743,0.6000496068457469,0.47923590297017404,0.5994687644501963,0.0,0.0,0.0,0.0
423337000000,129065,423337000000,,BL_TO_BASELINK,BR_TO_BASELINK,FL_TO_BASELINK,FR_TO_BASELINK,3.105191520152097,3.5055596816693253,1.9481128079731143,2.222518139059682,0.5462503953359855,0.6010825831424006,0.5399024326630772,0.5998265392572151,0.0,0.0,0.0,0.0
423338000000,129066,423338000000,,BL_TO_BASELINK,BR_TO_BASELINK,FL_TO_BASELINK,FR_TO_BASELINK,3.1057914845019763,3.5061595319019867,1.9486223315047368,2.2231182443794495,0.5999643892241079,0.5998502528340768,0.5095222945056487,0.6001059888859005,0.0,0.0,0.0,0.0
423339000000,129067,423339000000,,BL_TO_BASELINK,BR_TO_BASELINK,FL_TO_BASELINK,FR_TO_BASELINK,3.1063649594756964,3.5067606302485137,1.949187186264048,2.223718062870695,0.5734738308720528,0.601098338080675,0.5648507140807009,0.5998189295685642,0.0,0.0,0.0,0.0
423340000000,129068,423340000000,,BL_TO_BASELINK,BR_TO_BASELINK,FL_TO_BASELINK,FR_TO_BASELINK,3.106964941588245,3.507360553374162,1.9497127490458048,2.2243181029589536,0.5999820776967832,0.5999231410583249,0.5255615614406512,0.6000404520741427,0.0,0.0,0.0,0.0
423341000000,129069,423341000000,,BL_TO_BASELINK,BR_TO_BASELINK,FL_TO_BASELINK,FR_TO_BASELINK,3.1075452568393125,3.5079615914028937,1.9502837252542253,2.2249179280702336,0.5803122058014142,0.6010379557280617,0.5709715804389004,0.5998253695212125,0.0,0.0,0.0,0.0
423342000000,129070,423342000000,,BL_TO_BASELINK,BR_TO_BASELINK,FL_TO_BASELINK,FR_TO_BASELINK,3.1081451912070346,3.5085613321011033,1.9508832653415276,2.2253990860523043,0.5999375336566547,0.5997578986506003,0.599574979605345,0.49005288861642027,0.0,0.0,0.0,0.0
423343000000,129071,423343000000,,BL_TO_BASELINK,BR_TO_BASELINK,FL_TO_BASELINK,FR_TO_BASELINK,3.1087553259939043,3.5091620222555884,1.9514839428770898,2.2260116398953578,0.5852009839037258,0.5997458409190525,0.5997176653658608,0.5885424434510564,0.0,0.0,0.0,0.0
423344000000,129072,423344000000,,BL_TO_BASELINK,BR_TO_BASELINK,FL_TO_BASELINK,FR_TO_BASELINK,3.109355325936738,3.509762022236303,1.9520839405078227,2.226611639471482,0.5999999593075427,0.599999994412683,0.5999998859527408,0.6000000155930659,0.0,0.0,0.0,0.0
423345000000,129073,423345000000,,BL_TO_BASELINK,BR_TO_BASELINK,FL_TO_BASELINK,FR_TO_BASELINK,3.1099552785643105,3.51036183878161,1.9526836154264107,2.2271276854053,0.5999525890416411,0.5998165634369329,0.5996762726785627,0.5160433221470232,0.0,0.0,0.0,0.0
423346000000,129074,423346000000,,BL_TO_BASELINK,BR_TO_BASELINK,FL_TO_BASELINK,FR_TO_BASELINK,3.1105785328658513,3.510962391052625,1.9532841786256725,2.2277450145937543,0.6066748168785184,0.599780277722403,0.5997891290423311,0.600226150151345,0.0,0.0,0.0,0.0
423347000000,129075,423347000000,,BL_TO_BASELINK,BR_TO_BASELINK,FL_TO_BASELINK,FR_TO_BASELINK,3.1111784551122987,3.511562114219152,1.9538836964445565,2.228231538439424,0.5999281783282439,0.5997456316258853,0.5995574915592183,0.49611588056608513,0.0,0.0,0.0,0.0
423348000000,129076,423348000000,,BL_TO_BASELINK,BR_TO_BASELINK,FL_TO_BASELINK,FR_TO_BASELINK,3.1118397313847623,3.512161802109839,1.954483398367307,2.2288313315691077,0.6414707227225752,0.5998056666599213,0.5998107940193794,0.5998663044318993,0.0,0.0,0.0,0.0
423349000000,129077,423349000000,,BL_TO_BASELINK,BR_TO_BASELINK,FL_TO_BASELINK,FR_TO_BASELINK,3.112439653241198,3.512761486517862,1.9550828741177604,2.2292999872078223,0.5999437774198483,0.5997590667725842,0.5996126437499549,0.5007271963748685,0.0,0.0,0.0,0.0
