%time,field.header.seq,field.header.stamp,field.header.frame_id,field.wrench.force.x,field.wrench.force.y,field.wrench.force.z,field.wrench.torque.x,field.wrench.torque.y,field.wrench.torque.z
423137000000,4294,423131000000,BL_wheel_link,0.6911889105217853,-0.7777794441458917,-22.12062659365221,0.09569462601099145,0.07067062463179313,0.0017703898886346956
423137000000,4295,423132000000,BL_wheel_link,-0.10529028093463098,-0.16348757295838295,0.051072977860545335,0.010311059077441634,0.0015977384431538682,0.0025388366123803682
423137000000,4296,423133000000,BL_wheel_link,-0.9814465060517513,1.069468721874512,-17.275998582891088,-0.08778992948942649,-0.11214104260074177,-0.003402750667638133
423137000000,4297,423134000000,BL_wheel_link,-0.01523670936985718,0.022547030617642422,-0.00819388497792466,-0.003068408313625797,-0.0047249713829465865,-0.00043837786185884264
423137000000,4298,423135000000,BL_wheel_link,0.9350691869410133,-0.4851504359476425,-23.596080103739812,0.06646589202858572,0.09325709472116535,0.0002332204885428233
423137000000,4299,423136000000,BL_wheel_link,0.05026330646012278,-0.06257365797529293,-0.04445434046159403,0.005931672890975896,0.005641873445423134,4.197722706643824e-05
423137000000,4300,423137000000,BL_wheel_link,-0.3220961543569525,1.94229866901914,-19.82836715105448,-0.18940304956749163,-0.030863035891118256,-0.0003457678595494922
423138000000,4301,423138000000,BL_wheel_link,0.0048422445803045205,0.02031801032027036,0.010918122827199547,-0.0031318094072049886,-0.0018464965992990596,-0.00032165113098304814
423138000000,4302,423139000000,BL_wheel_link,0.9159069779491777,-0.25574952469188317,-20.91563563057062,0.03927917189464777,0.09402277117009841,0.00067853892796954
423140000000,4303,423140000000,BL_wheel_link,1.2408274319575578,-1.2720782378225668,-2.6629877366225996,0.13722569933486747,0.13283399972321328,0.00108535502663968
423141000000,4304,423141000000,BL_wheel_link,-0.20499173829396095,1.9842061833149196,-18.28172424634725,-0.19425664093014125,-0.01540134897097535,8.865156578198629e-05
423142000000,4305,423142000000,BL_wheel_link,0.02153247933320998,0.004796831237041791,0.10187191736763124,-0.004315489204454854,-0.0019576352555863963,-6.557571159039458e-05
423143000000,4306,423143000000,BL_wheel_link,1.131974170001457,-0.4147621207113965,-22.79884959865714,0.05690184232726531,0.11726780005285006,0.0011393553738720155
423144000000,4307,423144000000,BL_wheel_link,0.0610164220373196,-0.05889284609748238,-0.042601233713916775,0.005551688968061127,0.006948990796831898,8.004595354821085e-05
423145000000,4308,423145000000,BL_wheel_link,-0.2803339319976119,1.6323354098438414,-20.223343414507102,-0.154658533330678,-0.026989326769543725,0.0005494914987778498
423146000000,4309,423146000000,BL_wheel_link,0.022487751190919513,0.05453689569712958,-0.0715688732495869,-0.00466213970745425,0.00038105010786505805,-0.001445578515992582
423147000000,4310,423147000000,BL_wheel_link,0.3575366436605256,-0.8355317674260133,-20.034511033083817,0.09933160660280711,0.03930111434584343,0.002518315578029252
423148000000,4311,423148000000,BL_wheel_link,0.041476778058938214,-0.05266197059327606,-0.06585734000150788,0.004614222241343367,0.004844483040906213,5.325012670566252e-05
423149000000,4312,423149000000,BL_wheel_link,-1.0638968141073726,0.6833876899017961,-20.30130508645407,-0.045461115944017666,-0.12425286592934649,-0.004094628273611837
423149000000,4313,423150000000,BL_wheel_link,-0.01122676970496082,-0.02411886487816349,0.03528458200360445,-0.00080436569617578,0.0009815598212167403,0.00028667115602399175
423149000000,4314,423151000000,BL_wheel_link,0.7714395321970783,-0.08997900570687237,-17.333159522805495,0.021706264311422543,0.08205818292224792,0.0013706035841049339
423149000000,4315,423152000000,BL_wheel_link,0.02853236516920281,-0.02519693042514622,-0.0506357622030857,0.0019049707111739903,0.0030427612955408806,3.7256739484725275e-05
423149000000,4316,423153000000,BL_wheel_link,0.1504295286943132,1.249372951356848,-26.79247475446733,-0.11212905559459849,0.015374949953235116,0.00023908417721835856
423149000000,4317,423154000000,BL_wheel_link,0.02000217706324485,0.03157425110724987,-0.07267389462351984,-0.002418521115632161,0.0017988223811627416,-0.0005105650391646287
423155000000,4318,423155000000,BL_wheel_link,0.6680566683754695,0.2506715253052733,-13.253846801754538,-0.0209976615818906,0.07257282230459017,0.0011209455748757962
423156000000,4319,423156000000,BL_wheel_link,0.02196037224273191,-0.014963820477517507,-0.026350616098898907,0.0011536131336599086,0.0024497616637595026,3.266246838774029e-05
423157000000,4320,423157000000,BL_wheel_link,0.3421896146003365,1.332975759364236,-32.10552973728378,-0.11784168456227785,0.03501354219577165,-7.225589761953352e-05
423158000000,4321,423158000000,BL_wheel_link,0.02207254615097415,0.02857518770840878,0.12781162809735833,-0.0017197617763133968,0.003595654864640618,0.0001812317657572677
423159000000,4322,423159000000,BL_wheel_link,-0.0023419490311471602,-0.00013763418083495335,-0.0021824054443943235,-1.709246906484505e-05,-0.00029063187893065316,-7.46853472669985e-06
423160000000,4323,423160000000,BL_wheel_link,0.6225847315126846,0.9595417960051185,-30.663059645997638,-0.07868100633872302,0.06600350009953695,-1.588500924004223e-05
423161000000,4324,423161000000,BL_wheel_link,0.28634078984504047,-0.007106706199119821,-0.25505300053227037,-0.0011782849799868975,0.032863349698978965,0.0008566491251040709
423162000000,4325,423162000000,BL_wheel_link,1.4541406828427184,-1.6810678693510712,-5.251288127159747,0.17774213903457964,0.14999006844940055,0.0008977584019957659
423163000000,4326,423163000000,BL_wheel_link,-0.3192156750898376,2.382255622054694,-21.164114760963265,-0.23259863174541073,-0.02544940522824651,0.00030843954452741554
423164000000,4327,423164000000,BL_wheel_link,0.023299774876648412,0.006693389595628903,0.15399875934312005,-0.0055246139982419095,-0.0025287432314715598,0.00020126052914603854
423165000000,4328,423165000000,BL_wheel_link,0.9715399347715515,-0.21010008136265065,-21.492169571035042,0.032769140293784145,0.10026409438689547,0.0011702325399854164
423166000000,4329,423166000000,BL_wheel_link,1.194123858850892,-1.1491404481276692,-2.300084891052498,0.12359192404622725,0.12872257273305648,0.0012044623586943116
423167000000,4330,423167000000,BL_wheel_link,-0.10434086575521263,0.41292173731928866,-0.9345542562092908,-0.02091094212242171,-0.008522581196087344,-0.0029784928181494186
423168000000,4331,423168000000,BL_wheel_link,1.4713792163976533,-0.7042658004000175,-30.273868429305498,0.07116473905476682,0.1427899567881233,0.0033079217224696324
423169000000,4332,423169000000,BL_wheel_link,0.11683911112430088,-0.06275948526721183,-0.08072832543848601,0.004115941555305261,0.013248596161679005,0.0001846346716307635
423170000000,4333,423170000000,BL_wheel_link,0.5162773744264064,1.8060063820068326,-17.886289434713195,-0.17941618328433226,0.06639308785598813,0.0019037246782527624
423171000000,4334,423171000000,BL_wheel_link,0.0305422407506655,0.01939171458259767,0.01680017588159009,-0.0034585542892579106,0.00018578611900448879,-0.00042815648120509743
423172000000,4335,423172000000,BL_wheel_link,1.381517004536359,-0.572276884702273,-23.693358076429217,0.07412889231233313,0.14464408061912448,0.0014578751640992272
423173000000,4336,423173000000,BL_wheel_link,0.07358436838577098,-0.06891538746911646,-0.048861389495370645,0.006538801212424015,0.008364806398878957,9.33988032672633e-05
423174000000,4337,423174000000,BL_wheel_link,0.07948612228959653,1.719353751554402,-20.084406589353947,-0.1659507091635396,0.01421029761628576,0.0004543113670495743
423175000000,4338,423175000000,BL_wheel_link,0.015767224341225617,0.010407488113740008,0.004316636491498174,-0.0021512785666660044,-0.0005613894691546519,-0.00028741577042247024
423176000000,4339,423176000000,BL_wheel_link,1.0432028116501335,-0.38450114717415595,-21.009346013355422,0.05356280680965537,0.1079113292594792,0.0007986899545642349
423177000000,4340,423177000000,BL_wheel_link,1.34704473305542,-1.3786754414025393,-2.782084684446289,0.14904297833116714,0.14443953824393904,0.0011758459437964557
423178000000,4341,423178000000,BL_wheel_link,-0.38777997248601914,1.178465004128978,-16.341776894263813,-0.10257141380418164,-0.045565048500299965,-0.002104940106785377
423179000000,4342,423179000000,BL_wheel_link,0.008696865020385053,-0.0838661779545608,0.28826538446844424,0.00030783293693870773,-0.0016536639578022992,0.0009748247791718822
423180000000,4343,423180000000,BL_wheel_link,2.480202076594028,-3.492386677878426,-10.77412440061741,0.3731041599322923,0.2486439938841943,0.00020020964020760635
423181000000,4344,423181000000,BL_wheel_link,0.02546002948964643,1.5540592374078572,-19.804690997348224,-0.13580277190251555,0.015135964065604197,0.0019481572073141269
423182000000,4345,423182000000,BL_wheel_link,0.0645011762635069,0.012428282417836882,0.11072591281290534,-0.0055709068721452515,0.001500551402381794,-0.00028243730940924927
423183000000,4346,423183000000,BL_wheel_link,1.4499654124751777,-0.396551395443525,-22.54544681201171,0.051983511987912644,0.15399003895381563,0.0022765734685379815
423184000000,4347,423184000000,BL_wheel_link,0.07773642442867566,-0.05877202191536427,-0.03942627380883152,0.0055279291184037824,0.00892412872956928,0.00012957874887912816
423185000000,4348,423185000000,BL_wheel_link,0.2356357050613628,1.7270896117728565,-21.02726364880324,-0.1682364602454427,0.031534623494648126,0.000973515303261207
423186000000,4349,423186000000,BL_wheel_link,0.021828551238873402,0.0026337100367723083,0.00562557553313883,-0.001672366255469828,0.0001160810524539999,-0.00020464131662758733
423187000000,4350,423187000000,BL_wheel_link,0.9861044260343721,-0.3328542239785074,-19.846235654109837,0.04575211609206316,0.10143600437275459,0.0008203059059707877
423188000000,4351,423188000000,BL_wheel_link,2.059868868373116,-2.091207948267058,-3.7735994392052024,0.22886529312273374,0.2221388964815885,0.0017175106490572543
423189000000,4352,423189000000,BL_wheel_link,-0.185908125595945,1.904763794225699,-17.971099198654006,-0.18650927351338878,-0.01405918330840638,4.4328773096355325e-05
423190000000,4353,423190000000,BL_wheel_link,0.026375768088211834,-0.0009705539451853363,0.10492167480751717,-0.004102989792292909,-0.0019284376570921939,-7.66822407655695e-05
423191000000,4354,423191000000,BL_wheel_link,1.1508701542059117,-0.4608709675681389,-22.79981283399011,0.06181573603154682,0.11885323297637655,0.0010981981963927067
423192000000,4355,423192000000,BL_wheel_link,0.06151376194312652,-0.061407080490796406,-0.042409186245396975,0.005826541171361942,0.006970717261550402,7.814642410380505e-05
423193000000,4356,423193000000,BL_wheel_link,-0.060013263435726855,1.8070162261135994,-20.714457483953172,-0.1755006705492729,-0.002009409924525914,0.00018685808620442623
423194000000,4357,423194000000,BL_wheel_link,0.013657023245099289,0.009884359940483691,0.00683016310262698,-0.0022299655158966453,-0.0008363259332133556,-0.00027088134858491847
423195000000,4358,423195000000,BL_wheel_link,0.9221107388993726,-0.2780623962445584,-20.04189776198301,0.04085907986683771,0.09467773270000156,0.0006441225051104066
423196000000,4359,423196000000,BL_wheel_link,1.4781298759729447,-1.5325470488422723,-3.130357610282488,0.16632454333585828,0.1583293580241606,0.001243637440052021
423197000000,4360,423197000000,BL_wheel_link,-0.18126859295404643,1.9639916665104888,-18.406811020857763,-0.19205426684058519,-0.012900130797007593,0.00010235346724030885
423198000000,4361,423198000000,BL_wheel_link,0.02514938081478072,-0.0018280896199631127,0.10697174485657705,-0.003946667736524475,-0.0018047054549282064,-6.126540719255342e-05
423199000000,4362,423199000000,BL_wheel_link,0.5204932795521312,-0.936120608541985,-21.64600693025527,0.11318912874788174,0.05449879225671253,0.0025094171091402983
423200000000,4363,423200000000,BL_wheel_link,0.05346722997590421,-0.059935231578378365,-0.0784742979362436,0.005277100444798209,0.00621083350819794,4.813270013522445e-05
423201000000,4364,423201000000,BL_wheel_link,-1.4354606548540818,0.3670307656307221,-17.662430859148227,-0.012560327912958528,-0.16461193858142176,-0.0052138928333125755
423202000000,4365,423202000000,BL_wheel_link,0.00320830062098495,-0.0151229246855896,0.06548735120932862,1.8359228724873898e-05,-0.0003917905671487936,-8.755292585662179e-05
423203000000,4366,423203000000,BL_wheel_link,1.052375069891706,-0.4436660813697178,-19.41035167563835,0.061188244576359165,0.1116699188442022,0.0021137469069781017
423204000000,4367,423204000000,BL_wheel_link,0.040338464232153204,-0.03645710277600146,-0.06546858782930846,0.0029489889072490034,0.004346388760830454,5.15393686967214e-05
423205000000,4368,423205000000,BL_wheel_link,0.02213574716814526,1.689940865753128,-23.549150159082732,-0.16337535857970137,0.004855227629307913,0.0004185773149894144
423206000000,4369,423206000000,BL_wheel_link,0.016954747513122762,0.006717304389041418,-0.007962873617628386,-0.0021182957441740276,-0.0003242896642801898,-0.0001897297680014589
423207000000,4370,423207000000,BL_wheel_link,1.1678559610103398,-0.5225607024470619,-17.8674945906914,0.06641015845068467,0.12269783886449152,0.0009984396982103312
423208000000,4371,423208000000,BL_wheel_link,0.044069015430338185,-0.043340973730588955,-0.05643715500172148,0.00382646810127997,0.004920354155128515,4.456792903210372e-05
423209000000,4372,423209000000,BL_wheel_link,-0.02274526538783528,1.8633837529174524,-25.35712282206842,-0.18028394557516528,0.0001811893857986484,0.0002053772496426172
423210000000,4373,423210000000,BL_wheel_link,0.014473260483822206,0.0009715811128300668,0.00956518217853752,-0.0009221011715361407,0.00037144064739348426,-0.00015199488439927088
423211000000,4374,423211000000,BL_wheel_link,2.475833457668512,-2.819772980192586,-9.522256093458985,0.2948010932504172,0.25524088061106864,0.00150503630271096
423212000000,4375,423212000000,BL_wheel_link,-0.1410145544185927,0.5298236921253325,-1.25522160255678,-0.02084685590063358,-0.007486832510595577,-0.003010841242037051
423213000000,4376,423213000000,BL_wheel_link,1.6411331908785693,-0.6369463873955714,-31.35895032171871,0.06188384448320264,0.16206175627435546,0.004208509461069368
423214000000,4377,423214000000,BL_wheel_link,0.12333558740249069,-0.06325760966983467,-0.07379829959321704,0.004133633117814462,0.014095285070767632,0.0002151336409354698
423215000000,4378,423215000000,BL_wheel_link,0.7027048890563159,1.6104699412442078,-17.492819101321725,-0.1590335564999536,0.08673545000397426,0.002309158364950677
423216000000,4379,423216000000,BL_wheel_link,0.039424390505884886,0.01695645297095644,0.009326131256322714,-0.0032327706357583312,0.0008189564528362471,-0.0004455186738426031
423217000000,4380,423217000000,BL_wheel_link,1.4937058712371876,-0.6572593484321924,-24.07100592798691,0.08345442198139842,0.15688100265501628,0.0016716516324608512
423217000000,4381,423218000000,BL_wheel_link,0.07947681628730581,-0.07305221233663013,-0.0520636618894664,0.007074110661410699,0.009042638234585216,0.00010110902222746019
423219000000,4382,423219000000,BL_wheel_link,0.14730737126542048,1.6557697033998608,-19.738698547766028,-0.15890540726106772,0.02185866691481349,0.0005430534245598085
423220000000,4383,423220000000,BL_wheel_link,0.019142779216855116,0.00733158600203634,0.008001018887098407,-0.001984947603041955,-0.00040684561206159626,-0.00028299245299121635
423221000000,4384,423221000000,BL_wheel_link,1.1135934461584927,-0.461109166127297,-21.463510659926698,0.06226038287253425,0.11537524760260186,0.000864656926480221
423222000000,4385,423222000000,BL_wheel_link,1.3710349563864983,-1.3947514642963834,-2.7022689627769454,0.15104063337466958,0.14730729091986017,0.0012117700835052128
423223000000,4386,423223000000,BL_wheel_link,-0.0490885262023216,1.7695680433496708,-18.11927445808354,-0.17123665236724056,0.0011027788912904538,0.00017440929678260103
423224000000,4387,423224000000,BL_wheel_link,0.027216171290271388,0.00015374553578668363,0.09336947872576644,-0.0036818096627324144,-0.0014500143342159588,-0.00010528890316875926
423225000000,4388,423225000000,BL_wheel_link,1.2068424088217622,-0.5157363019532747,-23.036333864078397,0.06824945360203818,0.12506674576106863,0.0011402617964980483
423226000000,4389,423226000000,BL_wheel_link,0.06430299473604283,-0.0638951138812386,-0.044236534046572504,0.006139323537131277,0.007299214716510869,7.849013334531389e-05
423227000000,4390,423227000000,BL_wheel_link,-0.03394705523528971,1.7791243938292756,-20.547393544111046,-0.1722478730155604,0.0010772288972759963,0.00022569178441815877
423228000000,4391,423228000000,BL_wheel_link,0.013443552490696982,0.011054015632255061,0.005744242042946622,-0.0022194161315492907,-0.0008044044609823332,-0.0002743179383387372
423229000000,4392,423229000000,BL_wheel_link,0.9477039023850372,-0.3033482640500752,-20.300687546344026,0.04420238124927345,0.09755002780719377,0.000680156309851575
423230000000,4393,423230000000,BL_wheel_link,1.3261727665731775,-1.3766766278976479,-2.9101077812748297,0.14881092507067767,0.1418265004071431,0.0011202846592713966
423231000000,4394,423231000000,BL_wheel_link,-0.15548294102420918,1.9383807236752042,-18.475486093232366,-0.18905720018210853,-0.010015987016302314,0.00012670742622650005
423232000000,4395,423232000000,BL_wheel_link,0.02500437595553119,-0.0016074935845507379,0.10451056913376322,-0.0038354130788444255,-0.0017162448112532033,-6.078813825774669e-05
423233000000,4396,423233000000,BL_wheel_link,0.8676546586594062,-0.731140787803909,-22.046670371888922,0.09306490024309973,0.0848023349859739,0.000547486092608985
423234000000,4397,423234000000,BL_wheel_link,0.08886491957682208,-0.04820141413515818,-0.0750884988922774,0.004193722463656911,0.010024039615888412,7.396109066779214e-05
423234000000,4398,423235000000,BL_wheel_link,-1.4378518052522518,0.12454457080554784,-17.089842416363833,0.010151002440673827,-0.1599890559322765,-0.003729645162553806
423236000000,4399,423236000000,BL_wheel_link,0.007351358819174432,-0.011470200761327473,0.05329128558663916,0.00019690336503530635,-0.00020017377500020187,-1.710052404469358e-05
423237000000,4400,423237000000,BL_wheel_link,1.2919723729264785,-0.7114269458921866,-19.505939221012436,0.08908021147620052,0.13772126775056245,0.002953400631088329
423238000000,4401,423238000000,BL_wheel_link,0.04910356921313443,-0.04536012192300973,-0.07208787534782243,0.0037567033545049884,0.005364076691939416,7.465674626710819e-05
423239000000,4402,423239000000,BL_wheel_link,0.0009852089637231443,1.7994745740828755,-23.41684951374326,-0.17518299380247043,0.003500734771340131,0.0005777723881670565
423240000000,4403,423240000000,BL_wheel_link,0.013379769859286232,0.007564560393702684,0.00268748562734897,-0.001819263480797119,-0.0001592944041329428,-6.639926993474364e-05
423241000000,4404,423241000000,BL_wheel_link,1.2602732531501013,-0.6369674888214067,-18.620494613534643,0.07966913936427868,0.13233257064185572,0.0010069153841085515
423242000000,4405,423242000000,BL_wheel_link,0.047072613997243884,-0.04694792833335383,-0.06264910729504317,0.0041193524561841865,0.005220215319768396,4.486543486541382e-05
423242000000,4406,423243000000,BL_wheel_link,-0.09550923147864454,1.9180332184268272,-24.220845270166958,-0.18656291931404392,-0.007208893226349828,0.00015587987829329903
423244000000,4407,423244000000,BL_wheel_link,0.01351476643621345,0.0027120886712874064,0.014990852771265996,-0.0014452011991899815,-9.884825035122117e-05,-0.0001088308139403025
423245000000,4408,423245000000,BL_wheel_link,1.0955001084759344,-0.4887957042613431,-17.468243675715705,0.06341501991244879,0.11500478503123773,0.0007746479661223115
423246000000,4409,423246000000,BL_wheel_link,0.04158843888998491,-0.04117916981534046,-0.056442624996026695,0.003603840531756604,0.004611869213747221,3.850312791086138e-05
423247000000,4410,423247000000,BL_wheel_link,0.05675014413126317,1.756542606382241,-26.202714829930553,-0.16830186751448248,0.008214381862408698,0.000208577750381112
423248000000,4411,423248000000,BL_wheel_link,0.013652349691813847,0.0027876923049011872,-0.0013451020417995232,-0.0005746484996085498,0.0007516892561589679,-0.0001753603578424478
423249000000,4412,423249000000,BL_wheel_link,0.7154591370893771,-0.06652393290820902,-14.340883989772175,0.016348678699057526,0.07578632352387657,0.0006547393733438581
423250000000,4413,423250000000,BL_wheel_link,0.027191416130917884,-0.024797181459609817,-0.036009158457547166,0.0021678222153735404,0.0030254289927830733,2.99905209030827e-05
423251000000,4414,423251000000,BL_wheel_link,0.3217394250746587,1.293760389557151,-31.392442859697592,-0.11587319272331133,0.032059577763824454,0.00016801447721758616
423252000000,4415,423252000000,BL_wheel_link,0.3604289368590559,-0.03895675218344117,-0.1234212998122644,0.006006816913118311,0.04294608844159811,0.0006469967485078648
423253000000,4416,423253000000,BL_wheel_link,0.01138665447799088,-0.006147089329852309,-0.010932660933365989,0.0005035396980680604,0.0012270330831334023,2.8078324126306372e-05
423254000000,4417,423254000000,BL_wheel_link,0.48424541970867885,1.007703467591592,-30.786319893162,-0.08180007271080318,0.05045694909280683,-0.00044670735915421555
423255000000,4418,423255000000,BL_wheel_link,0.4067568104002809,-0.04029538622579296,-0.4927416205550832,0.002000277804103244,0.0462289777350231,0.0011376561053678621
423256000000,4419,423256000000,BL_wheel_link,0.009169250757040824,-0.006294540425845929,-0.008376281505660532,0.0004789977235673304,0.0009932029301742802,1.7260030494829915e-05
423257000000,4420,423257000000,BL_wheel_link,0.33112943301186065,0.8146150841977823,-31.910038563215764,-0.05865903676991905,0.03149055333894739,-0.00042148979745314084
423258000000,4421,423258000000,BL_wheel_link,0.03665033263876467,0.01775327104777685,-0.02594531158574819,-0.002215737779293794,0.004163380970426133,6.90161618067738e-05
423259000000,4422,423259000000,BL_wheel_link,1.6373330582819683,-1.5202938673949076,-5.263102661012356,0.15753913497156455,0.17215322468790653,0.0018180727840607632
423260000000,4423,423260000000,BL_wheel_link,-0.9882478436048612,1.3006709601301067,-17.398325040923755,-0.11252372831433843,-0.1097418602472657,-0.003211378089855545
423261000000,4424,423261000000,BL_wheel_link,0.030522600023423854,-0.022158351610932644,0.2575213439113684,-0.002097763120832554,-0.002352860690528834,0.00035361711745944893
423262000000,4425,423262000000,BL_wheel_link,2.5157976545836704,-3.2885533550946744,-10.86945312844372,0.3477083099788767,0.2537165790805054,0.0007742732162350262
423263000000,4426,423263000000,BL_wheel_link,0.03456361534951091,1.8929860394199343,-19.93827764964359,-0.1748998280228127,0.018246449839100506,0.0025191241833881807
423264000000,4427,423264000000,BL_wheel_link,0.05377362251160743,0.009205984952159138,0.1373845074634459,-0.005916654638583305,0.000834748787702751,0.00046084984949671927
423265000000,4428,423265000000,BL_wheel_link,1.319440355042871,-0.32018068244589193,-21.862248814323177,0.04301054233273243,0.13970044354699102,0.0022315757349633744
423266000000,4429,423266000000,BL_wheel_link,1.4463670668460455,-1.2469806453405554,-2.3897553623742858,0.13368430486121538,0.157465512084308,0.0017670556300214521
423267000000,4430,423267000000,BL_wheel_link,0.009351027578785864,1.739834933243421,-17.837331055087308,-0.16955975759024236,0.007386718065826742,0.00044519120659634154
423268000000,4431,423268000000,BL_wheel_link,0.03213498219482253,-0.004515474905497817,0.09699107777583664,-0.003765411778124031,-0.0012599400798104998,-9.534665427101087e-05
423269000000,4432,423269000000,BL_wheel_link,1.2409870328145969,-0.548873642456171,-22.999459404908745,0.07138398904025564,0.1285941273904849,0.0011793102034879962
423270000000,4433,423270000000,BL_wheel_link,0.0662972709318363,-0.06732190988411205,-0.044031808308857626,0.006323233732996583,0.007506432912875798,7.85189173846749e-05
423271000000,4434,423271000000,BL_wheel_link,0.01855876989282068,1.705830022625706,-20.549146008545378,-0.16437761417945412,0.006520446406185264,0.00020387364026112909
423272000000,4435,423272000000,BL_wheel_link,0.017197385182862027,0.005265248798780045,0.008104026779940198,-0.0019139881776844983,-0.0006019578235022214,-0.0003103402435730987
423273000000,4436,423273000000,BL_wheel_link,0.9787691759731921,-0.3504972884690971,-20.265572133043182,0.049303201183614934,0.10078206301965034,0.0006542240644367039
423274000000,4437,423274000000,BL_wheel_link,1.385255728079461,-1.4455895291498648,-2.9927570370644836,0.15646292956719296,0.14819001459247988,0.0011483683753089786
423275000000,4438,423275000000,BL_wheel_link,-0.11387331495328679,1.8824575636225176,-18.45810143579052,-0.18305815335398792,-0.005618882845813238,0.00012613793978315897
423275000000,4439,423276000000,BL_wheel_link,0.027172893177775825,-0.004263142381403623,0.10327177337579019,-0.003597846715134032,-0.0015363159589006836,-9.238307811632631e-05
423277000000,4440,423277000000,BL_wheel_link,1.1773627988264153,-0.5043774209759042,-22.688077828215533,0.06692454308116072,0.12198226754172088,0.0011103413721708778
423278000000,4441,423278000000,BL_wheel_link,0.06311868073127869,-0.06322306474227199,-0.04285643215379039,0.006027465120604442,0.007171740368070101,7.763020958253178e-05
423279000000,4442,423279000000,BL_wheel_link,0.0045366782016877105,1.738814744332241,-21.000943641122298,-0.16778979476573858,0.005068812309992647,0.00024938350110279223
423280000000,4443,423280000000,BL_wheel_link,0.013654392335614577,0.010539590265686597,-0.0001674594803596602,-0.0020038248190652644,-0.0005564964048838838,-0.00027229409443149194
423281000000,4444,423281000000,BL_wheel_link,0.9269132172722103,-0.2844626536904574,-19.947928711723517,0.041234888259638586,0.09507377918033266,0.0006227780531967262
423282000000,4445,423282000000,BL_wheel_link,1.6735461749648892,-1.7243084112099867,-3.35754815801556,0.1879550452810381,0.1799328277559852,0.0014647008818798606
423283000000,4446,423283000000,BL_wheel_link,-0.10484554101595522,0.41651539043730085,-0.9710475532946765,-0.020639922030250557,-0.008239852654316392,-0.0029999918037984285
423284000000,4447,423284000000,BL_wheel_link,1.4017405066315185,-0.8617534865626695,-30.201812260693178,0.08974278308348448,0.1341649456443784,0.003064173148639722
423285000000,4448,423285000000,BL_wheel_link,0.12766593415358413,-0.06109133556221186,-0.10140085783800552,0.003745551507589967,0.01438917890062965,0.000190424850440679
423286000000,4449,423286000000,BL_wheel_link,0.6197388364677549,1.894589482854308,-18.453371535792638,-0.18931080071117337,0.07884717046859083,0.002248120640269604
423287000000,4450,423287000000,BL_wheel_link,0.03277346477236725,0.01604618721272112,0.019506897505599044,-0.0030870310370849467,0.000539679678006368,-0.00041209719240961005
423288000000,4451,423288000000,BL_wheel_link,1.1429069672538728,-0.7720788264432388,-22.825363985047158,0.0973650624626746,0.11637321879890984,0.0011184168322186223
423289000000,4452,423289000000,BL_wheel_link,0.09333012788838198,-0.05564630006099709,-0.07004392872869343,0.005009605967768136,0.010544851906684657,8.562216722619437e-05
423290000000,4453,423290000000,BL_wheel_link,-0.8666427904275242,0.42714361753126195,-17.558718854864807,-0.022319494094916546,-0.0971353054757727,-0.002691159843994995
423291000000,4454,423291000000,BL_wheel_link,0.011542813052674775,-0.032844408787836066,0.09853190417761812,0.0013088655780404761,0.0003900430104756228,-0.00010811246294240389
423292000000,4455,423292000000,BL_wheel_link,1.2472959609551943,-0.7083595118613486,-19.590406246963997,0.09060642236426274,0.13300706175849566,0.002614828810333065
423293000000,4456,423293000000,BL_wheel_link,0.04609594685349174,-0.04386833105670702,-0.06977940073608854,0.0036722031126670425,0.004999213676239457,5.969188025027961e-05
423294000000,4457,423294000000,BL_wheel_link,0.11136884966336547,1.5711103490696636,-23.527740378660233,-0.15029492762104366,0.014474356655963489,0.0004853826357650627
423295000000,4458,423295000000,BL_wheel_link,0.016904450864741922,0.005837156638559119,-0.01000285069403659,-0.0016760994797659172,-3.251079907483782e-05,-0.0001611952727209285
423296000000,4459,423296000000,BL_wheel_link,1.2302748370526155,-0.6166870614722536,-18.150205388030365,0.07708999906183868,0.1291799104533977,0.000999683415044898
423297000000,4460,423297000000,BL_wheel_link,0.04573417285055008,-0.0459846230994601,-0.05867213118263158,0.0040967372489908085,0.005088890490620453,4.412800029172348e-05
423298000000,4461,423298000000,BL_wheel_link,-0.04109977680032362,1.8503814642903944,-24.967005520907197,-0.17889033210077834,-0.0017960448776742708,0.00016494596721398913
423299000000,4462,423299000000,BL_wheel_link,0.0037331336779011567,0.009892692555460743,0.004035797140550558,-0.0008647433048529456,0.00040454088078018804,7.704787604110253e-06
423300000000,4463,423300000000,BL_wheel_link,0.8369804930432793,-0.1802289976617048,-16.776290897642525,0.03097606125705485,0.08828948009902343,0.0005408418012903044
423301000000,4464,423301000000,BL_wheel_link,0.030378037569131412,-0.028166021745325735,-0.05210336033416582,0.002288807489667401,0.003251634358558642,2.4568492010041418e-05
423302000000,4465,423302000000,BL_wheel_link,0.18693624690744037,1.5380892838564861,-27.726876229669205,-0.1442542953132529,0.02059026000541024,0.00018647168268548834
423303000000,4466,423303000000,BL_wheel_link,0.009707030908261046,0.010390027673082414,-0.028079340363355732,-0.0004971765962822693,0.0011485785622702834,-0.00014233574376094606
423304000000,4467,423304000000,BL_wheel_link,-0.04730741962126137,0.1469397168664851,-0.2793088074746786,-0.008741819531796978,-0.005547238353791932,-0.0011786837597638523
423305000000,4468,423305000000,BL_wheel_link,1.3521736885544322,-0.3484355138781729,-29.586170206091534,0.04768318479079255,0.13818807513477926,0.001864144823247784
423306000000,4469,423306000000,BL_wheel_link,0.07497504312431293,-0.06584093015063312,-0.05252214608728986,0.005556045959487102,0.008566610016167878,0.00011999696418550148
423307000000,4470,423307000000,BL_wheel_link,-0.032745078680389256,1.7468389518697622,-17.548322135361953,-0.16900654530900586,0.003221377906186639,0.0004145222789678029
423308000000,4471,423308000000,BL_wheel_link,0.009287534614403986,0.039173035860481674,0.018718017441989608,-0.00505664428455365,-0.0015839925074416666,-0.0003010352308382521
423309000000,4472,423309000000,BL_wheel_link,1.2114462966593764,-0.4048973577525351,-24.015363673920117,0.05574660302788105,0.1261786523327328,0.0013803581263494994
423310000000,4473,423310000000,BL_wheel_link,0.0648516579366862,-0.05918930670042626,-0.04834455875234255,0.005457453687050354,0.00738794521797767,8.986564606234034e-05
423311000000,4474,423311000000,BL_wheel_link,-0.3476381520052816,1.70543385525097,-18.365571801703055,-0.1609984498693999,-0.033614555250199865,0.0004995988054205514
423312000000,4475,423312000000,BL_wheel_link,-0.04473434232094759,-0.11441903068000088,0.16297596504880546,0.0003224139674405807,-0.003756359266867659,0.0009793648553677405
423313000000,4476,423313000000,BL_wheel_link,2.161508206169064,-3.468166411292168,-10.434732225802904,0.3724050096734356,0.21218678930340637,-0.0007228417721145582
423314000000,4477,423314000000,BL_wheel_link,-0.22324948202158906,1.3632494040092678,-18.76720029816383,-0.11002896340795536,-0.02293706956639956,-0.001759603496500444
423315000000,4478,423315000000,BL_wheel_link,0.07079895061913676,0.0315923137005484,0.08360565849655349,-0.007309449049685752,0.002900106694756,-5.537634360446614e-05
423316000000,4479,423316000000,BL_wheel_link,1.4451443189108628,-0.4581290758204094,-22.96116339158017,0.05861477432667347,0.1534821792526692,0.0027620779650124414
423317000000,4480,423317000000,BL_wheel_link,0.10199187384993992,-0.04720683297612011,-0.05562176654918755,0.004053395364484009,0.01174244009952128,0.00016799706313311286
423318000000,4481,423318000000,BL_wheel_link,0.17891206310314423,1.726994083327728,-20.11308953382855,-0.16779188096521883,0.027367255042848423,0.002105869952376704
423319000000,4482,423319000000,BL_wheel_link,0.034754371582925325,0.03339015136549204,-0.039796294996839406,-0.004026161390275693,0.003616350428754542,-4.786721376041246e-05
423320000000,4483,423320000000,BL_wheel_link,0.46212242794341885,-0.4880373684720668,-21.649906566482258,0.06842548065893263,0.050540546690074524,0.0011784468243586318
423321000000,4484,423321000000,BL_wheel_link,-0.04217542631466597,-0.11158679339128554,0.03106237519615081,0.006143188793244817,0.0020550031926703212,0.0010994343581668031
423322000000,4485,423322000000,BL_wheel_link,-0.4173662440451748,0.9316851342284734,-18.654752740426236,-0.07591079250134974,-0.048729778672412113,-0.002234971275631168
423323000000,4486,423323000000,BL_wheel_link,-0.012209114549531904,0.01540334097862825,-0.045723571441176725,-0.0021690383746351023,-0.0019757827025263237,-6.67053626225824e-05
423324000000,4487,423324000000,BL_wheel_link,0.7329997911440699,-0.06812608157847286,-22.60555567964225,0.022925101143736158,0.0741889997353074,5.725810726337453e-06
423325000000,4488,423325000000,BL_wheel_link,0.035745209046166376,-0.03866837136904898,-0.015412264357545558,0.003701056678186737,0.004131681076980411,4.102873349323914e-05
423326000000,4489,423326000000,BL_wheel_link,-0.29368707109751246,1.9255738775886089,-21.838149985710544,-0.18890208780135664,-0.029249014679098555,-0.00020718668535989063
423327000000,4490,423327000000,BL_wheel_link,0.05523447188893491,-0.12767227503773246,0.22980374144187193,-0.05761933168005979,-0.002462512404398845,-0.0030090472155543083
423328000000,4491,423328000000,BL_wheel_link,-1.7844944323806775,5.382991270265731,-5.470422673304484,-0.6839845048624796,-0.19990057399577843,-0.005322332302638623
423329000000,4492,423329000000,BL_wheel_link,0.2343383010291876,0.08569020098218835,0.5690209877394513,-0.10064297132274691,-0.0152091924465577,-0.009746768491541812
423330000000,4493,423330000000,BL_wheel_link,0.3389568803378188,-0.3444429254867851,0.3351515103970909,-0.0019753899851333726,-0.0038083095162207295,-0.0033978747836120606
423331000000,4494,423331000000,BL_wheel_link,-0.0938189557146833,5.351085490250749,-11.04008162699817,-0.6442568222259708,-0.005181781059225036,0.011245317940154972
423332000000,4495,423332000000,BL_wheel_link,-1.1727378374934707,2.85032991824586,-2.087494714294701,-0.3287620449252315,-0.13166599338601775,0.0026718512185625286
423333000000,4496,423333000000,BL_wheel_link,0.10646958418011591,-0.14576842665479867,0.06043899390474063,-0.001198921664904409,-0.006160033426712851,-0.0006735127850065228
423334000000,4497,423334000000,BL_wheel_link,1.0343127834997545,1.341648735866843,-20.391574020841897,-0.16767894130594532,0.10611271030346407,0.005371716934467286
423335000000,4498,423335000000,BL_wheel_link,0.3246020263652329,0.6262593943339709,0.18966389226159702,-0.0496585470101898,0.03239111876709566,0.002773413090954964
423336000000,4499,423336000000,BL_wheel_link,-0.4122052082176315,-0.4323607399500205,0.39428585526546994,0.005467252300587743,-0.004979536266208313,-0.0014244373303428622
423337000000,4500,423337000000,BL_wheel_link,2.7808853541781025,2.6675535584471364,-5.625668848127557,-0.3239576517999941,0.33181700320193924,0.006867708027590126
423338000000,4501,423338000000,BL_wheel_link,0.006806679623312593,0.24317652187093583,0.10085274329563973,-0.026534619465951495,0.01627877550791456,-0.0027443923570427326
423339000000,4502,423339000000,BL_wheel_link,3.4401649261920872,1.5653081095672299,-9.988146949145591,-0.1850193167627436,0.38846432367983275,0.0014949985838641207
423340000000,4503,423340000000,BL_wheel_link,0.07917764565125458,0.2406225361832909,-0.03684268393257432,-0.018856983013042505,0.017946896416555475,-0.0036392266193551893
423341000000,4504,423341000000,BL_wheel_link,3.6767207435670515,1.1382558640475757,-9.560002079562306,-0.13458102488069118,0.41237615682739776,0.00217900109155304
423342000000,4505,423342000000,BL_wheel_link,-0.04570798719304635,0.6326160779781425,-1.1900618197076311,-0.04125603949799314,-0.0017064820583002202,-0.003316821322749605
423343000000,4506,423343000000,BL_wheel_link,1.8794853981959987,0.9871213332290777,-28.03426528169966,-0.14093507416274106,0.19650026239575527,0.008606480088363726
423344000000,4507,423344000000,BL_wheel_link,0.10608296138292062,0.019021909452232578,0.015423263467886424,-0.004442579522827881,0.01244456248441197,0.00035323606925470727
423345000000,4508,423345000000,BL_wheel_link,-0.12751357053117435,0.37381423858705604,-0.7494955164701008,-0.02343837732673934,-0.015209460490562217,-0.002726659303459696
423346000000,4509,423346000000,BL_wheel_link,1.9181049177794884,-0.06208916087513419,-28.521412454745676,-0.009565414757464447,0.19909666230696305,0.0057074574718118404
423347000000,4510,423347000000,BL_wheel_link,-0.12461310550072562,0.4844803360586252,-1.0469090897002193,-0.028519734725137986,-0.008997721090342659,-0.003107741106899463
423348000000,4511,423348000000,BL_wheel_link,2.400584478629506,-2.2211931453208886,-14.509765971033337,0.2070769250176918,0.23745089908481157,0.0026801689447592406
423349000000,4512,423349000000,BL_wheel_link,-0.14747109520436172,0.47873567412113416,-1.3079240587995782,-0.02511723613595974,-0.0078063870318922255,-0.0011949450835955465
423350000000,4513,423350000000,BL_wheel_link,2.925496701379605,-3.116583630294142,-16.62816151456638,0.30570066567609677,0.28980535649485845,0.002445428880284114
423351000000,4514,423351000000,BL_wheel_link,-0.12095311021376243,0.44782357279766916,-1.3920652078510065,-0.022484267583284857,-0.0034099684186006934,-0.00021779617690402187
423352000000,4515,423352000000,BL_wheel_link,3.5079277076077187,-3.6627285765506845,-17.62904075316564,0.3660246191970179,0.3529442537546603,0.0030628470073804197
423353000000,4516,423353000000,BL_wheel_link,-0.08559753670442949,0.4143212467959851,-1.412109123846726,-0.01971635477121987,0.0008299059136925156,0.00024685824125354836
423354000000,4517,423354000000,BL_wheel_link,3.9868677606953273,-4.0707826047234,-18.166966693012984,0.4117184029172488,0.4056866363563897,0.0036351130865354387
423355000000,4518,423355000000,BL_wheel_link,-0.05553186791424607,0.38412176541233584,-1.4099083000563655,-0.017071630483915065,0.004083233156934488,0.00042543848983630985
423356000000,4519,423356000000,BL_wheel_link,4.336182477557299,-4.3932741317088615,-18.486302698768053,0.4483314087360983,0.444209954335976,0.0039880894328559995
423357000000,4520,423357000000,BL_wheel_link,-0.03345999527731314,0.3593143528045937,-1.401978630939045,-0.014788454724799295,0.006346416519200843,0.000452253068135014
423358000000,4521,423358000000,BL_wheel_link,4.575111818601365,-4.646739349811404,-18.69019020300248,0.47742581119051003,0.47045644936870096,0.004153313885812581
423359000000,4522,423359000000,BL_wheel_link,-0.018461368615490376,0.3402169168528686,-1.3944453828762138,-0.012969926547511603,0.007843317939383301,0.00042096367920628475
423360000000,4523,423360000000,BL_wheel_link,4.732304858885298,-4.840880866461497,-18.826451849380966,0.4999018896409752,0.48761550486643773,0.004200438893130038
423361000000,4524,423361000000,BL_wheel_link,-0.008722384004246748,0.3261472958906529,-1.3889240461689663,-0.011604687439721232,0.008799268894770694,0.00037498572097622326
423362000000,4525,423362000000,BL_wheel_link,4.832378839612549,-4.985489997234618,-18.91850186801167,0.5167690894612259,0.49845767208758596,0.0041843669481406035
423363000000,4526,423363000000,BL_wheel_link,-0.002618941791862431,0.31609195833587056,-1.3854455804024215,-0.01062679189101749,0.00939140490336396,0.0003340624778900728
423364000000,4527,423364000000,BL_wheel_link,4.894460661949306,-5.091477890589633,-18.980700580191854,0.5292204152098546,0.5051271695006071,0.004139773982303915
423365000000,4528,423365000000,BL_wheel_link,0.0011112506193296746,0.30900283432397535,-1.383540995082449,-0.009962895394094898,0.009752970199258328,0.0003161580137900902
423366000000,4529,423366000000,BL_wheel_link,4.9320592576440925,-5.1678588358977295,-19.02155036139219,0.5382621856537309,0.509135025729774,0.004087245464677118
423367000000,4530,423367000000,BL_wheel_link,0.0033624223276262355,0.3040179405895754,-1.3826710019893198,-0.00953028954689725,0.009966706356005486,0.0003136472054021342
423368000000,4531,423368000000,BL_wheel_link,4.953861484787302,-5.223560162699034,-19.047636739397124,0.5449142041407598,0.5114351027155053,0.004033262536865088
423369000000,4532,423369000000,BL_wheel_link,0.004740581003078388,0.3004663735407824,-1.3824083786075794,-0.009264994010292299,0.01009134952543711,0.0003238697714165006
423370000000,4533,423370000000,BL_wheel_link,4.966800920250375,-5.264104070911857,-19.063035995845333,0.5498013506003415,0.5127995079701778,0.003986320767662954
423371000000,4534,423371000000,BL_wheel_link,0.005581240598151321,0.2978133907672774,-1.382486816403432,-0.009110473589517148,0.010158901373851803,0.000343638721712526
423372000000,4535,423372000000,BL_wheel_link,4.973211910738253,-5.294115404160386,-19.070419048179925,0.5534654680954386,0.5134717733531287,0.003943112235287445
423373000000,4536,423373000000,BL_wheel_link,0.006117949113076507,0.2957224847389812,-1.3827802571284287,-0.009027823866999931,0.010193637314297585,0.0003694935358073073
423374000000,4537,423374000000,BL_wheel_link,4.975599802490609,-5.317055153579325,-19.072473219515615,0.5563059508157495,0.5137211968564389,0.0039034287651907836
423375000000,4538,423375000000,BL_wheel_link,0.006494275482343369,0.2939611962010109,-1.3832265743451173,-0.008988892428276146,0.010211367970153203,0.00039892220848251127
423376000000,4539,423376000000,BL_wheel_link,5.052975574696646,-5.396233532279561,-19.147068294163567,0.5652320906628993,0.5222712140750864,0.0039681846806376075
423377000000,4540,423377000000,BL_wheel_link,0.006437734257935205,0.2913318669495163,-1.3805333623292104,-0.008967235556964827,0.010110402115462117,0.00043635491546806953
423378000000,4541,423378000000,BL_wheel_link,5.0401167771169435,-5.408800324132982,-19.120980553201903,0.5669729822841704,0.5208506373063911,0.0039048796838220766
423379000000,4542,423379000000,BL_wheel_link,0.0062917875533034275,0.28979102077684815,-1.379634196777041,-0.008987591354610037,0.010030256168945277,0.00046529021567333313
423380000000,4543,423380000000,BL_wheel_link,5.031621617660238,-5.420464833107747,-19.10523213430351,0.5685455989135391,0.5199224981809006,0.003856675393691896
423381000000,4544,423381000000,BL_wheel_link,0.006183876513729061,0.2885296913168991,-1.3794982054740157,-0.009025360388987562,0.009970495355742057,0.0004935135165458916
423382000000,4545,423382000000,BL_wheel_link,5.026286828677553,-5.432553837918816,-19.094862476654615,0.5701328668392621,0.51934990913522,0.0038171842535926217
423383000000,4546,423383000000,BL_wheel_link,0.006168847234483608,0.28730585235667516,-1.3797300872423213,-0.009065827836911256,0.009931323301660185,0.0005230013879473187
423384000000,4547,423384000000,BL_wheel_link,5.276199183782944,-5.709802490802868,-19.407344588153673,0.6003760528467763,0.546525970001095,0.0033003629137568265
423385000000,4548,423385000000,BL_wheel_link,0.007300175767530174,0.2832774754237871,-1.3797428485582457,-0.009278363038610656,0.009817080038636537,0.00054171795382201
423385000000,4549,423386000000,BL_wheel_link,6.219945429897038,-6.696646717601945,-20.4803113181965,0.7071551283414784,0.6494046891721419,0.0013475656818578469
423387000000,4550,423387000000,BL_wheel_link,0.010420367166584685,0.2730066357185702,-1.3550884149478646,-0.010150426059280845,0.009132975388031208,0.00054399607565244
423388000000,4551,423388000000,BL_wheel_link,6.081101338950315,-6.53102702574378,-19.96720486497836,0.6895044276908473,0.6351460334996751,0.0011716233588978876
423389000000,4552,423389000000,BL_wheel_link,0.006554405960893161,0.27439065229004184,-1.3276839017531172,-0.01092455135568659,0.00799893491833871,0.0005540385994117742
423390000000,4553,423390000000,BL_wheel_link,5.948800611811036,-6.420052776411939,-19.683240670198938,0.6776273149526931,0.6209240199427206,0.0009337419170140765
423391000000,4554,423391000000,BL_wheel_link,0.0008723197117523544,0.278069111756365,-1.314936980358762,-0.011670957501858967,0.006929046607349658,0.0005435494248086972
423392000000,4555,423392000000,BL_wheel_link,5.838163224915886,-6.336877879759629,-19.502138064847607,0.6686600457773509,0.60888384821755,0.0007236170049904986
423393000000,4556,423393000000,BL_wheel_link,-0.004250531397904514,0.2817001672993398,-1.308844873714172,-0.012347593895433304,0.006075715293456341,0.0005423557318831908
423394000000,4557,423394000000,BL_wheel_link,5.75458273247363,-6.27453563915002,-19.379778175421258,0.661899954541618,0.5997773986029243,0.0005679248430055539
423395000000,4558,423395000000,BL_wheel_link,-0.008170751822141432,0.28458642011170837,-1.3059655141085473,-0.012914924006894623,0.005451716043925734,0.0005546511387786839
423396000000,4559,423396000000,BL_wheel_link,5.695370534816905,-6.2300224605046575,-19.295396101619424,0.6570703116643845,0.5933477334146589,0.0004617529652790241
423397000000,4560,423397000000,BL_wheel_link,1.26905409453545,0.0948371772554244,-15.120680722015601,-0.02264203077482804,0.1536138121314925,0.003769585551145786
423398000000,4561,423398000000,BL_wheel_link,0.021016866239696036,0.02121765854539059,0.07787686972526141,0.0018498422594006442,0.0019085985525377877,9.670332917901845e-05
423399000000,4562,423399000000,BL_wheel_link,3.1667853124710326,-4.544111953581571,-15.51928342568035,0.44875532325099166,0.3183981988460066,-0.005092556171019666
423400000000,4563,423400000000,BL_wheel_link,1.1503720511841675,1.852492912430461,-10.657533660169063,-0.2061995729885774,0.15075605157117913,0.004852852632162176
423401000000,4564,423401000000,BL_wheel_link,0.028111515444987585,0.1228998737501188,0.17537678296781667,-0.008076096106132434,0.002854314937114433,0.0006739248660632816
423402000000,4565,423402000000,BL_wheel_link,2.5613955849476353,-3.021419602468096,-10.585409544547975,0.29597327916276256,0.26423644945298097,-0.0028105241395305677
423403000000,4566,423403000000,BL_wheel_link,0.039181426114329614,0.2723404533504416,-0.5479680198405097,-0.020759931193240762,0.0062552377851495715,-0.00468211456434282
423404000000,4567,423404000000,BL_wheel_link,3.799820046568918,-3.6285911855396766,-14.40622166396112,0.33990469858620925,0.3973331893582987,-0.0027348747503817498
423405000000,4568,423405000000,BL_wheel_link,-0.07872146961482879,0.31428578348907255,-1.2172148437628123,-0.013456346606534693,0.0004688951423755895,-0.0033046969078465655
423406000000,4569,423406000000,BL_wheel_link,5.805607739364909,-6.727329481752574,-19.44023773448247,0.7029681226810722,0.6040923228856034,-0.0025568777466259745
423407000000,4570,423407000000,BL_wheel_link,-0.10089961170154776,0.06749077471540299,-0.9552641602629701,-0.014278901270637766,0.006393661717549069,0.0033751848627115943
423408000000,4571,423408000000,BL_wheel_link,5.810147069990435,-6.968325653858312,-18.150803032253897,0.7218563126644977,0.606577756745515,-0.002964214946497769
423409000000,4572,423409000000,BL_wheel_link,-0.05055412321975816,0.2717151890115665,-1.2441992663378352,-0.011928425595765235,0.0016070414882748975,-0.0018706242981127118
423410000000,4573,423410000000,BL_wheel_link,3.818495985794215,-4.832311302358533,-16.974820029283606,0.4738384315455815,0.38742891648036426,-0.004990925314133325
423411000000,4574,423411000000,BL_wheel_link,-0.07226541349737477,0.26944862184535295,-1.3083439840909763,-0.012895563897708712,0.003479592301628158,0.0005586077861866009
423412000000,4575,423412000000,BL_wheel_link,4.09756517218062,-5.136317243477369,-17.94258939978917,0.5039238066988022,0.41659051965201194,-0.005224689974512642
423413000000,4576,423413000000,BL_wheel_link,-0.06255293443161293,0.2361419660139233,-1.3183052095077856,-0.012261727130548223,0.0062742871643454755,0.0017098368011932861
423414000000,4577,423414000000,BL_wheel_link,4.381131977885103,-5.3962351077258965,-18.224066197686074,0.5325990813513422,0.447882521546093,-0.005458802052471368
423415000000,4578,423415000000,BL_wheel_link,-0.022354493325413363,0.29046312496865007,-1.4006171621760983,-0.011349285223039093,0.007423424617299323,0.00014599213878892833
423416000000,4579,423416000000,BL_wheel_link,4.675966510122133,-5.466984462854704,-18.720781076675546,0.5374018467654882,0.48106891004527313,-0.005218640414367469
423417000000,4580,423417000000,BL_wheel_link,-0.012472604268946069,0.28757293572431125,-1.4266062488023403,-0.011144861721496029,0.00884749980787326,0.0005226733657546173
423418000000,4581,423418000000,BL_wheel_link,4.867839608406923,-5.619521846531171,-18.992685198057913,0.553539147445489,0.5022060283797246,-0.0053072562089267325
423419000000,4582,423419000000,BL_wheel_link,-0.0021041895969065357,0.27882649507409085,-1.4281541263246467,-0.010760009365985057,0.009890469971612869,0.0007005977588193244
423420000000,4583,423420000000,BL_wheel_link,4.967987329239569,-5.7033953026884845,-19.067928387669653,0.562918265684295,0.5133777877690101,-0.005369358372133204
423421000000,4584,423421000000,BL_wheel_link,0.005900583772981688,0.27034213433559556,-1.423520882222073,-0.010290901051311835,0.010557571238323137,0.0007737648540379778
423422000000,4585,423422000000,BL_wheel_link,5.029697212392724,-5.772043520051897,-19.091523171575535,0.570889462610135,0.5202488852332636,-0.005447019966844954
423423000000,4586,423423000000,BL_wheel_link,0.011370199646319131,0.26312321251514975,-1.417935283255729,-0.009855473025416967,0.010937421254264642,0.0007959585677155154
423424000000,4587,423424000000,BL_wheel_link,5.06403652835402,-5.827513316017028,-19.093666955326817,0.5774946901213677,0.5240420205287742,-0.0055284657464366735
423425000000,4588,423425000000,BL_wheel_link,0.014852396515506763,0.2573616124480164,-1.4132512202262146,-0.009503691951055099,0.011131869938147266,0.0007984665192481103
423426000000,4589,423426000000,BL_wheel_link,5.081547134953046,-5.873175922882212,-19.089120177545162,0.583018529585821,0.5259401431284766,-0.00560753740718427
423427000000,4590,423427000000,BL_wheel_link,0.017011097224119184,0.2529158498327974,-1.4098681672458369,-0.009248231939221191,0.011222992057073479,0.0007976698717710424
423428000000,4591,423428000000,BL_wheel_link,5.089878276705346,-5.91003877229295,-19.08276553865258,0.5875278169648733,0.5268197875382377,-0.005677571014562035
423429000000,4592,423429000000,BL_wheel_link,-0.0423957357720123,0.0379796927011685,-1.177388076309925,-0.00806806234773327,0.013838308588634586,0.005446964090057919
423430000000,4593,423430000000,BL_wheel_link,4.884141074553138,-6.088991915698113,-17.991769855942536,0.6153113360775286,0.5038233158905934,-0.006399317741055139
423431000000,4594,423431000000,BL_wheel_link,0.02365694677477393,0.2103559118029268,-1.3339620139204118,-0.0052501326358774195,0.010296887970192778,-0.00047511579096054274
423432000000,4595,423432000000,BL_wheel_link,5.003519011710915,-6.1521057412094535,-18.82318303620913,0.6183522307733917,0.5161791766610655,-0.006358675176326049
423433000000,4596,423433000000,BL_wheel_link,0.015578668038293083,0.2318180131701263,-1.3852699377766722,-0.006730414675182279,0.010510163523944079,0.00013136654256696223
423434000000,4597,423434000000,BL_wheel_link,5.0441620117035635,-6.119433518683209,-19.047227114164325,0.6132126757940767,0.5207878220954693,-0.006202503045948177
423435000000,4598,423435000000,BL_wheel_link,-0.03110471721043868,0.07384362906924438,-1.2253177082642253,-0.00714540589126334,0.012981773944196057,0.004297994894450661
423436000000,4599,423436000000,BL_wheel_link,4.928776516973618,-6.2017747820173135,-18.270655758957492,0.627409394028673,0.5082056259447563,-0.006575791603184625
423437000000,4600,423437000000,BL_wheel_link,0.02061533729013062,0.2127215322112211,-1.3541507413257474,-0.005328166512884224,0.010407387510329503,-0.00041248331910246434
423438000000,4601,423438000000,BL_wheel_link,5.0328967453862115,-6.229351336154526,-18.9398133891709,0.6271131553453434,0.5192931162091904,-0.006481532145773355
423439000000,4602,423439000000,BL_wheel_link,0.014829761933082218,0.23066084755875896,-1.397798607712296,-0.0068646272946572,0.010726712761518601,0.0002610642540553133
423440000000,4603,423440000000,BL_wheel_link,5.07215102507235,-6.186970415020457,-19.11774267709053,0.6210683169443568,0.5238712542459176,-0.006308219410569164
423441000000,4604,423441000000,BL_wheel_link,0.015160538839067858,0.23662244370566615,-1.4137279555148914,-0.007880148797591906,0.011097159835448987,0.000635292892850049
423442000000,4605,423442000000,BL_wheel_link,5.1020919401355,-6.153258215570013,-19.164482959892606,0.6167682369274965,0.527539386432578,-0.006186736728419324
423443000000,4606,423443000000,BL_wheel_link,-0.010373513735632459,0.12513375459675818,-1.2947484166084433,-0.008270945673455926,0.012986241816733381,0.003693854948490663
423444000000,4607,423444000000,BL_wheel_link,5.0310879638199015,-6.198933933888551,-18.60978657847134,0.6255746890836884,0.5199829080921796,-0.006552022682497041
423445000000,4608,423445000000,BL_wheel_link,0.02371786824495615,0.21657015010745637,-1.3741395992812733,-0.0065464749691594585,0.011096929198951628,0.00014093008531836668
423446000000,4609,423446000000,BL_wheel_link,5.092046509931634,-6.244874750771087,-19.000726972128533,0.6287289021775551,0.5263617970012626,-0.006428623641150853
423447000000,4610,423447000000,BL_wheel_link,0.01915903728224229,0.22791079499771338,-1.4044611264570324,-0.0075530787118225536,0.011214417269948958,0.0006193581487407897
423448000000,4611,423448000000,BL_wheel_link,5.110960876768678,-6.223986751192074,-19.1210374714669,0.6256333689572933,0.5285605075175474,-0.006335657481294118
423449000000,4612,423449000000,BL_wheel_link,0.01921370493823859,0.23112981036375843,-1.4151224744884203,-0.008231070380124857,0.01141022915338376,0.0008781006007013752
423450000000,4613,423450000000,BL_wheel_link,5.127466331520325,-6.20779099959303,-19.149696761926837,0.6235711927733665,0.530605827080664,-0.006271657954896121
423451000000,4614,423451000000,BL_wheel_link,-0.0017398210191394807,0.1541065608062036,-1.334515306290296,-0.008361472136580578,0.012429705608105347,0.0027305784530902177
423452000000,4615,423452000000,BL_wheel_link,5.054276163433636,-6.250868836748499,-18.753037971692912,0.6310924461562845,0.5225933898896101,-0.006519555818862069
423453000000,4616,423453000000,BL_wheel_link,0.02444550826906841,0.21502202841210366,-1.3861276519708272,-0.007340870757366,0.01136574072880901,0.0006947992050143692
423454000000,4617,423454000000,BL_wheel_link,5.113919061403704,-6.279447225861877,-19.02255521410194,0.6329648112859292,0.5290611551232828,-0.006458209075896107
423455000000,4618,423455000000,BL_wheel_link,0.02201598346588393,0.2233545013155657,-1.4079965892925628,-0.008045085420396511,0.01146494216295183,0.0009353950335849326
423456000000,4619,423456000000,BL_wheel_link,5.131688146683438,-6.270716036533376,-19.110065991767907,0.631493606283697,0.5311183451619451,-0.006405358102902586
423457000000,4620,423457000000,BL_wheel_link,0.004092981230844575,0.1648425018376345,-1.3492384936575197,-0.008187997819625878,0.012195043640244253,0.002294550711798069
423458000000,4621,423458000000,BL_wheel_link,5.070068716748935,-6.3077640482764314,-18.822346513404725,0.6377074600004412,0.52430160797953,-0.006605585442704373
423459000000,4622,423459000000,BL_wheel_link,0.024920567698665456,0.21284447101471968,-1.3933250134803108,-0.007646645256756357,0.011489782876680194,0.0009232083963258834
423460000000,4623,423460000000,BL_wheel_link,5.12877118018504,-6.324650913820438,-19.043803886579205,0.63842200046974,0.5307999354854113,-0.006530700117879097
423461000000,4624,423461000000,BL_wheel_link,0.02357956149390374,0.21952069258353485,-1.4111587853542824,-0.008239286040823284,0.011613222588356354,0.0010917975783078348
423462000000,4625,423462000000,BL_wheel_link,5.147784807961853,-6.320648738201876,-19.115555201278273,0.6375931138590673,0.5330047130027729,-0.006491070707747094
423463000000,4626,423463000000,BL_wheel_link,0.024177978350324245,0.22065282890419968,-1.417358010131664,-0.008605961928699299,0.01174784722283594,0.0012090690237053074
423464000000,4627,423464000000,BL_wheel_link,5.160313427530233,-6.321587477076349,-19.133222976510456,0.6376506260266438,0.5345188077952421,-0.006474686232093914
423465000000,4628,423465000000,BL_wheel_link,0.02530794051603503,0.21993534023319844,-1.4191642347420967,-0.008802455778277967,0.011857156729024142,0.0012935170953084075
423466000000,4629,423466000000,BL_wheel_link,5.16908441333028,-6.329862802388527,-19.133421851468473,0.6386841027369461,0.5355868241433319,-0.006480549804926905
423467000000,4630,423467000000,BL_wheel_link,0.026443190909802624,0.2184808380390855,-1.4192786025269593,-0.008900307768560914,0.011933644043569098,0.001352498915239417
423468000000,4631,423468000000,BL_wheel_link,5.1750415623415265,-6.342822549119471,-19.127799403048805,0.6403150440614319,0.5363131462050662,-0.006500810380801836
423469000000,4632,423469000000,BL_wheel_link,0.0090747142004273,0.15761399876701465,-1.3529225471340356,-0.008643915079340155,0.01256971149954117,0.0025807999873636795
423470000000,4633,423470000000,BL_wheel_link,5.105980028033585,-6.397095513434807,-18.81458417147099,0.6487078349660453,0.5285710475845775,-0.006752117812411784
423471000000,4634,423471000000,BL_wheel_link,0.02958629898391121,0.20321752183389172,-1.3937559870045046,-0.007865600928722434,0.011780096572798993,0.001167203344258134
423472000000,4635,423472000000,BL_wheel_link,5.157102762151922,-6.427973188460495,-19.02658226862195,0.6511817911975597,0.5341424340984903,-0.0067176962342561635
423473000000,4636,423473000000,BL_wheel_link,0.02771255165562997,0.20926000053348084,-1.411278481477627,-0.008332098157668022,0.011848869371920074,0.0012974229981430802
423474000000,4637,423474000000,BL_wheel_link,5.172082229603663,-6.433522158550371,-19.101981826964792,0.651498237062769,0.5358276696251538,-0.006704119185173746
423475000000,4638,423475000000,BL_wheel_link,0.027881003189255255,0.21032916691088724,-1.418036883636014,-0.008645299543178846,0.011966849331387995,0.0013976774544181524
423476000000,4639,423476000000,BL_wheel_link,5.184378964544736,-6.4403565849758495,-19.126597407225486,0.6522285530147277,0.5372759279198728,-0.006700969772024723
423477000000,4640,423477000000,BL_wheel_link,0.02874236181499831,0.2097500723538766,-1.4205686264025168,-0.008821762072899982,0.012078031005589995,0.0014738664696782823
423478000000,4641,423478000000,BL_wheel_link,5.194314448445483,-6.451525360017509,-19.132941620523066,0.6535739150601909,0.5384565832559816,-0.006711761071207783
423479000000,4642,423479000000,BL_wheel_link,0.02970764179893793,0.20845954496044597,-1.4213554595564244,-0.0089134247080097,0.01216396282806753,0.0015312445187879874
423480000000,4643,423480000000,BL_wheel_link,5.201751870434032,-6.466265524805847,-19.132448875811203,0.6553870154098852,0.5393390443165281,-0.0067340709428233714
423481000000,4644,423481000000,BL_wheel_link,0.030587726784377798,0.20686119433302244,-1.4214990842497477,-0.008957896488377597,0.012226980154353383,0.0015755056614862066
423482000000,4645,423482000000,BL_wheel_link,5.207371064752653,-6.4834185918098335,-19.12994416195809,0.657503572011617,0.5400007470956213,-0.006764132484168236
423483000000,4646,423483000000,BL_wheel_link,0.03135093964421871,0.2051512199096525,-1.4214882790368735,-0.008977887501436545,0.01227489963330168,0.001611688825048014
423484000000,4647,423484000000,BL_wheel_link,5.212006852698953,-6.502076860151912,-19.127470040523868,0.6598024142769554,0.5405403938592849,-0.006798757069223648
423485000000,4648,423485000000,BL_wheel_link,0.03201647484881242,0.2034179128821728,-1.421520715983443,-0.008985955403883375,0.012314736148698284,0.0016434820577779848
