%time,field.header.seq,field.header.stamp,field.header.frame_id,field.orientation.x,field.orientation.y,field.orientation.z,field.orientation.w,field.orientation_covariance0,field.orientation_covariance1,field.orientation_covariance2,field.orientation_covariance3,field.orientation_covariance4,field.orientation_covariance5,field.orientation_covariance6,field.orientation_covariance7,field.orientation_covariance8,field.angular_velocity.x,field.angular_velocity.y,field.angular_velocity.z,field.angular_velocity_covariance0,field.angular_velocity_covariance1,field.angular_velocity_covariance2,field.angular_velocity_covariance3,field.angular_velocity_covariance4,field.angular_velocity_covariance5,field.angular_velocity_covariance6,field.angular_velocity_covariance7,field.angular_velocity_covariance8,field.linear_acceleration.x,field.linear_acceleration.y,field.linear_acceleration.z,field.linear_acceleration_covariance0,field.linear_acceleration_covariance1,field.linear_acceleration_covariance2,field.linear_acceleration_covariance3,field.linear_acceleration_covariance4,field.linear_acceleration_covariance5,field.linear_acceleration_covariance6,field.linear_acceleration_covariance7,field.linear_acceleration_covariance8
423137000000,3445,423131000000,base_link,-0.0007569242730862405,5.379759678369293e-05,0.6915839336028312,0.7222957060331302,0.0,0.0,0.0,0.0,0.0,0.0,0.0,0.0,0.0,-0.024172586010928823,-0.0034719982612923094,0.008909517416905054,0.0,0.0,0.0,0.0,0.0,0.0,0.0,0.0,0.0,-0.4024691036386069,1.155062017290525,2.2922880565097365,0.0,0.0,0.0,0.0,0.0,0.0,0.0,0.0,0.0
423137000000,3446,423132000000,base_link,-0.0007569242730862405,5.379759678369293e-05,0.6915839336028312,0.7222957060331302,0.0,0.0,0.0,0.0,0.0,0.0,0.0,0.0,0.0,-0.024172586010928823,-0.0034719982612923094,0.008909517416905054,0.0,0.0,0.0,0.0,0.0,0.0,0.0,0.0,0.0,-0.4024691036386069,1.155062017290525,2.2922880565097365,0.0,0.0,0.0,0.0,0.0,0.0,0.0,0.0,0.0
423137000000,3447,423133000000,base_link,-0.0007394952881737288,5.147516025586833e-05,0.6915862869075987,0.7222934710063403,0.0,0.0,0.0,0.0,0.0,0.0,0.0,0.0,0.0,0.013998700356384527,-0.015750693874701502,0.0028467906677331982,0.0,0.0,0.0,0.0,0.0,0.0,0.0,0.0,0.0,-0.5473421376007198,-0.6896555016365825,1.0361272041962426,0.0,0.0,0.0,0.0,0.0,0.0,0.0,0.0,0.0
423137000000,3448,423134000000,base_link,-0.0007394952881737288,5.147516025586833e-05,0.6915862869075987,0.7222934710063403,0.0,0.0,0.0,0.0,0.0,0.0,0.0,0.0,0.0,0.013998700356384527,-0.015750693874701502,0.0028467906677331982,0.0,0.0,0.0,0.0,0.0,0.0,0.0,0.0,0.0,-0.5473421376007198,-0.6896555016365825,1.0361272041962426,0.0,0.0,0.0,0.0,0.0,0.0,0.0,0.0,0.0
423137000000,3449,423136000000,base_link,-0.0007500273280923621,4.811405566016379e-05,0.6915870792806905,0.7222927016909756,0.0,0.0,0.0,0.0,0.0,0.0,0.0,0.0,0.0,0.011329885744059603,-0.007708370547937847,0.0010144707278922883,0.0,0.0,0.0,0.0,0.0,0.0,0.0,0.0,0.0,-0.5689872161830566,-1.3404601395060856,20.413723407780473,0.0,0.0,0.0,0.0,0.0,0.0,0.0,0.0,0.0
423137000000,3450,423137000000,base_link,-0.0007500273280923621,4.811405566016379e-05,0.6915870792806905,0.7222927016909756,0.0,0.0,0.0,0.0,0.0,0.0,0.0,0.0,0.0,0.011329885744059603,-0.007708370547937847,0.0010144707278922883,0.0,0.0,0.0,0.0,0.0,0.0,0.0,0.0,0.0,-0.5689872161830566,-1.3404601395060856,20.413723407780473,0.0,0.0,0.0,0.0,0.0,0.0,0.0,0.0,0.0
423138000000,3451,423139000000,base_link,-0.0007480745382372088,4.890194584244222e-05,0.6915869939104633,0.722292785404211,0.0,0.0,0.0,0.0,0.0,0.0,0.0,0.0,0.0,0.01385442216144699,-0.009963306170274131,0.0003945005254992654,0.0,0.0,0.0,0.0,0.0,0.0,0.0,0.0,0.0,-0.3646692586992326,-0.47796186555274744,0.6584849028146422,0.0,0.0,0.0,0.0,0.0,0.0,0.0,0.0,0.0
423140000000,3452,423140000000,base_link,-0.0007594803962939579,4.743269129181949e-05,0.6915866330650539,0.7222931191042943,0.0,0.0,0.0,0.0,0.0,0.0,0.0,0.0,0.0,-0.018508441107397536,0.01365432752190895,-0.0009861485959873257,0.0,0.0,0.0,0.0,0.0,0.0,0.0,0.0,0.0,0.7436103405139465,0.885921875172477,9.173750169565194,0.0,0.0,0.0,0.0,0.0,0.0,0.0,0.0,0.0
423140000000,3453,423141000000,base_link,-0.0007492094369051085,5.0336891911887405e-05,0.6915867854325265,0.7222929837444924,0.0,0.0,0.0,0.0,0.0,0.0,0.0,0.0,0.0,0.018855317846225808,-0.010009913535635285,0.00041169208885608033,0.0,0.0,0.0,0.0,0.0,0.0,0.0,0.0,0.0,-0.700293691342643,-1.626023573523347,19.620141671757416,0.0,0.0,0.0,0.0,0.0,0.0,0.0,0.0,0.0
423144000000,3454,423143000000,base_link,-0.0007559168752079674,5.394630204106806e-05,0.6915867239671093,0.7222930353477843,0.0,0.0,0.0,0.0,0.0,0.0,0.0,0.0,0.0,-0.010645170098400906,0.011914843272168988,-0.00017930728134697005,0.0,0.0,0.0,0.0,0.0,0.0,0.0,0.0,0.0,0.04532818146089637,0.05246395426642272,-0.006869298122241574,0.0,0.0,0.0,0.0,0.0,0.0,0.0,0.0,0.0
423145000000,3455,423144000000,base_link,-0.0007498566186096645,6.023217725341079e-05,0.6915874419507808,0.7222923537066634,0.0,0.0,0.0,0.0,0.0,0.0,0.0,0.0,0.0,0.01744858689600523,0.0006957912426052964,0.00199178953435335,0.0,0.0,0.0,0.0,0.0,0.0,0.0,0.0,0.0,-0.6296591760732128,-1.0270881458538277,20.445058585619584,0.0,0.0,0.0,0.0,0.0,0.0,0.0,0.0,0.0
423146000000,3456,423145000000,base_link,-0.0007407874843192584,6.531537510076014e-05,0.6915870460804693,0.7222927416646907,0.0,0.0,0.0,0.0,0.0,0.0,0.0,0.0,0.0,0.020132725188372304,-0.005200544354120259,-0.0010997639202688044,0.0,0.0,0.0,0.0,0.0,0.0,0.0,0.0,0.0,-0.13733046495194426,-0.48028181973063927,0.7025924523872096,0.0,0.0,0.0,0.0,0.0,0.0,0.0,0.0,0.0
423147000000,3457,423146000000,base_link,-0.0007407874843192584,6.531537510076014e-05,0.6915870460804693,0.7222927416646907,0.0,0.0,0.0,0.0,0.0,0.0,0.0,0.0,0.0,0.020132725188372304,-0.005200544354120259,-0.0010997639202688044,0.0,0.0,0.0,0.0,0.0,0.0,0.0,0.0,0.0,-0.13733046495194426,-0.48028181973063927,0.7025924523872096,0.0,0.0,0.0,0.0,0.0,0.0,0.0,0.0,0.0
423148000000,3458,423147000000,base_link,-0.0007545346691063492,6.475924283111343e-05,0.6915894815770615,0.722290395516682,0.0,0.0,0.0,0.0,0.0,0.0,0.0,0.0,0.0,-0.009894087436921448,0.008845230557934243,0.003411368852981781,0.0,0.0,0.0,0.0,0.0,0.0,0.0,0.0,0.0,0.06089007616545322,0.047877325623943534,0.0035891425488738804,0.0,0.0,0.0,0.0,0.0,0.0,0.0,0.0,0.0
423149000000,3459,423148000000,base_link,-0.0007499369828300182,6.42194961206087e-05,0.6915883725454867,0.7222914622437839,0.0,0.0,0.0,0.0,0.0,0.0,0.0,0.0,0.0,0.005896485041364738,-0.007138342185239896,-0.003077610109869646,0.0,0.0,0.0,0.0,0.0,0.0,0.0,0.0,0.0,-1.674094254547734,-0.2663569855922697,22.447501577987413,0.0,0.0,0.0,0.0,0.0,0.0,0.0,0.0,0.0
423155000000,3460,423149000000,base_link,-0.0007463019032160214,5.8004159910674175e-05,0.6915876090135933,0.7222921976096985,0.0,0.0,0.0,0.0,0.0,0.0,0.0,0.0,0.0,-0.003344568980253041,-0.014005471292346935,-0.0021289975171892694,0.0,0.0,0.0,0.0,0.0,0.0,0.0,0.0,0.0,-0.201002528111753,0.3062509460428599,0.8721170046049096,0.0,0.0,0.0,0.0,0.0,0.0,0.0,0.0,0.0
423155000000,3461,423150000000,base_link,-0.0007488480249024545,5.283904140487243e-05,0.6915872592758756,0.7222925302410056,0.0,0.0,0.0,0.0,0.0,0.0,0.0,0.0,0.0,-0.010821885423000945,-0.003939361776140654,-0.0009733139866931369,0.0,0.0,0.0,0.0,0.0,0.0,0.0,0.0,0.0,0.489144772610579,0.6447996178901004,14.787814236301418,0.0,0.0,0.0,0.0,0.0,0.0,0.0,0.0,0.0
423155000000,3462,423151000000,base_link,-0.0007488480249024545,5.283904140487243e-05,0.6915872592758756,0.7222925302410056,0.0,0.0,0.0,0.0,0.0,0.0,0.0,0.0,0.0,-0.010821885423000945,-0.003939361776140654,-0.0009733139866931369,0.0,0.0,0.0,0.0,0.0,0.0,0.0,0.0,0.0,0.489144772610579,0.6447996178901004,14.787814236301418,0.0,0.0,0.0,0.0,0.0,0.0,0.0,0.0,0.0
423155000000,3463,423153000000,base_link,-0.0007457067811370575,4.443409598562745e-05,0.6915860858127053,0.7222936576332851,0.0,0.0,0.0,0.0,0.0,0.0,0.0,0.0,0.0,0.0027938188498931875,-0.0078352171167609,-0.0017219474880193623,0.0,0.0,0.0,0.0,0.0,0.0,0.0,0.0,0.0,-0.0533476576461011,-0.19979570660127752,0.3684414958651132,0.0,0.0,0.0,0.0,0.0,0.0,0.0,0.0,0.0
423155000000,3464,423154000000,base_link,-0.0007457067811370575,4.443409598562745e-05,0.6915860858127053,0.7222936576332851,0.0,0.0,0.0,0.0,0.0,0.0,0.0,0.0,0.0,0.0027938188498931875,-0.0078352171167609,-0.0017219474880193623,0.0,0.0,0.0,0.0,0.0,0.0,0.0,0.0,0.0,-0.0533476576461011,-0.19979570660127752,0.3684414958651132,0.0,0.0,0.0,0.0,0.0,0.0,0.0,0.0,0.0
423157000000,3465,423156000000,base_link,-0.0007463135767281018,3.6906356741449405e-05,0.6915849691244095,0.7222947266422175,0.0,0.0,0.0,0.0,0.0,0.0,0.0,0.0,0.0,0.0020301945737744367,-0.0033087547266346454,-0.0016025342623832452,0.0,0.0,0.0,0.0,0.0,0.0,0.0,0.0,0.0,0.08981371722364226,-0.32939850639853363,29.85186715564631,0.0,0.0,0.0,0.0,0.0,0.0,0.0,0.0,0.0
423158000000,3466,423157000000,base_link,-0.0007463135767281018,3.6906356741449405e-05,0.6915849691244095,0.7222947266422175,0.0,0.0,0.0,0.0,0.0,0.0,0.0,0.0,0.0,0.0020301945737744367,-0.0033087547266346454,-0.0016025342623832452,0.0,0.0,0.0,0.0,0.0,0.0,0.0,0.0,0.0,0.08981371722364226,-0.32939850639853363,29.85186715564631,0.0,0.0,0.0,0.0,0.0,0.0,0.0,0.0,0.0
423159000000,3467,423158000000,base_link,-0.0007451263455946572,3.581649618549274e-05,0.6915845165641599,0.7222951612413204,0.0,0.0,0.0,0.0,0.0,0.0,0.0,0.0,0.0,0.00020828131516352857,-0.0032159000534890915,-0.001256427300493597,0.0,0.0,0.0,0.0,0.0,0.0,0.0,0.0,0.0,0.007096123948538778,-0.014311976358421675,-0.13869228326162997,0.0,0.0,0.0,0.0,0.0,0.0,0.0,0.0,0.0
423160000000,3468,423160000000,base_link,-0.0007448329928833235,3.4262790189575426e-05,0.6915830492244838,0.7222965665675279,0.0,0.0,0.0,0.0,0.0,0.0,0.0,0.0,0.0,-0.001986613401799282,0.0005699110949236154,-0.0027966888481704656,0.0,0.0,0.0,0.0,0.0,0.0,0.0,0.0,0.0,0.24912427796384862,0.05025986550546741,13.856843974813284,0.0,0.0,0.0,0.0,0.0,0.0,0.0,0.0,0.0
423162000000,3469,423161000000,base_link,-0.0007647184720173558,2.7678107307179603e-05,0.6915814156879173,0.7222981101419809,0.0,0.0,0.0,0.0,0.0,0.0,0.0,0.0,0.0,-0.03343398357004363,0.018009169425684195,-0.0030704200278967074,0.0,0.0,0.0,0.0,0.0,0.0,0.0,0.0,0.0,0.8218352780317858,1.1452879425684683,2.5616705325749862,0.0,0.0,0.0,0.0,0.0,0.0,0.0,0.0,0.0
423163000000,3470,423162000000,base_link,-0.0007486105490772137,3.0202931352954994e-05,0.6915810871640938,0.7222984414679009,0.0,0.0,0.0,0.0,0.0,0.0,0.0,0.0,0.0,0.017577421599722684,-0.012168906248585956,-0.0007302344189215075,0.0,0.0,0.0,0.0,0.0,0.0,0.0,0.0,0.0,-0.9217205116305048,-1.964114860071708,23.016254336981678,0.0,0.0,0.0,0.0,0.0,0.0,0.0,0.0,0.0
423164000000,3471,423163000000,base_link,-0.0007486105490772137,3.0202931352954994e-05,0.6915810871640938,0.7222984414679009,0.0,0.0,0.0,0.0,0.0,0.0,0.0,0.0,0.0,0.017577421599722684,-0.012168906248585956,-0.0007302344189215075,0.0,0.0,0.0,0.0,0.0,0.0,0.0,0.0,0.0,-0.9217205116305048,-1.964114860071708,23.016254336981678,0.0,0.0,0.0,0.0,0.0,0.0,0.0,0.0,0.0
423165000000,3472,423164000000,base_link,-0.0007398147789410696,3.144613791418476e-05,0.6915809927837429,0.7222985408440792,0.0,0.0,0.0,0.0,0.0,0.0,0.0,0.0,0.0,0.014436573416380796,-0.01037439147931876,-0.0002707419295268223,0.0,0.0,0.0,0.0,0.0,0.0,0.0,0.0,0.0,-0.6683593409238566,-0.7056431483285832,0.69548879317726,0.0,0.0,0.0,0.0,0.0,0.0,0.0,0.0,0.0
423166000000,3473,423165000000,base_link,-0.000758422936950013,2.9224428794059457e-05,0.6915807587037711,0.7222987457633425,0.0,0.0,0.0,0.0,0.0,0.0,0.0,0.0,0.0,-0.01825762261892227,0.013072807368717333,-0.00028046586971221623,0.0,0.0,0.0,0.0,0.0,0.0,0.0,0.0,0.0,0.7223311899960454,0.850675402811434,9.315014352969392,0.0,0.0,0.0,0.0,0.0,0.0,0.0,0.0,0.0
423168000000,3474,423167000000,base_link,-0.0007202010235686267,3.933559868911284e-05,0.6915789467493991,0.7223005192966349,0.0,0.0,0.0,0.0,0.0,0.0,0.0,0.0,0.0,0.06920369906653576,-0.03825785339082743,-0.005052957989331626,0.0,0.0,0.0,0.0,0.0,0.0,0.0,0.0,0.0,-1.9170675095819696,-2.991601198968894,6.736375945481139,0.0,0.0,0.0,0.0,0.0,0.0,0.0,0.0,0.0
423169000000,3475,423169000000,base_link,-0.00075491616188781,4.1874676650942294e-05,0.6915771979642636,0.7223021581055935,0.0,0.0,0.0,0.0,0.0,0.0,0.0,0.0,0.0,-0.009981775260817557,0.016965277344053092,-0.0021712643675708154,0.0,0.0,0.0,0.0,0.0,0.0,0.0,0.0,0.0,0.5999942266718429,1.0353813232546147,11.558040917232551,0.0,0.0,0.0,0.0,0.0,0.0,0.0,0.0,0.0
423171000000,3476,423171000000,base_link,-0.0007370440039654258,4.877601230378711e-05,0.6915781243852558,0.7223012891161199,0.0,0.0,0.0,0.0,0.0,0.0,0.0,0.0,0.0,0.01949800177760322,-0.009071970253461757,0.0008586773858783403,0.0,0.0,0.0,0.0,0.0,0.0,0.0,0.0,0.0,-0.5086110404937921,-0.6777498565678012,0.9324416053284512,0.0,0.0,0.0,0.0,0.0,0.0,0.0,0.0,0.0
423173000000,3477,423172000000,base_link,-0.0007544867464953411,5.065928402271566e-05,0.6915784687606521,0.7223009412496001,0.0,0.0,0.0,0.0,0.0,0.0,0.0,0.0,0.0,-0.010879487683575415,0.013206438195501859,0.0005410888685430614,0.0,0.0,0.0,0.0,0.0,0.0,0.0,0.0,0.0,0.052068725199728126,0.058019973820270646,-0.006189273073308854,0.0,0.0,0.0,0.0,0.0,0.0,0.0,0.0,0.0
423174000000,3478,423173000000,base_link,-0.0007479160851741073,5.438422344332815e-05,0.6915791627949138,0.7223002832975852,0.0,0.0,0.0,0.0,0.0,0.0,0.0,0.0,0.0,0.014644016220047872,-0.0037080013905712826,0.0019191139798276444,0.0,0.0,0.0,0.0,0.0,0.0,0.0,0.0,0.0,-0.3685568983092643,-1.1990551156124485,20.41878463172518,0.0,0.0,0.0,0.0,0.0,0.0,0.0,0.0,0.0
423175000000,3479,423174000000,base_link,-0.0007396046597209471,5.8207527245455805e-05,0.6915796565846759,0.7222998187699154,0.0,0.0,0.0,0.0,0.0,0.0,0.0,0.0,0.0,0.017294220429341603,-0.00597359165991705,0.0013624599502434884,0.0,0.0,0.0,0.0,0.0,0.0,0.0,0.0,0.0,-0.35913560336545897,-0.4681814208776645,0.6551494673659359,0.0,0.0,0.0,0.0,0.0,0.0,0.0,0.0,0.0
423176000000,3480,423175000000,base_link,-0.0007461871997636806,6.044092616980886e-05,0.6915797731600627,0.722299700198909,0.0,0.0,0.0,0.0,0.0,0.0,0.0,0.0,0.0,-0.006422528724853626,0.01233081365206621,0.00033418207553356804,0.0,0.0,0.0,0.0,0.0,0.0,0.0,0.0,0.0,0.9199353926163469,1.0968886253363495,17.1260315111593,0.0,0.0,0.0,0.0,0.0,0.0,0.0,0.0,0.0
423177000000,3481,423177000000,base_link,-0.0007575203862684472,6.16579274592686e-05,0.6915797546146493,0.7222997060558075,0.0,0.0,0.0,0.0,0.0,0.0,0.0,0.0,0.0,-0.014688601665432018,0.017433707870384518,-3.4441055712797905e-05,0.0,0.0,0.0,0.0,0.0,0.0,0.0,0.0,0.0,0.6754157880594676,0.78525620146139,1.2706314878008573,0.0,0.0,0.0,0.0,0.0,0.0,0.0,0.0,0.0
423179000000,3482,423178000000,base_link,-0.0007408391126816598,6.071095733562743e-05,0.6915785173287864,0.7223009080991845,0.0,0.0,0.0,0.0,0.0,0.0,0.0,0.0,0.0,0.0005116214421563257,-0.018159762347297496,-0.0003620304341929181,0.0,0.0,0.0,0.0,0.0,0.0,0.0,0.0,0.0,-1.4215317177677451,0.4734476148759791,2.8617373943625406,0.0,0.0,0.0,0.0,0.0,0.0,0.0,0.0,0.0
423180000000,3483,423179000000,base_link,-0.000769699963302612,4.8741126266729284e-05,0.6915761853056279,0.7223031116535391,0.0,0.0,0.0,0.0,0.0,0.0,0.0,0.0,0.0,-0.05824543126053495,0.022630411719595428,-0.0064376435156055884,0.0,0.0,0.0,0.0,0.0,0.0,0.0,0.0,0.0,1.4564710421638865,2.3960291304391936,5.280746150502795,0.0,0.0,0.0,0.0,0.0,0.0,0.0,0.0,0.0
423181000000,3484,423180000000,base_link,-0.0007480547917267238,5.1762196738155874e-05,0.6915758775470847,0.722303428850842,0.0,0.0,0.0,0.0,0.0,0.0,0.0,0.0,0.0,0.019221364627932353,-0.011736960563997654,-0.0010001207423791358,0.0,0.0,0.0,0.0,0.0,0.0,0.0,0.0,0.0,-1.035513487989143,-1.565624677046401,21.9399388510841,0.0,0.0,0.0,0.0,0.0,0.0,0.0,0.0,0.0
423182000000,3485,423181000000,base_link,-0.0007383960366643712,5.297848905340823e-05,0.6915752943044304,0.7223039971316187,0.0,0.0,0.0,0.0,0.0,0.0,0.0,0.0,0.0,0.015652510247762277,-0.011633099483443548,-0.0016427163571409375,0.0,0.0,0.0,0.0,0.0,0.0,0.0,0.0,0.0,-0.6359932624286226,-0.8026518217537761,0.8273879073474859,0.0,0.0,0.0,0.0,0.0,0.0,0.0,0.0,0.0
423183000000,3486,423182000000,base_link,-0.0007464909783327499,5.1170283433333444e-05,0.6915751900016505,0.7223040888067866,0.0,0.0,0.0,0.0,0.0,0.0,0.0,0.0,0.0,-0.014195073460995385,0.008584295326414235,-0.0002811739660156402,0.0,0.0,0.0,0.0,0.0,0.0,0.0,0.0,0.0,1.1196008257708137,1.2359630232848087,18.185755626371623,0.0,0.0,0.0,0.0,0.0,0.0,0.0,0.0,0.0
423184000000,3487,423183000000,base_link,-0.0007541964884483957,4.9433217287705995e-05,0.6915751525539662,0.7223041167776718,0.0,0.0,0.0,0.0,0.0,0.0,0.0,0.0,0.0,-0.013534021033139585,0.008148552331960556,-9.61671660898468e-05,0.0,0.0,0.0,0.0,0.0,0.0,0.0,0.0,0.0,0.04958933516357025,0.049872787010157,-0.009507132335411228,0.0,0.0,0.0,0.0,0.0,0.0,0.0,0.0,0.0
423185000000,3488,423184000000,base_link,-0.0007482148654925251,4.977477646455819e-05,0.6915759146427504,0.7223033933071544,0.0,0.0,0.0,0.0,0.0,0.0,0.0,0.0,0.0,0.009113135898572895,-0.007781026322448557,0.00210298203369502,0.0,0.0,0.0,0.0,0.0,0.0,0.0,0.0,0.0,-0.30918643525969636,-1.1701304273880235,21.167013431532162,0.0,0.0,0.0,0.0,0.0,0.0,0.0,0.0,0.0
423186000000,3489,423185000000,base_link,-0.0007407436214062769,5.02362058008688e-05,0.6915765377913595,0.7223028043360535,0.0,0.0,0.0,0.0,0.0,0.0,0.0,0.0,0.0,0.011430307483694153,-0.009668160769951079,0.0017162721506506764,0.0,0.0,0.0,0.0,0.0,0.0,0.0,0.0,0.0,-0.3565704614693526,-0.4490523153501878,0.623691350512436,0.0,0.0,0.0,0.0,0.0,0.0,0.0,0.0,0.0
423187000000,3490,423186000000,base_link,-0.0007470665642736077,4.9123947421597335e-05,0.6915768297894266,0.7223025183237234,0.0,0.0,0.0,0.0,0.0,0.0,0.0,0.0,0.0,-0.010714527538900488,0.007161841053843643,0.0008122304686816229,0.0,0.0,0.0,0.0,0.0,0.0,0.0,0.0,0.0,0.8059460161183329,0.9436472361022701,16.306091174141557,0.0,0.0,0.0,0.0,0.0,0.0,0.0,0.0,0.0
423188000000,3491,423187000000,base_link,-0.0007580473234907593,4.705742844144733e-05,0.6915769206192822,0.7223024200545122,0.0,0.0,0.0,0.0,0.0,0.0,0.0,0.0,0.0,-0.018721493608270457,0.01220277165889552,0.00026294428567071856,0.0,0.0,0.0,0.0,0.0,0.0,0.0,0.0,0.0,0.9898079953783064,1.1110428486332102,1.721077470149467,0.0,0.0,0.0,0.0,0.0,0.0,0.0,0.0,0.0
423189000000,3492,423188000000,base_link,-0.0007580473234907593,4.705742844144733e-05,0.6915769206192822,0.7223024200545122,0.0,0.0,0.0,0.0,0.0,0.0,0.0,0.0,0.0,-0.018721493608270457,0.01220277165889552,0.00026294428567071856,0.0,0.0,0.0,0.0,0.0,0.0,0.0,0.0,0.0,0.9898079953783064,1.1110428486332102,1.721077470149467,0.0,0.0,0.0,0.0,0.0,0.0,0.0,0.0,0.0
423190000000,3493,423189000000,base_link,-0.0007381335355853449,5.122258796680989e-05,0.6915779758748046,0.7223014300276847,0.0,0.0,0.0,0.0,0.0,0.0,0.0,0.0,0.0,0.01669437418251534,-0.010716375391455491,0.0013815029246844884,0.0,0.0,0.0,0.0,0.0,0.0,0.0,0.0,0.0,-0.6337067013425077,-0.721069514169009,0.8040254997930933,0.0,0.0,0.0,0.0,0.0,0.0,0.0,0.0,0.0
423190000000,3494,423190000000,base_link,-0.000746404826471334,5.11715847817128e-05,0.6915782180584543,0.7223011896490252,0.0,0.0,0.0,0.0,0.0,0.0,0.0,0.0,0.0,-0.012020523546034632,0.01136587295591945,0.0006807965057953839,0.0,0.0,0.0,0.0,0.0,0.0,0.0,0.0,0.0,1.0243063840399715,1.2811301804165727,18.402601395689928,0.0,0.0,0.0,0.0,0.0,0.0,0.0,0.0,0.0
423192000000,3495,423191000000,base_link,-0.0007543060947890315,5.124276781352803e-05,0.691578489975693,0.722300921084443,0.0,0.0,0.0,0.0,0.0,0.0,0.0,0.0,0.0,-0.011316162487647555,0.01103114286965294,0.0007635767423427792,0.0,0.0,0.0,0.0,0.0,0.0,0.0,0.0,0.0,0.043795030095409956,0.05130399623383944,-0.006475218559298668,0.0,0.0,0.0,0.0,0.0,0.0,0.0,0.0,0.0
423193000000,3496,423192000000,base_link,-0.0007481333985563037,5.4082978343317765e-05,0.691579137794572,0.7223003070321692,0.0,0.0,0.0,0.0,0.0,0.0,0.0,0.0,0.0,0.012845224829129042,-0.004435536125051313,0.0017903815914335455,0.0,0.0,0.0,0.0,0.0,0.0,0.0,0.0,0.0,-0.44163555457832543,-1.2346092414072953,21.015922849984413,0.0,0.0,0.0,0.0,0.0,0.0,0.0,0.0,0.0
423194000000,3497,423193000000,base_link,-0.0007404035969386928,5.699595753739396e-05,0.6915795963103666,0.7222998757587908,0.0,0.0,0.0,0.0,0.0,0.0,0.0,0.0,0.0,0.015194918621681671,-0.006484108568102824,0.0012640809660194627,0.0,0.0,0.0,0.0,0.0,0.0,0.0,0.0,0.0,-0.3554963842712872,-0.4585835406699199,0.6340866260974067,0.0,0.0,0.0,0.0,0.0,0.0,0.0,0.0,0.0
423195000000,3498,423194000000,base_link,-0.0007463188470449339,5.845902779841539e-05,0.6915796667824465,0.7222998020793034,0.0,0.0,0.0,0.0,0.0,0.0,0.0,0.0,0.0,-0.006530099861091642,0.010300022811395361,0.00020559222682775183,0.0,0.0,0.0,0.0,0.0,0.0,0.0,0.0,0.0,0.7927600308481411,0.9324644493879651,16.506421390398224,0.0,0.0,0.0,0.0,0.0,0.0,0.0,0.0,0.0
423196000000,3499,423195000000,base_link,-0.0007578008776666957,5.876036709064486e-05,0.6915795450858593,0.7222999066204323,0.0,0.0,0.0,0.0,0.0,0.0,0.0,0.0,0.0,-0.016170052504754912,0.016317007373975817,-0.0003212919870554723,0.0,0.0,0.0,0.0,0.0,0.0,0.0,0.0,0.0,0.7392680826008009,0.8705131416850531,1.4410807403772115,0.0,0.0,0.0,0.0,0.0,0.0,0.0,0.0,0.0
423197000000,3500,423196000000,base_link,-0.0007473473423088524,6.350098486129153e-05,0.691579932413554,0.7222995462565645,0.0,0.0,0.0,0.0,0.0,0.0,0.0,0.0,0.0,0.021658805460293057,-0.007609756192171155,0.0010653689894887042,0.0,0.0,0.0,0.0,0.0,0.0,0.0,0.0,0.0,-0.7138635185225953,-1.6465271468241014,19.77037947043879,0.0,0.0,0.0,0.0,0.0,0.0,0.0,0.0,0.0
423198000000,3501,423197000000,base_link,-0.0007378247906170528,6.775685841963515e-05,0.6915802760293039,0.7222992266580509,0.0,0.0,0.0,0.0,0.0,0.0,0.0,0.0,0.0,0.01964287037663132,-0.0070239981894622255,0.0009460069917970294,0.0,0.0,0.0,0.0,0.0,0.0,0.0,0.0,0.0,-0.5696892089745293,-0.6447916134845985,0.6825888672841902,0.0,0.0,0.0,0.0,0.0,0.0,0.0,0.0,0.0
423199000000,3502,423198000000,base_link,-0.0007461927471860554,6.997812106973493e-05,0.6915820095802448,0.722297558021898,0.0,0.0,0.0,0.0,0.0,0.0,0.0,0.0,0.0,-0.009019387398696468,0.014780242236818087,0.0048149525517669906,0.0,0.0,0.0,0.0,0.0,0.0,0.0,0.0,0.0,0.6109396202070922,2.172627539243378,17.911470114597932,0.0,0.0,0.0,0.0,0.0,0.0,0.0,0.0,0.0
423200000000,3503,423199000000,base_link,-0.0007540020976833769,7.226396179501728e-05,0.6915837551595406,0.7222958783339312,0.0,0.0,0.0,0.0,0.0,0.0,0.0,0.0,0.0,-0.008122407990130746,0.014101356974808753,0.004847257673013053,0.0,0.0,0.0,0.0,0.0,0.0,0.0,0.0,0.0,0.07527352201226414,0.04761565502655296,0.006756977462570646,0.0,0.0,0.0,0.0,0.0,0.0,0.0,0.0,0.0
423201000000,3504,423200000000,base_link,-0.0007477788752285961,6.949374849870848e-05,0.6915826707200058,0.7222969234028044,0.0,0.0,0.0,0.0,0.0,0.0,0.0,0.0,0.0,0.005159603859559489,-0.012608786684890152,-0.0030151708553253446,0.0,0.0,0.0,0.0,0.0,0.0,0.0,0.0,0.0,-2.247469035544782,-0.08967222735686493,21.63253576421105,0.0,0.0,0.0,0.0,0.0,0.0,0.0,0.0,0.0
423202000000,3505,423201000000,base_link,-0.0007430051096068345,6.224914864708983e-05,0.6915815894395121,0.7222979642895089,0.0,0.0,0.0,0.0,0.0,0.0,0.0,0.0,0.0,-0.003122693772791542,-0.017066972487986644,-0.003011907738527041,0.0,0.0,0.0,0.0,0.0,0.0,0.0,0.0,0.0,-0.33219837928598683,0.3149806376926153,0.8355986878621557,0.0,0.0,0.0,0.0,0.0,0.0,0.0,0.0,0.0
423203000000,3506,423202000000,base_link,-0.0007474512205395013,5.6837043085920036e-05,0.6915812648502598,0.722298270934064,0.0,0.0,0.0,0.0,0.0,0.0,0.0,0.0,0.0,-0.01390827447023832,-0.0016683388713097632,-0.0009017851902848868,0.0,0.0,0.0,0.0,0.0,0.0,0.0,0.0,0.0,0.6556721634334184,1.042195937448945,16.09849769749197,0.0,0.0,0.0,0.0,0.0,0.0,0.0,0.0,0.0
423204000000,3507,423203000000,base_link,-0.0007516552658944982,5.157557362012883e-05,0.6915809703786421,0.7222985489148218,0.0,0.0,0.0,0.0,0.0,0.0,0.0,0.0,0.0,-0.013350167770329466,-0.0017854139801424147,-0.000818228523585336,0.0,0.0,0.0,0.0,0.0,0.0,0.0,0.0,0.0,0.0266589114577126,0.03470007763335625,0.029743784067871815,0.0,0.0,0.0,0.0,0.0,0.0,0.0,0.0,0.0
423205000000,3508,423204000000,base_link,-0.0007473640093901469,4.8624744507329566e-05,0.6915810870782344,0.7222984418357549,0.0,0.0,0.0,0.0,0.0,0.0,0.0,0.0,0.0,0.002131472555455723,-0.010204133995925364,0.00031212613260392266,0.0,0.0,0.0,0.0,0.0,0.0,0.0,0.0,0.0,-0.29825738840058885,-0.919008696184668,22.996311885412233,0.0,0.0,0.0,0.0,0.0,0.0,0.0,0.0,0.0
423206000000,3509,423205000000,base_link,-0.0007413537740322099,4.591134086925511e-05,0.6915810966974808,0.7222984389969566,0.0,0.0,0.0,0.0,0.0,0.0,0.0,0.0,0.0,0.0049293689246635575,-0.01223292719056161,1.4376711426919057e-05,0.0,0.0,0.0,0.0,0.0,0.0,0.0,0.0,0.0,-0.36516134864820116,-0.45351681544341466,0.6540790814845696,0.0,0.0,0.0,0.0,0.0,0.0,0.0,0.0,0.0
423207000000,3510,423206000000,base_link,-0.0007468791559724761,4.1704877031981265e-05,0.6915808787391109,0.7222986422489446,0.0,0.0,0.0,0.0,0.0,0.0,0.0,0.0,0.0,-0.013799889342822455,0.0015661912435767818,-0.0006027348391810719,0.0,0.0,0.0,0.0,0.0,0.0,0.0,0.0,0.0,0.8096789527092316,0.8910121615062212,14.638734720325408,0.0,0.0,0.0,0.0,0.0,0.0,0.0,0.0,0.0
423208000000,3511,423207000000,base_link,-0.0007520817194618805,3.762889969090485e-05,0.6915806790237214,0.7222988282963233,0.0,0.0,0.0,0.0,0.0,0.0,0.0,0.0,0.0,-0.013153050504004081,0.0013081238691883797,-0.0005523643981837615,0.0,0.0,0.0,0.0,0.0,0.0,0.0,0.0,0.0,0.032130054580643164,0.038111218442222476,0.019748716674277134,0.0,0.0,0.0,0.0,0.0,0.0,0.0,0.0,0.0
423209000000,3512,423208000000,base_link,-0.0007479087206163299,3.5877859718530384e-05,0.6915807758654812,0.7222987399951797,0.0,0.0,0.0,0.0,0.0,0.0,0.0,0.0,0.0,0.0036070773466812703,-0.008301549136016158,0.0002599888308027509,0.0,0.0,0.0,0.0,0.0,0.0,0.0,0.0,0.0,-0.3150565046384529,-1.0163267871564443,24.795098409840264,0.0,0.0,0.0,0.0,0.0,0.0,0.0,0.0,0.0
423210000000,3513,423209000000,base_link,-0.0007434537759207355,3.394788578491803e-05,0.6915807565614,0.7222987631707437,0.0,0.0,0.0,0.0,0.0,0.0,0.0,0.0,0.0,0.0037663338341817005,-0.008949996996407857,-6.250776589573583e-05,0.0,0.0,0.0,0.0,0.0,0.0,0.0,0.0,0.0,-0.1492717620055328,-0.20321874547169827,0.2518890255117938,0.0,0.0,0.0,0.0,0.0,0.0,0.0,0.0,0.0
423211000000,3514,423210000000,base_link,-0.0007719395999921974,2.4242296183454355e-05,0.6915797842115666,0.7222996646762673,0.0,0.0,0.0,0.0,0.0,0.0,0.0,0.0,0.0,-0.0545231455467229,0.025358315668737766,-0.002667674739915062,0.0,0.0,0.0,0.0,0.0,0.0,0.0,0.0,0.0,1.4034278169418142,1.9672036087591807,4.655377336621518,0.0,0.0,0.0,0.0,0.0,0.0,0.0,0.0,0.0
423212000000,3515,423211000000,base_link,-0.0007719395999921974,2.4242296183454355e-05,0.6915797842115666,0.7222996646762673,0.0,0.0,0.0,0.0,0.0,0.0,0.0,0.0,0.0,-0.0545231455467229,0.025358315668737766,-0.002667674739915062,0.0,0.0,0.0,0.0,0.0,0.0,0.0,0.0,0.0,1.4034278169418142,1.9672036087591807,4.655377336621518,0.0,0.0,0.0,0.0,0.0,0.0,0.0,0.0,0.0
423214000000,3516,423213000000,base_link,-0.0007541609030624188,3.4077629946822e-05,0.6915743313331838,0.7223049039852266,0.0,0.0,0.0,0.0,0.0,0.0,0.0,0.0,0.0,-0.011629393939246866,0.01272282221688924,-0.0026592077745040727,0.0,0.0,0.0,0.0,0.0,0.0,0.0,0.0,0.0,0.07522984940241334,0.06012525157000544,0.011824236847493452,0.0,0.0,0.0,0.0,0.0,0.0,0.0,0.0,0.0
423215000000,3517,423214000000,base_link,-0.0007466001299801602,3.519857228668652e-05,0.6915749429294373,0.7223043262098406,0.0,0.0,0.0,0.0,0.0,0.0,0.0,0.0,0.0,0.012473503956360234,-0.00884068770455368,0.0016860497337026219,0.0,0.0,0.0,0.0,0.0,0.0,0.0,0.0,0.0,-0.1134589143251045,-1.2180271560902358,18.00226704756798,0.0,0.0,0.0,0.0,0.0,0.0,0.0,0.0,0.0
423216000000,3518,423215000000,base_link,-0.0007359549135930248,3.647947626520035e-05,0.6915752504803472,0.7223040426043994,0.0,0.0,0.0,0.0,0.0,0.0,0.0,0.0,0.0,0.017149576256325003,-0.012874003920074633,0.0008392557057031258,0.0,0.0,0.0,0.0,0.0,0.0,0.0,0.0,0.0,-0.5943466650663588,-0.7816966441757729,1.0977574699089523,0.0,0.0,0.0,0.0,0.0,0.0,0.0,0.0,0.0
423217000000,3519,423216000000,base_link,-0.0007450288192204756,3.502778053224838e-05,0.6915754807459074,0.7223038129043625,0.0,0.0,0.0,0.0,0.0,0.0,0.0,0.0,0.0,-0.01511686583408472,0.010452860707764865,0.0006473062570205063,0.0,0.0,0.0,0.0,0.0,0.0,0.0,0.0,0.0,1.275599473515287,1.5091059836393717,19.162846996189565,0.0,0.0,0.0,0.0,0.0,0.0,0.0,0.0,0.0
423217000000,3520,423217000000,base_link,-0.000753641284062742,3.370338491727168e-05,0.6915757523751523,0.7223035439589361,0.0,0.0,0.0,0.0,0.0,0.0,0.0,0.0,0.0,-0.01427389123026699,0.009998721120683757,0.0007618130271045027,0.0,0.0,0.0,0.0,0.0,0.0,0.0,0.0,0.0,0.05427609072860208,0.05961672403442202,-0.005694550481324612,0.0,0.0,0.0,0.0,0.0,0.0,0.0,0.0,0.0
423219000000,3521,423218000000,base_link,-0.0007466159652912853,3.511786457683693e-05,0.691576556135369,0.7223027816195082,0.0,0.0,0.0,0.0,0.0,0.0,0.0,0.0,0.0,0.012104781685931041,-0.007674653573144952,0.0022183690239061383,0.0,0.0,0.0,0.0,0.0,0.0,0.0,0.0,0.0,-0.3548832510678101,-1.2033610779634052,20.12378957325877,0.0,0.0,0.0,0.0,0.0,0.0,0.0,0.0,0.0
423220000000,3522,423219000000,base_link,-0.0007379127814858242,3.6608974476781026e-05,0.6915771626655864,0.7223022097598255,0.0,0.0,0.0,0.0,0.0,0.0,0.0,0.0,0.0,0.014634261713970533,-0.009884672290808992,0.0016699989224920918,0.0,0.0,0.0,0.0,0.0,0.0,0.0,0.0,0.0,-0.38723847391309335,-0.49825728757549254,0.6876053352955616,0.0,0.0,0.0,0.0,0.0,0.0,0.0,0.0,0.0
423221000000,3523,423220000000,base_link,-0.0007448054469052964,3.642459732595601e-05,0.69157738246009,0.7223019922496029,0.0,0.0,0.0,0.0,0.0,0.0,0.0,0.0,0.0,-0.010212960298466292,0.009267005416293807,0.0006176846896457156,0.0,0.0,0.0,0.0,0.0,0.0,0.0,0.0,0.0,0.9745543133487267,1.1699618362817346,17.415135938132664,0.0,0.0,0.0,0.0,0.0,0.0,0.0,0.0,0.0
423222000000,3524,423221000000,base_link,-0.0007558397369910936,3.5364326109621256e-05,0.6915774851808995,0.7223018824885611,0.0,0.0,0.0,0.0,0.0,0.0,0.0,0.0,0.0,-0.017406871728330064,0.0137303126155939,0.00029782584696157156,0.0,0.0,0.0,0.0,0.0,0.0,0.0,0.0,0.0,0.6811029014567916,0.7812748982758289,1.2269568007935803,0.0,0.0,0.0,0.0,0.0,0.0,0.0,0.0,0.0
423223000000,3525,423222000000,base_link,-0.0007459275563798743,3.853214218960994e-05,0.6915780381731624,0.7223013631607754,0.0,0.0,0.0,0.0,0.0,0.0,0.0,0.0,0.0,0.018700926850252937,-0.00913353009189138,0.001521524134619195,0.0,0.0,0.0,0.0,0.0,0.0,0.0,0.0,0.0,-0.6187337950735119,-1.517442614474551,19.294343052566134,0.0,0.0,0.0,0.0,0.0,0.0,0.0,0.0,0.0
423224000000,3526,423223000000,base_link,-0.0007459275563798743,3.853214218960994e-05,0.6915780381731624,0.7223013631607754,0.0,0.0,0.0,0.0,0.0,0.0,0.0,0.0,0.0,0.018700926850252937,-0.00913353009189138,0.001521524134619195,0.0,0.0,0.0,0.0,0.0,0.0,0.0,0.0,0.0,-0.6187337950735119,-1.517442614474551,19.294343052566134,0.0,0.0,0.0,0.0,0.0,0.0,0.0,0.0,0.0
423225000000,3527,423224000000,base_link,-0.0007447748180105296,4.220105223641536e-05,0.6915787320683697,0.7223006997644733,0.0,0.0,0.0,0.0,0.0,0.0,0.0,0.0,0.0,-0.011214805310722971,0.013028716218867439,0.0005973557986299572,0.0,0.0,0.0,0.0,0.0,0.0,0.0,0.0,0.0,1.0842906241187567,1.3457099461411892,18.519841566490626,0.0,0.0,0.0,0.0,0.0,0.0,0.0,0.0,0.0
423226000000,3528,423225000000,base_link,-0.0007447748180105296,4.220105223641536e-05,0.6915787320683697,0.7223006997644733,0.0,0.0,0.0,0.0,0.0,0.0,0.0,0.0,0.0,-0.011214805310722971,0.013028716218867439,0.0005973557986299572,0.0,0.0,0.0,0.0,0.0,0.0,0.0,0.0,0.0,1.0842906241187567,1.3457099461411892,18.519841566490626,0.0,0.0,0.0,0.0,0.0,0.0,0.0,0.0,0.0
423228000000,3529,423227000000,base_link,-0.0007388466048039923,5.0785768376892626e-05,0.6915800462626317,0.7222994470009491,0.0,0.0,0.0,0.0,0.0,0.0,0.0,0.0,0.0,0.01667484273314511,-0.005288577328668054,0.0012173832067184694,0.0,0.0,0.0,0.0,0.0,0.0,0.0,0.0,0.0,-0.3524055961519987,-0.45651857015594244,0.6345769084061956,0.0,0.0,0.0,0.0,0.0,0.0,0.0,0.0,0.0
423229000000,3530,423228000000,base_link,-0.0007448720122323347,5.319600587296502e-05,0.6915801077158816,0.7222993817992369,0.0,0.0,0.0,0.0,0.0,0.0,0.0,0.0,0.0,-0.005380200632415946,0.01181858642446243,0.00018050345783831318,0.0,0.0,0.0,0.0,0.0,0.0,0.0,0.0,0.0,0.8240920075513483,0.9738842572281623,16.68070048398295,0.0,0.0,0.0,0.0,0.0,0.0,0.0,0.0,0.0
423230000000,3531,423229000000,base_link,-0.0007564735699983878,5.4416660562829664e-05,0.6915799940671423,0.7222994784662774,0.0,0.0,0.0,0.0,0.0,0.0,0.0,0.0,0.0,-0.015071109165203973,0.01781033527417867,-0.00029729224251574495,0.0,0.0,0.0,0.0,0.0,0.0,0.0,0.0,0.0,0.6715350526155971,0.79642845493971,1.3403150863235087,0.0,0.0,0.0,0.0,0.0,0.0,0.0,0.0,0.0
423231000000,3532,423230000000,base_link,-0.0007460936293277479,6.008222594473887e-05,0.691580385846992,0.7222991136960837,0.0,0.0,0.0,0.0,0.0,0.0,0.0,0.0,0.0,0.02283161982298678,-0.006172036496010641,0.0010793555901948673,0.0,0.0,0.0,0.0,0.0,0.0,0.0,0.0,0.0,-0.6943321279439956,-1.6286043341539,19.809553615076986,0.0,0.0,0.0,0.0,0.0,0.0,0.0,0.0,0.0
423232000000,3533,423231000000,base_link,-0.0007366248336287102,6.526887078057704e-05,0.6915807346702691,0.7222987889763903,0.0,0.0,0.0,0.0,0.0,0.0,0.0,0.0,0.0,0.02085217099925333,-0.005604797360661709,0.000961925280466796,0.0,0.0,0.0,0.0,0.0,0.0,0.0,0.0,0.0,-0.5579770852983288,-0.6320061753997245,0.6690693937172743,0.0,0.0,0.0,0.0,0.0,0.0,0.0,0.0,0.0
423233000000,3534,423232000000,base_link,-0.0007455841651528569,7.09720268327928e-05,0.691580559024182,0.7222989474220656,0.0,0.0,0.0,0.0,0.0,0.0,0.0,0.0,0.0,-0.0050566188741517585,0.02063182496349066,-0.00046652028838612,0.0,0.0,0.0,0.0,0.0,0.0,0.0,0.0,0.0,0.7738889155538469,1.3844313679677338,17.69217353068788,0.0,0.0,0.0,0.0,0.0,0.0,0.0,0.0,0.0
423234000000,3535,423233000000,base_link,-0.000753915849401889,7.670038534430888e-05,0.6915803965482988,0.7222990937541324,0.0,0.0,0.0,0.0,0.0,0.0,0.0,0.0,0.0,-0.004112449495268606,0.019799457856703187,-0.0004297538302611622,0.0,0.0,0.0,0.0,0.0,0.0,0.0,0.0,0.0,0.0665778209551655,0.04188096402219232,0.033595315465856146,0.0,0.0,0.0,0.0,0.0,0.0,0.0,0.0,0.0
423234000000,3536,423234000000,base_link,-0.0007470777722677342,7.322963315061386e-05,0.691578704756777,0.722300721056792,0.0,0.0,0.0,0.0,0.0,0.0,0.0,0.0,0.0,0.005079778485007821,-0.014470581156654866,-0.0046997828392178346,0.0,0.0,0.0,0.0,0.0,0.0,0.0,0.0,0.0,-2.5269457446212966,0.3603727135422977,22.10344311727612,0.0,0.0,0.0,0.0,0.0,0.0,0.0,0.0,0.0
423236000000,3537,423235000000,base_link,-0.0007414153946459215,6.647767680691944e-05,0.6915770584177143,0.7223023038549942,0.0,0.0,0.0,0.0,0.0,0.0,0.0,0.0,0.0,-0.0011565353436025425,-0.017583616956886365,-0.0045768229642337635,0.0,0.0,0.0,0.0,0.0,0.0,0.0,0.0,0.0,-0.3096265101665638,0.28154003863411564,0.6919158468143234,0.0,0.0,0.0,0.0,0.0,0.0,0.0,0.0,0.0
423237000000,3538,423236000000,base_link,-0.0007468564651142225,6.19350610013939e-05,0.6915766425382573,0.7223026968418297,0.0,0.0,0.0,0.0,0.0,0.0,0.0,0.0,0.0,-0.01414296251205965,0.0009637816597077437,-0.0011522604807813106,0.0,0.0,0.0,0.0,0.0,0.0,0.0,0.0,0.0,0.7569961784165411,1.2926217373987487,15.811953513328778,0.0,0.0,0.0,0.0,0.0,0.0,0.0,0.0,0.0
423238000000,3539,423237000000,base_link,-0.0007520214569993823,5.757479790136561e-05,0.691576274887134,0.7223030438549364,0.0,0.0,0.0,0.0,0.0,0.0,0.0,0.0,0.0,-0.013491723487592224,0.0008456220818720064,-0.0010182358838753346,0.0,0.0,0.0,0.0,0.0,0.0,0.0,0.0,0.0,0.032259670748639335,0.04340981328977544,0.026499921914023616,0.0,0.0,0.0,0.0,0.0,0.0,0.0,0.0,0.0
423239000000,3540,423238000000,base_link,-0.0007471013575213929,5.572884107197167e-05,0.6915764975724935,0.7223028358931044,0.0,0.0,0.0,0.0,0.0,0.0,0.0,0.0,0.0,0.0045570781338935065,-0.00947346438793677,0.0006071837907757043,0.0,0.0,0.0,0.0,0.0,0.0,0.0,0.0,0.0,-0.35737317670161606,-1.0340693446371378,23.08207927567319,0.0,0.0,0.0,0.0,0.0,0.0,0.0,0.0,0.0
423240000000,3541,423239000000,base_link,-0.0007408368590306473,5.4158475512781296e-05,0.691576691278887,0.7223026569986816,0.0,0.0,0.0,0.0,0.0,0.0,0.0,0.0,0.0,0.006877447997289529,-0.010933613879038273,0.0005256242747417423,0.0,0.0,0.0,0.0,0.0,0.0,0.0,0.0,0.0,-0.29213307143042927,-0.35026680833050056,0.5019640343794496,0.0,0.0,0.0,0.0,0.0,0.0,0.0,0.0,0.0
423241000000,3542,423240000000,base_link,-0.0007467995294934439,5.112293018573855e-05,0.6915765888282424,0.7223027491721189,0.0,0.0,0.0,0.0,0.0,0.0,0.0,0.0,0.0,-0.012812401372192542,0.0038623065226420982,-0.0002805290149525495,0.0,0.0,0.0,0.0,0.0,0.0,0.0,0.0,0.0,0.8761044128158202,0.985179026930026,15.17565622204597,0.0,0.0,0.0,0.0,0.0,0.0,0.0,0.0,0.0
423241000000,3543,423241000000,base_link,-0.0007467995294934439,5.112293018573855e-05,0.6915765888282424,0.7223027491721189,0.0,0.0,0.0,0.0,0.0,0.0,0.0,0.0,0.0,-0.012812401372192542,0.0038623065226420982,-0.0002805290149525495,0.0,0.0,0.0,0.0,0.0,0.0,0.0,0.0,0.0,0.8761044128158202,0.985179026930026,15.17565622204597,0.0,0.0,0.0,0.0,0.0,0.0,0.0,0.0,0.0
423242000000,3544,423242000000,base_link,-0.0007524362941386451,4.822538302500358e-05,0.691576503872254,0.7223028248634821,0.0,0.0,0.0,0.0,0.0,0.0,0.0,0.0,0.0,-0.0121505310234073,0.0036108155217304894,-0.00023232474693335784,0.0,0.0,0.0,0.0,0.0,0.0,0.0,0.0,0.0,0.03475402166223228,0.040936629834894725,0.02148280737039343,0.0,0.0,0.0,0.0,0.0,0.0,0.0,0.0,0.0
423245000000,3545,423244000000,base_link,-0.0007466167081041029,4.563438508189483e-05,0.691576740281973,0.7223026047176866,0.0,0.0,0.0,0.0,0.0,0.0,0.0,0.0,0.0,-0.00945573870125521,0.0042688621919546085,-0.00048364422290940933,0.0,0.0,0.0,0.0,0.0,0.0,0.0,0.0,0.0,0.7790087269301371,0.842528425069405,14.381782305461652,0.0,0.0,0.0,0.0,0.0,0.0,0.0,0.0,0.0
423246000000,3546,423245000000,base_link,-0.0007512071501360913,4.403206945398652e-05,0.6915765785434257,0.7223027549159449,0.0,0.0,0.0,0.0,0.0,0.0,0.0,0.0,0.0,-0.00884738586809315,0.004034800175676733,-0.0004442071869145186,0.0,0.0,0.0,0.0,0.0,0.0,0.0,0.0,0.0,0.031372242562163435,0.03670393711560878,0.019941988123100884,0.0,0.0,0.0,0.0,0.0,0.0,0.0,0.0,0.0
423247000000,3547,423246000000,base_link,-0.0007512071501360913,4.403206945398652e-05,0.6915765785434257,0.7223027549159449,0.0,0.0,0.0,0.0,0.0,0.0,0.0,0.0,0.0,-0.00884738586809315,0.004034800175676733,-0.0004442071869145186,0.0,0.0,0.0,0.0,0.0,0.0,0.0,0.0,0.0,0.031372242562163435,0.03670393711560878,0.019941988123100884,0.0,0.0,0.0,0.0,0.0,0.0,0.0,0.0,0.0
423249000000,3548,423248000000,base_link,-0.0007440128765147844,4.500847693422133e-05,0.691576558547582,0.7223027814473371,0.0,0.0,0.0,0.0,0.0,0.0,0.0,0.0,0.0,0.006064860154974709,-0.004692003093181888,-0.0002182483895260408,0.0,0.0,0.0,0.0,0.0,0.0,0.0,0.0,0.0,-0.16178347804272478,-0.520509340788189,12.772221166572976,0.0,0.0,0.0,0.0,0.0,0.0,0.0,0.0,0.0
423251000000,3549,423250000000,base_link,-0.0007466858861947428,4.728655228104651e-05,0.6915757867097799,0.7223035175471031,0.0,0.0,0.0,0.0,0.0,0.0,0.0,0.0,0.0,0.005040304429618918,0.002517066247407902,-0.0012127397104946046,0.0,0.0,0.0,0.0,0.0,0.0,0.0,0.0,0.0,0.10690015016995191,-0.3027124985886887,29.160740556683173,0.0,0.0,0.0,0.0,0.0,0.0,0.0,0.0,0.0
423252000000,3550,423251000000,base_link,-0.0007466858861947428,4.728655228104651e-05,0.6915757867097799,0.7223035175471031,0.0,0.0,0.0,0.0,0.0,0.0,0.0,0.0,0.0,0.005040304429618918,0.002517066247407902,-0.0012127397104946046,0.0,0.0,0.0,0.0,0.0,0.0,0.0,0.0,0.0,0.10690015016995191,-0.3027124985886887,29.160740556683173,0.0,0.0,0.0,0.0,0.0,0.0,0.0,0.0,0.0
423254000000,3551,423253000000,base_link,-0.0007444881078741061,5.2551301315767766e-05,0.6915750798017782,0.7223041962864276,0.0,0.0,0.0,0.0,0.0,0.0,0.0,0.0,0.0,0.005836012866623994,0.0024078059920698627,-0.0020892155095671313,0.0,0.0,0.0,0.0,0.0,0.0,0.0,0.0,0.0,0.31989207770454,-0.09588842474969317,28.214666571925857,0.0,0.0,0.0,0.0,0.0,0.0,0.0,0.0,0.0
423255000000,3552,423254000000,base_link,-0.0007444344475771483,5.4002419307100545e-05,0.6915749592810575,0.7223043116280671,0.0,0.0,0.0,0.0,0.0,0.0,0.0,0.0,0.0,0.002084781937562024,0.002022223578094894,-0.00033144608679184324,0.0,0.0,0.0,0.0,0.0,0.0,0.0,0.0,0.0,0.18573928890293695,0.055681847722665254,0.26457778112196983,0.0,0.0,0.0,0.0,0.0,0.0,0.0,0.0,0.0
423256000000,3553,423255000000,base_link,-0.0007443742273434637,5.5449765758071614e-05,0.691574844577856,0.7223044214037788,0.0,0.0,0.0,0.0,0.0,0.0,0.0,0.0,0.0,0.002089067624812645,0.002007714474318319,-0.0003153760875105777,0.0,0.0,0.0,0.0,0.0,0.0,0.0,0.0,0.0,0.004202415726296812,0.003437374500540654,0.002975630363870607,0.0,0.0,0.0,0.0,0.0,0.0,0.0,0.0,0.0
423257000000,3554,423256000000,base_link,-0.0007443742273434637,5.5449765758071614e-05,0.691574844577856,0.7223044214037788,0.0,0.0,0.0,0.0,0.0,0.0,0.0,0.0,0.0,0.002089067624812645,0.002007714474318319,-0.0003153760875105777,0.0,0.0,0.0,0.0,0.0,0.0,0.0,0.0,0.0,0.004202415726296812,0.003437374500540654,0.002975630363870607,0.0,0.0,0.0,0.0,0.0,0.0,0.0,0.0,0.0
423259000000,3555,423258000000,base_link,-0.0007459036184184945,6.595961483917074e-05,0.6915732916207277,0.72230590582799,0.0,0.0,0.0,0.0,0.0,0.0,0.0,0.0,0.0,0.006128573024336587,0.008460050570339758,-0.0020975029901882892,0.0,0.0,0.0,0.0,0.0,0.0,0.0,0.0,0.0,0.10428523252740352,0.055177283424464096,14.52130690139613,0.0,0.0,0.0,0.0,0.0,0.0,0.0,0.0,0.0
423260000000,3556,423259000000,base_link,-0.0007638512044462959,6.633481828767931e-05,0.6915725571896338,0.7223065902185999,0.0,0.0,0.0,0.0,0.0,0.0,0.0,0.0,0.0,-0.025407215728827797,0.025367171095886144,-0.002009388280360295,0.0,0.0,0.0,0.0,0.0,0.0,0.0,0.0,0.0,0.9023733610754578,1.0876752263912064,2.5743260652133415,0.0,0.0,0.0,0.0,0.0,0.0,0.0,0.0,0.0
423261000000,3557,423260000000,base_link,-0.0007477632294646588,7.148887342803108e-05,0.6915701284735191,0.7223089319277549,0.0,0.0,0.0,0.0,0.0,0.0,0.0,0.0,0.0,0.016567683950101032,-0.014113343121558177,-0.005770098287353617,0.0,0.0,0.0,0.0,0.0,0.0,0.0,0.0,0.0,-2.4889746382590734,-1.16524781098537,22.472891170956142,0.0,0.0,0.0,0.0,0.0,0.0,0.0,0.0,0.0
423262000000,3558,423261000000,base_link,-0.000740465414174752,6.434720713349525e-05,0.6915684587751371,0.7223105387558656,0.0,0.0,0.0,0.0,0.0,0.0,0.0,0.0,0.0,0.0006648540326504755,-0.02040751546767324,-0.004654206424238347,0.0,0.0,0.0,0.0,0.0,0.0,0.0,0.0,0.0,-1.2825586370713504,0.33165742905279827,2.214426264549001,0.0,0.0,0.0,0.0,0.0,0.0,0.0,0.0,0.0
423263000000,3559,423262000000,base_link,-0.0007700976573025359,5.033294150245142e-05,0.6915650127652695,0.7223138082129996,0.0,0.0,0.0,0.0,0.0,0.0,0.0,0.0,0.0,-0.062185856348836124,0.02074478945091045,-0.009524776380407081,0.0,0.0,0.0,0.0,0.0,0.0,0.0,0.0,0.0,1.487667611021613,2.3332390459821024,5.343836795120737,0.0,0.0,0.0,0.0,0.0,0.0,0.0,0.0,0.0
423265000000,3560,423264000000,base_link,-0.0007382249172123892,5.043152987303848e-05,0.6915635179258499,0.7223152726854493,0.0,0.0,0.0,0.0,0.0,0.0,0.0,0.0,0.0,0.012435515628728126,-0.01423527219754642,-0.0017349786880622962,0.0,0.0,0.0,0.0,0.0,0.0,0.0,0.0,0.0,-0.8914949858303788,-1.2583919461652908,11.543442832688111,0.0,0.0,0.0,0.0,0.0,0.0,0.0,0.0,0.0
423267000000,3561,423266000000,base_link,-0.0007561830046745791,4.23780724757902e-05,0.6915636977260726,0.7223150824804946,0.0,0.0,0.0,0.0,0.0,0.0,0.0,0.0,0.0,-0.021592781561108478,0.007747599963283876,0.0006739029080215829,0.0,0.0,0.0,0.0,0.0,0.0,0.0,0.0,0.0,0.8439315737162835,0.9112588292972553,9.41595399551923,0.0,0.0,0.0,0.0,0.0,0.0,0.0,0.0,0.0
423269000000,3562,423268000000,base_link,-0.0007447660414597511,3.7835832411125915e-05,0.6915659023971348,0.722312983777552,0.0,0.0,0.0,0.0,0.0,0.0,0.0,0.0,0.0,-0.016198566202431475,0.007283160169141229,0.001497760085845448,0.0,0.0,0.0,0.0,0.0,0.0,0.0,0.0,0.0,1.0702552726471837,1.3256780771448113,18.510455470746383,0.0,0.0,0.0,0.0,0.0,0.0,0.0,0.0,0.0
423270000000,3563,423269000000,base_link,-0.0007447660414597511,3.7835832411125915e-05,0.6915659023971348,0.722312983777552,0.0,0.0,0.0,0.0,0.0,0.0,0.0,0.0,0.0,-0.016198566202431475,0.007283160169141229,0.001497760085845448,0.0,0.0,0.0,0.0,0.0,0.0,0.0,0.0,0.0,1.0702552726471837,1.3256780771448113,18.510455470746383,0.0,0.0,0.0,0.0,0.0,0.0,0.0,0.0,0.0
423272000000,3564,423271000000,base_link,-0.0007385042333064533,3.4866917841356136e-05,0.6915680465609453,0.7223109374581514,0.0,0.0,0.0,0.0,0.0,0.0,0.0,0.0,0.0,0.011328730085093844,-0.010999397953836363,0.0018660106298146184,0.0,0.0,0.0,0.0,0.0,0.0,0.0,0.0,0.0,-0.3875838960613272,-0.8420495328190674,10.743672145029342,0.0,0.0,0.0,0.0,0.0,0.0,0.0,0.0,0.0
423273000000,3565,423272000000,base_link,-0.0007444288429535406,3.336076817117064e-05,0.691568297179101,0.7223106914960871,0.0,0.0,0.0,0.0,0.0,0.0,0.0,0.0,0.0,-0.010648131942373514,0.006021464100402552,0.0006997079657064587,0.0,0.0,0.0,0.0,0.0,0.0,0.0,0.0,0.0,0.834639287943225,0.9823515440763858,16.637273312728883,0.0,0.0,0.0,0.0,0.0,0.0,0.0,0.0,0.0
423274000000,3566,423273000000,base_link,-0.000755877983426402,3.071414611101559e-05,0.6915683522525126,0.722310626993581,0.0,0.0,0.0,0.0,0.0,0.0,0.0,0.0,0.0,-0.020200452216106213,0.012012297725905615,0.0001640744665513795,0.0,0.0,0.0,0.0,0.0,0.0,0.0,0.0,0.0,0.6980131682663615,0.827877901979936,1.3764069154408762,0.0,0.0,0.0,0.0,0.0,0.0,0.0,0.0,0.0
423275000000,3567,423274000000,base_link,-0.000745468588489253,3.246522211318818e-05,0.6915688792678841,0.7223101331497127,0.0,0.0,0.0,0.0,0.0,0.0,0.0,0.0,0.0,0.017459638312256356,-0.0118677916235828,0.0014470783634384565,0.0,0.0,0.0,0.0,0.0,0.0,0.0,0.0,0.0,-0.6709817305559999,-1.6030823561598837,19.752545469770215,0.0,0.0,0.0,0.0,0.0,0.0,0.0,0.0,0.0
423276000000,3568,423275000000,base_link,-0.0007359245584469385,3.370682698907655e-05,0.6915693373022217,0.7223097043389768,0.0,0.0,0.0,0.0,0.0,0.0,0.0,0.0,0.0,0.015504445285202315,-0.011407930104892175,0.0012572503425537008,0.0,0.0,0.0,0.0,0.0,0.0,0.0,0.0,0.0,-0.5600884008066495,-0.6403223809454621,0.6811381071777358,0.0,0.0,0.0,0.0,0.0,0.0,0.0,0.0,0.0
423277000000,3569,423276000000,base_link,-0.0007441353240482264,3.307326430070508e-05,0.6915695295236598,0.7223095119152195,0.0,0.0,0.0,0.0,0.0,0.0,0.0,0.0,0.0,-0.012738532114169043,0.010440666190856264,0.0005420135378990673,0.0,0.0,0.0,0.0,0.0,0.0,0.0,0.0,0.0,1.058732960042598,1.3178286486915711,18.261718172159604,0.0,0.0,0.0,0.0,0.0,0.0,0.0,0.0,0.0
423278000000,3570,423277000000,base_link,-0.0007519503801013294,3.256819400046723e-05,0.6915697511141081,0.7223092916846006,0.0,0.0,0.0,0.0,0.0,0.0,0.0,0.0,0.0,-0.011988703527010626,0.010079359892835956,0.0006234547280681167,0.0,0.0,0.0,0.0,0.0,0.0,0.0,0.0,0.0,0.04571823758611589,0.05330598392010359,-0.00746354222050627,0.0,0.0,0.0,0.0,0.0,0.0,0.0,0.0,0.0
423279000000,3571,423278000000,base_link,-0.0007460397590435292,3.4779190357507454e-05,0.691570344021326,0.7223087300353711,0.0,0.0,0.0,0.0,0.0,0.0,0.0,0.0,0.0,0.011596756662899468,-0.004981857413355138,0.0016372509865767006,0.0,0.0,0.0,0.0,0.0,0.0,0.0,0.0,0.0,-0.37939700930014425,-1.163195051988062,21.16668112464812,0.0,0.0,0.0,0.0,0.0,0.0,0.0,0.0,0.0
423280000000,3572,423279000000,base_link,-0.0007460397590435292,3.4779190357507454e-05,0.691570344021326,0.7223087300353711,0.0,0.0,0.0,0.0,0.0,0.0,0.0,0.0,0.0,0.011596756662899468,-0.004981857413355138,0.0016372509865767006,0.0,0.0,0.0,0.0,0.0,0.0,0.0,0.0,0.0,-0.37939700930014425,-1.163195051988062,21.16668112464812,0.0,0.0,0.0,0.0,0.0,0.0,0.0,0.0,0.0
423282000000,3573,423281000000,base_link,-0.0007558910692115353,3.768405652363454e-05,0.6915706036315047,0.7223084710851451,0.0,0.0,0.0,0.0,0.0,0.0,0.0,0.0,0.0,-0.01679560595808754,0.015326231336189542,-0.00045358085748140476,0.0,0.0,0.0,0.0,0.0,0.0,0.0,0.0,0.0,0.8267901796513226,0.9550640726085531,1.539793958160299,0.0,0.0,0.0,0.0,0.0,0.0,0.0,0.0,0.0
423283000000,3574,423282000000,base_link,-0.0007558910692115353,3.768405652363454e-05,0.6915706036315047,0.7223084710851451,0.0,0.0,0.0,0.0,0.0,0.0,0.0,0.0,0.0,-0.01679560595808754,0.015326231336189542,-0.00045358085748140476,0.0,0.0,0.0,0.0,0.0,0.0,0.0,0.0,0.0,0.8267901796513226,0.9550640726085531,1.539793958160299,0.0,0.0,0.0,0.0,0.0,0.0,0.0,0.0,0.0
423285000000,3575,423284000000,base_link,-0.0007522830816860297,5.578385213883913e-05,0.6915665678312173,0.7223123377158094,0.0,0.0,0.0,0.0,0.0,0.0,0.0,0.0,0.0,-0.007125649092436446,0.020477436845176077,-0.002818312136420694,0.0,0.0,0.0,0.0,0.0,0.0,0.0,0.0,0.0,0.08559924290502607,0.06170621853898779,0.039258666437969936,0.0,0.0,0.0,0.0,0.0,0.0,0.0,0.0,0.0
423286000000,3576,423285000000,base_link,-0.0007445365418477913,6.087327575436842e-05,0.6915671563379707,0.7223117818742781,0.0,0.0,0.0,0.0,0.0,0.0,0.0,0.0,0.0,0.018230142720211284,-0.003362573928405916,0.0016272895940115375,0.0,0.0,0.0,0.0,0.0,0.0,0.0,0.0,0.0,-0.1444697272734276,-1.385483456933756,19.118029994721212,0.0,0.0,0.0,0.0,0.0,0.0,0.0,0.0,0.0
423287000000,3577,423286000000,base_link,-0.0007347444749999139,6.587242616353906e-05,0.6915674495850265,0.7223115106973179,0.0,0.0,0.0,0.0,0.0,0.0,0.0,0.0,0.0,0.021059997679719077,-0.006322315398216913,0.0008073329318574109,0.0,0.0,0.0,0.0,0.0,0.0,0.0,0.0,0.0,-0.46716173793632465,-0.6277337659328742,0.8457761584339192,0.0,0.0,0.0,0.0,0.0,0.0,0.0,0.0,0.0
423288000000,3578,423287000000,base_link,-0.0007347444749999139,6.587242616353906e-05,0.6915674495850265,0.7223115106973179,0.0,0.0,0.0,0.0,0.0,0.0,0.0,0.0,0.0,0.021059997679719077,-0.006322315398216913,0.0008073329318574109,0.0,0.0,0.0,0.0,0.0,0.0,0.0,0.0,0.0,-0.46716173793632465,-0.6277337659328742,0.8457761584339192,0.0,0.0,0.0,0.0,0.0,0.0,0.0,0.0,0.0
423289000000,3579,423288000000,base_link,-0.0007520291422433567,7.516832465707844e-05,0.6915675213212588,0.722311423317853,0.0,0.0,0.0,0.0,0.0,0.0,0.0,0.0,0.0,-0.005649117674499854,0.01828658437142569,0.00014418778167339918,0.0,0.0,0.0,0.0,0.0,0.0,0.0,0.0,0.0,0.06905066164614504,0.04761514288901247,0.019419251157929196,0.0,0.0,0.0,0.0,0.0,0.0,0.0,0.0,0.0
423290000000,3580,423289000000,base_link,-0.0007453647754264654,7.475220768041741e-05,0.6915663708101963,0.7223125318086855,0.0,0.0,0.0,0.0,0.0,0.0,0.0,0.0,0.0,0.009053216800034514,-0.00981802707182302,-0.003194782069572656,0.0,0.0,0.0,0.0,0.0,0.0,0.0,0.0,0.0,-1.9462861566734706,-0.034281438064290855,21.203875022159362,0.0,0.0,0.0,0.0,0.0,0.0,0.0,0.0,0.0
423291000000,3581,423290000000,base_link,-0.000740675073061626,6.796252151817105e-05,0.6915652331077817,0.722313626576511,0.0,0.0,0.0,0.0,0.0,0.0,0.0,0.0,0.0,-0.0026144676340025966,-0.016293562258073515,-0.0031671782112360166,0.0,0.0,0.0,0.0,0.0,0.0,0.0,0.0,0.0,-0.4670081515557836,0.4641381065344184,1.1822630533937915,0.0,0.0,0.0,0.0,0.0,0.0,0.0,0.0,0.0
423292000000,3582,423291000000,base_link,-0.0007453037626323237,6.382236738737386e-05,0.6915651046829846,0.7223137451508309,0.0,0.0,0.0,0.0,0.0,0.0,0.0,0.0,0.0,-0.012413115300595188,0.0004209552168910396,-0.00035654115594581446,0.0,0.0,0.0,0.0,0.0,0.0,0.0,0.0,0.0,0.7371186104516116,1.2470427537658244,16.029984407306976,0.0,0.0,0.0,0.0,0.0,0.0,0.0,0.0,0.0
423293000000,3583,423292000000,base_link,-0.0007496711935590919,5.984552775780164e-05,0.6915650113965617,0.7223138302868691,0.0,0.0,0.0,0.0,0.0,0.0,0.0,0.0,0.0,-0.011809658996534288,0.0002958019850133513,-0.0002590037440092175,0.0,0.0,0.0,0.0,0.0,0.0,0.0,0.0,0.0,0.0298901872981763,0.03915872053844026,0.028561116257957764,0.0,0.0,0.0,0.0,0.0,0.0,0.0,0.0,0.0
423294000000,3584,423293000000,base_link,-0.0007454957226307842,5.829573916070898e-05,0.6915653282183518,0.7223135314003039,0.0,0.0,0.0,0.0,0.0,0.0,0.0,0.0,0.0,0.003892963034411992,-0.008017256262880816,0.000869321572194798,0.0,0.0,0.0,0.0,0.0,0.0,0.0,0.0,0.0,-0.2590152512890496,-0.8667681717262712,22.907498754267863,0.0,0.0,0.0,0.0,0.0,0.0,0.0,0.0,0.0
423295000000,3585,423294000000,base_link,-0.0007394435566274954,5.7022230388018807e-05,0.6915655444140238,0.7223133307305264,0.0,0.0,0.0,0.0,0.0,0.0,0.0,0.0,0.0,0.0069815364537526,-0.010210920964066852,0.0005887876374469765,0.0,0.0,0.0,0.0,0.0,0.0,0.0,0.0,0.0,-0.34285095632468404,-0.42838467501570826,0.6315610510646845,0.0,0.0,0.0,0.0,0.0,0.0,0.0,0.0,0.0
423296000000,3586,423295000000,base_link,-0.0007451643761673959,5.4340651393243894e-05,0.6915654871880217,0.7223133798480686,0.0,0.0,0.0,0.0,0.0,0.0,0.0,0.0,0.0,-0.011973470185112915,0.004038916355070251,-0.00015522518116850285,0.0,0.0,0.0,0.0,0.0,0.0,0.0,0.0,0.0,0.8388591442423285,0.9386814118038408,14.82566507074559,0.0,0.0,0.0,0.0,0.0,0.0,0.0,0.0,0.0
423297000000,3587,423296000000,base_link,-0.0007451643761673959,5.4340651393243894e-05,0.6915654871880217,0.7223133798480686,0.0,0.0,0.0,0.0,0.0,0.0,0.0,0.0,0.0,-0.011973470185112915,0.004038916355070251,-0.00015522518116850285,0.0,0.0,0.0,0.0,0.0,0.0,0.0,0.0,0.0,0.8388591442423285,0.9386814118038408,14.82566507074559,0.0,0.0,0.0,0.0,0.0,0.0,0.0,0.0,0.0
423299000000,3588,423298000000,base_link,-0.0007417011781043342,5.151932577200044e-05,0.6915659387985275,0.7223129512329355,0.0,0.0,0.0,0.0,0.0,0.0,0.0,0.0,0.0,0.006109128769451591,-0.006321860498294657,0.0006842310251943178,0.0,0.0,0.0,0.0,0.0,0.0,0.0,0.0,0.0,-0.0024557376356752827,-0.011124989574361501,0.0023348485562628696,0.0,0.0,0.0,0.0,0.0,0.0,0.0,0.0,0.0
423300000000,3589,423299000000,base_link,-0.0007417011781043342,5.151932577200044e-05,0.6915659387985275,0.7223129512329355,0.0,0.0,0.0,0.0,0.0,0.0,0.0,0.0,0.0,0.006109128769451591,-0.006321860498294657,0.0006842310251943178,0.0,0.0,0.0,0.0,0.0,0.0,0.0,0.0,0.0,-0.0024557376356752827,-0.011124989574361501,0.0023348485562628696,0.0,0.0,0.0,0.0,0.0,0.0,0.0,0.0,0.0
423302000000,3590,423301000000,base_link,-0.0007480201140308312,4.965934173264191e-05,0.6915658298824338,0.722313049126817,0.0,0.0,0.0,0.0,0.0,0.0,0.0,0.0,0.0,-0.005634647518026524,0.0029621278610915203,-0.0001366295443438541,0.0,0.0,0.0,0.0,0.0,0.0,0.0,0.0,0.0,0.33508219800050926,0.33122427831875617,7.080812877828055,0.0,0.0,0.0,0.0,0.0,0.0,0.0,0.0,0.0
423303000000,3591,423302000000,base_link,-0.0007442177005452656,5.1592223800119004e-05,0.6915657377205086,0.7223131411578675,0.0,0.0,0.0,0.0,0.0,0.0,0.0,0.0,0.0,0.0048169931455100306,-0.001897759580684771,-0.0002633134998341345,0.0,0.0,0.0,0.0,0.0,0.0,0.0,0.0,0.0,-0.02521094381545365,-0.07327265609596958,0.14858585729131413,0.0,0.0,0.0,0.0,0.0,0.0,0.0,0.0,0.0
423304000000,3592,423303000000,base_link,-0.0007442177005452656,5.1592223800119004e-05,0.6915657377205086,0.7223131411578675,0.0,0.0,0.0,0.0,0.0,0.0,0.0,0.0,0.0,0.0048169931455100306,-0.001897759580684771,-0.0002633134998341345,0.0,0.0,0.0,0.0,0.0,0.0,0.0,0.0,0.0,-0.02521094381545365,-0.07327265609596958,0.14858585729131413,0.0,0.0,0.0,0.0,0.0,0.0,0.0,0.0,0.0
423305000000,3593,423304000000,base_link,-0.0007427435439376254,5.545442623051901e-05,0.6915640414262215,0.7223147664716997,0.0,0.0,0.0,0.0,0.0,0.0,0.0,0.0,0.0,-0.014584512873735744,0.014672585268995307,-0.0019931418831337414,0.0,0.0,0.0,0.0,0.0,0.0,0.0,0.0,0.0,1.2909035400508388,1.6556341076329324,23.651710413771106,0.0,0.0,0.0,0.0,0.0,0.0,0.0,0.0,0.0
423306000000,3594,423305000000,base_link,-0.0007526316703713816,5.584947626868522e-05,0.6915633767424125,0.7223153925917936,0.0,0.0,0.0,0.0,0.0,0.0,0.0,0.0,0.0,-0.013737270857807937,0.014248164247107498,-0.0018267359847091674,0.0,0.0,0.0,0.0,0.0,0.0,0.0,0.0,0.0,0.056634703956030444,0.0656569523273101,-0.008491597703599751,0.0,0.0,0.0,0.0,0.0,0.0,0.0,0.0,0.0
423307000000,3595,423306000000,base_link,-0.0007446092398460111,5.9515121604008325e-05,0.6915632944941067,0.7223154793602915,0.0,0.0,0.0,0.0,0.0,0.0,0.0,0.0,0.0,0.016661092989477145,-0.005799760086725093,-0.00023296419332705722,0.0,0.0,0.0,0.0,0.0,0.0,0.0,0.0,0.0,-0.4573963617286045,-1.3126336488285733,18.370174973875212,0.0,0.0,0.0,0.0,0.0,0.0,0.0,0.0,0.0
423308000000,3596,423307000000,base_link,-0.0007341210510979585,6.342251151957717e-05,0.6915630200395506,0.7223157525332281,0.0,0.0,0.0,0.0,0.0,0.0,0.0,0.0,0.0,0.020556493080742866,-0.008861419534208687,-0.0007672511204067735,0.0,0.0,0.0,0.0,0.0,0.0,0.0,0.0,0.0,-0.46350075256496637,-0.6011219531376619,0.8412131001667262,0.0,0.0,0.0,0.0,0.0,0.0,0.0,0.0,0.0
423309000000,3597,423308000000,base_link,-0.0007435059560353893,6.472075747611761e-05,0.6915626495654117,0.7223160975197663,0.0,0.0,0.0,0.0,0.0,0.0,0.0,0.0,0.0,-0.011761920621141958,0.014856103175268273,-0.0010119664647708704,0.0,0.0,0.0,0.0,0.0,0.0,0.0,0.0,0.0,1.1750844981288144,1.4243952000857616,19.23431461369179,0.0,0.0,0.0,0.0,0.0,0.0,0.0,0.0,0.0
423310000000,3598,423309000000,base_link,-0.0007524578276220807,6.615831315532463e-05,0.6915623186218832,0.7223164049726548,0.0,0.0,0.0,0.0,0.0,0.0,0.0,0.0,0.0,-0.010943342247685136,0.014458751602864599,-0.0009023586256220406,0.0,0.0,0.0,0.0,0.0,0.0,0.0,0.0,0.0,0.04961664510138783,0.055869330887523064,-0.004315881390562382,0.0,0.0,0.0,0.0,0.0,0.0,0.0,0.0,0.0
423311000000,3599,423310000000,base_link,-0.0007439298289082437,7.396304564532046e-05,0.691562781186399,0.7223159701789862,0.0,0.0,0.0,0.0,0.0,0.0,0.0,0.0,0.0,0.023067726508207174,-0.0005309942036292731,0.0012644823764321263,0.0,0.0,0.0,0.0,0.0,0.0,0.0,0.0,0.0,-0.8634024705606747,-1.1881249834497392,19.286784134343723,0.0,0.0,0.0,0.0,0.0,0.0,0.0,0.0,0.0
423312000000,3600,423311000000,base_link,-0.0007377409679500863,6.857232420055915e-05,0.6915643601408827,0.7223144653258939,0.0,0.0,0.0,0.0,0.0,0.0,0.0,0.0,0.0,0.0014821041555544796,-0.016349778985273487,0.004355159262567623,0.0,0.0,0.0,0.0,0.0,0.0,0.0,0.0,0.0,-1.0934343887092934,0.30531573156010205,2.807753127685068,0.0,0.0,0.0,0.0,0.0,0.0,0.0,0.0,0.0
423313000000,3601,423312000000,base_link,-0.0007661001757387183,5.880970818208701e-05,0.6915632377216145,0.7223155112995545,0.0,0.0,0.0,0.0,0.0,0.0,0.0,0.0,0.0,-0.05447153070933415,0.025121614027264868,-0.0030851513886582882,0.0,0.0,0.0,0.0,0.0,0.0,0.0,0.0,0.0,1.2944471441256866,2.3409075985108267,5.118614594423594,0.0,0.0,0.0,0.0,0.0,0.0,0.0,0.0,0.0
423314000000,3602,423313000000,base_link,-0.0007661001757387183,5.880970818208701e-05,0.6915632377216145,0.7223155112995545,0.0,0.0,0.0,0.0,0.0,0.0,0.0,0.0,0.0,-0.05447153070933415,0.025121614027264868,-0.0030851513886582882,0.0,0.0,0.0,0.0,0.0,0.0,0.0,0.0,0.0,1.2944471441256866,2.3409075985108267,5.118614594423594,0.0,0.0,0.0,0.0,0.0,0.0,0.0,0.0,0.0
423315000000,3603,423314000000,base_link,-0.0007346560121152084,6.667513946340204e-05,0.6915612716577745,0.7223174256364384,0.0,0.0,0.0,0.0,0.0,0.0,0.0,0.0,0.0,0.01812488229142677,-0.010397528516947745,-0.005576354134855329,0.0,0.0,0.0,0.0,0.0,0.0,0.0,0.0,0.0,-0.6062177016930123,-0.7600868088018068,0.7993328998195679,0.0,0.0,0.0,0.0,0.0,0.0,0.0,0.0,0.0
423316000000,3604,423315000000,base_link,-0.0007346560121152084,6.667513946340204e-05,0.6915612716577745,0.7223174256364384,0.0,0.0,0.0,0.0,0.0,0.0,0.0,0.0,0.0,0.01812488229142677,-0.010397528516947745,-0.005576354134855329,0.0,0.0,0.0,0.0,0.0,0.0,0.0,0.0,0.0,-0.6062177016930123,-0.7600868088018068,0.7993328998195679,0.0,0.0,0.0,0.0,0.0,0.0,0.0,0.0,0.0
423317000000,3605,423316000000,base_link,-0.0007435785412372287,6.684381151283071e-05,0.691560117836796,0.722318521180521,0.0,0.0,0.0,0.0,0.0,0.0,0.0,0.0,0.0,-0.012654926524270657,0.012586029489902499,-0.0031834827195278866,0.0,0.0,0.0,0.0,0.0,0.0,0.0,0.0,0.0,1.1226282349726475,1.3892834681864252,18.361270518666345,0.0,0.0,0.0,0.0,0.0,0.0,0.0,0.0,0.0
423319000000,3606,423318000000,base_link,-0.0007382939159511466,7.504581905922738e-05,0.6915603508317815,0.7223183027223125,0.0,0.0,0.0,0.0,0.0,0.0,0.0,0.0,0.0,0.015209557178946051,-0.0038345925102175327,0.001742893758036759,0.0,0.0,0.0,0.0,0.0,0.0,0.0,0.0,0.0,0.022222082124818052,-0.032033219820592394,0.05037033130557056,0.0,0.0,0.0,0.0,0.0,0.0,0.0,0.0,0.0
423320000000,3607,423319000000,base_link,-0.0007431660210304471,7.479745475149709e-05,0.6915614597190859,0.7223172360817739,0.0,0.0,0.0,0.0,0.0,0.0,0.0,0.0,0.0,-0.007384353912835237,0.006378002007874392,0.0030742201233152563,0.0,0.0,0.0,0.0,0.0,0.0,0.0,0.0,0.0,0.6119724637281551,1.724313766761454,18.768719531538274,0.0,0.0,0.0,0.0,0.0,0.0,0.0,0.0,0.0
423321000000,3608,423320000000,base_link,-0.0007481024390053543,6.550123730713176e-05,0.691563633224874,0.7223151509231552,0.0,0.0,0.0,0.0,0.0,0.0,0.0,0.0,0.0,-0.019992766820516684,-0.006604811068987122,0.0060092716937436355,0.0,0.0,0.0,0.0,0.0,0.0,0.0,0.0,0.0,-0.2412731688407953,0.6448606403426145,1.4254850150285279,0.0,0.0,0.0,0.0,0.0,0.0,0.0,0.0,0.0
423322000000,3609,423321000000,base_link,-0.0007419992742882033,6.158514877411132e-05,0.6915643930748517,0.7223144300617002,0.0,0.0,0.0,0.0,0.0,0.0,0.0,0.0,0.0,0.0034142328679235227,-0.014105092770994072,0.00209009525512848,0.0,0.0,0.0,0.0,0.0,0.0,0.0,0.0,0.0,-0.5659809597168254,-0.7970614662954667,18.617403437178034,0.0,0.0,0.0,0.0,0.0,0.0,0.0,0.0,0.0
