%time,field.header.seq,field.header.stamp,field.header.frame_id,field.wrench.force.x,field.wrench.force.y,field.wrench.force.z,field.wrench.torque.x,field.wrench.torque.y,field.wrench.torque.z
419066000000,0,419057000000,BL_wheel_link,1.2025318265400609,1.8864671231725691,23.385069375364807,0.16347402424530943,-0.1157381602272574,0.0037265786165429464
419066000000,1,419058000000,BL_wheel_link,0.04390108281929359,0.06557065502554842,0.04028441150123151,0.005879244533983531,-0.004714750857430911,0.0001316503330449842
419067000000,2,419059000000,BL_wheel_link,-0.10514902370926552,-0.13947320741896235,0.29748438365573315,-0.026148236313386194,0.0070363186141107915,-0.0008561948682851103
419067000000,3,419060000000,BL_wheel_link,1.3665483522794357,1.7181786322713806,22.877645429911432,0.14515664968291278,-0.1367723505206264,0.0038757133158402084
419067000000,4,419061000000,BL_wheel_link,0.06731939177933563,0.035967777649905566,0.02022538379818063,0.0031500906936471704,-0.007650255973970652,0.00010764736452147005
419067000000,5,419062000000,BL_wheel_link,-0.1498413909930775,-0.36212812827547547,0.8426952573635088,-0.023447645308500013,0.017829828163135816,0.003403857213020906
419067000000,6,419063000000,BL_wheel_link,2.2579045843742356,0.5542417804837895,24.304863533681534,0.005851310741054341,-0.2342609330401908,0.001436579782402806
419067000000,7,419064000000,BL_wheel_link,0.0893485049441477,0.001346837054007656,-0.058285321498821895,-0.004985888131610069,-0.013308307547237583,-0.0005824013997336318
419067000000,8,419065000000,BL_wheel_link,-0.1250410315619438,-0.29768923539101416,0.7050795721677292,-0.01964662938665975,0.01607426235393576,0.003448142342769114
419067000000,9,419066000000,BL_wheel_link,1.688824902915475,0.8814820244841017,25.322431902207605,0.0380327303474685,-0.17891175370061835,-0.0013206505779827932
419067000000,10,419067000000,BL_wheel_link,0.07562221028974064,0.00308381078560295,0.049650023776323965,-0.0006585986225424831,-0.008277143211881282,-6.154650848874124e-05
419068000000,11,419068000000,BL_wheel_link,-0.5483284273579957,-2.007646592315998,14.297190104995106,-0.2518138272641729,0.04121746551964266,-0.0063383543627452705
419069000000,12,419069000000,BL_wheel_link,0.044035526192424235,-1.2648355972586982,2.929596590905624,-0.15188859246014347,0.000921901391894811,-0.0001073156105300772
419070000000,13,419070000000,BL_wheel_link,-0.3047125491440291,-0.5269872914067233,8.636665412247558,-0.06902423251653066,0.03592119538550005,0.0008704535788170845
419071000000,14,419071000000,BL_wheel_link,0.7236510104428715,-1.6315513469793337,5.542565556967556,-0.18992023583399809,-0.07794841096821105,0.0008377232787323968
419072000000,15,419072000000,BL_wheel_link,-0.055202349371154674,-0.8690926926197807,8.794526619389645,-0.1095450097455309,0.004680228124625006,0.0004203415803200857
419073000000,16,419073000000,BL_wheel_link,0.11325321414636108,-1.0863380517444463,6.246790602146031,-0.1383070090476508,-0.017412146922910196,-0.0006125898298959646
419074000000,17,419074000000,BL_wheel_link,-0.3426221801518883,-0.4918718913676945,8.821474073272416,-0.06485982960169027,0.03945978421815334,0.0006552881436024125
419075000000,18,419075000000,BL_wheel_link,-0.11292870620273707,-0.9355230638948924,6.772857344253898,-0.12101501725038255,0.008247132659235767,-0.0006974386311101176
419076000000,19,419076000000,BL_wheel_link,-0.45034224088131597,-0.4875306725002174,9.013611340482317,-0.06402236101123351,0.05147231491510625,0.0004939028978898503
419077000000,20,419077000000,BL_wheel_link,-0.21523000042912643,-0.872192659557035,7.002667855745603,-0.1139213592091067,0.01936523039276697,-0.0008186762986617047
419078000000,21,419078000000,BL_wheel_link,-0.501629473809033,-0.488764722496327,9.110106516987475,-0.06394561190198475,0.05707348055131521,0.0003887474449745834
419081000000,22,419079000000,BL_wheel_link,-0.27760717196767637,-0.8658573773670407,7.10592061830988,-0.11318565128901278,0.026001859506391237,-0.0009089035890561033
419081000000,23,419080000000,BL_wheel_link,-0.5361091446554832,-0.5031053294345011,9.150902648735423,-0.06534252846068236,0.06077747992955645,0.0003273153170202235
419081000000,24,419081000000,BL_wheel_link,-0.3150335337302544,-0.8806194523809467,7.1413427259671485,-0.11476866480510359,0.029890450499018666,-0.0009664786993165077
419082000000,25,419082000000,BL_wheel_link,-0.5599641061567713,-0.5222725137457092,9.168051734360436,-0.0673095175532264,0.0632622687892243,0.0002911625386978729
419083000000,26,419083000000,BL_wheel_link,-0.3382422164710839,-0.9024321586420556,7.143090380795919,-0.1171360678905331,0.03222474007417311,-0.001006487062928654
419084000000,27,419084000000,BL_wheel_link,-0.576835352564542,-0.5415545370118359,9.174967264979419,-0.06931828121319442,0.06497349953978283,0.0002708719120657156
419085000000,28,419085000000,BL_wheel_link,-0.35432963821656466,-0.9240166868098437,7.133695513631004,-0.11949304105104752,0.03378491835318758,-0.0010399319068553725
419086000000,29,419086000000,BL_wheel_link,-0.5897469664274986,-0.5586604379374054,9.17867878731354,-0.07110697426482061,0.0662629203560938,0.00025959806023859963
419087000000,30,419087000000,BL_wheel_link,-0.36675118594621625,-0.9428451614214909,7.122228864561075,-0.12155504101706276,0.03499880599797796,-0.001066852045719097
419088000000,31,419088000000,BL_wheel_link,-0.6005105557528456,-0.573186802960808,9.181590831474798,-0.0726237511197939,0.0673367048067067,0.0002543292315270804
419089000000,32,419089000000,BL_wheel_link,-0.37773273916279654,-0.9582638877899667,7.112907639575068,-0.12325449854434103,0.03606923877934276,-0.001094570999879909
419090000000,33,419090000000,BL_wheel_link,-0.6103821591542238,-0.5853051346562232,9.184618840417482,-0.07388197732193513,0.06833576089987842,0.00025276577517516864
419091000000,34,419091000000,BL_wheel_link,-0.38824487478075786,-0.970579045975629,7.105831130705541,-0.12462233056081676,0.037112294143016936,-0.0011222856449287235
419092000000,35,419092000000,BL_wheel_link,-0.6197191107124378,-0.5953852759679936,9.187793306122082,-0.0749199287656765,0.06929627913469553,0.0002538598093718525
419093000000,36,419093000000,BL_wheel_link,-0.3984726215257201,-0.9803505572165077,7.100932149404361,-0.12571652682301152,0.03814419270815959,-0.0011495462348961073
419094000000,37,419094000000,BL_wheel_link,-0.6286203035768984,-0.6038281441847431,9.19103462600027,-0.07578142986932991,0.07022536727208437,0.0002566601956532942
419095000000,38,419095000000,BL_wheel_link,-0.40827873938326664,-0.9882027733077594,7.097526700692706,-0.12660182578529186,0.039145272707188296,-0.0011754499061872588
419097000000,39,419096000000,BL_wheel_link,-0.6370032160206373,-0.6109856863936942,9.194207655518337,-0.07650649363332097,0.07110980235266712,0.00026016772604201867
419097000000,40,419097000000,BL_wheel_link,-0.4175107155769887,-0.9946681674026988,7.094961979588772,-0.12733611642641363,0.040095328458535,-0.0012000026422053492
419098000000,41,419098000000,BL_wheel_link,-0.6447413710109124,-0.6171412403927407,9.197169763633845,-0.07712587144324899,0.07193171631605297,0.00026425024058348694
419099000000,42,419099000000,BL_wheel_link,-0.4259920560384084,-1.00011434489483,7.092919637892277,-0.1279582734122886,0.040972433916649,-0.0012226941268678585
419100000000,43,419100000000,BL_wheel_link,-0.651826406690883,-0.6224867887436876,9.199845746195965,-0.07766380091943484,0.07266965298820591,0.00026726964531402844
419101000000,44,419101000000,BL_wheel_link,-0.43356654374876996,-1.0048015871538347,7.091092595713127,-0.12849650274787894,0.041757066738624705,-0.001243607705059021
419102000000,45,419102000000,BL_wheel_link,-0.6580644173549832,-0.6271044955085414,9.20226715865822,-0.07812081985024838,0.07335455412676836,0.000272958104799139
419103000000,46,419103000000,BL_wheel_link,-0.4403479396200555,-1.0089041719940524,7.089423912404499,-0.12897071282673017,0.04244547358159323,-0.001264169272218639
419104000000,47,419104000000,BL_wheel_link,-0.6636511344683109,-0.6311866885593127,9.204453166438753,-0.07852656483746731,0.07395256900741538,0.0002771498275099389
419104000000,48,419105000000,BL_wheel_link,-0.44623999906114076,-1.0125104303539343,7.087724760220539,-0.12938439021108197,0.04307097837243203,-0.0012789835427170259
419106000000,49,419106000000,BL_wheel_link,-0.6685625261148933,-0.6347864474756875,9.206391925582937,-0.07888365490424931,0.07447813486934497,0.00028141833819588516
419107000000,50,419107000000,BL_wheel_link,-0.4514261185720092,-1.0157134017222396,7.086161625192371,-0.12975458234881307,0.04360788786504067,-0.0012941701148799093
419108000000,51,419108000000,BL_wheel_link,-0.6728932876339258,-0.6379651820324164,9.20814868566859,-0.07919848454157476,0.0749416182039856,0.0002853794213981428
419109000000,52,419109000000,BL_wheel_link,-0.4559560593086547,-1.0185701374275478,7.084632879092393,-0.1300851451226323,0.04407617720331759,-0.0013077401269612427
419112000000,53,419110000000,BL_wheel_link,-0.6767127002028784,-0.6407905135386713,9.209701233661296,-0.07947817696285736,0.07535024730045835,0.0002890627750389691
419112000000,54,419111000000,BL_wheel_link,-0.45994297937371864,-1.021107573969749,7.08320532726145,-0.13037940932950712,0.04448810779850868,-0.0013199673116294861
419112000000,55,419112000000,BL_wheel_link,-0.6800836116320281,-0.6432976263362672,9.211088630911304,-0.07972610455578091,0.0757107975423883,0.000292509333671578
419113000000,56,419113000000,BL_wheel_link,-0.4634528691643227,-1.0233681996013961,7.081852744371807,-0.13064205367323992,0.04485045538071447,-0.0013309803264002725
419114000000,57,419114000000,BL_wheel_link,-0.6830626229486196,-0.6455314337424409,9.212328581035553,-0.0799468815025135,0.07602935172047572,0.0002957361225764905
419115000000,58,419115000000,BL_wheel_link,-0.46655282290593547,-1.025380700296209,7.08060513673707,-0.13087624183001725,0.0451702993400759,-0.0013408897125981654
419116000000,59,419116000000,BL_wheel_link,-0.6857056090413862,-0.6475278101433721,9.213441147475486,-0.08014414556766655,0.07631195763493673,0.0002987350993439852
419117000000,60,419117000000,BL_wheel_link,-0.46933987768858976,-1.0272088774116137,7.0794279037348495,-0.13109137169778629,0.045442601421652296,-0.0013519135174067018
419118000000,61,419118000000,BL_wheel_link,-0.688054542605053,-0.6493264047953208,9.214427655829176,-0.08032206622678259,0.076563110184685,0.00030136748464888263
419119000000,62,419119000000,BL_wheel_link,-0.4717092479093816,-1.0287965493152054,7.078362131655725,-0.13127449176598305,0.0457016039597092,-0.0013578079879377615
419120000000,63,419120000000,BL_wheel_link,-0.6901652786536936,-0.6509335153442234,9.215292538329628,-0.08048087357199724,0.07678897712351496,0.00030404151542683393
419121000000,64,419121000000,BL_wheel_link,-0.47387907674466195,-1.0302477171851776,7.077366640799367,-0.1314440799129816,0.0459251635037028,-0.0013650717445191224
419122000000,65,419122000000,BL_wheel_link,-0.692061086830775,-0.6523898129080965,9.216056891779564,-0.08062492717656865,0.07699199793832577,0.00030640776849238835
419123000000,66,419123000000,BL_wheel_link,-0.4758604487440809,-1.0315842639791866,7.076415537290434,-0.13160262722339836,0.046114145649690214,-0.001373797076718572
419124000000,67,419124000000,BL_wheel_link,-0.6937567687122204,-0.65371466763706,9.216733118573442,-0.08075623527657015,0.0771736308271188,0.0003084695794591453
419125000000,68,419125000000,BL_wheel_link,-0.4775482895025408,-1.0327414162768853,7.075560447634218,-0.13173598449295731,0.04630298694064942,-0.0013776120410356617
419126000000,69,419126000000,BL_wheel_link,-0.6952851009374423,-0.6549124248087663,9.217327296039674,-0.08087493316896795,0.07733738864322394,0.00031061288614978516
419127000000,70,419127000000,BL_wheel_link,-0.47911469214566915,-1.0338189643206879,7.0747456584867825,-0.13186239339986658,0.04646436671151044,-0.001383069949434745
419128000000,71,419128000000,BL_wheel_link,-0.6966621909647562,-0.65600645585919,9.217853002085192,-0.08098350661166374,0.07748508095963758,0.00031252547613196965
419129000000,72,419129000000,BL_wheel_link,-0.48051579308261594,-1.0348029877474574,7.073964888619775,-0.1319778520367794,0.04660869551269361,-0.0013879933711334223
419130000000,73,419130000000,BL_wheel_link,-0.6978993708043725,-0.6570080133642033,9.218309820032768,-0.08108311622161671,0.07761778249677466,0.00031429075479302946
419131000000,74,419131000000,BL_wheel_link,-0.481768963874279,-1.0356991377155622,7.073231332874435,-0.13208296772864378,0.04673781745533888,-0.0013923991433752118
419132000000,75,419132000000,BL_wheel_link,-0.6990102031192088,-0.6579302953498519,9.218704741352855,-0.08117514033976131,0.07773688555720018,0.0003158820744087559
419133000000,76,419133000000,BL_wheel_link,-0.48289124498387453,-1.0365215934947118,7.0725343773535805,-0.13217945559933075,0.046853420842082924,-0.0013963761431581311
419134000000,77,419134000000,BL_wheel_link,-0.7000082674285879,-0.658779938256999,9.219042860128376,-0.08126017621514357,0.07784387159020797,0.000317323592043279
419135000000,78,419135000000,BL_wheel_link,-0.4838977823719678,-1.037278450370171,7.071877029705075,-0.13226824561307732,0.04695709822297614,-0.0013999536432081762
419136000000,79,419136000000,BL_wheel_link,-0.7009077937656615,-0.6595646591170485,9.219325653529065,-0.0813389820740406,0.07794028845053945,0.00031862303798674697
419137000000,80,419137000000,BL_wheel_link,-0.4848002469422136,-1.0379766391814023,7.07125341945294,-0.13235013978867052,0.04705006590523721,-0.0014031596862904634
419138000000,81,419138000000,BL_wheel_link,-0.7017186846597872,-0.6602914626902765,9.219554612333813,-0.08141224566220587,0.07802718759466028,0.00031978370294363795
419139000000,82,419139000000,BL_wheel_link,-0.4856042333888422,-1.0386210855833786,7.070660849398652,-0.132425805267194,0.04713279495192601,-0.0014060698664716828
419140000000,83,419140000000,BL_wheel_link,-0.7024519326269729,-0.660964223231381,9.219745424401118,-0.08148027005127326,0.07810579164441643,0.0003208372995868337
419141000000,84,419141000000,BL_wheel_link,-0.4863229235892515,-1.0392169000296754,7.070094166209797,-0.13249586568165,0.04720669868360935,-0.0014087349554644632
419142000000,85,419142000000,BL_wheel_link,-0.7031156269846999,-0.6615873758612718,9.219905275683068,-0.08154342865463625,0.07817698160959681,0.0003218241347555351
419143000000,86,419143000000,BL_wheel_link,-0.48696923599659014,-1.0397698852414887,7.069556625413236,-0.13256082110147507,0.04727318131023311,-0.0014111193988406152
419144000000,87,419144000000,BL_wheel_link,-0.7037168271922529,-0.6621699486274524,9.22003170448449,-0.08160271138887297,0.07824147122225483,0.000322722054983163
419145000000,88,419145000000,BL_wheel_link,-0.4875503488238343,-1.0402866528161763,7.069039388074101,-0.13262149366210518,0.04733293716149818,-0.0014132770024932835
419146000000,89,419146000000,BL_wheel_link,-0.7042617134019562,-0.6627167025126306,9.220127468201916,-0.08165858494887332,0.07829991735694718,0.0003235391357236855
419147000000,90,419147000000,BL_wheel_link,-0.48807314729810325,-1.0407703911709223,7.06854312533134,-0.1326782627477749,0.0473866811345695,-0.0014152301951149953
419147000000,91,419148000000,BL_wheel_link,-0.7047562835341645,-0.6632311652781646,9.220196180476517,-0.08171138505417641,0.07835296584539203,0.00032428210002619215
419147000000,92,419149000000,BL_wheel_link,-0.48854365242333386,-1.0412247548033244,7.068064647234896,-0.13273155934012043,0.0474350332613105,-0.0014170002751072038
419150000000,93,419150000000,BL_wheel_link,-0.7052056267181781,-0.6637167118608446,9.220240288780698,-0.08176143489755527,0.07840116236172037,0.0003249585885777811
419151000000,94,419151000000,BL_wheel_link,-0.4889672449231189,-1.041652494013177,7.0676033197954595,-0.13278170777167586,0.04747855095642701,-0.0014186048515382448
419151000000,95,419152000000,BL_wheel_link,-0.7056144030649536,-0.664176223760808,9.220262493428312,-0.08180900864783634,0.07844500748954504,0.0003255747624180504
419151000000,96,419153000000,BL_wheel_link,-0.4893486669770428,-1.0420564581628784,7.067156947828698,-0.13282904362268635,0.047517722355695444,-0.0014200605812766786
419154000000,97,419154000000,BL_wheel_link,-0.705986672761094,-0.6646123874003617,9.220264863137103,-0.0818543631747364,0.07848493619906814,0.0003261366520618107
419155000000,98,419155000000,BL_wheel_link,-0.4896921732919387,-1.0424389817459947,7.066724473311243,-0.13287384228027496,0.04755298661684917,-0.001421382015971319
419156000000,99,419156000000,BL_wheel_link,-0.7063261265716034,-0.6650275504056951,9.220249475709984,-0.08189772205077556,0.07852134436794123,0.000326649438757205
419157000000,100,419157000000,BL_wheel_link,-0.4900015599678587,-1.0428023087364893,7.066304291385146,-0.13291636838977172,0.047584734417784345,-0.0014225825785924425
419158000000,101,419158000000,BL_wheel_link,-0.7066360374220588,-0.6654238584674208,9.220218052914,-0.08193929001875597,0.07855458267433316,0.0003271179918883537
419159000000,102,419159000000,BL_wheel_link,-0.490280246852815,-1.0431483559014618,7.065895344375243,-0.1329568483466556,0.04761331831351415,-0.0014236741999100557
419160000000,103,419160000000,BL_wheel_link,-0.7069786464898076,-0.6658223875305201,9.220168963579049,-0.08198409347051673,0.07857318243645292,0.0003262314236857708
419161000000,104,419161000000,BL_wheel_link,-0.4905224894306365,-1.0434928866368125,7.065458126323614,-0.13299706677173093,0.04763800483763894,-0.0014248051775452623
419162000000,105,419162000000,BL_wheel_link,-2.113345779243274,-3.9405783634463054,4.016868230769888,-0.5143611685987359,0.23326560992929177,0.001336374886815716
419163000000,106,419163000000,BL_wheel_link,0.0024415309526038265,0.4756142602769707,-1.2489223638798024,-0.06819432580733062,-0.007786166484130563,-0.004463880069634686
419164000000,107,419164000000,BL_wheel_link,-0.025126269003571303,0.15678009286949138,-0.1976027521643775,-0.055833551743563,-0.0006609920912324686,-0.0007875358946027491
419165000000,108,419165000000,BL_wheel_link,-0.359044281294973,1.5986171488035992,-1.7313050826221859,-0.05643250739649742,0.009866589385528507,-0.006513667467566818
419165000000,109,419166000000,BL_wheel_link,0.2455921631966177,0.4181768956104926,-0.6423362616043283,-0.022457001103077433,0.0090293668603539,0.012983962339455559
419167000000,110,419167000000,BL_wheel_link,-0.142195804848274,0.923707048288862,-1.6561984292382839,-0.008590445325532556,-0.0316219016359893,-0.02197966434075461
419168000000,111,419168000000,BL_wheel_link,0.09754368927720722,0.009196639070571055,0.18234142701974737,-0.0009396697074468604,0.026499138268465033,0.020611274339980997
419169000000,112,419169000000,BL_wheel_link,-0.20961463634713973,1.3779922630345207,-2.1088662378061698,0.012416401167727556,-0.016235958210075216,-0.010279638315546444
419170000000,113,419170000000,BL_wheel_link,-0.020047522526783396,0.05640237935910841,-0.04332581563403209,0.0011729003316614407,-0.0002228196738926695,-0.0006870935935439083
419171000000,114,419171000000,BL_wheel_link,-0.0056062832854204825,0.2932694301075424,-0.5033854808719193,-0.015100567292818794,0.004267810783843502,0.004427718654350087
419171000000,115,419172000000,BL_wheel_link,0.184836734748943,0.22733880913072066,-0.3600114309110918,0.008997839145351865,0.006491195253058008,0.008968666083465244
419171000000,116,419173000000,BL_wheel_link,0.1428357866197545,0.22027733369383035,-0.824375111795133,-0.013561863943101781,-0.016531742864362105,-0.0032183873447905074
419174000000,117,419174000000,BL_wheel_link,0.05166018689452201,0.027418859579856777,0.041097760186222076,0.000535120921724956,0.011514259260622203,0.009081605428149158
419175000000,118,419175000000,BL_wheel_link,0.0726347506846417,0.3996897084031346,-0.8199765225307316,-0.00718021014002276,-0.007516525717182385,-0.0014524070302183122
419176000000,119,419176000000,BL_wheel_link,0.08412631659940101,0.10843922653326021,-0.06007275729973169,-0.00034466151053747125,0.007216165607654134,0.004465411891659115
419177000000,120,419177000000,BL_wheel_link,-0.09946159988308279,0.6248641710953217,-0.8480282952344715,-0.004059253997253724,-0.005813263526174499,-0.008245027290106148
419177000000,121,419178000000,BL_wheel_link,0.05085654712945995,0.03419311748429574,0.05018859718502755,-0.002890021154212345,0.007259035028791683,0.0038981257266656275
419179000000,122,419179000000,BL_wheel_link,0.20926098623634817,0.2167089401742182,-0.7396260306946023,-0.008549506311233503,-0.010397258941417957,0.0011253427726487675
419180000000,123,419180000000,BL_wheel_link,0.02824140257413913,-0.001080201527468785,0.12455805260169503,-0.004253477649563764,0.008866372317218435,0.004420500031834229
419181000000,124,419181000000,BL_wheel_link,0.02323029037986829,0.358763232679405,-0.7036503223407138,-0.0075703639470870235,-0.006454965189361071,-0.002332308941204569
419182000000,125,419182000000,BL_wheel_link,0.054222671075856044,0.07035804950363675,0.0022432526190624756,-0.0018687269020923442,0.006603146855585193,0.003268422963429031
419183000000,126,419183000000,BL_wheel_link,-0.07953426289258242,0.5157872474419904,-0.793487792276145,-0.0056322053915698455,-0.006215569267434669,-0.006001029615904849
419184000000,127,419184000000,BL_wheel_link,0.03992746484074958,0.03345289413369627,0.053416862805361426,-0.0028110385663138904,0.006887659283510978,0.0034121268003788506
419185000000,128,419185000000,BL_wheel_link,0.22443117255187867,0.10219361824091157,-0.654581379974165,-0.013816718797821967,-0.012257598164228852,0.0006571166170842197
419186000000,129,419186000000,BL_wheel_link,-0.08794082031370967,0.3244230681338101,-0.26706842421421884,0.002256992701995717,0.007163272090290428,0.0013052285250784396
419187000000,130,419187000000,BL_wheel_link,0.05321559166912969,-0.021858361868646356,0.11511502371572968,-0.004977360046015009,0.006844455254767496,0.003485761006209806
419188000000,131,419188000000,BL_wheel_link,0.16326412016104852,0.29207396337609426,-0.8510760648183449,-0.008434526512327034,-0.011579236671768566,-0.000200874815631761
419189000000,132,419189000000,BL_wheel_link,0.0279828858572512,0.011329040009410351,0.10708755930863652,-0.003971742695755336,0.00856763637540592,0.004076461775832548
419190000000,133,419190000000,BL_wheel_link,-0.16088490044079692,0.6142890236673841,-0.8566317258245711,-0.0038379646711878515,-0.0054172328308639784,-0.007592870263446174
419191000000,134,419191000000,BL_wheel_link,2.7276647253169166,15.541552098607887,48.856097282388355,1.6030330450899832,-0.35052597383265416,-0.02048338805849962
419192000000,135,419192000000,BL_wheel_link,0.13998681623327602,0.3179444100703806,0.2707606928034777,0.026625258292441497,-0.01764883525888494,-0.00011910806969996112
419193000000,136,419193000000,BL_wheel_link,-0.4597019119284471,0.069997943499811,-0.061093211563011326,0.004574366315130571,0.025372447650487268,-0.006269215793315153
419194000000,137,419194000000,BL_wheel_link,2.39199964684891,7.678713401944008,14.993428544440526,0.8298377574844374,-0.2134060677883694,0.012388182780416934
419195000000,138,419195000000,BL_wheel_link,-0.13452665241966344,-0.19714258373812976,1.4651584491534293,-0.0022336051441633866,0.0037747972803854886,0.0003191809185527609
419196000000,139,419196000000,BL_wheel_link,1.970200513907134,4.400319489887109,28.95183275429935,0.4386943615759762,-0.19587760204438998,0.0029805223426300686
419197000000,140,419197000000,BL_wheel_link,0.1348662077547131,0.10562947452514176,0.0523628240624481,0.009766339290010811,-0.015270744164459229,0.0001623417141964899
419198000000,141,419198000000,BL_wheel_link,-0.16014583369731228,-0.3410150055961706,0.8050091840704675,-0.021771886894091586,0.017190995252690123,0.0023482284494433453
419199000000,142,419199000000,BL_wheel_link,3.074874729610084,1.6912832495525747,25.71135805158005,0.14382327810384463,-0.32388857050667397,0.005036872711120187
419200000000,143,419200000000,BL_wheel_link,0.1457757359086978,-0.026876260218469852,-0.002819749200648795,-0.00482560468114695,-0.019150147446518644,9.504148394501462e-05
419201000000,144,419201000000,BL_wheel_link,-0.11602169287608163,-0.2464590086872016,0.6144343939491577,-0.01667973766427255,0.01475984004477618,0.002672792742020969
419202000000,145,419202000000,BL_wheel_link,1.9187464581733424,1.2754292762823387,20.246148512357692,0.08851142971826746,-0.21898502343762283,-0.0025540436200311447
419203000000,146,419203000000,BL_wheel_link,0.08045268234276459,-0.013032531805308542,0.01769549928862382,-0.006174887563884816,-0.015082690653291885,5.8302912738777014e-05
419204000000,147,419204000000,BL_wheel_link,0.06124071397479676,-0.14042554029087212,0.0380692344073368,-0.004805941213097556,0.022554039783395492,0.0072630712072047745
419205000000,148,419205000000,BL_wheel_link,4.050556284414384,-0.4372376506260238,10.691459654020761,-0.08046400830348457,-0.4414874003767573,-0.001447187831745812
419206000000,149,419206000000,BL_wheel_link,-0.07503839406949009,-1.1876148499368973,4.647898917955153,-0.14213433902816114,-0.00327299343520579,-0.0028769018505457856
419207000000,150,419207000000,BL_wheel_link,1.1130601918786813,0.6583319554323596,3.543192613018082,0.061606628425807955,-0.11654811907681827,7.971588025874649e-05
419208000000,151,419208000000,BL_wheel_link,0.14214510164076777,-0.2047787086493471,-0.007015567280042576,-0.028715507436836336,-0.008622379981458152,0.002013273408433931
419209000000,152,419209000000,BL_wheel_link,-2.0610204703481014,2.4647742043056664,-0.47386607814782544,0.2342266554291967,0.20120528357891235,-0.010645695789264924
419210000000,153,419210000000,BL_wheel_link,0.5764379728405974,-0.6201680033300647,-1.5262089766715219,-0.019320079150414803,-0.017506658551445377,0.007710501528880495
419211000000,154,419211000000,BL_wheel_link,-0.007242616330689107,0.0024342234489766537,-0.003982590324433641,0.0001523227595846889,0.0008021830682537648,0.00010674975422411755
419212000000,155,419212000000,BL_wheel_link,-0.17042396415959368,0.27921467103430403,-0.7249688011713437,0.021965360831587098,0.012387028029928911,-0.0021691051466567767
419213000000,156,419213000000,BL_wheel_link,0.27899900732923977,-0.4276608454980794,-1.4340580478644624,-0.019140710833450935,-0.014913958367499414,0.00332476314308541
419214000000,157,419214000000,BL_wheel_link,-0.011912941171768597,0.012221433844842403,-0.007618585472939281,0.0004184395612999724,0.0005946658586188518,9.46686187441557e-06
419215000000,158,419215000000,BL_wheel_link,-0.23694058654769595,0.3411886725650994,-0.728882548230356,0.02350403129501507,0.013458105042807322,-0.0029907328955612726
419216000000,159,419216000000,BL_wheel_link,0.23745049884217725,-0.4189716132591229,-1.4299776184911348,-0.021911035149490457,-0.016352998797778254,0.0028461614751652863
419217000000,160,419217000000,BL_wheel_link,-0.016595084715304333,0.02370005748540668,-0.015777200533644627,0.000822438341837391,0.0005593992248311739,-0.0001514776469309705
419218000000,161,419218000000,BL_wheel_link,-0.25082019270612926,0.37102743186700105,-0.7220888540954183,0.02403236654371651,0.013368341969118897,-0.002788952589453263
419219000000,162,419219000000,BL_wheel_link,0.24581580495067998,-0.4250545894617485,-1.4381475376162727,-0.023814974341379157,-0.01779841751864909,0.003266808158347027
419220000000,163,419220000000,BL_wheel_link,-0.028298180382356927,0.025581577498505967,-0.011956725819548255,0.0011671646183957782,0.0008218721076241168,-0.0003709042926176539
419221000000,164,419221000000,BL_wheel_link,-0.2867202064925785,0.42338825887659326,-0.7759129629075756,0.026396163676347062,0.014531301568772824,-0.0030164940850323924
419222000000,165,419222000000,BL_wheel_link,0.2533307689164849,-0.42931800292041683,-1.4034748521984937,-0.02513874051624704,-0.01843589983294045,0.004042796395160343
419223000000,166,419223000000,BL_wheel_link,-0.03469260897069775,0.02271114449587415,-0.011298587966390754,0.0011641705957488456,0.0006076848433015649,-0.0008813238821311399
419224000000,167,419224000000,BL_wheel_link,-0.3000488797252368,0.44506119923659787,-0.7956353372547846,0.027329820507616516,0.014918225224129104,-0.003048375487132532
419225000000,168,419225000000,BL_wheel_link,0.26973899468051166,-0.46410857138478695,-1.371467617590144,-0.02722427289508944,-0.019517754814194786,0.004214678540955222
419226000000,169,419226000000,BL_wheel_link,-0.044513095936956605,0.04404463745403216,-0.0297273483270621,0.0021236607713805535,0.0009719014565722965,-0.0008460445385366624
419227000000,170,419227000000,BL_wheel_link,-0.31523194021326695,0.46796180893124933,-0.8292512022214924,0.02859884279395214,0.015541048764184136,-0.003162394927089033
419228000000,171,419228000000,BL_wheel_link,0.2673252749634238,-0.45911621654488266,-1.3573850698847285,-0.027159908989880674,-0.019492462148034233,0.0044912123373399854
419229000000,172,419229000000,BL_wheel_link,-0.042376505466940655,0.03897492229702435,-0.025674396766875784,0.0018508938639286597,0.0008040227820037444,-0.0009619508661013978
419230000000,173,419230000000,BL_wheel_link,-0.3120609980210489,0.46464267250104485,-0.8240045140765422,0.028432701214121944,0.015383507714944067,-0.003104719970798413
419231000000,174,419231000000,BL_wheel_link,0.25728018200010405,-0.35750231002094035,-0.7170581996060339,-0.032564955188129414,-0.005749203766280093,0.007004823959683672
419232000000,175,419232000000,BL_wheel_link,0.06710575834360602,0.06749722118263568,-0.05737488101187363,0.0005803090721616735,0.0052182216563417105,0.003750414922483427
419233000000,176,419233000000,BL_wheel_link,-0.07642417717605743,0.44565719565262846,-1.0807469331258859,0.004776394572334777,-0.001218137280531799,-0.00555337453510104
419234000000,177,419234000000,BL_wheel_link,-0.05096859660240482,0.12346092908241285,-0.1246485310093503,-0.007705390592815227,0.0004088797298982339,-0.002258701663308344
419235000000,178,419235000000,BL_wheel_link,-0.00222374156286384,0.2463429360460267,-1.2981631588058673,0.008515770328941326,0.00076470569272734,-0.002259242193867606
419236000000,179,419236000000,BL_wheel_link,0.020300516653961313,0.028559109610509746,-0.43201008027482923,-0.003090210789554696,-0.00042317220775340506,0.0012543610337654673
419237000000,180,419237000000,BL_wheel_link,-0.2735941844051616,-0.4384039240975659,1.3243382392864005,-0.03675910262750459,0.028238307030083603,0.00014786998906104944
419238000000,181,419238000000,BL_wheel_link,0.3751868294894406,0.1724062421608345,-0.8827560387283687,0.02189490699172638,0.00030122245942880606,0.01107243094445997
419239000000,182,419239000000,BL_wheel_link,-0.14215284147501817,0.15691820852703842,0.2619261619991017,-0.028412499035410828,0.00810282441050706,-0.013959723345251824
419240000000,183,419240000000,BL_wheel_link,0.35078454269680326,0.30376079932668765,-1.2108976817282375,0.030153652664424314,0.0031033959295455535,0.00956276515167755
419241000000,184,419241000000,BL_wheel_link,0.43149875777070246,0.06672489281973082,-0.9365196466155576,-0.02516468489718767,-0.024340095156032977,-0.0034347346282776895
419242000000,185,419242000000,BL_wheel_link,-0.2008341742588745,0.499391955001182,-1.9376596185589539,0.02713622577327241,0.006121005511563273,-0.006371337500096509
419243000000,186,419243000000,BL_wheel_link,-0.0010281342863575457,-0.0015498840370150196,0.0007656309733594694,-1.578103975229041e-05,-1.9424032689828782e-05,-7.607342043552216e-05
419244000000,187,419244000000,BL_wheel_link,-0.12471212292562411,-0.028882080676623685,0.158236251816535,-0.03036798292206771,0.00443070979668146,-0.005228842629051182
419245000000,188,419245000000,BL_wheel_link,0.07805953167311516,0.36955692721250927,-1.7285061647982318,0.023403385113252788,0.000229403563670183,-0.00017539588061821188
419246000000,189,419246000000,BL_wheel_link,0.00647864329181409,-0.0013544140906718905,-0.007531218637123483,0.0001404324875472797,-0.00010059977733930812,0.00013239633306083744
419246000000,190,419247000000,BL_wheel_link,0.2616840295663591,-0.13211698813007872,-1.430214461320175,-0.006955588801586072,-0.005780216786592877,0.007110882744906409
419246000000,191,419248000000,BL_wheel_link,-0.0067383267392020565,0.017311399315153048,-0.01855671958045117,0.0006230600999016405,0.0001378426645855076,-3.559823089212521e-05
419249000000,192,419249000000,BL_wheel_link,-0.14634757647458269,0.23444563455314993,-0.95784230181328,0.000741817249442086,0.007708509363899097,-0.005840177428360359
419250000000,193,419250000000,BL_wheel_link,0.006553948293256456,0.008442264594433518,-0.01825579032093943,0.0004669006956937805,-1.8134471203810562e-05,0.0001970729660448096
419251000000,194,419251000000,BL_wheel_link,0.2074872938724044,-0.062365754913029925,-1.6855767202285734,-0.0004943026545990597,-0.005281148860023146,0.005801082758550833
419252000000,195,419252000000,BL_wheel_link,-0.009998426661411871,0.013024732822183053,-0.01066440285206914,0.00043167786714243045,0.00016108654801419412,-0.00013371854245941098
419253000000,196,419253000000,BL_wheel_link,-0.10926360393524759,0.20390662282336292,-0.9489004640569147,-0.0019147503810837247,0.00378191812879362,-0.003554321959807625
419254000000,197,419254000000,BL_wheel_link,-0.0011884207209303462,0.007625792327178404,-0.010415567374759481,0.0002995174750492569,4.699964210576045e-05,3.499989909889215e-05
419255000000,198,419255000000,BL_wheel_link,0.04887302423409739,-0.0679092646171635,-1.5036992603894954,-0.004119858323053427,-0.0023879621782821065,0.0009881882624932412
419256000000,199,419256000000,BL_wheel_link,0.004445873731414895,0.010609591701363878,-0.03969585149736586,0.0025390942887043013,0.0030775552962748524,0.0022908378439654444
419257000000,200,419257000000,BL_wheel_link,-0.1255336566071663,0.18052535109016854,-0.4371441000836851,0.01373312425399458,0.0075826435110704455,-0.0018574399291084846
419258000000,201,419258000000,BL_wheel_link,0.17653258985185644,-0.27096543478526547,-0.16319538664448008,-0.03606452953961822,-0.01061142320933211,0.0014096270914550012
419259000000,202,419259000000,BL_wheel_link,-0.17659031471307773,0.4253405156510478,-2.025527243425229,0.027736865891612762,0.007246090728942684,-0.004605206142697431
419260000000,203,419260000000,BL_wheel_link,0.003566269658764218,-0.0015980769551134418,-0.002950789976193801,-2.8603732475846887e-05,-0.00010762518260793377,-2.921232011439949e-05
419261000000,204,419261000000,BL_wheel_link,0.1305204074804006,-0.20793147661829056,-0.24750443981667403,-0.02297964596556102,-0.01686848128907204,-0.0013116462034579578
419262000000,205,419262000000,BL_wheel_link,-0.21941310304626993,0.21812174947406587,-1.9776684115711431,0.026274127029643116,0.01342612906592006,3.3294126681813595e-06
419263000000,206,419263000000,BL_wheel_link,0.005606131787028008,-0.003511746376858769,-0.001718307525936603,-3.7652018592154784e-06,-5.3415053505724546e-05,0.0001151657257134724
419264000000,207,419264000000,BL_wheel_link,0.12353803013717007,-0.23616976063576753,-0.2062793335302238,-0.023444224298644935,-0.016022339038831553,-0.00041031333318577816
419265000000,208,419265000000,BL_wheel_link,-0.20127669013648303,0.1971998293987905,-1.9654484766277964,0.02606032920300561,0.013405772081696897,0.0009900053031356053
419266000000,209,419266000000,BL_wheel_link,0.0064416647995017085,-0.0032231128362400843,-0.0031399675001355684,3.72579242495188e-05,-5.470090347485896e-05,0.0001556838381469489
419267000000,210,419267000000,BL_wheel_link,0.11916527449139852,-0.23306374799535784,-0.21141880166603233,-0.023501579362641297,-0.016045868672987625,-0.0003521543805781758
419268000000,211,419268000000,BL_wheel_link,-0.19676412972061227,0.19676550895335507,-1.970116866308934,0.026145592628878722,0.013282152308198597,0.0011319927064074133
419269000000,212,419269000000,BL_wheel_link,0.006712492245802517,-0.0030070169270571398,-0.0038551464175951974,5.674527943305759e-05,-5.654414624769549e-05,0.00017043932927761677
419270000000,213,419270000000,BL_wheel_link,0.009548490196544607,-0.12205740709879088,-0.013580722610420285,-0.026596829806052442,-0.0016183895476490073,-3.056161798723121e-05
419271000000,214,419271000000,BL_wheel_link,-0.00664590461248539,0.2801025917175435,-1.8294630474683722,0.023904430683126546,0.0042448468739159865,-0.0002640701438171494
419272000000,215,419272000000,BL_wheel_link,0.007862401673686598,-0.0027828210335890157,-0.00636874464862431,5.321664457692644e-05,-0.00013881088024000218,0.0001277643469861456
419273000000,216,419273000000,BL_wheel_link,0.0523838615609306,-0.12084503302599428,-0.08633042966151286,-0.025924818276219164,-0.0033694301446329945,0.0005190249459122086
419274000000,217,419274000000,BL_wheel_link,-0.02792956175869757,0.2813302787386357,-1.8474053701450754,0.024346133326535128,0.004868198108907125,-0.001223366974105861
419275000000,218,419275000000,BL_wheel_link,0.007750201862133344,-0.004012935239669141,-0.004682336743675479,3.310318799954948e-06,-0.0001446495925280332,0.00010583953257762835
419276000000,219,419276000000,BL_wheel_link,0.10999911219067994,-0.16804430480150842,-0.14257983280312186,-0.024612429108502212,-0.00693563281603121,0.0016775622638309016
419277000000,220,419277000000,BL_wheel_link,-0.0899514409416767,0.25056020182729694,-1.8670261348476884,0.02441446682959992,0.0071717981190252775,-0.001670329132316233
419278000000,221,419278000000,BL_wheel_link,0.006723747738578888,-0.004459664597075723,-0.0027369942966414605,-4.140250121071634e-05,-0.0001288641316035647,7.64998601706379e-05
419279000000,222,419279000000,BL_wheel_link,0.24588394253306894,-0.20872792882707517,-0.327425418501589,-0.021189758595742885,-0.008040633091412733,0.00763708053930568
419283000000,223,419280000000,BL_wheel_link,-0.19161103536985583,0.26253951344567017,-1.7230473209515123,0.021799428355758908,0.007778464319978021,-0.00540391351236885
419283000000,226,419283000000,BL_wheel_link,-0.11928964331850576,0.24881042802684877,-1.84030961010622,0.023550426489990478,0.00719508842174359,-0.003258864329384514
419283000000,227,419284000000,BL_wheel_link,0.005868326173922109,-0.004611642328574542,-0.0014278728692135277,-7.091265458154877e-05,-0.00012841200886152892,3.816681082862775e-05
419285000000,228,419285000000,BL_wheel_link,0.1314562096895983,-0.2248266317353882,-0.2030666516110616,-0.02298087452455848,-0.016280900645899824,-0.0005708051083953935
419286000000,229,419286000000,BL_wheel_link,-0.1816878960887771,0.2573098441045544,-1.707562257373286,0.021728723040030602,0.017876804328317786,-0.00198258605622334
419287000000,230,419287000000,BL_wheel_link,0.027404486251220515,-0.009942435045167093,0.04553531206751717,-0.0024335125767284242,0.0027596708137264583,0.000748820895134298
419288000000,231,419288000000,BL_wheel_link,0.11079252511343259,-0.1643500652614101,-0.2318562036007622,-0.019670816480782047,-0.014916143311922746,-0.0009778909762394603
419289000000,232,419289000000,BL_wheel_link,-0.05896278066850538,0.16908657812877048,-2.0001665872645624,0.02523304882200382,0.009370449216181569,0.0015587830796770002
419290000000,233,419290000000,BL_wheel_link,0.0024025171592376732,-0.008043445826300151,0.006143743867855983,-0.00018797662365381752,4.591823977604596e-06,0.0001205735797378272
419291000000,234,419291000000,BL_wheel_link,0.12430120142946496,-0.22156062446227812,-0.11493805401260057,-0.025653349544771564,-0.0059813488904495,0.0042421372110814926
419292000000,235,419292000000,BL_wheel_link,-0.1415687202930788,0.24094971736896184,-1.8054845123654837,0.02351823076081723,0.008015667262558986,-0.0025532451824849126
419293000000,236,419293000000,BL_wheel_link,3.6777616675389746,8.334221133544983,14.659666056940061,0.43676865792896097,-0.3571560804216819,0.09565007429930139
419294000000,237,419294000000,BL_wheel_link,0.6492765791629806,2.820847377135304,17.83502950368821,-0.17436958733713986,-0.09097366450478993,0.022218125108820083
419295000000,238,419295000000,BL_wheel_link,0.0016191650985112767,-0.000530084314437312,0.027441559857065603,4.5041990779880994e-06,0.00017073898029207611,-0.00017930009994205907
419296000000,239,419296000000,BL_wheel_link,3.195129203486757,6.523054851906862,12.162106201094218,0.31728865182990895,-0.3153612108338739,0.08308087804951073
419297000000,240,419297000000,BL_wheel_link,0.4169601435852118,0.33121411152023944,14.570320828354166,-0.3693315004412038,-0.07438349281933404,0.01280793812533698
419298000000,241,419298000000,BL_wheel_link,-0.04185296287303515,-0.07432784289454167,-0.057404453482630846,-0.004069984792734195,0.004648729947543431,-0.0012772258086400378
419299000000,242,419299000000,BL_wheel_link,2.2264762706200925,5.049362491134133,10.308700683591738,0.2157603280137946,-0.2156145518626096,0.05703330172617478
419300000000,243,419300000000,BL_wheel_link,-0.661475344458742,-0.12642138088624288,14.351799306021412,-0.41304565842834506,0.044913160544353486,-0.015497812310075717
419301000000,244,419301000000,BL_wheel_link,-0.08800281873446239,-0.10685354571399217,-0.08909426254143554,-0.006225314625076412,0.009879289051417476,-0.0025562115425289923
419302000000,245,419302000000,BL_wheel_link,1.5397295418277976,4.403967575081367,9.53072205308834,0.17106167885673834,-0.14223552311393295,0.03848149472279311
419303000000,246,419303000000,BL_wheel_link,-1.1731399137998495,-0.6786095780714535,13.924448910995991,-0.46087236646204244,0.10120261325622776,-0.0292530651262964
419304000000,247,419304000000,BL_wheel_link,-0.11316143439713987,-0.1311296093412539,-0.1045545720102756,-0.00835025225738928,0.012708573347858491,-0.003231423179084707
419305000000,248,419305000000,BL_wheel_link,1.862381881687541,1.9826066622438954,10.143676728169236,-0.08656252979066646,-0.18043693589481424,0.049583613766285624
419306000000,249,419306000000,BL_wheel_link,-0.14245377659186675,-0.3207121438327153,1.2023626422968205,-0.030635979001564596,0.01586705330734383,0.003263311244687252
419307000000,250,419307000000,BL_wheel_link,2.266476839632638,4.9986901263146,14.38928852036113,0.06491052781596167,-0.21561495279832504,0.05519525050224188
419308000000,251,419308000000,BL_wheel_link,-1.2381977629350032,-0.42875581720964945,13.92282486765519,-0.43182028892038915,0.1074266111436756,-0.032933158910283804
419309000000,252,419309000000,BL_wheel_link,-0.10369885191936892,-0.15101940489048205,-0.08032931175877936,-0.010341647735001586,0.012099144681677393,-0.003274813939458422
419310000000,253,419310000000,BL_wheel_link,-0.624942164305279,2.843166756713913,17.089201247669667,-0.19276853661926174,0.07729409363963784,-0.019666834412732228
419311000000,254,419311000000,BL_wheel_link,-0.4715949669486227,-0.4039724234680741,0.3682634857959089,-0.0570105617031441,0.051797126678060426,-0.013464717943979704
419312000000,255,419312000000,BL_wheel_link,-0.07767616270866912,-0.1029069272717258,0.19364944041054524,-0.0324466936342532,0.00579447792332125,-0.002773069545814921
419313000000,256,419313000000,BL_wheel_link,2.705674508044182,3.1670378412551,13.626587248067251,-0.0752182394006574,-0.27011116783297295,0.07495189037587921
419314000000,257,419314000000,BL_wheel_link,0.0597540667853968,-0.10360069116803977,-0.19758246916952898,-0.033234602770932625,-0.017802683354404096,0.0046318579845090815
419315000000,258,419315000000,BL_wheel_link,-0.007229069025157846,0.026846562463970526,-0.04959913864191491,0.001429432000786039,0.000773513775688083,0.0001671982647253041
419316000000,259,419316000000,BL_wheel_link,4.1830677892568175,-2.5253398683540693,6.042265219401516,-0.4781830275983105,-0.4697251451643541,0.10907781776701955
419316000000,260,419317000000,BL_wheel_link,0.09723333449121602,-0.3523581492402661,0.5481320318619733,-0.030687470187659407,-0.0026941502948133727,0.013492136520649956
419318000000,261,419318000000,BL_wheel_link,4.2795956389624,0.5887553143512734,12.109513591078038,-0.3232233126149799,-0.46605153112757036,0.11752367634725122
419318000000,262,419319000000,BL_wheel_link,0.00944825362184823,-0.30964721014216856,0.8608715076187856,-0.031176403848057276,0.0021851283680982877,0.00711424532313904
419321000000,263,419320000000,BL_wheel_link,2.683625544226047,3.4038201380152144,11.246243883303283,-0.011678594052442093,-0.2751506577378463,0.06781844661310085
419321000000,264,419321000000,BL_wheel_link,0.041517716308932126,-0.18222137439390534,0.37817003048904896,-0.03466971649092934,-0.009411458823454465,0.0023766558107630948
419322000000,265,419322000000,BL_wheel_link,2.5910188299919246,2.0726081886431627,8.08508640784731,-0.05872750200609855,-0.27642237417577964,0.06652335003618019
419323000000,266,419323000000,BL_wheel_link,-0.17438126554716687,0.03863301721291937,0.5860623469674098,-0.02382967082094527,0.003196853808131006,-0.002733116268788185
419324000000,267,419324000000,BL_wheel_link,2.1216358504478885,5.015580889733748,11.391020491367017,0.17033932861175677,-0.20382725063072057,0.053542086339196444
419324000000,268,419325000000,BL_wheel_link,-0.632312722715975,-1.0798577169883206,9.43678778035071,-0.3807876532489602,0.04703972155905439,-0.015211949476174564
419326000000,269,419326000000,BL_wheel_link,-0.07936143073216209,-0.10078920982463725,-0.11236379067503996,-0.006905448574056904,0.00898598306228106,-0.0022400842958932928
419327000000,270,419327000000,BL_wheel_link,2.623681968046257,1.5087982762356729,9.707734273792056,-0.12685027221928508,-0.26732812087060914,0.06884815543904262
419327000000,271,419328000000,BL_wheel_link,-0.08045585069035506,-0.28056979739669713,1.0756663994572904,-0.027362176750325706,0.012536202138780272,0.005664675414164551
419329000000,272,419329000000,BL_wheel_link,2.4808103780077593,5.149110886801167,13.747955412656982,0.1055734047704557,-0.24092519982817795,0.06206568396263476
419329000000,273,419330000000,BL_wheel_link,-1.0250786235033151,-0.3793599836032634,11.83591097084327,-0.38161090679981524,0.08034653370272676,-0.02765245460996939
419331000000,274,419331000000,BL_wheel_link,-0.10809466594424558,-0.11935104592942167,-0.10824666246740605,-0.00649208827550596,0.012284351905099095,-0.003227547953264063
419332000000,275,419332000000,BL_wheel_link,-0.5574723643427149,3.6303953568499105,17.357889317065716,-0.11147684082624207,0.0734536021521615,-0.01673941897645813
419333000000,276,419333000000,BL_wheel_link,-0.43016405084522313,-0.06034612107841664,0.5507537258631081,-0.024051803801692154,0.04903598087645699,-0.01211637458828174
419334000000,277,419334000000,BL_wheel_link,0.011151846753542596,-0.1928729722275725,0.06069087930493166,-0.03239676491535613,0.0027126153068356175,0.0005468944258996452
419335000000,278,419335000000,BL_wheel_link,2.678625607942474,4.252946408482877,11.168654151492273,0.08734121459888784,-0.2722521040365292,0.06862918386528734
419336000000,279,419336000000,BL_wheel_link,-0.12769712611055795,-0.11068797611932424,1.1365891629905038,-0.022389336890225004,0.007297170646033571,0.0007820273861356294
419337000000,280,419337000000,BL_wheel_link,2.685842025774275,5.785259143099095,13.5612542755314,0.18523761507734104,-0.26122829655410884,0.06821362864699874
419338000000,281,419338000000,BL_wheel_link,-0.12680707117798912,-0.44652019752025773,11.119021003153875,-0.3644603961555618,-0.012073738655153876,-0.0023181063884722157
419340000000,282,419339000000,BL_wheel_link,-0.06471499920234619,-0.11153060055130613,-0.0997101104379246,-0.0062055730369554515,0.0073659171531000045,-0.0018830355851558074
419340000000,283,419340000000,BL_wheel_link,2.6068633610265923,2.293205240441424,10.903934886434318,-0.06674563614335162,-0.2626504397634297,0.07207210739182779
419341000000,284,419341000000,BL_wheel_link,-0.0776287461294133,-0.2564949131302493,1.1011087526499137,-0.029138066425012966,0.010571235775930143,0.0029506671129155343
419342000000,285,419342000000,BL_wheel_link,2.621834138967195,5.2834058691065575,13.875578929268663,0.11715208500631863,-0.2568989465410954,0.06603221224711617
419343000000,286,419343000000,BL_wheel_link,-0.674347798152499,-0.5798373865290892,11.477283076263472,-0.39590747337173016,0.041426912669717014,-0.019403868349503875
419344000000,287,419344000000,BL_wheel_link,-0.09454020925916992,-0.13011857728111992,-0.11302839295853812,-0.007420973029661621,0.010675558926128804,-0.0028345431976496164
419344000000,288,419345000000,BL_wheel_link,-0.3843303201142103,3.8088504171123505,17.44375077127051,-0.0954263825278252,0.05462338462604137,-0.012126708711496055
419346000000,289,419346000000,BL_wheel_link,-0.2532960833493412,-0.0332392056438687,0.5747253618467092,-0.02243507366323118,0.029129500743190085,-0.007275685728239519
419346000000,290,419347000000,BL_wheel_link,-0.015092944728620564,-0.15635048208777802,0.11739302502464463,-0.031023211765315237,0.003933690730094985,-0.0002776767356301732
419348000000,291,419348000000,BL_wheel_link,2.6393686148312483,4.745995740913595,11.572830445862236,0.13146981251886536,-0.2653008309288015,0.06777828930792405
419349000000,292,419349000000,BL_wheel_link,-0.17916656617578447,0.01536401228091916,0.9922266903029964,-0.02077410328090292,0.005642488923706461,-0.0017510477704818419
419350000000,293,419350000000,BL_wheel_link,2.513115981587995,6.045287671377326,13.051729602477252,0.23461393047053167,-0.24135636891773224,0.06428481167295869
419350000000,294,419351000000,BL_wheel_link,-0.10998957234135717,0.05780860332804875,0.7819324668805678,-0.020131360676547055,-0.001569428318292732,-0.0012686574222155562
419350000000,295,419352000000,BL_wheel_link,3.2259646397022013,4.753569831113971,13.380880885845198,0.10859177105465491,-0.32095366576275985,0.08711443020302836
419350000000,296,419353000000,BL_wheel_link,-0.02273494464636991,-0.14163986621846378,1.1418339193873037,-0.02140119531279982,0.0023203816089673226,0.0031813663246308935
419350000000,297,419354000000,BL_wheel_link,3.24935627497073,5.951344195296779,13.646442127140979,0.2013068317700613,-0.3251446303537057,0.08380792755013225
419355000000,298,419355000000,BL_wheel_link,-0.1328273269938981,0.13849149439118236,0.8218261399886355,-0.021415077190365617,-0.004413740827766835,-0.005349784576244715
419356000000,299,419356000000,BL_wheel_link,3.0242996767877806,6.243206531209071,12.518615010503588,0.2723874418985238,-0.29968476459831805,0.07844183466733703
419356000000,300,419357000000,BL_wheel_link,-0.08366319000325262,0.1202264359133358,0.7722181968191786,-0.01670658221261137,-0.003936471717116608,-0.0019485958813142924
419356000000,301,419358000000,BL_wheel_link,3.1373715573212557,6.422750508474184,12.390710625907355,0.29789158161893414,-0.31149207034350995,0.08185687402590182
419358000000,302,419359000000,BL_wheel_link,-0.1018276548977938,0.14756766189872433,0.8147934404571664,-0.013487743770406412,-0.0023029927485586294,-0.0018936949569917992
419358000000,303,419360000000,BL_wheel_link,3.0935664202494646,6.88327083268854,12.75551706386481,0.3391138837014507,-0.30374843152116004,0.08078435231721237
419361000000,304,419361000000,BL_wheel_link,-0.07762453680452389,0.13373197719824254,0.8028381862989105,-0.01272512391751139,-0.0031103088562918135,-0.0010617915504852454
419362000000,305,419362000000,BL_wheel_link,3.207766258479669,6.89829105703678,12.717969940291564,0.34196927621917167,-0.3167118665122745,0.08396721669070423
419363000000,306,419363000000,BL_wheel_link,-0.08243085081435891,0.14388111356448313,0.8147203463578505,-0.012019234138032684,-0.0030592063865385313,-0.0011506330248143406
419364000000,307,419364000000,BL_wheel_link,3.2203787796548413,7.03797858431231,12.82286496845157,0.35464224826948443,-0.31738666765583706,0.08436202217503119
419365000000,308,419365000000,BL_wheel_link,-0.07459155683594701,0.14144104128186807,0.8103150253465206,-0.01185045918211803,-0.0034835143905407387,-0.0009549615851443279
419366000000,309,419366000000,BL_wheel_link,3.2656554994165483,7.054667477565358,12.807612658809461,0.3570805094743316,-0.32253317712404456,0.08564258637945657
419367000000,310,419367000000,BL_wheel_link,-0.07604750742174674,0.1464111796393206,0.8141557500331539,-0.011634586449335458,-0.0035313934563730547,-0.0010356226947426021
419368000000,311,419368000000,BL_wheel_link,3.2733461319328363,7.116096355682831,12.840979809660338,0.36313343492552425,-0.32314117553357574,0.08589646986583196
419369000000,312,419369000000,BL_wheel_link,-0.07383164995507663,0.14755458710388356,0.8134567539000167,-0.011566987524712568,-0.0036830658091265523,-0.0010254971454584515
419370000000,313,419370000000,BL_wheel_link,3.2887439980538655,7.141852972556644,12.83955945821756,0.36621963164871846,-0.3248441676321686,0.08635968818830989
419371000000,314,419371000000,BL_wheel_link,-0.07462307073989136,0.15110555055180658,0.815654954359771,-0.011477120002231823,-0.0036994149595162337,-0.0011020425058641398
419372000000,315,419372000000,BL_wheel_link,3.2917881407754397,7.183511763515487,12.855373868818749,0.37058688080359237,-0.3250477542147529,0.08648593292861206
419374000000,316,419373000000,BL_wheel_link,-0.07428413813451652,0.15354678900379112,0.8166631556782658,-0.011428756958984059,-0.003743931164695121,-0.0011492835523183977
419374000000,317,419374000000,BL_wheel_link,3.2975569187505003,7.215519238587387,12.8619916201427,0.3741392974038616,-0.32561935629223837,0.08668611699234471
419375000000,318,419375000000,BL_wheel_link,-0.07480824040437409,0.15676124973533992,0.8186855362377209,-0.011370213448333798,-0.0037502720032337924,-0.0012210806028045986
419377000000,319,419376000000,BL_wheel_link,3.3003629267789276,7.2535134247260515,12.875094757215148,0.3781668510080733,-0.32581763831958505,0.08680546332292627
419377000000,320,419377000000,BL_wheel_link,-0.012434423537739117,0.1898106283793024,0.7316646283964741,-0.010193004536536798,-0.0023646895651233957,1.2349118330653286e-05
419378000000,321,419378000000,BL_wheel_link,3.335904317227392,7.256193087359498,12.597336419547561,0.388329810361718,-0.33021075739133127,0.08791899815957283
419378000000,322,419379000000,BL_wheel_link,0.0014973329132154795,0.19841853444450855,0.7068372546179851,-0.008813424982995149,-0.00405232502046928,-0.0002796197898294434
419378000000,323,419380000000,BL_wheel_link,3.4969908765043276,7.398308168305904,12.611002046415278,0.4036735722997714,-0.3477810074223267,0.09238974774356064
419381000000,324,419381000000,BL_wheel_link,0.023692225871394954,0.17985781384074045,0.6946872299338325,-0.008572190874159606,-0.005862920500823005,0.0004478509001563841
419382000000,325,419382000000,BL_wheel_link,4.1388551388221995,6.071467213063416,14.28311640727782,0.23945912264546376,-0.4140602222333498,0.11311789332692537
419382000000,326,419383000000,BL_wheel_link,0.11832366552880003,-0.009050450157742695,0.9282920734944425,-0.014412877982426405,-0.005190526217780005,0.0033929885640584553
419384000000,327,419384000000,BL_wheel_link,4.047262542462928,6.856477917269265,13.325083603273365,0.3161185462132307,-0.4126040192139956,0.10663179796892855
419390000000,328,419385000000,BL_wheel_link,0.005398460714018075,0.18104057727648065,0.6992763225795546,-0.014468643788372513,-0.009309845375690306,-0.002278817232539358
419390000000,329,419386000000,BL_wheel_link,4.2547989266761705,5.550746506890534,14.360366067572425,0.1818762919396265,-0.42926534736542293,0.11668330167428576
419390000000,330,419387000000,BL_wheel_link,0.04046106844848511,-0.0855747751763781,1.0970732177812463,-0.020139658955501225,-0.005825749543713599,0.002131355405798613
419390000000,331,419388000000,BL_wheel_link,3.911242245626962,6.549472226712101,13.699449475090264,0.2682287583800174,-0.3986949159077445,0.10255087042896856
419390000000,332,419389000000,BL_wheel_link,0.006015201774094314,0.16728967069010112,0.6655217068661059,-0.017905127177548177,-0.00886618826250319,-0.002525349023772337
419390000000,333,419390000000,BL_wheel_link,3.5666599158911225,6.640259028990995,12.002674341373941,0.30698315510865887,-0.3595324206476202,0.10019401912977308
419391000000,334,419391000000,BL_wheel_link,-0.03997087057171947,0.17058663759755105,0.8343794061649609,-0.0166730709407159,-0.005840821641523593,-0.0028593557075674986
419392000000,335,419392000000,BL_wheel_link,3.660647618101697,7.695510528012124,13.406533378510478,0.3752505324581869,-0.36304530034213106,0.10274775767893707
419393000000,336,419393000000,BL_wheel_link,0.7384639562929054,1.89712146247954,11.723114196520232,-0.11781680151273316,-0.09198982208488765,0.021716967481581726
419394000000,337,419394000000,BL_wheel_link,-0.011718612230578379,-0.05056269766915819,-0.03944792223745202,-0.0013118870479810391,0.0020212946436603896,-0.0004810946025439473
419395000000,338,419395000000,BL_wheel_link,1.0375610983567958,6.446639924950926,19.220176818651133,0.09887399411454904,-0.09419646692339419,0.02798423162605749
419396000000,339,419396000000,BL_wheel_link,0.09050932873727383,0.008900466807140836,-0.03616888146434704,-0.003754302035726917,-0.004504129629286959,0.0030549133541967143
419397000000,340,419397000000,BL_wheel_link,-0.010676034489216484,-0.00422184381654578,-0.024371093833823722,0.0006172180927307646,0.0015555581441561057,-0.0002887786237762668
419398000000,341,419398000000,BL_wheel_link,0.9781422922476302,5.799334150552165,26.74188331233109,-0.19583908621147264,-0.10898435293133486,0.029250797752478262
419399000000,342,419399000000,BL_wheel_link,-0.007296893717052028,-0.042625613928091305,-0.04968399930709013,-0.002263644426968788,0.0009214031624425301,-0.00019179860264354468
419400000000,343,419400000000,BL_wheel_link,0.01742427935200118,-0.04960130414710941,-0.19639842839292893,-0.007138998462610534,-0.006225980298382888,-0.00011812815686821726
419401000000,344,419401000000,BL_wheel_link,-0.7045175373640414,2.707822468654524,18.904028730714792,-0.28426515259498647,0.07962948475717203,-0.018480317385695992
419402000000,345,419402000000,BL_wheel_link,-0.03252205227479063,-0.04770078648150137,-0.0205956550546064,-0.003464649194344709,0.0039226022292652455,-0.0009964082579001243
419403000000,346,419403000000,BL_wheel_link,-0.26994508888098423,0.7599163436993313,10.532083791248334,-0.2496458691637788,0.02711399515602554,-0.007698275161458885
419404000000,347,419404000000,BL_wheel_link,-0.029711255075554364,-0.038223575796218996,-0.04091112677510652,-0.002205969076120854,0.003291744616600463,-0.0008362010448208994
419404000000,348,419405000000,BL_wheel_link,0.14367551837011283,3.413059332588549,19.371536938003636,-0.22252982530289325,-0.018929409420310295,0.004655831532717272
419404000000,349,419406000000,BL_wheel_link,-0.5356778302048525,-0.440567590806051,0.39795802950467885,-0.06929898533079654,0.05927335821214915,-0.0148919025878309
419404000000,350,419407000000,BL_wheel_link,0.5864776030243126,1.796316585010141,3.4403366472341013,0.07744166554069373,-0.0550171555900333,0.01615808423897873
419408000000,351,419408000000,BL_wheel_link,-0.052680933339976095,-0.10784564121157708,0.3301468144450738,-0.030896785573579767,0.0016200032220671512,-0.0010189373847310406
419409000000,352,419409000000,BL_wheel_link,3.067953267173297,6.291824377888318,12.858311005596875,0.23695902120334114,-0.30666711631381943,0.08555904011067764
419410000000,353,419410000000,BL_wheel_link,-0.10037568674361674,-0.08266463347605488,1.4262149368363675,-0.02152987096891571,0.0060246753358781146,0.001610094254879129
419411000000,354,419411000000,BL_wheel_link,3.241411774552874,7.458873075304503,15.024877852102117,0.2957239076396721,-0.31739727242133786,0.09000188203476825
419412000000,355,419412000000,BL_wheel_link,-0.19124709811443982,0.20983049029123527,1.0263354078981655,-0.022108385824755473,-0.003590950932057831,-0.0066509603869145326
419413000000,356,419413000000,BL_wheel_link,3.1713925686135136,7.4741516368556695,13.623613195906337,0.34844703693898166,-0.30980851062222176,0.08866280241734484
419413000000,357,419414000000,BL_wheel_link,-0.09155846778284968,0.13175768374787888,1.1247225230280946,-0.017185111482925543,-0.0017445265773425155,-0.0025648570023393026
419415000000,358,419415000000,BL_wheel_link,3.4865563943212985,7.890618863704779,14.137922609030907,0.3767171335175131,-0.3427768969581838,0.09775202439935947
419416000000,359,419416000000,BL_wheel_link,-0.09109409118629375,0.16888299911084337,1.072991501659907,-0.01579171988473522,-0.003466269479940466,-0.0029556369270313646
