%time,field.header.seq,field.header.stamp,field.header.frame_id,field.orientation.x,field.orientation.y,field.orientation.z,field.orientation.w,field.orientation_covariance0,field.orientation_covariance1,field.orientation_covariance2,field.orientation_covariance3,field.orientation_covariance4,field.orientation_covariance5,field.orientation_covariance6,field.orientation_covariance7,field.orientation_covariance8,field.angular_velocity.x,field.angular_velocity.y,field.angular_velocity.z,field.angular_velocity_covariance0,field.angular_velocity_covariance1,field.angular_velocity_covariance2,field.angular_velocity_covariance3,field.angular_velocity_covariance4,field.angular_velocity_covariance5,field.angular_velocity_covariance6,field.angular_velocity_covariance7,field.angular_velocity_covariance8,field.linear_acceleration.x,field.linear_acceleration.y,field.linear_acceleration.z,field.linear_acceleration_covariance0,field.linear_acceleration_covariance1,field.linear_acceleration_covariance2,field.linear_acceleration_covariance3,field.linear_acceleration_covariance4,field.linear_acceleration_covariance5,field.linear_acceleration_covariance6,field.linear_acceleration_covariance7,field.linear_acceleration_covariance8
419066000000,0,419057000000,base_link,-0.06162935235594715,-0.061451308910839775,0.7026861851734768,0.7061569830623197,0.0,0.0,0.0,0.0,0.0,0.0,0.0,0.0,0.0,-0.02695235886317201,0.0041318727787833815,0.004949971987729436,0.0,0.0,0.0,0.0,0.0,0.0,0.0,0.0,0.0,1.1130851770160073,0.4168805285543189,18.59276137243453,0.0,0.0,0.0,0.0,0.0,0.0,0.0,0.0,0.0
419066000000,1,419059000000,base_link,-0.061613896180217016,-0.06144453725201063,0.7026912724552845,0.7061538587691444,0.0,0.0,0.0,0.0,0.0,0.0,0.0,0.0,0.0,0.05799303340172874,-0.01698538924389377,0.005757061218413213,0.0,0.0,0.0,0.0,0.0,0.0,0.0,0.0,0.0,-0.3774448882525726,-3.031718837498866,5.497399660811948,0.0,0.0,0.0,0.0,0.0,0.0,0.0,0.0,0.0
419066000000,2,419061000000,base_link,-0.061603556579813014,-0.061448084085210075,0.7026891260919866,0.7061565880532835,0.0,0.0,0.0,0.0,0.0,0.0,0.0,0.0,0.0,0.055935726985464826,-0.044792798638949194,-0.009766813164847997,0.0,0.0,0.0,0.0,0.0,0.0,0.0,0.0,0.0,-1.911779900862641,-3.3310591238796396,6.981784168298322,0.0,0.0,0.0,0.0,0.0,0.0,0.0,0.0,0.0
419066000000,3,419062000000,base_link,-0.061627176034696494,-0.061460534912419124,0.7026843557192598,0.7061581905279275,0.0,0.0,0.0,0.0,0.0,0.0,0.0,0.0,0.0,-0.017613371731134773,0.014302184147706029,-0.006246349070457425,0.0,0.0,0.0,0.0,0.0,0.0,0.0,0.0,0.0,2.359759778704492,-1.0258042699126495,21.790935790128884,0.0,0.0,0.0,0.0,0.0,0.0,0.0,0.0,0.0
419066000000,4,419063000000,base_link,-0.061627176034696494,-0.061460534912419124,0.7026843557192598,0.7061581905279275,0.0,0.0,0.0,0.0,0.0,0.0,0.0,0.0,0.0,-0.017613371731134773,0.014302184147706029,-0.006246349070457425,0.0,0.0,0.0,0.0,0.0,0.0,0.0,0.0,0.0,2.359759778704492,-1.0258042699126495,21.790935790128884,0.0,0.0,0.0,0.0,0.0,0.0,0.0,0.0,0.0
419067000000,5,419064000000,base_link,-0.061607250639359824,-0.061444716338766144,0.7026794949412267,0.706166142555596,0.0,0.0,0.0,0.0,0.0,0.0,0.0,0.0,0.0,0.05707434596971302,-0.026565483124240202,-0.014324353063969916,0.0,0.0,0.0,0.0,0.0,0.0,0.0,0.0,0.0,-1.7111457625716302,-3.126321539667105,6.268995350760491,0.0,0.0,0.0,0.0,0.0,0.0,0.0,0.0,0.0
419067000000,6,419065000000,base_link,-0.061607250639359824,-0.061444716338766144,0.7026794949412267,0.706166142555596,0.0,0.0,0.0,0.0,0.0,0.0,0.0,0.0,0.0,0.05707434596971302,-0.026565483124240202,-0.014324353063969916,0.0,0.0,0.0,0.0,0.0,0.0,0.0,0.0,0.0,-1.7111457625716302,-3.126321539667105,6.268995350760491,0.0,0.0,0.0,0.0,0.0,0.0,0.0,0.0,0.0
419068000000,7,419067000000,base_link,-0.06162686011798782,-0.06146282132050159,0.7026761309705815,0.7061662032917863,0.0,0.0,0.0,0.0,0.0,0.0,0.0,0.0,0.0,0.007215130324001027,-0.022253639023339586,0.0066180595292247586,0.0,0.0,0.0,0.0,0.0,0.0,0.0,0.0,0.0,-1.3027829246145755,-4.124752457139577,19.101920340277943,0.0,0.0,0.0,0.0,0.0,0.0,0.0,0.0,0.0
419069000000,8,419068000000,base_link,-0.06162734469572725,-0.06146485695575524,0.7026787565691094,0.706163371190869,0.0,0.0,0.0,0.0,0.0,0.0,0.0,0.0,0.0,-0.0035714980462166835,-0.0028657805414528384,0.007496745382264108,0.0,0.0,0.0,0.0,0.0,0.0,0.0,0.0,0.0,0.24623091965427885,-2.055854848090629,5.300371874442437,0.0,0.0,0.0,0.0,0.0,0.0,0.0,0.0,0.0
419070000000,9,419069000000,base_link,-0.0616276344044052,-0.06147131870055024,0.7026803507428717,0.7061611971319348,0.0,0.0,0.0,0.0,0.0,0.0,0.0,0.0,0.0,-0.009562016272434722,-0.009182642097513627,0.004545862536380399,0.0,0.0,0.0,0.0,0.0,0.0,0.0,0.0,0.0,-0.46806064151961874,-1.3059426041722337,9.28849427580014,0.0,0.0,0.0,0.0,0.0,0.0,0.0,0.0,0.0
419071000000,10,419071000000,base_link,-0.0616279025097157,-0.0614670823464791,0.7026819919956037,0.706159909330142,0.0,0.0,0.0,0.0,0.0,0.0,0.0,0.0,0.0,0.005619274331044958,0.006002143157546957,0.004682409788311609,0.0,0.0,0.0,0.0,0.0,0.0,0.0,0.0,0.0,1.0971435125251117,-3.0377975801699724,9.764263663526933,0.0,0.0,0.0,0.0,0.0,0.0,0.0,0.0,0.0
419073000000,11,419072000000,base_link,-0.06162818781636387,-0.061468505036313674,0.7026850231684784,0.7061567443349861,0.0,0.0,0.0,0.0,0.0,0.0,0.0,0.0,0.0,0.002183681668575277,0.0018491826273594855,0.0052907964821979,0.0,0.0,0.0,0.0,0.0,0.0,0.0,0.0,0.0,0.8194893995223413,-2.9249778557424633,9.907368321446572,0.0,0.0,0.0,0.0,0.0,0.0,0.0,0.0,0.0
419074000000,12,419074000000,base_link,-0.061628142654750695,-0.061470577875637214,0.7026860233658903,0.7061555725580535,0.0,0.0,0.0,0.0,0.0,0.0,0.0,0.0,0.0,-0.002870666682852345,-0.0032583885162287794,0.0027983214926420702,0.0,0.0,0.0,0.0,0.0,0.0,0.0,0.0,0.0,-0.402243811400365,-1.1400905363255487,9.275712379627015,0.0,0.0,0.0,0.0,0.0,0.0,0.0,0.0,0.0
419077000000,13,419076000000,base_link,-0.061628166546032516,-0.06147057681703026,0.7026883435997031,0.7061532617237293,0.0,0.0,0.0,0.0,0.0,0.0,0.0,0.0,0.0,0.001773766076686447,0.001564540661850348,0.0037412116860741224,0.0,0.0,0.0,0.0,0.0,0.0,0.0,0.0,0.0,0.44388649697074023,-2.4483782331842594,9.816741216089113,0.0,0.0,0.0,0.0,0.0,0.0,0.0,0.0,0.0
419078000000,14,419077000000,base_link,-0.06162814550187433,-0.06147050751488703,0.7026902315049538,0.7061513909462874,0.0,0.0,0.0,0.0,0.0,0.0,0.0,0.0,0.0,-0.001645093034638018,-0.001959071918473369,0.001560032053479828,0.0,0.0,0.0,0.0,0.0,0.0,0.0,0.0,0.0,-0.4648891187538176,-1.0477847585070608,9.476059820172342,0.0,0.0,0.0,0.0,0.0,0.0,0.0,0.0,0.0
419081000000,15,419078000000,base_link,-0.06162814550187433,-0.06147050751488703,0.7026902315049538,0.7061513909462874,0.0,0.0,0.0,0.0,0.0,0.0,0.0,0.0,0.0,0.0015854756972325898,0.0014253868143610834,0.0032622572861049715,0.0,0.0,0.0,0.0,0.0,0.0,0.0,0.0,0.0,-0.4648891187538176,-1.0477847585070608,9.476059820172342,0.0,0.0,0.0,0.0,0.0,0.0,0.0,0.0,0.0
419081000000,16,419079000000,base_link,-0.06162818678046115,-0.06146934662399116,0.7026913881667167,0.7061503374042281,0.0,0.0,0.0,0.0,0.0,0.0,0.0,0.0,0.0,0.0015854756972325898,0.0014253868143610834,0.0032622572861049715,0.0,0.0,0.0,0.0,0.0,0.0,0.0,0.0,0.0,0.3981627258348618,-2.3866512014696655,9.80134507942858,0.0,0.0,0.0,0.0,0.0,0.0,0.0,0.0,0.0
419081000000,17,419080000000,base_link,-0.0616281469572269,-0.06146945017662758,0.7026928375089915,0.7061488896197201,0.0,0.0,0.0,0.0,0.0,0.0,0.0,0.0,0.0,0.0014605987842538396,0.0013347770776087429,0.002909385172108522,0.0,0.0,0.0,0.0,0.0,0.0,0.0,0.0,0.0,0.38858284587134506,-2.367570746132852,9.797615535452248,0.0,0.0,0.0,0.0,0.0,0.0,0.0,0.0,0.0
419082000000,18,419081000000,base_link,-0.0616281469572269,-0.06146945017662758,0.7026928375089915,0.7061488896197201,0.0,0.0,0.0,0.0,0.0,0.0,0.0,0.0,0.0,0.0014605987842538396,0.0013347770776087429,0.002909385172108522,0.0,0.0,0.0,0.0,0.0,0.0,0.0,0.0,0.0,0.38858284587134506,-2.367570746132852,9.797615535452248,0.0,0.0,0.0,0.0,0.0,0.0,0.0,0.0,0.0
419084000000,19,419083000000,base_link,-0.06162798963715386,-0.061470893007060934,0.7026942924677507,0.7061473299102989,0.0,0.0,0.0,0.0,0.0,0.0,0.0,0.0,0.0,-0.0016384776258568956,-0.0019923496420786706,0.0005759643582407936,0.0,0.0,0.0,0.0,0.0,0.0,0.0,0.0,0.0,-0.45977542738505056,-1.0164262641533848,9.503625750767736,0.0,0.0,0.0,0.0,0.0,0.0,0.0,0.0,0.0
419085000000,20,419084000000,base_link,-0.061628030743259496,-0.061469882015118736,0.7026951504101252,0.7061465605820413,0.0,0.0,0.0,0.0,0.0,0.0,0.0,0.0,0.0,0.0013733666644316113,0.0012851697978728148,0.0024225099554627334,0.0,0.0,0.0,0.0,0.0,0.0,0.0,0.0,0.0,0.4098884479851585,-2.376213861228889,9.802027200425792,0.0,0.0,0.0,0.0,0.0,0.0,0.0,0.0,0.0
419086000000,21,419085000000,base_link,-0.061627921514807275,-0.06147118796408615,0.7026952882174875,0.7061463192972056,0.0,0.0,0.0,0.0,0.0,0.0,0.0,0.0,0.0,-0.0016938023154849482,-0.0020446082475142416,0.00035932927586314453,0.0,0.0,0.0,0.0,0.0,0.0,0.0,0.0,0.0,-0.45224588283469197,-1.0126460718782042,9.499950480134004,0.0,0.0,0.0,0.0,0.0,0.0,0.0,0.0,0.0
419087000000,22,419086000000,base_link,-0.061627962359970465,-0.06147017850237098,0.7026960851514549,0.7061456105670161,0.0,0.0,0.0,0.0,0.0,0.0,0.0,0.0,0.0,0.0013715718238602836,0.0012976418696689592,0.002250914517137476,0.0,0.0,0.0,0.0,0.0,0.0,0.0,0.0,0.0,0.42212822219075335,-2.384395995305711,9.804963006352292,0.0,0.0,0.0,0.0,0.0,0.0,0.0,0.0,0.0
419088000000,23,419087000000,base_link,-0.061627849143962625,-0.06147151544344292,0.7026961585239898,0.7061454310512838,0.0,0.0,0.0,0.0,0.0,0.0,0.0,0.0,0.0,-0.0017320449493758207,-0.0020784420505755713,0.00017720706453295008,0.0,0.0,0.0,0.0,0.0,0.0,0.0,0.0,0.0,-0.44511493928414836,-1.0095813275440642,9.496453281475759,0.0,0.0,0.0,0.0,0.0,0.0,0.0,0.0,0.0
419089000000,24,419088000000,base_link,-0.06162789097439109,-0.06147050005372559,0.7026969065544256,0.7061447714144986,0.0,0.0,0.0,0.0,0.0,0.0,0.0,0.0,0.0,0.0013785511165758573,0.0013194605339173103,0.0021137011827423247,0.0,0.0,0.0,0.0,0.0,0.0,0.0,0.0,0.0,0.43076664905324313,-2.390816392593267,9.807142966191426,0.0,0.0,0.0,0.0,0.0,0.0,0.0,0.0,0.0
419090000000,25,419089000000,base_link,-0.06162777452731432,-0.06147185586585859,0.7026969251307404,0.7061446450657402,0.0,0.0,0.0,0.0,0.0,0.0,0.0,0.0,0.0,-0.0017541972749731518,-0.0020963387409985213,2.2375188330665233e-05,0.0,0.0,0.0,0.0,0.0,0.0,0.0,0.0,0.0,-0.43916989896623343,-1.006985893619405,9.494112088760865,0.0,0.0,0.0,0.0,0.0,0.0,0.0,0.0,0.0
419091000000,26,419090000000,base_link,-0.06162781838967913,-0.06147083137816854,0.7026976338778261,0.7061440251341863,0.0,0.0,0.0,0.0,0.0,0.0,0.0,0.0,0.0,0.0013885331619139583,0.0013448880109839417,0.002003788863791204,0.0,0.0,0.0,0.0,0.0,0.0,0.0,0.0,0.0,0.43562091609805137,-2.3955130391107287,9.8084852287912,0.0,0.0,0.0,0.0,0.0,0.0,0.0,0.0,0.0
419092000000,27,419091000000,base_link,-0.06162769919028733,-0.061472197026995364,0.7026976054724794,0.7061439449208848,0.0,0.0,0.0,0.0,0.0,0.0,0.0,0.0,0.0,-0.0017642328808626846,-0.0021026319649864447,-0.00011036575993406726,0.0,0.0,0.0,0.0,0.0,0.0,0.0,0.0,0.0,-0.4344026096279492,-1.0047221802452373,9.492807548488187,0.0,0.0,0.0,0.0,0.0,0.0,0.0,0.0,0.0
419093000000,28,419093000000,base_link,-0.061627745715665185,-0.06147116346486775,0.702698282260833,0.7061433573488852,0.0,0.0,0.0,0.0,0.0,0.0,0.0,0.0,0.0,0.0013975844075140773,0.0013693735762086445,0.0019146463301968966,0.0,0.0,0.0,0.0,0.0,0.0,0.0,0.0,0.0,0.43733062152604496,-2.398659706592393,9.80915359187719,0.0,0.0,0.0,0.0,0.0,0.0,0.0,0.0,0.0
419095000000,29,419094000000,base_link,-0.06162762390376446,-0.061472533578354506,0.7026982131226376,0.7061433175083414,0.0,0.0,0.0,0.0,0.0,0.0,0.0,0.0,0.0,-0.001766857546019319,-0.0021026188718102183,-0.00022550304217407497,0.0,0.0,0.0,0.0,0.0,0.0,0.0,0.0,0.0,-0.43070465426817955,-1.0027753891613713,9.492391111109985,0.0,0.0,0.0,0.0,0.0,0.0,0.0,0.0,0.0
419097000000,30,419096000000,base_link,-0.06162760036285914,-0.06147181719347691,0.7026993860161299,0.7061422147535168,0.0,0.0,0.0,0.0,0.0,0.0,0.0,0.0,0.0,0.0014097384744858222,0.0014081173989474818,0.0017777573594887396,0.0,0.0,0.0,0.0,0.0,0.0,0.0,0.0,0.0,0.4352919422297094,-2.40214938289695,9.809143751758324,0.0,0.0,0.0,0.0,0.0,0.0,0.0,0.0,0.0
419098000000,31,419097000000,base_link,-0.06162747377911565,-0.061473190003813745,0.7026992495600177,0.7061422420831,0.0,0.0,0.0,0.0,0.0,0.0,0.0,0.0,0.0,-0.0017639162964004586,-0.0020965693187342833,-0.0004158940868224263,0.0,0.0,0.0,0.0,0.0,0.0,0.0,0.0,0.0,-0.42551488092779305,-0.9995884696217221,9.492954716951626,0.0,0.0,0.0,0.0,0.0,0.0,0.0,0.0,0.0
419099000000,32,419098000000,base_link,-0.061627527725776725,-0.061472138039416584,0.7026998578138102,0.7061417236643948,0.0,0.0,0.0,0.0,0.0,0.0,0.0,0.0,0.0,0.0014130766594742754,0.0014227463530415653,0.0017238582169661312,0.0,0.0,0.0,0.0,0.0,0.0,0.0,0.0,0.0,0.433007674705431,-2.4032178789142202,9.808852529951631,0.0,0.0,0.0,0.0,0.0,0.0,0.0,0.0,0.0
419100000000,33,419099000000,base_link,-0.06162739892679414,-0.06147351177689621,0.7026996932953441,0.7061417790316352,0.0,0.0,0.0,0.0,0.0,0.0,0.0,0.0,0.0,-0.001762089297042598,-0.002094082487314384,-0.0004953163182346452,0.0,0.0,0.0,0.0,0.0,0.0,0.0,0.0,0.0,-0.42362880140416515,-0.9982851743271299,9.493472447761174,0.0,0.0,0.0,0.0,0.0,0.0,0.0,0.0,0.0
419101000000,34,419100000000,base_link,-0.061627454872938865,-0.06147245609708141,0.7027002847956805,0.706141277433451,0.0,0.0,0.0,0.0,0.0,0.0,0.0,0.0,0.0,0.001415492694839922,0.0014349446850805672,0.0016772717571985679,0.0,0.0,0.0,0.0,0.0,0.0,0.0,0.0,0.0,0.430589191312876,-2.4041297655007217,9.808532752892992,0.0,0.0,0.0,0.0,0.0,0.0,0.0,0.0,0.0
419102000000,35,419101000000,base_link,-0.06162732386803096,-0.06147383105696009,0.7027000952575891,0.7061413577839926,0.0,0.0,0.0,0.0,0.0,0.0,0.0,0.0,0.0,-0.0017606915575567846,-0.0020927518429249476,-0.0005661846690371262,0.0,0.0,0.0,0.0,0.0,0.0,0.0,0.0,0.0,-0.42187796709563896,-0.9971149928252064,9.493981386103869,0.0,0.0,0.0,0.0,0.0,0.0,0.0,0.0,0.0
419103000000,36,419102000000,base_link,-0.06162738145859967,-0.06147277262319206,0.7027006718178017,0.706140871149223,0.0,0.0,0.0,0.0,0.0,0.0,0.0,0.0,0.0,0.001417049375690269,0.001444825684111578,0.0016356836790551916,0.0,0.0,0.0,0.0,0.0,0.0,0.0,0.0,0.0,0.42826183247229704,-2.4049127146989364,9.808188146331135,0.0,0.0,0.0,0.0,0.0,0.0,0.0,0.0,0.0
419104000000,37,419103000000,base_link,-0.061627248401110904,-0.06147414953417419,0.7027004597054057,0.7061409739728813,0.0,0.0,0.0,0.0,0.0,0.0,0.0,0.0,0.0,-0.0017605416026165817,-0.0020928456766015884,-0.0006301423232755889,0.0,0.0,0.0,0.0,0.0,0.0,0.0,0.0,0.0,-0.42032624865122653,-0.9960553689632208,9.494455337877667,0.0,0.0,0.0,0.0,0.0,0.0,0.0,0.0,0.0
419104000000,38,419104000000,base_link,-0.061627248401110904,-0.06147414953417419,0.7027004597054057,0.7061409739728813,0.0,0.0,0.0,0.0,0.0,0.0,0.0,0.0,0.0,-0.0017605416026165817,-0.0020928456766015884,-0.0006301423232755889,0.0,0.0,0.0,0.0,0.0,0.0,0.0,0.0,0.0,-0.42032624865122653,-0.9960553689632208,9.494455337877667,0.0,0.0,0.0,0.0,0.0,0.0,0.0,0.0,0.0
419107000000,39,419106000000,base_link,-0.06162723260512241,-0.061473404292106834,0.7027013422781917,0.7061401619555434,0.0,0.0,0.0,0.0,0.0,0.0,0.0,0.0,0.0,0.001420149880142602,0.0014614038198973406,0.0015661786643505577,0.0,0.0,0.0,0.0,0.0,0.0,0.0,0.0,0.0,0.42437776540428057,-2.4063904393605466,9.807592724637422,0.0,0.0,0.0,0.0,0.0,0.0,0.0,0.0,0.0
419108000000,40,419107000000,base_link,-0.06162709585748883,-0.06147478577158212,0.7027010917006421,0.7061403029803891,0.0,0.0,0.0,0.0,0.0,0.0,0.0,0.0,0.0,-0.0017617738244287342,-0.0020950444338558574,-0.0007391704716530028,0.0,0.0,0.0,0.0,0.0,0.0,0.0,0.0,0.0,-0.41751833413929323,-0.9942075384043114,9.495180339535295,0.0,0.0,0.0,0.0,0.0,0.0,0.0,0.0,0.0
419109000000,41,419108000000,base_link,-0.0616271570026656,-0.06147372053193158,0.7027016328008198,0.7061398519151802,0.0,0.0,0.0,0.0,0.0,0.0,0.0,0.0,0.0,0.0014216228050945646,0.0014681726286938854,0.0015369112231173846,0.0,0.0,0.0,0.0,0.0,0.0,0.0,0.0,0.0,0.422803223022806,-2.407068390151503,9.807360421974685,0.0,0.0,0.0,0.0,0.0,0.0,0.0,0.0,0.0
419112000000,42,419109000000,base_link,-0.0616270186640847,-0.06147510442060905,0.7027013658700557,0.7061400091422452,0.0,0.0,0.0,0.0,0.0,0.0,0.0,0.0,0.0,-0.0017629275152102326,-0.0020966743851077046,-0.0007855287875956269,0.0,0.0,0.0,0.0,0.0,0.0,0.0,0.0,0.0,-0.4162689420893827,-0.9933960157201336,9.49544555808257,0.0,0.0,0.0,0.0,0.0,0.0,0.0,0.0,0.0
419112000000,43,419110000000,base_link,-0.06162708064551998,-0.061474037349902984,0.702701897636885,0.7061395674514596,0.0,0.0,0.0,0.0,0.0,0.0,0.0,0.0,0.0,0.0014230238303891733,0.0014742404725448727,0.001510872839641336,0.0,0.0,0.0,0.0,0.0,0.0,0.0,0.0,0.0,0.4213788183091106,-2.407695296777075,9.807165887664887,0.0,0.0,0.0,0.0,0.0,0.0,0.0,0.0,0.0
419112000000,44,419111000000,base_link,-0.061626940875314604,-0.06147542361202403,0.7027016160411355,0.7061397391899493,0.0,0.0,0.0,0.0,0.0,0.0,0.0,0.0,0.0,-0.0017642568882550432,-0.0020984460834323443,-0.000827102837172388,0.0,0.0,0.0,0.0,0.0,0.0,0.0,0.0,0.0,-0.41511310597664464,-0.9926464411510085,9.495660017759649,0.0,0.0,0.0,0.0,0.0,0.0,0.0,0.0,0.0
419113000000,45,419112000000,base_link,-0.06162700359608199,-0.061474354750396414,0.7027021395327132,0.7061393058256553,0.0,0.0,0.0,0.0,0.0,0.0,0.0,0.0,0.0,0.0014245059252324106,0.0014798571193683518,0.001487779443170896,0.0,0.0,0.0,0.0,0.0,0.0,0.0,0.0,0.0,0.4201147592825845,-2.4082797427534492,9.807001170785663,0.0,0.0,0.0,0.0,0.0,0.0,0.0,0.0,0.0
419114000000,46,419113000000,base_link,-0.06162700359608199,-0.061474354750396414,0.7027021395327132,0.7061393058256553,0.0,0.0,0.0,0.0,0.0,0.0,0.0,0.0,0.0,0.0014245059252324106,0.0014798571193683518,0.001487779443170896,0.0,0.0,0.0,0.0,0.0,0.0,0.0,0.0,0.0,0.4201147592825845,-2.4082797427534492,9.807001170785663,0.0,0.0,0.0,0.0,0.0,0.0,0.0,0.0,0.0
419116000000,47,419115000000,base_link,-0.06162678374572658,-0.06147606331041815,0.7027020544434249,0.7061392609436192,0.0,0.0,0.0,0.0,0.0,0.0,0.0,0.0,0.0,-0.0017669793068285642,-0.0021018901914233975,-0.000897699543548308,0.0,0.0,0.0,0.0,0.0,0.0,0.0,0.0,0.0,-0.4130688161676783,-0.9913316951103449,9.495995309796216,0.0,0.0,0.0,0.0,0.0,0.0,0.0,0.0,0.0
419117000000,48,419116000000,base_link,-0.06162684771651655,-0.06147499120301241,0.7027025639898857,0.7061388416304228,0.0,0.0,0.0,0.0,0.0,0.0,0.0,0.0,0.0,0.0014273234181538291,0.0014896479789030703,0.0014488985308168407,0.0,0.0,0.0,0.0,0.0,0.0,0.0,0.0,0.0,0.41795799227462677,-2.4092875985643616,9.806731742962787,0.0,0.0,0.0,0.0,0.0,0.0,0.0,0.0,0.0
419118000000,49,419117000000,base_link,-0.06162684771651655,-0.06147499120301241,0.7027025639898857,0.7061388416304228,0.0,0.0,0.0,0.0,0.0,0.0,0.0,0.0,0.0,0.0014273234181538291,0.0014896479789030703,0.0014488985308168407,0.0,0.0,0.0,0.0,0.0,0.0,0.0,0.0,0.0,0.41795799227462677,-2.4092875985643616,9.806731742962787,0.0,0.0,0.0,0.0,0.0,0.0,0.0,0.0,0.0
419120000000,50,419119000000,base_link,-0.06162662491464609,-0.06147670454302384,0.7027024242169526,0.7061388510057902,0.0,0.0,0.0,0.0,0.0,0.0,0.0,0.0,0.0,-0.0017695411215304716,-0.002104931253265103,-0.0009543576613775961,0.0,0.0,0.0,0.0,0.0,0.0,0.0,0.0,0.0,-0.4113915018647184,-0.9902384266896413,9.496240416967197,0.0,0.0,0.0,0.0,0.0,0.0,0.0,0.0,0.0
419121000000,51,419120000000,base_link,-0.06162668989067431,-0.06147562961551212,0.7027029228710676,0.7061384426902091,0.0,0.0,0.0,0.0,0.0,0.0,0.0,0.0,0.0,0.001429881998529149,0.0014977260281496068,0.001418538682738537,0.0,0.0,0.0,0.0,0.0,0.0,0.0,0.0,0.0,0.41626689364503683,-2.4101082896900916,9.806526298427837,0.0,0.0,0.0,0.0,0.0,0.0,0.0,0.0,0.0
419122000000,52,419121000000,base_link,-0.06162668989067431,-0.06147562961551212,0.7027029228710676,0.7061384426902091,0.0,0.0,0.0,0.0,0.0,0.0,0.0,0.0,0.0,0.001429881998529149,0.0014977260281496068,0.001418538682738537,0.0,0.0,0.0,0.0,0.0,0.0,0.0,0.0,0.0,0.41626689364503683,-2.4101082896900916,9.806526298427837,0.0,0.0,0.0,0.0,0.0,0.0,0.0,0.0,0.0
419124000000,53,419123000000,base_link,-0.061626464830097656,-0.06147734677059336,0.7027027394634541,0.7061384953514077,0.0,0.0,0.0,0.0,0.0,0.0,0.0,0.0,0.0,-0.0017718154169426151,-0.0021074740298207832,-0.0009998212427973292,0.0,0.0,0.0,0.0,0.0,0.0,0.0,0.0,0.0,-0.41004379597646906,-0.989341789503287,9.496439133547435,0.0,0.0,0.0,0.0,0.0,0.0,0.0,0.0,0.0
419125000000,54,419124000000,base_link,-0.061626530701467806,-0.06147626929459847,0.7027032295514508,0.7061380957045725,0.0,0.0,0.0,0.0,0.0,0.0,0.0,0.0,0.0,0.0014322150575332231,0.001504703899595911,0.0013946796801763126,0.0,0.0,0.0,0.0,0.0,0.0,0.0,0.0,0.0,0.41484554017923586,-2.4107762368562473,9.806346611495528,0.0,0.0,0.0,0.0,0.0,0.0,0.0,0.0,0.0
419126000000,55,419125000000,base_link,-0.06162638447950753,-0.061477668047522735,0.7027028802500211,0.7061383342913393,0.0,0.0,0.0,0.0,0.0,0.0,0.0,0.0,0.0,-0.0017727910318769084,-0.0021085859735670348,-0.0010190028464148399,0.0,0.0,0.0,0.0,0.0,0.0,0.0,0.0,0.0,-0.40947015828697225,-0.9889604748848088,9.496533247513094,0.0,0.0,0.0,0.0,0.0,0.0,0.0,0.0,0.0
419127000000,56,419126000000,base_link,-0.06162645078077595,-0.06147658936398818,0.7027033668381161,0.7061379381953024,0.0,0.0,0.0,0.0,0.0,0.0,0.0,0.0,0.0,0.0014333128895202734,0.0015078812314454982,0.001384947808419521,0.0,0.0,0.0,0.0,0.0,0.0,0.0,0.0,0.0,0.41420668968635954,-2.4110613125210696,9.806265787796063,0.0,0.0,0.0,0.0,0.0,0.0,0.0,0.0,0.0
419128000000,57,419127000000,base_link,-0.0616263039857599,-0.06147798938248462,0.7027030114694359,0.7061381827591026,0.0,0.0,0.0,0.0,0.0,0.0,0.0,0.0,0.0,-0.0017737703539696882,-0.002109695490414721,-0.00103619790885045,0.0,0.0,0.0,0.0,0.0,0.0,0.0,0.0,0.0,-0.40895184695352166,-0.9886169247309213,9.49662447282241,0.0,0.0,0.0,0.0,0.0,0.0,0.0,0.0,0.0
419129000000,58,419128000000,base_link,-0.06162637066811334,-0.061476909551536625,0.702703494947236,0.7061377898251929,0.0,0.0,0.0,0.0,0.0,0.0,0.0,0.0,0.0,0.0014343946205385128,0.001510808356199857,0.0013762974991104898,0.0,0.0,0.0,0.0,0.0,0.0,0.0,0.0,0.0,0.41363659139511233,-2.4113279699461345,9.806192974680016,0.0,0.0,0.0,0.0,0.0,0.0,0.0,0.0,0.0
419130000000,59,419129000000,base_link,-0.061626223350179275,-0.06147831076219997,0.7027031341244289,0.7061380397578968,0.0,0.0,0.0,0.0,0.0,0.0,0.0,0.0,0.0,-0.0017747168541460408,-0.002110781216291873,-0.0010516571618212163,0.0,0.0,0.0,0.0,0.0,0.0,0.0,0.0,0.0,-0.4084828504527039,-0.988304780261511,9.496703474947266,0.0,0.0,0.0,0.0,0.0,0.0,0.0,0.0,0.0
419131000000,60,419130000000,base_link,-0.06162629034986857,-0.06147722986107923,0.7027036148005864,0.7061376496778164,0.0,0.0,0.0,0.0,0.0,0.0,0.0,0.0,0.0,0.0014355175345585837,0.0015134615483660039,0.0013684865655092214,0.0,0.0,0.0,0.0,0.0,0.0,0.0,0.0,0.0,0.4131308232431533,-2.411569152818757,9.80612976880219,0.0,0.0,0.0,0.0,0.0,0.0,0.0,0.0,0.0
419132000000,61,419131000000,base_link,-0.061626142557943506,-0.06147863219602142,0.7027032490601749,0.7061379044471472,0.0,0.0,0.0,0.0,0.0,0.0,0.0,0.0,0.0,-0.0017756366574562276,-0.002111833881865291,-0.0010655962971419322,0.0,0.0,0.0,0.0,0.0,0.0,0.0,0.0,0.0,-0.4080613645406887,-0.988021095909311,9.496770809760413,0.0,0.0,0.0,0.0,0.0,0.0,0.0,0.0,0.0
419133000000,62,419132000000,base_link,-0.061626209806569805,-0.06147755026441044,0.7027037272179104,0.70613751694158,0.0,0.0,0.0,0.0,0.0,0.0,0.0,0.0,0.0,0.001436621871332115,0.0015158927629958922,0.0013614676455451472,0.0,0.0,0.0,0.0,0.0,0.0,0.0,0.0,0.0,0.4126807493245673,-2.4117927288626304,9.80607571235795,0.0,0.0,0.0,0.0,0.0,0.0,0.0,0.0,0.0
419134000000,63,419133000000,base_link,-0.06162606159121798,-0.06147895365172491,0.7027033570499656,0.7061377760616928,0.0,0.0,0.0,0.0,0.0,0.0,0.0,0.0,0.0,-0.0017765264333214133,-0.0021128340970187867,-0.001078145385529975,0.0,0.0,0.0,0.0,0.0,0.0,0.0,0.0,0.0,-0.40768283696676155,-0.9877621473242859,9.496827112610303,0.0,0.0,0.0,0.0,0.0,0.0,0.0,0.0,0.0
419135000000,64,419134000000,base_link,-0.06162612906204571,-0.06147787078649724,0.7027038329374775,0.7061373908775577,0.0,0.0,0.0,0.0,0.0,0.0,0.0,0.0,0.0,0.001437627882026481,0.0015180894459594506,0.0013551417816818883,0.0,0.0,0.0,0.0,0.0,0.0,0.0,0.0,0.0,0.41227981115738116,-2.412001019850697,9.806033530403152,0.0,0.0,0.0,0.0,0.0,0.0,0.0,0.0,0.0
419136000000,65,419135000000,base_link,-0.061625980470130494,-0.06147927515949731,0.7027034587819676,0.7061376539123356,0.0,0.0,0.0,0.0,0.0,0.0,0.0,0.0,0.0,-0.0017773883352437407,-0.0021137821541755922,-0.0010894462524794295,0.0,0.0,0.0,0.0,0.0,0.0,0.0,0.0,0.0,-0.40734572829611226,-0.9875240454057146,9.49687045474642,0.0,0.0,0.0,0.0,0.0,0.0,0.0,0.0,0.0
419137000000,66,419136000000,base_link,-0.061626048131932766,-0.06147819144695938,0.7027039326128759,0.7061372708322728,0.0,0.0,0.0,0.0,0.0,0.0,0.0,0.0,0.0,0.0014385555943957015,0.0015200661712430551,0.0013494072976053765,0.0,0.0,0.0,0.0,0.0,0.0,0.0,0.0,0.0,0.4119249713159045,-2.41219926676089,9.806005617977672,0.0,0.0,0.0,0.0,0.0,0.0,0.0,0.0,0.0
419138000000,67,419137000000,base_link,-0.061626048131932766,-0.06147819144695938,0.7027039326128759,0.7061372708322728,0.0,0.0,0.0,0.0,0.0,0.0,0.0,0.0,0.0,0.0014385555943957015,0.0015200661712430551,0.0013494072976053765,0.0,0.0,0.0,0.0,0.0,0.0,0.0,0.0,0.0,0.4119249713159045,-2.41219926676089,9.806005617977672,0.0,0.0,0.0,0.0,0.0,0.0,0.0,0.0,0.0
419140000000,68,419139000000,base_link,-0.06162581782023706,-0.06147991833497333,0.702703645893303,0.7061374259078552,0.0,0.0,0.0,0.0,0.0,0.0,0.0,0.0,0.0,-0.0017789728319428464,-0.0021154744663084493,-0.0011087604806940478,0.0,0.0,0.0,0.0,0.0,0.0,0.0,0.0,0.0,-0.4067803674923687,-0.987100922082096,9.496920698821288,0.0,0.0,0.0,0.0,0.0,0.0,0.0,0.0,0.0
419141000000,69,419140000000,base_link,-0.06162588582757421,-0.06147883301488446,0.7027041163096647,0.706137046336296,0.0,0.0,0.0,0.0,0.0,0.0,0.0,0.0,0.0,0.0014403428628430403,0.001523669963316823,0.001339909162259008,0.0,0.0,0.0,0.0,0.0,0.0,0.0,0.0,0.0,0.41131607827403505,-2.4125480385770928,9.805959867275808,0.0,0.0,0.0,0.0,0.0,0.0,0.0,0.0,0.0
419142000000,70,419141000000,base_link,-0.06162588582757421,-0.06147883301488446,0.7027041163096647,0.706137046336296,0.0,0.0,0.0,0.0,0.0,0.0,0.0,0.0,0.0,0.0014403428628430403,0.001523669963316823,0.001339909162259008,0.0,0.0,0.0,0.0,0.0,0.0,0.0,0.0,0.0,0.41131607827403505,-2.4125480385770928,9.805959867275808,0.0,0.0,0.0,0.0,0.0,0.0,0.0,0.0,0.0
419143000000,71,419143000000,base_link,-0.06162580450098275,-0.061479153845325936,0.7027042014476134,0.7061369407770292,0.0,0.0,0.0,0.0,0.0,0.0,0.0,0.0,0.0,0.0014411835855483082,0.0015252949402513151,0.001335946007022565,0.0,0.0,0.0,0.0,0.0,0.0,0.0,0.0,0.0,0.41106042695134987,-2.412701303809412,9.805943467224244,0.0,0.0,0.0,0.0,0.0,0.0,0.0,0.0,0.0
419145000000,72,419144000000,base_link,-0.0616257230739996,-0.061479474696100656,0.7027042827081698,0.7061368390831164,0.0,0.0,0.0,0.0,0.0,0.0,0.0,0.0,0.0,0.0014419923385664939,0.001526809279954325,0.001332388276740298,0.0,0.0,0.0,0.0,0.0,0.0,0.0,0.0,0.0,0.4108354617576794,-2.412845149371464,9.805931491862106,0.0,0.0,0.0,0.0,0.0,0.0,0.0,0.0,0.0
419146000000,73,419145000000,base_link,-0.06162557313626795,-0.061480883004506305,0.7027038939083161,0.7061371164630159,0.0,0.0,0.0,0.0,0.0,0.0,0.0,0.0,0.0,-0.0017810540590991206,-0.002117660775844581,-0.0011309385793999839,0.0,0.0,0.0,0.0,0.0,0.0,0.0,0.0,0.0,-0.40613524067671014,-0.9865845741860528,9.496971797201363,0.0,0.0,0.0,0.0,0.0,0.0,0.0,0.0,0.0
419147000000,74,419146000000,base_link,-0.061625641557269885,-0.061479795556338035,0.7027043604777625,0.7061367408700279,0.0,0.0,0.0,0.0,0.0,0.0,0.0,0.0,0.0,0.0014427670117975106,0.0015282178959219797,0.0013291945917431977,0.0,0.0,0.0,0.0,0.0,0.0,0.0,0.0,0.0,0.4106369256233151,-2.412979068115369,9.805923259414667,0.0,0.0,0.0,0.0,0.0,0.0,0.0,0.0,0.0
419147000000,75,419147000000,base_link,-0.061625491427969276,-0.06148120450173581,0.7027039695641999,0.7061370203140414,0.0,0.0,0.0,0.0,0.0,0.0,0.0,0.0,0.0,-0.0017816847778949793,-0.002118314918198824,-0.0011369265202314635,0.0,0.0,0.0,0.0,0.0,0.0,0.0,0.0,0.0,-0.4059675235002068,-0.9864381630374,9.496979912122166,0.0,0.0,0.0,0.0,0.0,0.0,0.0,0.0,0.0
419147000000,76,419148000000,base_link,-0.06162555995993436,-0.06148011641266535,0.7027044351056879,0.7061366457905337,0.0,0.0,0.0,0.0,0.0,0.0,0.0,0.0,0.0,0.00144351655951041,0.0015295365040293046,0.0013263314318560804,0.0,0.0,0.0,0.0,0.0,0.0,0.0,0.0,0.0,0.41046245015450716,-2.413104694021384,9.805918520959606,0.0,0.0,0.0,0.0,0.0,0.0,0.0,0.0,0.0
419150000000,77,419149000000,base_link,-0.061625409658588134,-0.061481525952836284,0.7027040422867072,0.7061369270933532,0.0,0.0,0.0,0.0,0.0,0.0,0.0,0.0,0.0,-0.001782283421596782,-0.002118932920482807,-0.0011423241528518758,0.0,0.0,0.0,0.0,0.0,0.0,0.0,0.0,0.0,-0.4058197090213961,-0.9863025792302139,9.496984350123231,0.0,0.0,0.0,0.0,0.0,0.0,0.0,0.0,0.0
419151000000,78,419150000000,base_link,-0.061625478290076474,-0.061480437251960576,0.7027045069069727,0.7061365535315782,0.0,0.0,0.0,0.0,0.0,0.0,0.0,0.0,0.0,0.0014442412352498812,0.0015307715650011097,0.0013237655004033895,0.0,0.0,0.0,0.0,0.0,0.0,0.0,0.0,0.0,0.4103092859564874,-2.413222193771916,9.805916788523623,0.0,0.0,0.0,0.0,0.0,0.0,0.0,0.0,0.0
419151000000,79,419151000000,base_link,-0.061625478290076474,-0.061480437251960576,0.7027045069069727,0.7061365535315782,0.0,0.0,0.0,0.0,0.0,0.0,0.0,0.0,0.0,0.0014442412352498812,0.0015307715650011097,0.0013237655004033895,0.0,0.0,0.0,0.0,0.0,0.0,0.0,0.0,0.0,0.4103092859564874,-2.413222193771916,9.805916788523623,0.0,0.0,0.0,0.0,0.0,0.0,0.0,0.0,0.0
419151000000,80,419152000000,base_link,-0.061625396554703935,-0.06148075806129394,0.7027045761655742,0.7061364638110998,0.0,0.0,0.0,0.0,0.0,0.0,0.0,0.0,0.0,0.0014449457902128324,0.0015319333365454047,0.0013214677373465326,0.0,0.0,0.0,0.0,0.0,0.0,0.0,0.0,0.0,0.410175526553587,-2.413332677633293,9.805917846349676,0.0,0.0,0.0,0.0,0.0,0.0,0.0,0.0,0.0
419154000000,81,419153000000,base_link,-0.061625245959736084,-0.061482168680936165,0.7027041800801567,0.7061367482949501,0.0,0.0,0.0,0.0,0.0,0.0,0.0,0.0,0.0,-0.0017833964654857405,-0.0021200756309629363,-0.001151576692308441,0.0,0.0,0.0,0.0,0.0,0.0,0.0,0.0,0.0,-0.4055763268185133,-0.9860595251444362,9.496984145347625,0.0,0.0,0.0,0.0,0.0,0.0,0.0,0.0,0.0
419155000000,82,419154000000,base_link,-0.06162531476003686,-0.061481078828770686,0.7027046431371358,0.7061363763751928,0.0,0.0,0.0,0.0,0.0,0.0,0.0,0.0,0.0,0.0014456313356270342,0.0015330281169291873,0.0013194109368289604,0.0,0.0,0.0,0.0,0.0,0.0,0.0,0.0,0.0,0.41005916434616707,-2.4134365921927987,9.805921365730079,0.0,0.0,0.0,0.0,0.0,0.0,0.0,0.0,0.0
419156000000,83,419155000000,base_link,-0.061625164040095534,-0.06148248993965447,0.7027042456552688,0.7061366622162534,0.0,0.0,0.0,0.0,0.0,0.0,0.0,0.0,0.0,-0.001783915308938915,-0.0021206056854963626,-0.0011555320297893848,0.0,0.0,0.0,0.0,0.0,0.0,0.0,0.0,0.0,-0.4054773265654463,-0.9859502099954868,9.49698006617507,0.0,0.0,0.0,0.0,0.0,0.0,0.0,0.0,0.0
419157000000,84,419156000000,base_link,-0.061625164040095534,-0.06148248993965447,0.7027042456552688,0.7061366622162534,0.0,0.0,0.0,0.0,0.0,0.0,0.0,0.0,0.0,-0.001783915308938915,-0.0021206056854963626,-0.0011555320297893848,0.0,0.0,0.0,0.0,0.0,0.0,0.0,0.0,0.0,-0.4054773265654463,-0.9859502099954868,9.49698006617507,0.0,0.0,0.0,0.0,0.0,0.0,0.0,0.0,0.0
419159000000,85,419158000000,base_link,-0.06162515101414932,-0.0614817201948424,0.7027047711166338,0.7061362074658725,0.0,0.0,0.0,0.0,0.0,0.0,0.0,0.0,0.0,0.0014469552935859576,0.0015350447751754416,0.0013159261655223092,0.0,0.0,0.0,0.0,0.0,0.0,0.0,0.0,0.0,0.409872266880721,-2.413627569265487,9.805934945618242,0.0,0.0,0.0,0.0,0.0,0.0,0.0,0.0,0.0
419160000000,86,419159000000,base_link,-0.06162500010352781,-0.061483132329949425,0.7027043711960179,0.7061364956601146,0.0,0.0,0.0,0.0,0.0,0.0,0.0,0.0,0.0,-0.0017850963227226825,-0.002121729534693681,-0.0011624327193361268,0.0,0.0,0.0,0.0,0.0,0.0,0.0,0.0,0.0,-0.4053518892636379,-0.9857522498045524,9.496963285431725,0.0,0.0,0.0,0.0,0.0,0.0,0.0,0.0,0.0
419161000000,87,419160000000,base_link,-0.06162506908962315,-0.061482040802196124,0.7027048324696008,0.7061361256460164,0.0,0.0,0.0,0.0,0.0,0.0,0.0,0.0,0.0,0.0014477399843424756,0.0015361080649360563,0.001314441072510895,0.0,0.0,0.0,0.0,0.0,0.0,0.0,0.0,0.0,0.4098217770642234,-2.413738654213194,9.805955329399469,0.0,0.0,0.0,0.0,0.0,0.0,0.0,0.0,0.0
419162000000,88,419161000000,base_link,-0.0616255825794984,-0.061502554391662884,0.7027021460825532,0.7061369677803394,0.0,0.0,0.0,0.0,0.0,0.0,0.0,0.0,0.0,-0.029782527417563775,-0.027815279805409522,-0.007439623912447407,0.0,0.0,0.0,0.0,0.0,0.0,0.0,0.0,0.0,-1.81434331544161,-4.208051503639243,8.743484332625634,0.0,0.0,0.0,0.0,0.0,0.0,0.0,0.0,0.0
419163000000,89,419162000000,base_link,-0.0616255825794984,-0.061502554391662884,0.7027021460825532,0.7061369677803394,0.0,0.0,0.0,0.0,0.0,0.0,0.0,0.0,0.0,-0.029782527417563775,-0.027815279805409522,-0.007439623912447407,0.0,0.0,0.0,0.0,0.0,0.0,0.0,0.0,0.0,-1.81434331544161,-4.208051503639243,8.743484332625634,0.0,0.0,0.0,0.0,0.0,0.0,0.0,0.0,0.0
419165000000,90,419164000000,base_link,-0.06166926452775656,-0.06150274812442081,0.7027086853462966,0.7061266298084427,0.0,0.0,0.0,0.0,0.0,0.0,0.0,0.0,0.0,-0.03705029739495973,-0.00327799370612801,0.020527583787447484,0.0,0.0,0.0,0.0,0.0,0.0,0.0,0.0,0.0,-0.13972215145548972,-20.248071144824557,26.332804325481817,0.0,0.0,0.0,0.0,0.0,0.0,0.0,0.0,0.0
419165000000,91,419165000000,base_link,-0.06169092380683905,-0.06154803403248299,0.7027028796429543,0.7061265696517125,0.0,0.0,0.0,0.0,0.0,0.0,0.0,0.0,0.0,-0.09491398165181286,-0.032796420341764713,-0.011013530002775997,0.0,0.0,0.0,0.0,0.0,0.0,0.0,0.0,0.0,-1.902231689850865,-5.379498707830537,5.1367803293428995,0.0,0.0,0.0,0.0,0.0,0.0,0.0,0.0,0.0
419167000000,92,419166000000,base_link,-0.06169092380683905,-0.06154803403248299,0.7027028796429543,0.7061265696517125,0.0,0.0,0.0,0.0,0.0,0.0,0.0,0.0,0.0,-0.09491398165181286,-0.032796420341764713,-0.011013530002775997,0.0,0.0,0.0,0.0,0.0,0.0,0.0,0.0,0.0,-1.902231689850865,-5.379498707830537,5.1367803293428995,0.0,0.0,0.0,0.0,0.0,0.0,0.0,0.0,0.0
419168000000,93,419167000000,base_link,-0.06175748728300996,-0.06157332620985816,0.702712160461704,0.7061093100952484,0.0,0.0,0.0,0.0,0.0,0.0,0.0,0.0,0.0,-0.06464188863624004,-0.019291350478137646,-0.007272944730105299,0.0,0.0,0.0,0.0,0.0,0.0,0.0,0.0,0.0,-2.3178939345899083,-7.9247774415441885,10.16338921808231,0.0,0.0,0.0,0.0,0.0,0.0,0.0,0.0,0.0
419169000000,94,419168000000,base_link,-0.061805829957336515,-0.06159875035169542,0.7027147438918566,0.706100291782546,0.0,0.0,0.0,0.0,0.0,0.0,0.0,0.0,0.0,-0.10476229895174768,0.030608122798497464,0.019133208728485677,0.0,0.0,0.0,0.0,0.0,0.0,0.0,0.0,0.0,4.280839705525313,-13.516314706154954,16.317500448180187,0.0,0.0,0.0,0.0,0.0,0.0,0.0,0.0,0.0
419170000000,95,419169000000,base_link,-0.06185529852760264,-0.061625354991749724,0.7027177206583868,0.7060906760033612,0.0,0.0,0.0,0.0,0.0,0.0,0.0,0.0,0.0,-0.10807238184780382,0.030400896194910335,0.020523851580498107,0.0,0.0,0.0,0.0,0.0,0.0,0.0,0.0,0.0,0.10114080471779036,-0.1532318186281727,0.06999480772066136,0.0,0.0,0.0,0.0,0.0,0.0,0.0,0.0,0.0
419171000000,96,419170000000,base_link,-0.06185529852760264,-0.061625354991749724,0.7027177206583868,0.7060906760033612,0.0,0.0,0.0,0.0,0.0,0.0,0.0,0.0,0.0,-0.10807238184780382,0.030400896194910335,0.020523851580498107,0.0,0.0,0.0,0.0,0.0,0.0,0.0,0.0,0.0,0.10114080471779036,-0.1532318186281727,0.06999480772066136,0.0,0.0,0.0,0.0,0.0,0.0,0.0,0.0,0.0
419171000000,97,419172000000,base_link,-0.06191175559806954,-0.061672791717532614,0.7027119457650374,0.7060873335216019,0.0,0.0,0.0,0.0,0.0,0.0,0.0,0.0,0.0,-0.08833549922373077,-0.0038484324029350384,-0.012036765399915798,0.0,0.0,0.0,0.0,0.0,0.0,0.0,0.0,0.0,-0.6107977814916641,-7.409347050388679,9.950946980672619,0.0,0.0,0.0,0.0,0.0,0.0,0.0,0.0,0.0
419174000000,98,419173000000,base_link,-0.06194448107782254,-0.06167136121766001,0.7027084022378305,0.7060881148227293,0.0,0.0,0.0,0.0,0.0,0.0,0.0,0.0,0.0,-0.044538533631000396,0.04854813286505048,-0.0018839106139794941,0.0,0.0,0.0,0.0,0.0,0.0,0.0,0.0,0.0,1.6948532069272408,-6.657777980140591,10.459068348953,0.0,0.0,0.0,0.0,0.0,0.0,0.0,0.0,0.0
419176000000,99,419175000000,base_link,-0.0619846485745702,-0.06168018392865812,0.7026890801776854,0.7061030483227305,0.0,0.0,0.0,0.0,0.0,0.0,0.0,0.0,0.0,-0.023350720290438567,0.035924374914463805,-0.019764263985839026,0.0,0.0,0.0,0.0,0.0,0.0,0.0,0.0,0.0,-0.1881116467540076,-5.817785453239945,7.936886625833976,0.0,0.0,0.0,0.0,0.0,0.0,0.0,0.0,0.0
419177000000,100,419177000000,base_link,-0.06201165206109857,-0.06167488701491551,0.702663608587252,0.7061264875980026,0.0,0.0,0.0,0.0,0.0,0.0,0.0,0.0,0.0,0.00030308132618528773,0.007675955734024236,-0.021880191102804716,0.0,0.0,0.0,0.0,0.0,0.0,0.0,0.0,0.0,-1.0204012027563585,-4.767948070675545,6.414658289402433,0.0,0.0,0.0,0.0,0.0,0.0,0.0,0.0,0.0
419180000000,101,419179000000,base_link,-0.06200446079252764,-0.06163296075522944,0.7026440034519598,0.7061502881139219,0.0,0.0,0.0,0.0,0.0,0.0,0.0,0.0,0.0,0.041573956103950996,0.013162419466549733,-0.03429253419828055,0.0,0.0,0.0,0.0,0.0,0.0,0.0,0.0,0.0,-1.4790710616480687,-3.0075210691592744,4.280897829725501,0.0,0.0,0.0,0.0,0.0,0.0,0.0,0.0,0.0
419181000000,102,419180000000,base_link,-0.06200446079252764,-0.06163296075522944,0.7026440034519598,0.7061502881139219,0.0,0.0,0.0,0.0,0.0,0.0,0.0,0.0,0.0,0.041573956103950996,0.013162419466549733,-0.03429253419828055,0.0,0.0,0.0,0.0,0.0,0.0,0.0,0.0,0.0,-1.4790710616480687,-3.0075210691592744,4.280897829725501,0.0,0.0,0.0,0.0,0.0,0.0,0.0,0.0,0.0
419182000000,103,419181000000,base_link,-0.06197005712641523,-0.06157019685617444,0.7026242361242733,0.7061784517313046,0.0,0.0,0.0,0.0,0.0,0.0,0.0,0.0,0.0,0.07199334801605262,0.012746229502638186,-0.03649481255915371,0.0,0.0,0.0,0.0,0.0,0.0,0.0,0.0,0.0,-1.5781690954302747,-2.83537088436326,3.77494484528437,0.0,0.0,0.0,0.0,0.0,0.0,0.0,0.0,0.0
419183000000,104,419182000000,base_link,-0.061948784111480706,-0.06152799944951142,0.7026185116442978,0.7061896916024771,0.0,0.0,0.0,0.0,0.0,0.0,0.0,0.0,0.0,0.09003145185408823,0.03179782237057753,-0.02127167942289236,0.0,0.0,0.0,0.0,0.0,0.0,0.0,0.0,0.0,0.8620530816441258,-7.809658145777119,10.843782457687755,0.0,0.0,0.0,0.0,0.0,0.0,0.0,0.0,0.0
419184000000,105,419183000000,base_link,-0.06191638571191231,-0.06149050544568013,0.7026104164737471,0.7062038527103884,0.0,0.0,0.0,0.0,0.0,0.0,0.0,0.0,0.0,0.09920536411022882,0.01017376622006727,-0.03067459184421958,0.0,0.0,0.0,0.0,0.0,0.0,0.0,0.0,0.0,-1.3927667375166288,-2.6469304033387675,3.6492831583063063,0.0,0.0,0.0,0.0,0.0,0.0,0.0,0.0,0.0
419185000000,106,419184000000,base_link,-0.06191638571191231,-0.06149050544568013,0.7026104164737471,0.7062038527103884,0.0,0.0,0.0,0.0,0.0,0.0,0.0,0.0,0.0,0.09920536411022882,0.01017376622006727,-0.03067459184421958,0.0,0.0,0.0,0.0,0.0,0.0,0.0,0.0,0.0,-1.3927667375166288,-2.6469304033387675,3.6492831583063063,0.0,0.0,0.0,0.0,0.0,0.0,0.0,0.0,0.0
419187000000,107,419186000000,base_link,-0.06178902025227453,-0.06131320228645345,0.7025833055099534,0.7062573943119831,0.0,0.0,0.0,0.0,0.0,0.0,0.0,0.0,0.0,0.15250650165206422,0.005485663210610406,-0.043497283108382655,0.0,0.0,0.0,0.0,0.0,0.0,0.0,0.0,0.0,-1.5353020305582596,-2.5635593061747475,3.8125294351046826,0.0,0.0,0.0,0.0,0.0,0.0,0.0,0.0,0.0
419188000000,108,419187000000,base_link,-0.06173931168561819,-0.061236206401830924,0.7025731733620622,0.7062785006568302,0.0,0.0,0.0,0.0,0.0,0.0,0.0,0.0,0.0,0.17978033314728853,0.042754107778164005,-0.04054523390712439,0.0,0.0,0.0,0.0,0.0,0.0,0.0,0.0,0.0,0.9241137560840633,-7.2921446682413205,10.50716174690439,0.0,0.0,0.0,0.0,0.0,0.0,0.0,0.0,0.0
419189000000,109,419188000000,base_link,-0.06167527553089411,-0.06116461950290574,0.7025603175214472,0.706303086467429,0.0,0.0,0.0,0.0,0.0,0.0,0.0,0.0,0.0,0.1925064283713101,0.015738741770607204,-0.05170948792656051,0.0,0.0,0.0,0.0,0.0,0.0,0.0,0.0,0.0,-1.4524821884224948,-3.0169065158350827,4.233652148543021,0.0,0.0,0.0,0.0,0.0,0.0,0.0,0.0,0.0
419190000000,110,419189000000,base_link,-0.06167527553089411,-0.06116461950290574,0.7025603175214472,0.706303086467429,0.0,0.0,0.0,0.0,0.0,0.0,0.0,0.0,0.0,0.1925064283713101,0.015738741770607204,-0.05170948792656051,0.0,0.0,0.0,0.0,0.0,0.0,0.0,0.0,0.0,-1.4524821884224948,-3.0169065158350827,4.233652148543021,0.0,0.0,0.0,0.0,0.0,0.0,0.0,0.0,0.0
419192000000,111,419191000000,base_link,-0.06166907332128826,-0.06101223669865758,0.7025561603478332,0.706320942579243,0.0,0.0,0.0,0.0,0.0,0.0,0.0,0.0,0.0,0.019128461417278204,0.04264021993041764,0.016431753358185548,0.0,0.0,0.0,0.0,0.0,0.0,0.0,0.0,0.0,0.21746815003082154,0.3207184326031771,0.027858949849481007,0.0,0.0,0.0,0.0,0.0,0.0,0.0,0.0,0.0
419193000000,112,419192000000,base_link,-0.06165609945511712,-0.06102217578970973,0.7025663032364652,0.7063111276332249,0.0,0.0,0.0,0.0,0.0,0.0,0.0,0.0,0.0,0.004389002684680126,-0.03471946259108304,0.025309742391373888,0.0,0.0,0.0,0.0,0.0,0.0,0.0,0.0,0.0,-2.6086187956022675,1.483598388143036,9.689754106022507,0.0,0.0,0.0,0.0,0.0,0.0,0.0,0.0,0.0
419194000000,113,419193000000,base_link,-0.06168862671124856,-0.06103000937448008,0.7025656112854077,0.7063082989243384,0.0,0.0,0.0,0.0,0.0,0.0,0.0,0.0,0.0,-0.05739030824315762,0.0343787372544329,0.006001818769156198,0.0,0.0,0.0,0.0,0.0,0.0,0.0,0.0,0.0,1.530433864359255,3.7579393364767357,7.652917825012884,0.0,0.0,0.0,0.0,0.0,0.0,0.0,0.0,0.0
419195000000,114,419194000000,base_link,-0.06164276825819781,-0.061017472516039846,0.7025692188835994,0.7063097973598481,0.0,0.0,0.0,0.0,0.0,0.0,0.0,0.0,0.0,0.06231680352536077,-0.033583834110854235,0.0007545985982998815,0.0,0.0,0.0,0.0,0.0,0.0,0.0,0.0,0.0,-1.7125144071901282,-2.7719306697194437,7.835079648627001,0.0,0.0,0.0,0.0,0.0,0.0,0.0,0.0,0.0
419196000000,115,419195000000,base_link,-0.06164276825819781,-0.061017472516039846,0.7025692188835994,0.7063097973598481,0.0,0.0,0.0,0.0,0.0,0.0,0.0,0.0,0.0,0.06231680352536077,-0.033583834110854235,0.0007545985982998815,0.0,0.0,0.0,0.0,0.0,0.0,0.0,0.0,0.0,-1.7125144071901282,-2.7719306697194437,7.835079648627001,0.0,0.0,0.0,0.0,0.0,0.0,0.0,0.0,0.0
419198000000,116,419197000000,base_link,-0.06165275714989319,-0.06099980195853885,0.7025671777138768,0.7063124821890047,0.0,0.0,0.0,0.0,0.0,0.0,0.0,0.0,0.0,0.05865663159174434,-0.026037697533665808,-0.007141348593834577,0.0,0.0,0.0,0.0,0.0,0.0,0.0,0.0,0.0,-1.5172164773238057,-2.8232447221960717,6.006032695725968,0.0,0.0,0.0,0.0,0.0,0.0,0.0,0.0,0.0
419199000000,117,419198000000,base_link,-0.06165275714989319,-0.06099980195853885,0.7025671777138768,0.7063124821890047,0.0,0.0,0.0,0.0,0.0,0.0,0.0,0.0,0.0,0.05865663159174434,-0.026037697533665808,-0.007141348593834577,0.0,0.0,0.0,0.0,0.0,0.0,0.0,0.0,0.0,-1.5172164773238057,-2.8232447221960717,6.006032695725968,0.0,0.0,0.0,0.0,0.0,0.0,0.0,0.0,0.0
419201000000,118,419200000000,base_link,-0.06166481733431395,-0.060963060414904034,0.7025552325523288,0.7063264831374495,0.0,0.0,0.0,0.0,0.0,0.0,0.0,0.0,0.0,0.06382001332233199,-0.0013348327802573598,-0.016122666484399893,0.0,0.0,0.0,0.0,0.0,0.0,0.0,0.0,0.0,-1.3611008289446327,-2.7022376365882463,5.25799456052655,0.0,0.0,0.0,0.0,0.0,0.0,0.0,0.0,0.0
419202000000,119,419201000000,base_link,-0.06168633053857067,-0.060956315941515966,0.7025496499119843,0.7063307395123565,0.0,0.0,0.0,0.0,0.0,0.0,0.0,0.0,0.0,-0.0030519234568232266,0.03966899917262179,-0.0025360733524516857,0.0,0.0,0.0,0.0,0.0,0.0,0.0,0.0,0.0,2.5584675292780426,-0.5648425395390884,20.496391306359044,0.0,0.0,0.0,0.0,0.0,0.0,0.0,0.0,0.0
419203000000,120,419202000000,base_link,-0.06169876824429115,-0.06093648925691636,0.7025479413324659,0.7063330633657842,0.0,0.0,0.0,0.0,0.0,0.0,0.0,0.0,0.0,0.010379764239707677,0.04606398638250592,-0.0016633765457438868,0.0,0.0,0.0,0.0,0.0,0.0,0.0,0.0,0.0,1.2070236257735258,-1.262079988098705,2.155922560002516,0.0,0.0,0.0,0.0,0.0,0.0,0.0,0.0,0.0
419203000000,121,419203000000,base_link,-0.06168156457734204,-0.06093554226165319,0.702540923003017,0.7063416282413478,0.0,0.0,0.0,0.0,0.0,0.0,0.0,0.0,0.0,0.025834982711567617,-0.020926397489133608,-0.02392757049535642,0.0,0.0,0.0,0.0,0.0,0.0,0.0,0.0,0.0,-4.49582368916891,-2.8368210977491675,11.411455020435191,0.0,0.0,0.0,0.0,0.0,0.0,0.0,0.0,0.0
419205000000,122,419204000000,base_link,-0.06168156457734204,-0.06093554226165319,0.702540923003017,0.7063416282413478,0.0,0.0,0.0,0.0,0.0,0.0,0.0,0.0,0.0,0.025834982711567617,-0.020926397489133608,-0.02392757049535642,0.0,0.0,0.0,0.0,0.0,0.0,0.0,0.0,0.0,-4.49582368916891,-2.8368210977491675,11.411455020435191,0.0,0.0,0.0,0.0,0.0,0.0,0.0,0.0,0.0
419206000000,123,419205000000,base_link,-0.0616963923934312,-0.06090765078900417,0.7025370284291212,0.7063466124552311,0.0,0.0,0.0,0.0,0.0,0.0,0.0,0.0,0.0,0.012637845571838868,0.0009577459628903138,-0.0024515054116845954,0.0,0.0,0.0,0.0,0.0,0.0,0.0,0.0,0.0,-2.2432443735425647,-2.0413052679631454,11.96422381139825,0.0,0.0,0.0,0.0,0.0,0.0,0.0,0.0,0.0
419207000000,124,419206000000,base_link,-0.06170826286137529,-0.06090949493732154,0.7025363303904919,0.7063461107718889,0.0,0.0,0.0,0.0,0.0,0.0,0.0,0.0,0.0,-0.019507436610311065,0.014100137292910127,0.0009359962526937068,0.0,0.0,0.0,0.0,0.0,0.0,0.0,0.0,0.0,0.11171333639834641,0.7999693671043966,2.495097435437012,0.0,0.0,0.0,0.0,0.0,0.0,0.0,0.0,0.0
419208000000,125,419207000000,base_link,-0.06170826286137529,-0.06090949493732154,0.7025363303904919,0.7063461107718889,0.0,0.0,0.0,0.0,0.0,0.0,0.0,0.0,0.0,-0.019507436610311065,0.014100137292910127,0.0009359962526937068,0.0,0.0,0.0,0.0,0.0,0.0,0.0,0.0,0.0,0.11171333639834641,0.7999693671043966,2.495097435437012,0.0,0.0,0.0,0.0,0.0,0.0,0.0,0.0,0.0
419210000000,126,419209000000,base_link,-0.061714036212432155,-0.06093970304499533,0.7025414688503626,0.7063378900163387,0.0,0.0,0.0,0.0,0.0,0.0,0.0,0.0,0.0,-0.02340144130222393,0.0016186660211752017,-0.0017512472361965582,0.0,0.0,0.0,0.0,0.0,0.0,0.0,0.0,0.0,-0.2268063179395522,-1.4513677543900814,23.28513327226264,0.0,0.0,0.0,0.0,0.0,0.0,0.0,0.0,0.0
419211000000,127,419210000000,base_link,-0.06172291461631465,-0.060947692593152,0.7025399682078162,0.7063379174654286,0.0,0.0,0.0,0.0,0.0,0.0,0.0,0.0,0.0,-0.023947793360832283,0.0013768195307641857,-0.002062529564211397,0.0,0.0,0.0,0.0,0.0,0.0,0.0,0.0,0.0,0.01707649568623648,-0.028309752418886225,-0.014083628389736091,0.0,0.0,0.0,0.0,0.0,0.0,0.0,0.0,0.0
419212000000,128,419211000000,base_link,-0.06174336494850896,-0.06099407587944506,0.7025380367632555,0.7063340473835864,0.0,0.0,0.0,0.0,0.0,0.0,0.0,0.0,0.0,-0.09477528521475649,-0.03702349482424125,-0.000523837136421788,0.0,0.0,0.0,0.0,0.0,0.0,0.0,0.0,0.0,-1.6720353213820063,2.3449020628449215,5.312672058791177,0.0,0.0,0.0,0.0,0.0,0.0,0.0,0.0,0.0
419213000000,129,419212000000,base_link,-0.06174336494850896,-0.06099407587944506,0.7025380367632555,0.7063340473835864,0.0,0.0,0.0,0.0,0.0,0.0,0.0,0.0,0.0,-0.09477528521475649,-0.03702349482424125,-0.000523837136421788,0.0,0.0,0.0,0.0,0.0,0.0,0.0,0.0,0.0,-1.6720353213820063,2.3449020628449215,5.312672058791177,0.0,0.0,0.0,0.0,0.0,0.0,0.0,0.0,0.0
419215000000,130,419214000000,base_link,-0.06180292895036323,-0.061048491403767384,0.702529956428097,0.706332173974552,0.0,0.0,0.0,0.0,0.0,0.0,0.0,0.0,0.0,-0.110185888188384,-0.030612446191622712,-0.0008720799483889173,0.0,0.0,0.0,0.0,0.0,0.0,0.0,0.0,0.0,-1.3298573684359716,2.1187148004289313,5.221872920623207,0.0,0.0,0.0,0.0,0.0,0.0,0.0,0.0,0.0
419216000000,131,419215000000,base_link,-0.06182460545323534,-0.06104294402093909,0.702527190257518,0.7063335076963895,0.0,0.0,0.0,0.0,0.0,0.0,0.0,0.0,0.0,-0.038871310237912717,0.02378328435278309,-0.002224585679203477,0.0,0.0,0.0,0.0,0.0,0.0,0.0,0.0,0.0,2.117990055295326,-3.1505197950944015,23.58556569130201,0.0,0.0,0.0,0.0,0.0,0.0,0.0,0.0,0.0
419217000000,132,419216000000,base_link,-0.06184716861288748,-0.06105005746207141,0.7025244487500998,0.7063336443401341,0.0,0.0,0.0,0.0,0.0,0.0,0.0,0.0,0.0,-0.042186806515610326,0.022009210162039158,-0.0021897569943689697,0.0,0.0,0.0,0.0,0.0,0.0,0.0,0.0,0.0,0.08687102783717915,-0.10291324340677033,-0.0411426021022443,0.0,0.0,0.0,0.0,0.0,0.0,0.0,0.0,0.0
419218000000,133,419217000000,base_link,-0.06188205120579552,-0.061099511631927395,0.7025215018093591,0.7063292439878346,0.0,0.0,0.0,0.0,0.0,0.0,0.0,0.0,0.0,-0.11966728095020407,-0.02102325236402386,0.00016154353117496783,0.0,0.0,0.0,0.0,0.0,0.0,0.0,0.0,0.0,-1.0409767726688144,1.758498053506199,4.8476145389129695,0.0,0.0,0.0,0.0,0.0,0.0,0.0,0.0,0.0
419219000000,134,419218000000,base_link,-0.06191039036582528,-0.06109362607596919,0.702518747210316,0.7063300094401262,0.0,0.0,0.0,0.0,0.0,0.0,0.0,0.0,0.0,-0.04035687663529651,0.03836548245471167,-0.0016591799790709439,0.0,0.0,0.0,0.0,0.0,0.0,0.0,0.0,0.0,2.5070512593279193,-3.6651995978155867,23.96007558482315,0.0,0.0,0.0,0.0,0.0,0.0,0.0,0.0,0.0
419220000000,135,419219000000,base_link,-0.061939047493614424,-0.06109776424304184,0.7025158409424095,0.7063300296780994,0.0,0.0,0.0,0.0,0.0,0.0,0.0,0.0,0.0,-0.046649661606569116,0.03478084504943066,-0.001144858965965394,0.0,0.0,0.0,0.0,0.0,0.0,0.0,0.0,0.0,0.09151911893542208,-0.09894193151892816,-0.06015207332229622,0.0,0.0,0.0,0.0,0.0,0.0,0.0,0.0,0.0
419221000000,136,419220000000,base_link,-0.06198130209827457,-0.06114833724222056,0.7025126311940523,0.7063251390510772,0.0,0.0,0.0,0.0,0.0,0.0,0.0,0.0,0.0,-0.1317462280117217,-0.012273308075133028,0.0012355362472570028,0.0,0.0,0.0,0.0,0.0,0.0,0.0,0.0,0.0,-0.9205926768555179,1.6693541707860118,5.010768201515393,0.0,0.0,0.0,0.0,0.0,0.0,0.0,0.0,0.0
419222000000,137,419221000000,base_link,-0.06201651584637828,-0.061142905904757266,0.7025097464891739,0.7063253874153997,0.0,0.0,0.0,0.0,0.0,0.0,0.0,0.0,0.0,-0.046687289461835674,0.05003112482585848,-0.001231348266505961,0.0,0.0,0.0,0.0,0.0,0.0,0.0,0.0,0.0,2.779670424336655,-4.009180296033636,23.75557906395094,0.0,0.0,0.0,0.0,0.0,0.0,0.0,0.0,0.0
419223000000,138,419222000000,base_link,-0.06205189116560608,-0.06114580197927323,0.7025065622827708,0.7063251968128611,0.0,0.0,0.0,0.0,0.0,0.0,0.0,0.0,0.0,-0.054455037575341925,0.04598350999319186,-0.0002636806329507803,0.0,0.0,0.0,0.0,0.0,0.0,0.0,0.0,0.0,0.09107427600677154,-0.11982673115708864,-0.07406723357694567,0.0,0.0,0.0,0.0,0.0,0.0,0.0,0.0,0.0
419224000000,139,419223000000,base_link,-0.06210143765116036,-0.061196679408058424,0.7025029614693452,0.7063200174127064,0.0,0.0,0.0,0.0,0.0,0.0,0.0,0.0,0.0,-0.14255856960087535,-0.0024450288094392952,0.0019353907444328222,0.0,0.0,0.0,0.0,0.0,0.0,0.0,0.0,0.0,-0.8352023903542749,1.5751176380163145,5.007249050955403,0.0,0.0,0.0,0.0,0.0,0.0,0.0,0.0,0.0
419225000000,140,419224000000,base_link,-0.0621436862591482,-0.06119095790093215,0.702499778620881,0.706319962882902,0.0,0.0,0.0,0.0,0.0,0.0,0.0,0.0,0.0,-0.051692475126729455,0.06280701234652528,-0.00025171770696834394,0.0,0.0,0.0,0.0,0.0,0.0,0.0,0.0,0.0,2.9076155690389376,-4.224044066616754,23.824948341351558,0.0,0.0,0.0,0.0,0.0,0.0,0.0,0.0,0.0
419226000000,141,419225000000,base_link,-0.06218583533478498,-0.06119211776669919,0.7024962180433674,0.7063196940774815,0.0,0.0,0.0,0.0,0.0,0.0,0.0,0.0,0.0,-0.061640237439869155,0.05799059787019184,0.0003619854996139648,0.0,0.0,0.0,0.0,0.0,0.0,0.0,0.0,0.0,0.10403514555072096,-0.12567235874080018,-0.0960714576063797,0.0,0.0,0.0,0.0,0.0,0.0,0.0,0.0,0.0
419227000000,142,419226000000,base_link,-0.06218583533478498,-0.06119211776669919,0.7024962180433674,0.7063196940774815,0.0,0.0,0.0,0.0,0.0,0.0,0.0,0.0,0.0,-0.061640237439869155,0.05799059787019184,0.0003619854996139648,0.0,0.0,0.0,0.0,0.0,0.0,0.0,0.0,0.0,0.10403514555072096,-0.12567235874080018,-0.0960714576063797,0.0,0.0,0.0,0.0,0.0,0.0,0.0,0.0,0.0
419229000000,143,419228000000,base_link,-0.06234196318613096,-0.061239145653073306,0.7024844414896291,0.7063135678512659,0.0,0.0,0.0,0.0,0.0,0.0,0.0,0.0,0.0,-0.0722439509440053,0.06831619684954807,0.0007728091313913442,0.0,0.0,0.0,0.0,0.0,0.0,0.0,0.0,0.0,0.10071323708192703,-0.12747727440930712,-0.08971470384271107,0.0,0.0,0.0,0.0,0.0,0.0,0.0,0.0,0.0
419230000000,144,419229000000,base_link,-0.06240634756000434,-0.06129017528374738,0.7024797999441882,0.7063080722094861,0.0,0.0,0.0,0.0,0.0,0.0,0.0,0.0,0.0,-0.16390000277921588,0.018277967443105322,0.002687394922506101,0.0,0.0,0.0,0.0,0.0,0.0,0.0,0.0,0.0,-0.7788387308738465,1.5047679250292914,5.061152666456444,0.0,0.0,0.0,0.0,0.0,0.0,0.0,0.0,0.0
419231000000,145,419230000000,base_link,-0.062451545008696825,-0.06128504586996144,0.7024712582479663,0.7063130177295777,0.0,0.0,0.0,0.0,0.0,0.0,0.0,0.0,0.0,-0.05888396822238952,0.03841326403945995,-0.011308060446479551,0.0,0.0,0.0,0.0,0.0,0.0,0.0,0.0,0.0,0.33613595515717765,-8.468200707531079,23.145983352764652,0.0,0.0,0.0,0.0,0.0,0.0,0.0,0.0,0.0
419232000000,146,419231000000,base_link,-0.06248031533116321,-0.061299049250920716,0.70246103194605,0.7063194286966359,0.0,0.0,0.0,0.0,0.0,0.0,0.0,0.0,0.0,-0.060742863315927,0.022716245854426144,-0.021655921395170634,0.0,0.0,0.0,0.0,0.0,0.0,0.0,0.0,0.0,-1.0340774162964634,-2.4069243793547965,2.736983439119199,0.0,0.0,0.0,0.0,0.0,0.0,0.0,0.0,0.0
419233000000,147,419232000000,base_link,-0.06251581753439835,-0.06131716795379508,0.7024548793090936,0.7063208336209394,0.0,0.0,0.0,0.0,0.0,0.0,0.0,0.0,0.0,-0.0761857858778336,0.025223672556702294,-0.00857776139126463,0.0,0.0,0.0,0.0,0.0,0.0,0.0,0.0,0.0,-0.5682244220881435,-4.6394824414347395,12.214829005070685,0.0,0.0,0.0,0.0,0.0,0.0,0.0,0.0,0.0
419234000000,148,419233000000,base_link,-0.06251581753439835,-0.06131716795379508,0.7024548793090936,0.7063208336209394,0.0,0.0,0.0,0.0,0.0,0.0,0.0,0.0,0.0,-0.0761857858778336,0.025223672556702294,-0.00857776139126463,0.0,0.0,0.0,0.0,0.0,0.0,0.0,0.0,0.0,-0.5682244220881435,-4.6394824414347395,12.214829005070685,0.0,0.0,0.0,0.0,0.0,0.0,0.0,0.0,0.0
419236000000,149,419235000000,base_link,-0.06260905055896476,-0.06136391717171476,0.7024455665340924,0.7063177772886975,0.0,0.0,0.0,0.0,0.0,0.0,0.0,0.0,0.0,-0.06883702651271588,0.022033780363501863,-0.0012505338280484823,0.0,0.0,0.0,0.0,0.0,0.0,0.0,0.0,0.0,0.2655736508622608,-2.49362325935052,7.349307822548434,0.0,0.0,0.0,0.0,0.0,0.0,0.0,0.0,0.0
419237000000,150,419236000000,base_link,-0.06255257626132173,-0.061369064172388556,0.7024455937264169,0.7063223067552226,0.0,0.0,0.0,0.0,0.0,0.0,0.0,0.0,0.0,0.04976789256636888,-0.06836784877252758,-0.011783894338566409,0.0,0.0,0.0,0.0,0.0,0.0,0.0,0.0,0.0,-3.5289931216450743,-4.911830668223933,12.00272706715975,0.0,0.0,0.0,0.0,0.0,0.0,0.0,0.0,0.0
419238000000,151,419237000000,base_link,-0.06253553258018733,-0.06140103131870135,0.7024338156547105,0.7063327510052727,0.0,0.0,0.0,0.0,0.0,0.0,0.0,0.0,0.0,-0.02097183695076033,-0.0663467549258253,-0.03740251921187617,0.0,0.0,0.0,0.0,0.0,0.0,0.0,0.0,0.0,-1.5465681446523991,-0.6074748679799591,1.8836448386237343,0.0,0.0,0.0,0.0,0.0,0.0,0.0,0.0,0.0
419239000000,152,419238000000,base_link,-0.06253553258018733,-0.06140103131870135,0.7024338156547105,0.7063327510052727,0.0,0.0,0.0,0.0,0.0,0.0,0.0,0.0,0.0,-0.02097183695076033,-0.0663467549258253,-0.03740251921187617,0.0,0.0,0.0,0.0,0.0,0.0,0.0,0.0,0.0,-1.5465681446523991,-0.6074748679799591,1.8836448386237343,0.0,0.0,0.0,0.0,0.0,0.0,0.0,0.0,0.0
419241000000,153,419240000000,base_link,-0.06242266498638637,-0.061433922222093096,0.7024233457617188,0.7063502866321497,0.0,0.0,0.0,0.0,0.0,0.0,0.0,0.0,0.0,0.05473302908868073,-0.026594140804409076,-0.014850898603740432,0.0,0.0,0.0,0.0,0.0,0.0,0.0,0.0,0.0,-0.9908169343308677,-8.158219900240601,13.916870750394743,0.0,0.0,0.0,0.0,0.0,0.0,0.0,0.0,0.0
419242000000,154,419241000000,base_link,-0.06241879224210626,-0.06147186115962921,0.7024227449818737,0.7063479255952677,0.0,0.0,0.0,0.0,0.0,0.0,0.0,0.0,0.0,-0.032864591861678026,-0.04789547549080836,-0.0025679399181309506,0.0,0.0,0.0,0.0,0.0,0.0,0.0,0.0,0.0,-1.027526566312079,-0.0064219339148630095,17.391333140385566,0.0,0.0,0.0,0.0,0.0,0.0,0.0,0.0,0.0
419243000000,155,419242000000,base_link,-0.0624135423244319,-0.06150034315137958,0.7024223817120133,0.7063462714538823,0.0,0.0,0.0,0.0,0.0,0.0,0.0,0.0,0.0,-0.032847421515665415,-0.047769731334252816,-0.002390444232956759,0.0,0.0,0.0,0.0,0.0,0.0,0.0,0.0,0.0,-0.00825164225842595,0.018048699774508847,0.007410012222665685,0.0,0.0,0.0,0.0,0.0,0.0,0.0,0.0,0.0
419244000000,156,419243000000,base_link,-0.06236850641938906,-0.06149958300541052,0.7024291202040597,0.7063436145294485,0.0,0.0,0.0,0.0,0.0,0.0,0.0,0.0,0.0,0.06518797033209636,-0.06336266531701969,0.0078072791827379865,0.0,0.0,0.0,0.0,0.0,0.0,0.0,0.0,0.0,-1.234879391875232,-7.573770070869186,14.228402632104423,0.0,0.0,0.0,0.0,0.0,0.0,0.0,0.0,0.0
419245000000,157,419244000000,base_link,-0.06234986639049646,-0.06152563122953481,0.7024336614831872,0.7063384755754268,0.0,0.0,0.0,0.0,0.0,0.0,0.0,0.0,0.0,-0.010342261276469408,-0.06418497204714757,0.008093750412549543,0.0,0.0,0.0,0.0,0.0,0.0,0.0,0.0,0.0,-1.25325555912528,-0.7820629043742515,13.343239356603405,0.0,0.0,0.0,0.0,0.0,0.0,0.0,0.0,0.0
419246000000,158,419246000000,base_link,-0.06233155402147052,-0.061551708361213944,0.7024380570296089,0.7063334485974399,0.0,0.0,0.0,0.0,0.0,0.0,0.0,0.0,0.0,-0.010851433809813831,-0.06373171121153531,0.007766552749783729,0.0,0.0,0.0,0.0,0.0,0.0,0.0,0.0,0.0,-0.020832183341300547,-0.01063962764393045,0.004200848242074784,0.0,0.0,0.0,0.0,0.0,0.0,0.0,0.0,0.0
419248000000,159,419247000000,base_link,-0.062293174763777374,-0.06157536320289809,0.7024369861265222,0.7063358376479059,0.0,0.0,0.0,0.0,0.0,0.0,0.0,0.0,0.0,0.009561268470189774,-0.04365258123289416,-0.00627612297265072,0.0,0.0,0.0,0.0,0.0,0.0,0.0,0.0,0.0,0.05821583282925691,-0.10830236698601192,0.02042633022286644,0.0,0.0,0.0,0.0,0.0,0.0,0.0,0.0,0.0
419249000000,160,419248000000,base_link,-0.062266181574444225,-0.06159743863959121,0.7024407832233591,0.7063325167721883,0.0,0.0,0.0,0.0,0.0,0.0,0.0,0.0,0.0,0.00717367515571779,-0.06999053332595753,0.003956425765721357,0.0,0.0,0.0,0.0,0.0,0.0,0.0,0.0,0.0,-2.0020650044656505,-3.334391598935557,16.768333600330816,0.0,0.0,0.0,0.0,0.0,0.0,0.0,0.0,0.0
419250000000,161,419249000000,base_link,-0.062266181574444225,-0.06159743863959121,0.7024407832233591,0.7063325167721883,0.0,0.0,0.0,0.0,0.0,0.0,0.0,0.0,0.0,0.00717367515571779,-0.06999053332595753,0.003956425765721357,0.0,0.0,0.0,0.0,0.0,0.0,0.0,0.0,0.0,-2.0020650044656505,-3.334391598935557,16.768333600330816,0.0,0.0,0.0,0.0,0.0,0.0,0.0,0.0,0.0
419251000000,162,419250000000,base_link,-0.06221892609891209,-0.06163577964020788,0.7024434317575291,0.7063307023512057,0.0,0.0,0.0,0.0,0.0,0.0,0.0,0.0,0.0,0.007330741253893543,-0.0512607443757809,-0.007753051353920447,0.0,0.0,0.0,0.0,0.0,0.0,0.0,0.0,0.0,0.47619315309573323,-3.928411078900118,21.788437475341816,0.0,0.0,0.0,0.0,0.0,0.0,0.0,0.0,0.0
419252000000,163,419251000000,base_link,-0.06221892609891209,-0.06163577964020788,0.7024434317575291,0.7063307023512057,0.0,0.0,0.0,0.0,0.0,0.0,0.0,0.0,0.0,0.007330741253893543,-0.0512607443757809,-0.007753051353920447,0.0,0.0,0.0,0.0,0.0,0.0,0.0,0.0,0.0,0.47619315309573323,-3.928411078900118,21.788437475341816,0.0,0.0,0.0,0.0,0.0,0.0,0.0,0.0,0.0
419253000000,164,419252000000,base_link,-0.06217131997840664,-0.0616709947225545,0.7024445945801251,0.7063306640145514,0.0,0.0,0.0,0.0,0.0,0.0,0.0,0.0,0.0,0.012048991917569422,-0.06496815550883554,-0.0010229580837343524,0.0,0.0,0.0,0.0,0.0,0.0,0.0,0.0,0.0,-0.6844357364263645,-4.319913762252426,16.004216987262772,0.0,0.0,0.0,0.0,0.0,0.0,0.0,0.0,0.0
419254000000,165,419253000000,base_link,-0.0621445198719433,-0.06169012136891262,0.7024465433859551,0.706329414126651,0.0,0.0,0.0,0.0,0.0,0.0,0.0,0.0,0.0,0.011073610527386226,-0.06506713684104143,-0.0011748795199905114,0.0,0.0,0.0,0.0,0.0,0.0,0.0,0.0,0.0,0.028173382540210123,-0.07857138823874177,0.024890352390951165,0.0,0.0,0.0,0.0,0.0,0.0,0.0,0.0,0.0
419255000000,166,419254000000,base_link,-0.06211506713020213,-0.061701305460625265,0.7024480671445814,0.7063295125539542,0.0,0.0,0.0,0.0,0.0,0.0,0.0,0.0,0.0,0.026191456942015738,-0.05735379599108863,-0.003002209503510687,0.0,0.0,0.0,0.0,0.0,0.0,0.0,0.0,0.0,0.32518521596723915,-3.0530231195084436,22.332936016626014,0.0,0.0,0.0,0.0,0.0,0.0,0.0,0.0,0.0
