%time,field.name0,field.name1,field.name2,field.pose0.position.x,field.pose0.position.y,field.pose0.position.z,field.pose0.orientation.x,field.pose0.orientation.y,field.pose0.orientation.z,field.pose0.orientation.w,field.pose1.position.x,field.pose1.position.y,field.pose1.position.z,field.pose1.orientation.x,field.pose1.orientation.y,field.pose1.orientation.z,field.pose1.orientation.w,field.pose2.position.x,field.pose2.position.y,field.pose2.position.z,field.pose2.orientation.x,field.pose2.orientation.y,field.pose2.orientation.z,field.pose2.orientation.w,field.twist0.linear.x,field.twist0.linear.y,field.twist0.linear.z,field.twist0.angular.x,field.twist0.angular.y,field.twist0.angular.z,field.twist1.linear.x,field.twist1.linear.y,field.twist1.linear.z,field.twist1.angular.x,field.twist1.angular.y,field.twist1.angular.z,field.twist2.linear.x,field.twist2.linear.y,field.twist2.linear.z,field.twist2.angular.x,field.twist2.angular.y,field.twist2.angular.z
419066000000,ground_plane,Floor,khm2,0.252724,-0.228037,0.0,0.0,0.0,0.0,1.0,-0.010923,0.300375,-0.916015,0.0,-0.08715572466147241,0.0,0.9961946996740816,-0.5449027872621516,-0.0018111337038996874,-0.29400779599838667,-0.06164016225929044,-0.06145909239604676,0.7026869336362095,0.706154617385912,0.0,0.0,0.0,0.0,0.0,0.0,0.0,0.0,0.0,0.0,0.0,0.0,-0.004404894412519568,-0.0007071652951085643,-0.00503822283364435,-0.004711860648674099,-0.0263831576266093,0.004012537516756906
419066000000,ground_plane,Floor,khm2,0.252724,-0.228037,0.0,0.0,0.0,0.0,1.0,-0.010923,0.300375,-0.916015,0.0,-0.08715572466147241,0.0,0.9961946996740816,-0.5449030886205337,-0.001812647078652227,-0.294010761714902,-0.061613896180217016,-0.06144453725201063,0.7026912724552845,0.7061538587691444,0.0,0.0,0.0,0.0,0.0,0.0,0.0,0.0,0.0,0.0,0.0,0.0,-0.0003016142140449782,-0.0015133630778683621,-0.0029661091873235805,0.01601398254467527,0.057913658209052005,0.008625524950813361
419066000000,ground_plane,Floor,khm2,0.252724,-0.228037,0.0,0.0,0.0,0.0,1.0,-0.010923,0.300375,-0.916015,0.0,-0.08715572466147241,0.0,0.9961946996740816,-0.5449075674918411,-0.0018124208247033357,-0.2940040381853238,-0.06162876581944646,-0.06144833355332858,0.7026902025772765,0.7061532954883074,0.0,0.0,0.0,0.0,0.0,0.0,0.0,0.0,0.0,0.0,0.0,0.0,-0.0037633401141364173,-0.0001394528868645734,0.005093318631263305,-0.010852085066366675,-0.019762811916016802,-0.0012744503017990262
419066000000,ground_plane,Floor,khm2,0.252724,-0.228037,0.0,0.0,0.0,0.0,1.0,-0.010923,0.300375,-0.916015,0.0,-0.08715572466147241,0.0,0.9961946996740816,-0.5449113578814503,-0.0018125165234692598,-0.29400875557267075,-0.06163934388566486,-0.06145162027411155,0.7026894759491832,0.7061528092709777,0.0,0.0,0.0,0.0,0.0,0.0,0.0,0.0,0.0,0.0,0.0,0.0,-0.0037903896091625203,-9.569876592411559e-05,-0.00471738734698617,-0.010291009432073646,-0.019657381287983316,-0.0012377973294007767
419066000000,ground_plane,Floor,khm2,0.252724,-0.228037,0.0,0.0,0.0,0.0,1.0,-0.010923,0.300375,-0.916015,0.0,-0.08715572466147241,0.0,0.9961946996740816,-0.5449130873723548,-0.0018145357197909154,-0.2940158197326881,-0.061603556579813014,-0.061448084085210075,0.7026891260919866,0.7061565880532835,0.0,0.0,0.0,0.0,0.0,0.0,0.0,0.0,0.0,0.0,0.0,0.0,-0.0017295480625258747,-0.0020191562943944075,-0.007064239642515763,0.04608152052455022,0.05571078532660852,-0.0018419737069118448
419066000000,ground_plane,Floor,khm2,0.252724,-0.228037,0.0,0.0,0.0,0.0,1.0,-0.010923,0.300375,-0.916015,0.0,-0.08715572466147241,0.0,0.9961946996740816,-0.5449207722259345,-0.0018138523790846397,-0.2940063175602396,-0.061627176034696494,-0.061460534912419124,0.7026843557192598,0.7061581905279275,0.0,0.0,0.0,0.0,0.0,0.0,0.0,0.0,0.0,0.0,0.0,0.0,-0.0044864802352609385,0.00035000899774040816,0.004774891671757564,-0.013088704444458619,-0.017547593243891713,-0.008635276437762176
419067000000,ground_plane,Floor,khm2,0.252724,-0.228037,0.0,0.0,0.0,0.0,1.0,-0.010923,0.300375,-0.916015,0.0,-0.08715572466147241,0.0,0.9961946996740816,-0.5449246768823652,-0.001812792538971091,-0.29400960229290096,-0.06163717606502015,-0.061454947585372975,0.7026819805550577,0.7061601674883895,0.0,0.0,0.0,0.0,0.0,0.0,0.0,0.0,0.0,0.0,0.0,0.0,-0.00391408370044777,0.0010441122386008416,-0.0033018662655560312,-0.021516972537519566,-0.006188935648789654,-0.008024251229476798
419067000000,ground_plane,Floor,khm2,0.252724,-0.228037,0.0,0.0,0.0,0.0,1.0,-0.010923,0.300375,-0.916015,0.0,-0.08715572466147241,0.0,0.9961946996740816,-0.5449266072156482,-0.0018134707592900228,-0.2940159883842674,-0.061607250639359824,-0.061444716338766144,0.7026794949412267,0.706166142555596,0.0,0.0,0.0,0.0,0.0,0.0,0.0,0.0,0.0,0.0,0.0,0.0,-0.001930375057574413,-0.0006781819518109377,-0.0063861524807172715,0.028927689749912913,0.056934262570872654,-0.009490598687109532
419067000000,ground_plane,Floor,khm2,0.252724,-0.228037,0.0,0.0,0.0,0.0,1.0,-0.010923,0.300375,-0.916015,0.0,-0.08715572466147241,0.0,0.9961946996740816,-0.5449334993430412,-0.0018127845777921646,-0.29400838320363987,-0.06162585411560373,-0.06145133500239663,0.7026760273978667,0.7061673937893892,0.0,0.0,0.0,0.0,0.0,0.0,0.0,0.0,0.0,0.0,0.0,0.0,-0.0054971195089130835,0.00024278035828045056,0.004271622150273201,-0.006155524301486897,-0.025525767454472777,-0.007718809763322554
419067000000,ground_plane,Floor,khm2,0.252724,-0.228037,0.0,0.0,0.0,0.0,1.0,-0.010923,0.300375,-0.916015,0.0,-0.08715572466147241,0.0,0.9961946996740816,-0.5449390491169217,-0.0018125658354703283,-0.2940139271443184,-0.06163702272626358,-0.061457702779551066,0.7026728867956767,0.70616898994556,0.0,0.0,0.0,0.0,0.0,0.0,0.0,0.0,0.0,0.0,0.0,0.0,-0.005549773880438049,0.000218742321836404,-0.005543940678556515,-0.006242131286676953,-0.024880175866656917,-0.00726655574036114
419068000000,ground_plane,Floor,khm2,0.252724,-0.228037,0.0,0.0,0.0,0.0,1.0,-0.010923,0.300375,-0.916015,0.0,-0.08715572466147241,0.0,0.9961946996740816,-0.5449438555193803,-0.001813657618073398,-0.2940097434447137,-0.06162686011798782,-0.06146282132050159,0.7026761309705815,0.7061662032917863,0.0,0.0,0.0,0.0,0.0,0.0,0.0,0.0,0.0,0.0,0.0,0.0,-0.004806526717466424,-0.001091602088165605,0.0041835980309066325,0.020804163645653056,0.007110443819889846,0.01037832505729428
419069000000,ground_plane,Floor,khm2,0.252724,-0.228037,0.0,0.0,0.0,0.0,1.0,-0.010923,0.300375,-0.916015,0.0,-0.08715572466147241,0.0,0.9961946996740816,-0.5449475552742475,-0.00181450957049458,-0.29400978319904875,-0.06162734469572725,-0.06146485695575524,0.7026787565691094,0.706163371190869,0.0,0.0,0.0,0.0,0.0,0.0,0.0,0.0,0.0,0.0,0.0,0.0,-0.0036998068974823687,-0.0008519389547037463,-3.9768248639276454e-05,0.0015046569942359239,-0.003580534439889121,0.007879420548927589
419070000000,ground_plane,Floor,khm2,0.252724,-0.228037,0.0,0.0,0.0,0.0,1.0,-0.010923,0.300375,-0.916015,0.0,-0.08715572466147241,0.0,0.9961946996740816,-0.5449515820696936,-0.0018158299580941872,-0.2940102488291647,-0.0616276344044052,-0.06147131870055024,0.7026803507428717,0.7061611971319348,0.0,0.0,0.0,0.0,0.0,0.0,0.0,0.0,0.0,0.0,0.0,0.0,-0.004026843778819632,-0.0013203475125924706,-0.0004656371922562029,0.008207934814090467,-0.009603805847995873,0.0060675082700103996
419071000000,ground_plane,Floor,khm2,0.252724,-0.228037,0.0,0.0,0.0,0.0,1.0,-0.010923,0.300375,-0.916015,0.0,-0.08715572466147241,0.0,0.9961946996740816,-0.5449543050784179,-0.0018160615131346757,-0.2940103709185292,-0.0616279025097157,-0.0614670823464791,0.7026819919956037,0.706159909330142,0.0,0.0,0.0,0.0,0.0,0.0,0.0,0.0,0.0,0.0,0.0,0.0,-0.002723041795164208,-0.00023164936085214843,-0.00012228372124632205,-0.006695506382798942,0.005651562411748142,0.0035716893063253733
419072000000,ground_plane,Floor,khm2,0.252724,-0.228037,0.0,0.0,0.0,0.0,1.0,-0.010923,0.300375,-0.916015,0.0,-0.08715572466147241,0.0,0.9961946996740816,-0.5449572320817216,-0.001816541635723565,-0.29401072144756996,-0.0616281464988081,-0.061470088195336905,0.7026831449296776,0.7061584791306529,0.0,0.0,0.0,0.0,0.0,0.0,0.0,0.0,0.0,0.0,0.0,0.0,-0.002927059822018226,-0.0004800913865848721,-0.0003505385040180304,0.0035615446041273196,-0.004621407539786163,0.003978322433084752
419073000000,ground_plane,Floor,khm2,0.252724,-0.228037,0.0,0.0,0.0,0.0,1.0,-0.010923,0.300375,-0.916015,0.0,-0.08715572466147241,0.0,0.9961946996740816,-0.5449589925346746,-0.0018162100144026407,-0.2940106072751384,-0.06162818781636387,-0.061468505036313674,0.7026850231684784,0.7061567443349861,0.0,0.0,0.0,0.0,0.0,0.0,0.0,0.0,0.0,0.0,0.0,0.0,-0.0017605820918887786,0.0003316020590172552,0.00011413337796606546,-0.0027279634098974267,0.0021961148125264544,0.00489037470951871
419074000000,ground_plane,Floor,khm2,0.252724,-0.228037,0.0,0.0,0.0,0.0,1.0,-0.010923,0.300375,-0.916015,0.0,-0.08715572466147241,0.0,0.9961946996740816,-0.5449612409131063,-0.0018162802104666365,-0.2940109603436169,-0.061628142654750695,-0.061470577875637214,0.7026860233658903,0.7061555725580535,0.0,0.0,0.0,0.0,0.0,0.0,0.0,0.0,0.0,0.0,0.0,0.0,-0.002248405565955704,-7.01669135878004e-05,-0.00035307193795371784,0.0027095844955333814,-0.002884679668810318,0.0033204218365789177
419075000000,ground_plane,Floor,khm2,0.252724,-0.228037,0.0,0.0,0.0,0.0,1.0,-0.010923,0.300375,-0.916015,0.0,-0.08715572466147241,0.0,0.9961946996740816,-0.5449626344919732,-0.0018157973283034583,-0.29401094355478397,-0.06162818894618405,-0.06146912493566989,0.702687593243029,0.7061541328273709,0.0,0.0,0.0,0.0,0.0,0.0,0.0,0.0,0.0,0.0,0.0,0.0,-0.0013936950479902115,0.00048286995933913285,1.6762989892113e-05,-0.0024777290813532927,0.0020033747423966676,0.004055594535684688
419076000000,ground_plane,Floor,khm2,0.252724,-0.228037,0.0,0.0,0.0,0.0,1.0,-0.010923,0.300375,-0.916015,0.0,-0.08715572466147241,0.0,0.9961946996740816,-0.5449645972218489,-0.001815761661656339,-0.29401126933472954,-0.061628166546032516,-0.06147057681703026,0.7026883435997031,0.7061532617237293,0.0,0.0,0.0,0.0,0.0,0.0,0.0,0.0,0.0,0.0,0.0,0.0,-0.001962760923945299,3.5699965426698497e-05,-0.0003257858139333697,0.0018725416976979091,-0.0020335050989936923,0.0024656804378525255
419077000000,ground_plane,Floor,khm2,0.252724,-0.228037,0.0,0.0,0.0,0.0,1.0,-0.010923,0.300375,-0.916015,0.0,-0.08715572466147241,0.0,0.9961946996740816,-0.5449658489142928,-0.001815287596370721,-0.2940113024121617,-0.061628204950370566,-0.06146928587618319,0.7026896708952609,0.7061520499620301,0.0,0.0,0.0,0.0,0.0,0.0,0.0,0.0,0.0,0.0,0.0,0.0,-0.0012518001352077113,0.00047406785729790183,-3.309699247254813e-05,-0.0021809445345851194,0.0017837780725248665,0.0034135487666718785
419078000000,ground_plane,Floor,khm2,0.252724,-0.228037,0.0,0.0,0.0,0.0,1.0,-0.010923,0.300375,-0.916015,0.0,-0.08715572466147241,0.0,0.9961946996740816,-0.5449677144614953,-0.001815277390074046,-0.29401162141766474,-0.06162814550187433,-0.06147050751488703,0.7026902315049538,0.7061513909462874,0.0,0.0,0.0,0.0,0.0,0.0,0.0,0.0,0.0,0.0,0.0,0.0,-0.00186557600362482,1.0237334703096822e-05,-0.00031901138543503834,0.0016507582625714659,-0.0016535770103646061,0.0018758129202016995
419081000000,ground_plane,Floor,khm2,0.252724,-0.228037,0.0,0.0,0.0,0.0,1.0,-0.010923,0.300375,-0.916015,0.0,-0.08715572466147241,0.0,0.9961946996740816,-0.5449689273269842,-0.001814874218141235,-0.29401167360132113,-0.06162818678046115,-0.06146934662399116,0.7026913881667167,0.7061503374042281,0.0,0.0,0.0,0.0,0.0,0.0,0.0,0.0,0.0,0.0,0.0,0.0,-0.0012129625229797194,0.00040317818145547794,-5.2199774224989464e-05,-0.0019617686553122784,0.001594493947754139,0.002965946080329892
419081000000,ground_plane,Floor,khm2,0.252724,-0.228037,0.0,0.0,0.0,0.0,1.0,-0.010923,0.300375,-0.916015,0.0,-0.08715572466147241,0.0,0.9961946996740816,-0.5449707750569223,-0.0018149391480307305,-0.2940119917681853,-0.06162810426192427,-0.061470524338255485,0.7026918065108416,0.7061498257913763,0.0,0.0,0.0,0.0,0.0,0.0,0.0,0.0,0.0,0.0,0.0,0.0,-0.0018477573351455934,-6.49002921439798e-05,-0.0003181728338082503,0.001657268682584749,-0.0015585337405400889,0.0014651561740584827
419081000000,ground_plane,Floor,khm2,0.252724,-0.228037,0.0,0.0,0.0,0.0,1.0,-0.010923,0.300375,-0.916015,0.0,-0.08715572466147241,0.0,0.9961946996740816,-0.5449719882872613,-0.0018146205785824203,-0.2940120500975599,-0.0616281469572269,-0.06146945017662758,0.7026928375089915,0.7061488896197201,0.0,0.0,0.0,0.0,0.0,0.0,0.0,0.0,0.0,0.0,0.0,0.0,-0.0012133375061289052,0.00031855513350191285,-5.834522774670367e-05,-0.0018119536189874857,0.001468942517827596,0.002634109469463055
419082000000,ground_plane,Floor,khm2,0.252724,-0.228037,0.0,0.0,0.0,0.0,1.0,-0.010923,0.300375,-0.916015,0.0,-0.08715572466147241,0.0,0.9961946996740816,-0.5449738462092387,-0.0018147671990890641,-0.2940123701024609,-0.06162805126437912,-0.06147066142137849,0.7026931436145338,0.7061484879250944,0.0,0.0,0.0,0.0,0.0,0.0,0.0,0.0,0.0,0.0,0.0,0.0,-0.0018579488319953928,-0.00014659155004448837,-0.00032001118166651954,0.0017503432435896549,-0.0015876951225610614,0.0011579186063038515
419083000000,ground_plane,Floor,khm2,0.252724,-0.228037,0.0,0.0,0.0,0.0,1.0,-0.010923,0.300375,-0.916015,0.0,-0.08715572466147241,0.0,0.9961946996740816,-0.5449750686932027,-0.0018145221249973688,-0.29401242863145566,-0.06162809337479513,-0.06146963162173946,0.7026940780818224,0.7061476439980615,0.0,0.0,0.0,0.0,0.0,0.0,0.0,0.0,0.0,0.0,0.0,0.0,-0.0012225916162260523,0.000245061003884622,-5.8544704494232035e-05,-0.0017255473665193104,0.0014065487673326554,0.0023736917567099055
419084000000,ground_plane,Floor,khm2,0.252724,-0.228037,0.0,0.0,0.0,0.0,1.0,-0.010923,0.300375,-0.916015,0.0,-0.08715572466147241,0.0,0.9961946996740816,-0.5449769406704723,-0.0018147356446228642,-0.29401275137318217,-0.06162798963715386,-0.061470893007060934,0.7026942924677507,0.7061473299102989,0.0,0.0,0.0,0.0,0.0,0.0,0.0,0.0,0.0,0.0,0.0,0.0,-0.0018720038456667514,-0.00021349092483296552,-0.00032274835129615496,0.0018542452613838003,-0.001647739571396159,0.0009124307010284729
419085000000,ground_plane,Floor,khm2,0.252724,-0.228037,0.0,0.0,0.0,0.0,1.0,-0.010923,0.300375,-0.916015,0.0,-0.08715572466147241,0.0,0.9961946996740816,-0.544978170299237,-0.0018145443974223992,-0.29401280842891897,-0.061628030743259496,-0.061469882015118736,0.7026951504101252,0.7061465605820413,0.0,0.0,0.0,0.0,0.0,0.0,0.0,0.0,0.0,0.0,0.0,0.0,-0.0012297400925442084,0.00019123303072654416,-5.7072324163337806e-05,-0.0016790990833119837,0.0013811433588629214,0.0021631969811698195
419086000000,ground_plane,Floor,khm2,0.252724,-0.228037,0.0,0.0,0.0,0.0,1.0,-0.010923,0.300375,-0.916015,0.0,-0.08715572466147241,0.0,0.9961946996740816,-0.5449800524755423,-0.0018148042039279047,-0.2940131339718772,-0.061627921514807275,-0.06147118796408615,0.7026952882174875,0.7061463192972056,0.0,0.0,0.0,0.0,0.0,0.0,0.0,0.0,0.0,0.0,0.0,0.0,-0.0018822028003385898,-0.0002597778897635847,-0.0003255499329098908,0.0019430160199709046,-0.0017034514545166766,0.0007081303456844689
419087000000,ground_plane,Floor,khm2,0.252724,-0.228037,0.0,0.0,0.0,0.0,1.0,-0.010923,0.300375,-0.916015,0.0,-0.08715572466147241,0.0,0.9961946996740816,-0.5449812847115879,-0.0018146470666958016,-0.29401318951654193,-0.061627962359970465,-0.06147017850237098,0.7026960851514549,0.7061456105670161,0.0,0.0,0.0,0.0,0.0,0.0,0.0,0.0,0.0,0.0,0.0,0.0,-0.001232334773653756,0.00015714689171128366,-5.556079047176664e-05,-0.0016616362220313002,0.001379292758354165,0.0019920382540932597
419088000000,ground_plane,Floor,khm2,0.252724,-0.228037,0.0,0.0,0.0,0.0,1.0,-0.010923,0.300375,-0.916015,0.0,-0.08715572466147241,0.0,0.9961946996740816,-0.5449831718619891,-0.0018149338208200306,-0.2940135175223275,-0.061627849143962625,-0.06147151544344292,0.7026961585239898,0.7061454310512838,0.0,0.0,0.0,0.0,0.0,0.0,0.0,0.0,0.0,0.0,0.0,0.0,-0.0018871767670983947,-0.00028672553751939053,-0.000328013051229441,0.002007739096009827,-0.0017419701735258998,0.0005346279499607642
419089000000,ground_plane,Floor,khm2,0.252724,-0.228037,0.0,0.0,0.0,0.0,1.0,-0.010923,0.300375,-0.916015,0.0,-0.08715572466147241,0.0,0.9961946996740816,-0.5449844030885661,-0.0018147950245007837,-0.2940135722674008,-0.06162789097439109,-0.06147050005372559,0.7026969065544256,0.7061447714144986,0.0,0.0,0.0,0.0,0.0,0.0,0.0,0.0,0.0,0.0,0.0,0.0,-0.001231326219115893,0.0001388059581550171,-5.476138688354669e-05,-0.0016592976640087242,0.0013862842052284727,0.0018531215114108012
419090000000,ground_plane,Floor,khm2,0.252724,-0.228037,0.0,0.0,0.0,0.0,1.0,-0.010923,0.300375,-0.916015,0.0,-0.08715572466147241,0.0,0.9961946996740816,-0.5449862913542645,-0.0018150941685982527,-0.2940139022287487,-0.06162777452731432,-0.06147185586585859,0.7026969251307404,0.7061446450657402,0.0,0.0,0.0,0.0,0.0,0.0,0.0,0.0,0.0,0.0,0.0,0.0,-0.00188829187629007,-0.00029911565962264977,-0.0003299686896098497,0.00205211212781005,-0.0017643042607320305,0.00038524165928030725
419091000000,ground_plane,Floor,khm2,0.252724,-0.228037,0.0,0.0,0.0,0.0,1.0,-0.010923,0.300375,-0.916015,0.0,-0.08715572466147241,0.0,0.9961946996740816,-0.5449875192834911,-0.0018149629326739407,-0.29401395679130354,-0.06162781838967913,-0.06147083137816854,0.7026976338778261,0.7061440251341863,0.0,0.0,0.0,0.0,0.0,0.0,0.0,0.0,0.0,0.0,0.0,0.0,-0.0012280296387518006,0.00013124569655550882,-5.4579185114440446e-05,-0.001665232848446895,0.0013963139182949045,0.0017404668673968303
419092000000,ground_plane,Floor,khm2,0.252724,-0.228037,0.0,0.0,0.0,0.0,1.0,-0.010923,0.300375,-0.916015,0.0,-0.08715572466147241,0.0,0.9961946996740816,-0.544989406235401,-0.0018152648648322254,-0.2940142882472115,-0.06162769919028733,-0.061472197026995364,0.7026976054724794,0.7061439449208848,0.0,0.0,0.0,0.0,0.0,0.0,0.0,0.0,0.0,0.0,0.0,0.0,-0.0018869779252744848,-0.00030190385305340776,-0.00033146330517656175,0.0020812853288419563,-0.0017744516416050738,0.0002556016248342649
419093000000,ground_plane,Floor,khm2,0.252724,-0.228037,0.0,0.0,0.0,0.0,1.0,-0.010923,0.300375,-0.916015,0.0,-0.08715572466147241,0.0,0.9961946996740816,-0.544990629863283,-0.001815134725089582,-0.29401434309994484,-0.061627745715665185,-0.06147116346486775,0.702698282260833,0.7061433573488852,0.0,0.0,0.0,0.0,0.0,0.0,0.0,0.0,0.0,0.0,0.0,0.0,-0.0012237288585030676,0.00013014956039187267,-5.486908029340661e-05,-0.0016738466182403468,0.0014054220780898323,0.001648430471116202
419094000000,ground_plane,Floor,khm2,0.252724,-0.228037,0.0,0.0,0.0,0.0,1.0,-0.010923,0.300375,-0.916015,0.0,-0.08715572466147241,0.0,0.9961946996740816,-0.5449925143441134,-0.0018154340516410793,-0.29401467559289557,-0.06162762390376446,-0.061472533578354506,0.7026982131226376,0.7061433175083414,0.0,0.0,0.0,0.0,0.0,0.0,0.0,0.0,0.0,0.0,0.0,0.0,-0.001884506935556204,-0.000299298182598457,-0.0003325006272496833,0.0021012307652737063,-0.0017771465806801887,0.00014220630046393414
419095000000,ground_plane,Floor,khm2,0.252724,-0.228037,0.0,0.0,0.0,0.0,1.0,-0.010923,0.300375,-0.916015,0.0,-0.08715572466147241,0.0,0.9961946996740816,-0.5449937335044458,-0.0018153016963031701,-0.2940147309819077,-0.06162767297896947,-0.06147149250503293,0.7026988632662258,0.7061427568818893,0.0,0.0,0.0,0.0,0.0,0.0,0.0,0.0,0.0,0.0,0.0,0.0,-0.001219262017503159,0.00013236493288112608,-5.54055868484756e-05,-0.0016814095492068359,0.0014124807300362765,0.0015716791749672942
419097000000,ground_plane,Floor,khm2,0.252724,-0.228037,0.0,0.0,0.0,0.0,1.0,-0.010923,0.300375,-0.916015,0.0,-0.08715572466147241,0.0,0.9961946996740816,-0.5449956152126892,-0.0018155959321879726,-0.29401506417221523,-0.06162754872325106,-0.06147286447793919,0.7026987583794022,0.7061427526664045,0.0,0.0,0.0,0.0,0.0,0.0,0.0,0.0,0.0,0.0,0.0,0.0,-0.00188173431158943,-0.000294207630553903,-0.00033319798206960525,0.0021160792436521613,-0.0017763665359195793,4.218099257964363e-05
419097000000,ground_plane,Floor,khm2,0.252724,-0.228037,0.0,0.0,0.0,0.0,1.0,-0.010923,0.300375,-0.916015,0.0,-0.08715572466147241,0.0,0.9961946996740816,-0.5449968301764437,-0.0018154601566943817,-0.294015120163258,-0.06162760036285914,-0.06147181719347691,0.7026993860161299,0.7061422147535168,0.0,0.0,0.0,0.0,0.0,0.0,0.0,0.0,0.0,0.0,0.0,0.0,-0.0012150654107833101,0.0001357838863853032,-5.60078108244534e-05,-0.0016882092222398365,0.0014176682633635534,0.0015068990417001207
419098000000,ground_plane,Floor,khm2,0.252724,-0.228037,0.0,0.0,0.0,0.0,1.0,-0.010923,0.300375,-0.916015,0.0,-0.08715572466147241,0.0,0.9961946996740816,-0.5449987092104958,-0.0018157486536124617,-0.29401545379236627,-0.06162747377911565,-0.061473190003813745,0.7026992495600177,0.7061422420831,0.0,0.0,0.0,0.0,0.0,0.0,0.0,0.0,0.0,0.0,0.0,0.0,-0.0018790600899477976,-0.0002884687451381426,-0.00033363677986412445,0.0021283119304263184,-0.00177429187883755,-4.6348202931972215e-05
419099000000,ground_plane,Floor,khm2,0.252724,-0.228037,0.0,0.0,0.0,0.0,1.0,-0.010923,0.300375,-0.916015,0.0,-0.08715572466147241,0.0,0.9961946996740816,-0.5449999204122828,-0.0018156094334589646,-0.29401551032395984,-0.061627527725776725,-0.061472138039416584,0.7026998578138102,0.7061417236643948,0.0,0.0,0.0,0.0,0.0,0.0,0.0,0.0,0.0,0.0,0.0,0.0,-0.0012113036756886174,0.00013922973690360996,-5.6548154973492374e-05,-0.0016932550082503388,0.0014210394017725927,0.0014512802894309008
419100000000,ground_plane,Floor,khm2,0.252724,-0.228037,0.0,0.0,0.0,0.0,1.0,-0.010923,0.300375,-0.916015,0.0,-0.08715572466147241,0.0,0.9961946996740816,-0.5450017970515569,-0.001815892596889816,-0.29401584420959437,-0.06162739892679414,-0.06147351177689621,0.7026996932953441,0.7061417790316352,0.0,0.0,0.0,0.0,0.0,0.0,0.0,0.0,0.0,0.0,0.0,0.0,-0.0018766652765848926,-0.00028313534094897766,-0.00033389330203860646,0.0021396482066138364,-0.0017725009172984054,-0.00012499783857692362
419101000000,ground_plane,Floor,khm2,0.252724,-0.228037,0.0,0.0,0.0,0.0,1.0,-0.010923,0.300375,-0.916015,0.0,-0.08715572466147241,0.0,0.9961946996740816,-0.5450030049209252,-0.0018157504689171823,-0.29401590115433063,-0.061627454872938865,-0.06147245609708141,0.7027002847956805,0.706141277433451,0.0,0.0,0.0,0.0,0.0,0.0,0.0,0.0,0.0,0.0,0.0,0.0,-0.0012079711811570119,0.00014213647343129884,-5.6961535064582734e-05,-0.0016971795275275187,0.0014234815980276407,0.001403284774128284
419102000000,ground_plane,Floor,khm2,0.252724,-0.228037,0.0,0.0,0.0,0.0,1.0,-0.010923,0.300375,-0.916015,0.0,-0.08715572466147241,0.0,0.9961946996740816,-0.5450048794625686,-0.0018160289741069612,-0.29401623515486935,-0.06162732386803096,-0.06147383105696009,0.7027000952575891,0.7061413577839926,0.0,0.0,0.0,0.0,0.0,0.0,0.0,0.0,0.0,0.0,0.0,0.0,-0.0018745677607747112,-0.00027847693540285814,-0.00033400846114496087,0.0021506373918483072,-0.0017711394728996278,-0.00019502280043861607
419103000000,ground_plane,Floor,khm2,0.252724,-0.228037,0.0,0.0,0.0,0.0,1.0,-0.010923,0.300375,-0.916015,0.0,-0.08715572466147241,0.0,0.9961946996740816,-0.5450060844189518,-0.0018158845226699666,-0.2940162924184333,-0.06162738145859967,-0.06147277262319206,0.7027006718178017,0.706140871149223,0.0,0.0,0.0,0.0,0.0,0.0,0.0,0.0,0.0,0.0,0.0,0.0,-0.0012050581330793455,0.00014445978298602624,-5.72803479643058e-05,-0.001699692706446295,0.0014250566808116703,0.0013606136294582276
419104000000,ground_plane,Floor,khm2,0.252724,-0.228037,0.0,0.0,0.0,0.0,1.0,-0.010923,0.300375,-0.916015,0.0,-0.08715572466147241,0.0,0.9961946996740816,-0.5450079571685553,-0.0018161591525916211,-0.294016626454883,-0.061627248401110904,-0.06147414953417419,0.7027004597054057,0.7061409739728813,0.0,0.0,0.0,0.0,0.0,0.0,0.0,0.0,0.0,0.0,0.0,0.0,-0.001872775744289589,-0.00027460164181191917,-0.0003340443784933517,0.002161824717219606,-0.0017710283945718522,-0.0002579950112608709
419104000000,ground_plane,Floor,khm2,0.252724,-0.228037,0.0,0.0,0.0,0.0,1.0,-0.010923,0.300375,-0.916015,0.0,-0.08715572466147241,0.0,0.9961946996740816,-0.5450091595216551,-0.0018160128720909774,-0.29401668392679464,-0.061627307402360144,-0.06147308847313697,0.7027010230570276,0.7061405005878897,0.0,0.0,0.0,0.0,0.0,0.0,0.0,0.0,0.0,0.0,0.0,0.0,-0.0012024548136747731,0.000146288701050317,-5.748868565287741e-05,-0.0017021216676250273,0.0014267841754206573,0.0013228405677596475
419106000000,ground_plane,Floor,khm2,0.252724,-0.228037,0.0,0.0,0.0,0.0,1.0,-0.010923,0.300375,-0.916015,0.0,-0.08715572466147241,0.0,0.9961946996740816,-0.5450110306780609,-0.0018162842173514006,-0.2940170179577435,-0.06162717241902213,-0.061474467526350336,0.7027007906813841,0.7061406235571958,0.0,0.0,0.0,0.0,0.0,0.0,0.0,0.0,0.0,0.0,0.0,0.0,-0.0018711825620131594,-0.0002713169636822912,-0.000334038881727252,0.0021725305936446397,-0.00177136672351929,-0.00031442435997287854
419107000000,ground_plane,Floor,khm2,0.252724,-0.228037,0.0,0.0,0.0,0.0,1.0,-0.010923,0.300375,-0.916015,0.0,-0.08715572466147241,0.0,0.9961946996740816,-0.5450122307173532,-0.0018161365053380957,-0.29401707558179857,-0.06162723260512241,-0.061473404292106834,0.7027013422781917,0.7061401619555434,0.0,0.0,0.0,0.0,0.0,0.0,0.0,0.0,0.0,0.0,0.0,0.0,-0.0012001410377953444,0.00014772023444514974,-5.7640835493809354e-05,-0.00170395401885014,0.0014281879357616349,0.0012892875309006365
419108000000,ground_plane,Floor,khm2,0.252724,-0.228037,0.0,0.0,0.0,0.0,1.0,-0.010923,0.300375,-0.916015,0.0,-0.08715572466147241,0.0,0.9961946996740816,-0.5450141004874542,-0.001816405067934273,-0.2940174095854553,-0.06162709585748883,-0.06147478577158212,0.7027010917006421,0.7061403029803891,0.0,0.0,0.0,0.0,0.0,0.0,0.0,0.0,0.0,0.0,0.0,0.0,-0.0018697962844079655,-0.00026853425791255076,-0.00033401159463524686,0.002182896541971758,-0.001772336346014597,-0.0003649900520284792
419109000000,ground_plane,Floor,khm2,0.252724,-0.228037,0.0,0.0,0.0,0.0,1.0,-0.010923,0.300375,-0.916015,0.0,-0.08715572466147241,0.0,0.9961946996740816,-0.5450152984440052,-0.0018162561552435097,-0.29401746729332734,-0.0616271570026656,-0.06147372053193158,0.7027016328008198,0.7061398519151802,0.0,0.0,0.0,0.0,0.0,0.0,0.0,0.0,0.0,0.0,0.0,0.0,-0.0011980582872974446,0.00014892078763638355,-5.7724649784769324e-05,-0.0017055389049304957,0.0014296726496246645,0.0012592900912969582
419112000000,ground_plane,Floor,khm2,0.252724,-0.228037,0.0,0.0,0.0,0.0,1.0,-0.010923,0.300375,-0.916015,0.0,-0.08715572466147241,0.0,0.9961946996740816,-0.5450171669734049,-0.0018165222690394072,-0.2940178012605122,-0.0616270186640847,-0.06147510442060905,0.7027013658700557,0.7061400091422452,0.0,0.0,0.0,0.0,0.0,0.0,0.0,0.0,0.0,0.0,0.0,0.0,-0.0018685555916093696,-0.00026608544796062253,-0.00033397512493727637,0.002192537754684495,-0.0017735254035223954,-0.0004103635151147674
419112000000,ground_plane,Floor,khm2,0.252724,-0.228037,0.0,0.0,0.0,0.0,1.0,-0.010923,0.300375,-0.916015,0.0,-0.08715572466147241,0.0,0.9961946996740816,-0.545018363048877,-0.001816372341682097,-0.2940178590143902,-0.06162708064551998,-0.061474037349902984,0.702701897636885,0.7061395674514596,0.0,0.0,0.0,0.0,0.0,0.0,0.0,0.0,0.0,0.0,0.0,0.0,-0.00119617717671591,0.00014993772166624805,-5.777090467959117e-05,-0.0017069936986207003,0.0014310842844741298,0.0012325943428034493
419112000000,ground_plane,Floor,khm2,0.252724,-0.228037,0.0,0.0,0.0,0.0,1.0,-0.010923,0.300375,-0.916015,0.0,-0.08715572466147241,0.0,0.9961946996740816,-0.5450202304699048,-0.0018166362842064734,-0.29401819294681697,-0.061626940875314604,-0.06147542361202403,0.7027016160411355,0.7061397391899493,0.0,0.0,0.0,0.0,0.0,0.0,0.0,0.0,0.0,0.0,0.0,0.0,-0.0018674472114445359,-0.00026391417098099555,-0.00033394036375803505,0.002201487883250727,-0.001774887863275735,-0.00045100067492549896
419113000000,ground_plane,Floor,khm2,0.252724,-0.228037,0.0,0.0,0.0,0.0,1.0,-0.010923,0.300375,-0.916015,0.0,-0.08715572466147241,0.0,0.9961946996740816,-0.5450214248429746,-0.0018164854601879262,-0.2940182507265127,-0.06162700359608199,-0.061474354750396414,0.7027021395327132,0.7061393058256553,0.0,0.0,0.0,0.0,0.0,0.0,0.0,0.0,0.0,0.0,0.0,0.0,-0.0011944745568263655,0.0001508375733096571,-5.779683109341473e-05,-0.0017085143840719064,0.001432576815414723,0.0012088772326605164
419114000000,ground_plane,Floor,khm2,0.252724,-0.228037,0.0,0.0,0.0,0.0,1.0,-0.010923,0.300375,-0.916015,0.0,-0.08715572466147241,0.0,0.9961946996740816,-0.5450232912665243,-0.0018167474370649923,-0.294018584629087,-0.06162686254666599,-0.06147574325073655,0.7027018448002427,0.7061394905532189,0.0,0.0,0.0,0.0,0.0,0.0,0.0,0.0,0.0,0.0,0.0,0.0,-0.0018664497228657534,-0.00026194851448752584,-0.0003339105067577639,0.002209657224868748,-0.0017762724698685672,-0.0004873754850867211
419115000000,ground_plane,Floor,khm2,0.252724,-0.228037,0.0,0.0,0.0,0.0,1.0,-0.010923,0.300375,-0.916015,0.0,-0.08715572466147241,0.0,0.9961946996740816,-0.5450244841107649,-0.0018165957873319193,-0.2940186424322438,-0.06162692593594318,-0.06147467270078691,0.7027023609426863,0.7061390645910985,0.0,0.0,0.0,0.0,0.0,0.0,0.0,0.0,0.0,0.0,0.0,0.0,-0.001192945734413213,0.00015166317748300948,-5.782029582044199e-05,-0.0017100165703394098,0.0014340248638869718,0.00118780490178337
419116000000,ground_plane,Floor,khm2,0.252724,-0.228037,0.0,0.0,0.0,0.0,1.0,-0.010923,0.300375,-0.916015,0.0,-0.08715572466147241,0.0,0.9961946996740816,-0.5450263496493502,-0.0018168559641245565,-0.29401897631232304,-0.06162678374572658,-0.06147606331041815,0.7027020544434249,0.7061392609436192,0.0,0.0,0.0,0.0,0.0,0.0,0.0,0.0,0.0,0.0,0.0,0.0,-0.0018655647598919745,-0.0002601484278921105,-0.0003338880119087898,0.002217113017824492,-0.001777668212415673,-0.0005199310635162302
419117000000,ground_plane,Floor,khm2,0.252724,-0.228037,0.0,0.0,0.0,0.0,1.0,-0.010923,0.300375,-0.916015,0.0,-0.08715572466147241,0.0,0.9961946996740816,-0.5450275411186153,-0.0018167035444552112,-0.294019034129527,-0.06162684771651655,-0.06147499120301241,0.7027025639898857,0.7061388416304228,0.0,0.0,0.0,0.0,0.0,0.0,0.0,0.0,0.0,0.0,0.0,0.0,-0.0011915707461894979,0.00015243232234401824,-5.7834603536837256e-05,-0.001711402690789068,0.001435413205112464,0.001168888341208104
419118000000,ground_plane,Floor,khm2,0.252724,-0.228037,0.0,0.0,0.0,0.0,1.0,-0.010923,0.300375,-0.916015,0.0,-0.08715572466147241,0.0,0.9961946996740816,-0.5450294058678266,-0.0018169620687114522,-0.2940193679925419,-0.06162670452244772,-0.06147638378371871,0.7027022469271437,0.7061390484105261,0.0,0.0,0.0,0.0,0.0,0.0,0.0,0.0,0.0,0.0,0.0,0.0,-0.0018647753958123316,-0.0002584958737599663,-0.0003338709488161993,0.0022238856903428195,-0.0017790602451023796,-0.0005491384412865777
419119000000,ground_plane,Floor,khm2,0.252724,-0.228037,0.0,0.0,0.0,0.0,1.0,-0.010923,0.300375,-0.916015,0.0,-0.08715572466147241,0.0,0.9961946996740816,-0.5450305961139735,-0.0018168088682610933,-0.29401942582607665,-0.061626769011451074,-0.061475310214017184,0.7027027507060125,0.706138634919166,0.0,0.0,0.0,0.0,0.0,0.0,0.0,0.0,0.0,0.0,0.0,0.0,-0.001190347701248156,0.0001532140163657632,-5.7850710463719936e-05,-0.0017127545096610448,0.001436751523591717,0.0011523281595203258
419120000000,ground_plane,Floor,khm2,0.252724,-0.228037,0.0,0.0,0.0,0.0,1.0,-0.010923,0.300375,-0.916015,0.0,-0.08715572466147241,0.0,0.9961946996740816,-0.5450324601716147,-0.0018170658221208279,-0.29401975968531774,-0.06162662491464609,-0.06147670454302384,0.7027024242169526,0.7061388510057902,0.0,0.0,0.0,0.0,0.0,0.0,0.0,0.0,0.0,0.0,0.0,0.0,-0.0018640838244388803,-0.00025692547643309634,-0.0003338671741961766,0.002229924354298032,-0.001780277410033739,-0.0005752039855752865
419121000000,ground_plane,Floor,khm2,0.252724,-0.228037,0.0,0.0,0.0,0.0,1.0,-0.010923,0.300375,-0.916015,0.0,-0.08715572466147241,0.0,0.9961946996740816,-0.5450336493315795,-0.0018169118851343227,-0.2940198175414015,-0.06162668989067431,-0.06147562961551212,0.7027029228710676,0.7061384426902091,0.0,0.0,0.0,0.0,0.0,0.0,0.0,0.0,0.0,0.0,0.0,0.0,-0.0011892615314568337,0.00015395054683803923,-5.78732330045716e-05,-0.0017140829279859633,0.0014379882075506664,0.0011375884187492333
419122000000,ground_plane,Floor,khm2,0.252724,-0.228037,0.0,0.0,0.0,0.0,1.0,-0.010923,0.300375,-0.916015,0.0,-0.08715572466147241,0.0,0.9961946996740816,-0.5450355127836485,-0.001817167397199,-0.2940201514020024,-0.061626545001755524,-0.06147702554778745,0.7027025879298469,0.7061386671169049,0.0,0.0,0.0,0.0,0.0,0.0,0.0,0.0,0.0,0.0,0.0,0.0,-0.0018634782485921196,-0.0002554836857159529,-0.00033386853286193293,0.002235364020817458,-0.0017814439759858305,-0.0005985670247299588
419123000000,ground_plane,Floor,khm2,0.252724,-0.228037,0.0,0.0,0.0,0.0,1.0,-0.010923,0.300375,-0.916015,0.0,-0.08715572466147241,0.0,0.9961946996740816,-0.5450367009720368,-0.001817012799238583,-0.29402020928098194,-0.06162661041576427,-0.061475949344014326,0.7027030819964332,0.7061382634396963,0.0,0.0,0.0,0.0,0.0,0.0,0.0,0.0,0.0,0.0,0.0,0.0,-0.001188289971120015,0.0001546115201663444,-5.789610592635039e-05,-0.001715359757946896,0.001439178859274886,0.0011243788317286956
419124000000,ground_plane,Floor,khm2,0.252724,-0.228037,0.0,0.0,0.0,0.0,1.0,-0.010923,0.300375,-0.916015,0.0,-0.08715572466147241,0.0,0.9961946996740816,-0.5450385638890225,-0.0018172670141136098,-0.2940205431460279,-0.061626464830097656,-0.06147734677059336,0.7027027394634541,0.7061384953514077,0.0,0.0,0.0,0.0,0.0,0.0,0.0,0.0,0.0,0.0,0.0,0.0,-0.0018629431624320033,-0.00025418649936919947,-0.0003338729770735113,0.002240304664430651,-0.001782589790690475,-0.0006195383961383969
419125000000,ground_plane,Floor,khm2,0.252724,-0.228037,0.0,0.0,0.0,0.0,1.0,-0.010923,0.300375,-0.916015,0.0,-0.08715572466147241,0.0,0.9961946996740816,-0.545039751233569,-0.0018171117726276172,-0.29402060106850436,-0.061626530701467806,-0.06147626929459847,0.7027032295514508,0.7061380957045725,0.0,0.0,0.0,0.0,0.0,0.0,0.0,0.0,0.0,0.0,0.0,0.0,-0.0011874461096783825,0.00015525502819540427,-5.7939565303963215e-05,-0.0017168079737471787,0.0014403368038064881,0.0011128816108011469
419126000000,ground_plane,Floor,khm2,0.252724,-0.228037,0.0,0.0,0.0,0.0,1.0,-0.010923,0.300375,-0.916015,0.0,-0.08715572466147241,0.0,0.9961946996740816,-0.5450416136988412,-0.0018173647738064054,-0.29402093495078185,-0.06162638447950753,-0.061477668047522735,0.7027028802500211,0.7061383342913393,0.0,0.0,0.0,0.0,0.0,0.0,0.0,0.0,0.0,0.0,0.0,0.0,-0.001862491443191616,-0.00025297280972195286,-0.0003338902068333324,0.002244722796572258,-0.001783581496283913,-0.0006382368402801882
419127000000,ground_plane,Floor,khm2,0.252724,-0.228037,0.0,0.0,0.0,0.0,1.0,-0.010923,0.300375,-0.916015,0.0,-0.08715572466147241,0.0,0.9961946996740816,-0.5450428003036554,-0.001817208963809338,-0.2940209929203409,-0.06162645078077595,-0.06147658936398818,0.7027033668381161,0.7061379381953024,0.0,0.0,0.0,0.0,0.0,0.0,0.0,0.0,0.0,0.0,0.0,0.0,-0.001186706361563192,0.00015582345927757184,-5.798664093331037e-05,-0.0017182450158561133,0.0014414423858421907,0.0011027465680018144
419128000000,ground_plane,Floor,khm2,0.252724,-0.228037,0.0,0.0,0.0,0.0,1.0,-0.010923,0.300375,-0.916015,0.0,-0.08715572466147241,0.0,0.9961946996740816,-0.5450446623839124,-0.0018174608818881666,-0.2940213268197735,-0.0616263039857599,-0.06147798938248462,0.7027030114694359,0.7061381827591026,0.0,0.0,0.0,0.0,0.0,0.0,0.0,0.0,0.0,0.0,0.0,0.0,-0.001862106423800017,-0.0002518897139596761,-0.00033390736054615303,0.0022487939527898976,-0.0017845756769094324,-0.0006549792733230871
419129000000,ground_plane,Floor,khm2,0.252724,-0.228037,0.0,0.0,0.0,0.0,1.0,-0.010923,0.300375,-0.916015,0.0,-0.08715572466147241,0.0,0.9961946996740816,-0.545045848334868,-0.0018173045653234745,-0.294021384831681,-0.06162637066811334,-0.061476909551536625,0.702703494947236,0.7061377898251929,0.0,0.0,0.0,0.0,0.0,0.0,0.0,0.0,0.0,0.0,0.0,0.0,-0.0011860524954863322,0.00015633009746882824,-5.8028930522391414e-05,-0.0017196232586268643,0.001442531396809528,0.00109372009228102
419130000000,ground_plane,Floor,khm2,0.252724,-0.228037,0.0,0.0,0.0,0.0,1.0,-0.010923,0.300375,-0.916015,0.0,-0.08715572466147241,0.0,0.9961946996740816,-0.5450477100831932,-0.0018175555115717372,-0.29402171875008526,-0.061626223350179275,-0.06147831076219997,0.7027031341244289,0.7061380397578968,0.0,0.0,0.0,0.0,0.0,0.0,0.0,0.0,0.0,0.0,0.0,0.0,-0.0018617744857516176,-0.0002509178911002396,-0.0003339263304578802,0.0022525407588488704,-0.0017855358568105311,-0.0006700163245913592
419131000000,ground_plane,Floor,khm2,0.252724,-0.228037,0.0,0.0,0.0,0.0,1.0,-0.010923,0.300375,-0.916015,0.0,-0.08715572466147241,0.0,0.9961946996740816,-0.5450488954587251,-0.0018173987353693412,-0.29402177680112135,-0.06162629034986857,-0.06147722986107923,0.7027036148005864,0.7061376496778164,0.0,0.0,0.0,0.0,0.0,0.0,0.0,0.0,0.0,0.0,0.0,0.0,-0.001185478141673396,0.00015678988049202375,-5.806797861019806e-05,-0.0017208770598357546,0.0014436608466668578,0.0010855677938843703
419132000000,ground_plane,Floor,khm2,0.252724,-0.228037,0.0,0.0,0.0,0.0,1.0,-0.010923,0.300375,-0.916015,0.0,-0.08715572466147241,0.0,0.9961946996740816,-0.5450507569248136,-0.0018176488043064576,-0.29402211074182005,-0.061626142557943506,-0.06147863219602142,0.7027032490601749,0.7061379044471472,0.0,0.0,0.0,0.0,0.0,0.0,0.0,0.0,0.0,0.0,0.0,0.0,-0.0018614922466580924,-0.00025004058452834504,-0.0003339486241027623,0.0022559914670357644,-0.001786468250360286,-0.0006835620260778299
419133000000,ground_plane,Floor,khm2,0.252724,-0.228037,0.0,0.0,0.0,0.0,1.0,-0.010923,0.300375,-0.916015,0.0,-0.08715572466147241,0.0,0.9961946996740816,-0.5450519417943446,-0.0018174916071455305,-0.29402216882930715,-0.061626209806569805,-0.06147755026441044,0.7027037272179104,0.70613751694158,0.0,0.0,0.0,0.0,0.0,0.0,0.0,0.0,0.0,0.0,0.0,0.0,-0.0011849721322408741,0.00015721089459377183,-5.810438096879307e-05,-0.001722049666724912,0.0014447711915049715,0.001078234004977249
419134000000,ground_plane,Floor,khm2,0.252724,-0.228037,0.0,0.0,0.0,0.0,1.0,-0.010923,0.300375,-0.916015,0.0,-0.08715572466147241,0.0,0.9961946996740816,-0.5450538030204862,-0.0018177408806266638,-0.29402250279624015,-0.06162606159121798,-0.06147895365172491,0.7027033570499656,0.7061377760616928,0.0,0.0,0.0,0.0,0.0,0.0,0.0,0.0,0.0,0.0,0.0,0.0,-0.0018612522929272667,-0.00024924513685124474,-0.00033397485639711036,0.0022591495584822177,-0.0017873695136401285,-0.0006957478395754621
419135000000,ground_plane,Floor,khm2,0.252724,-0.228037,0.0,0.0,0.0,0.0,1.0,-0.010923,0.300375,-0.916015,0.0,-0.08715572466147241,0.0,0.9961946996740816,-0.5450549874430856,-0.0018175832951080183,-0.29402256091485746,-0.06162612906204571,-0.06147787078649724,0.7027038329374775,0.7061373908775577,0.0,0.0,0.0,0.0,0.0,0.0,0.0,0.0,0.0,0.0,0.0,0.0,-0.0011845252731364317,0.00015759923247509966,-5.8135667442567637e-05,-0.0017231119440762961,0.0014457825559521492,0.0010716234276365272
419136000000,ground_plane,Floor,khm2,0.252724,-0.228037,0.0,0.0,0.0,0.0,1.0,-0.010923,0.300375,-0.916015,0.0,-0.08715572466147241,0.0,0.9961946996740816,-0.545056848465861,-0.0018178318473427407,-0.2940228949120674,-0.061625980470130494,-0.06147927515949731,0.7027034587819676,0.7061376539123356,0.0,0.0,0.0,0.0,0.0,0.0,0.0,0.0,0.0,0.0,0.0,0.0,-0.001861048918441298,-0.0002485238981952826,-0.0003340051309091207,0.0022620399102852903,-0.0017882418891653031,-0.000706713390791642
419137000000,ground_plane,Floor,khm2,0.252724,-0.228037,0.0,0.0,0.0,0.0,1.0,-0.010923,0.300375,-0.916015,0.0,-0.08715572466147241,0.0,0.9961946996740816,-0.5450580324903244,-0.001817673901563591,-0.29402295305371184,-0.061626048131932766,-0.06147819144695938,0.7027039326128759,0.7061372708322728,0.0,0.0,0.0,0.0,0.0,0.0,0.0,0.0,0.0,0.0,0.0,0.0,-0.0011841271282144157,0.0001579594856431233,-5.8158674509323146e-05,-0.001724060516782323,0.0014467149696542328,0.001065633402726264
419138000000,ground_plane,Floor,khm2,0.252724,-0.228037,0.0,0.0,0.0,0.0,1.0,-0.010923,0.300375,-0.916015,0.0,-0.08715572466147241,0.0,0.9961946996740816,-0.5450598933383327,-0.0018179217990052438,-0.29402328708575803,-0.061625899206078694,-0.06147959673188431,0.7027035548637741,0.7061375373923569,0.0,0.0,0.0,0.0,0.0,0.0,0.0,0.0,0.0,0.0,0.0,0.0,-0.001860874144915718,-0.00024786911223820236,-0.0003340399652409307,0.002264669940529065,-0.0017890693146012625,-0.0007165896491509174
419139000000,ground_plane,Floor,khm2,0.252724,-0.228037,0.0,0.0,0.0,0.0,1.0,-0.010923,0.300375,-0.916015,0.0,-0.08715572466147241,0.0,0.9961946996740816,-0.5450610770098442,-0.0018177635216490627,-0.2940233452534481,-0.061625967041780624,-0.06147851221287722,0.7027040268651963,0.7061371561882962,0.0,0.0,0.0,0.0,0.0,0.0,0.0,0.0,0.0,0.0,0.0,0.0,-0.0011837741433474195,0.00015829086479927633,-5.818493225657412e-05,-0.0017249834199183059,0.0014476169438081823,0.001060308571419179
419140000000,ground_plane,Floor,khm2,0.252724,-0.228037,0.0,0.0,0.0,0.0,1.0,-0.010923,0.300375,-0.916015,0.0,-0.08715572466147241,0.0,0.9961946996740816,-0.5450629377104088,-0.0018180108256089218,-0.2940236793246077,-0.06162581782023706,-0.06147991833497333,0.702703645893303,0.7061374259078552,0.0,0.0,0.0,0.0,0.0,0.0,0.0,0.0,0.0,0.0,0.0,0.0,-0.0018607267071294577,-0.00024727561364401785,-0.00033407907840316545,0.002267050349599736,-0.0017898443458771488,-0.0007254421326708158
419141000000,ground_plane,Floor,khm2,0.252724,-0.228037,0.0,0.0,0.0,0.0,1.0,-0.010923,0.300375,-0.916015,0.0,-0.08715572466147241,0.0,0.9961946996740816,-0.5450641210713955,-0.0018178522524133205,-0.2940237375238182,-0.06162588582757421,-0.06147883301488446,0.7027041163096647,0.706137046336296,0.0,0.0,0.0,0.0,0.0,0.0,0.0,0.0,0.0,0.0,0.0,0.0,-0.0011834636109458617,0.00015858674301753292,-5.821641958801002e-05,-0.0017259553738732105,0.001448511286042129,0.0010556549551672535
419142000000,ground_plane,Floor,khm2,0.252724,-0.228037,0.0,0.0,0.0,0.0,1.0,-0.010923,0.300375,-0.916015,0.0,-0.08715572466147241,0.0,0.9961946996740816,-0.5450659816506563,-0.0018180990238410833,-0.2940240716373101,-0.06162573634102954,-0.06148023991269559,0.7027037324541637,0.7061373188804643,0.0,0.0,0.0,0.0,0.0,0.0,0.0,0.0,0.0,0.0,0.0,0.0,-0.0018606053959323385,-0.0002467430900874088,-0.00033412140851224925,0.0022692179050020638,-0.0017905749554268334,-0.000733356192889223
419143000000,ground_plane,Floor,khm2,0.252724,-0.228037,0.0,0.0,0.0,0.0,1.0,-0.010923,0.300375,-0.916015,0.0,-0.08715572466147241,0.0,0.9961946996740816,-0.5450671647413627,-0.0018179401798023161,-0.2940241298680547,-0.06162580450098275,-0.061479153845325936,0.7027042014476134,0.7061369407770292,0.0,0.0,0.0,0.0,0.0,0.0,0.0,0.0,0.0,0.0,0.0,0.0,-0.0011831933235863395,0.0001588576210759397,-5.8247923511034165e-05,-0.00172686509630466,0.0014493562130368162,0.0010514704097529105
419144000000,ground_plane,Floor,khm2,0.252724,-0.228037,0.0,0.0,0.0,0.0,1.0,-0.010923,0.300375,-0.916015,0.0,-0.08715572466147241,0.0,0.9961946996740816,-0.5450690252245224,-0.00181818647079214,-0.2940244640265981,-0.06162565477655817,-0.06148056147292362,0.7027038149920832,0.7061372158652358,0.0,0.0,0.0,0.0,0.0,0.0,0.0,0.0,0.0,0.0,0.0,0.0,-0.0018605092872384884,-0.0002462626606551878,-0.00033416645785866824,0.0022712131532787857,-0.0017912783740468817,-0.0007404844439397252
419145000000,ground_plane,Floor,khm2,0.252724,-0.228037,0.0,0.0,0.0,0.0,1.0,-0.010923,0.300375,-0.916015,0.0,-0.08715572466147241,0.0,0.9961946996740816,-0.5450702080800405,-0.0018180273772856273,-0.29402452228886317,-0.0616257230739996,-0.061479474696100656,0.7027042827081698,0.7061368390831164,0.0,0.0,0.0,0.0,0.0,0.0,0.0,0.0,0.0,0.0,0.0,0.0,-0.0011829581283046295,0.00015910712032427706,-5.8279415901911355e-05,-0.0017277363113937703,0.0014501689141375557,0.001047704328804001
419146000000,ground_plane,Floor,khm2,0.252724,-0.228037,0.0,0.0,0.0,0.0,1.0,-0.010923,0.300375,-0.916015,0.0,-0.08715572466147241,0.0,0.9961946996740816,-0.545072068488252,-0.001818273233507142,-0.29402485649495874,-0.06162557313626795,-0.061480883004506305,0.7027038939083161,0.7061371164630159,0.0,0.0,0.0,0.0,0.0,0.0,0.0,0.0,0.0,0.0,0.0,0.0,-0.001860434331670564,-0.00024582790078438806,-0.00033421400794024096,0.0022730423132766406,-0.0017919466767474794,-0.0007469059800985807
419147000000,ground_plane,Floor,khm2,0.252724,-0.228037,0.0,0.0,0.0,0.0,1.0,-0.010923,0.300375,-0.916015,0.0,-0.08715572466147241,0.0,0.9961946996740816,-0.5450732511400267,-0.0018181139097370141,-0.2940249147892727,-0.061625641557269885,-0.061479795556338035,0.7027043604777625,0.7061367408700279,0.0,0.0,0.0,0.0,0.0,0.0,0.0,0.0,0.0,0.0,0.0,0.0,-0.001182754378067954,0.00015933741229894649,-5.8311438595044856e-05,-0.0017285666935977272,0.00145094727460614,0.0010443151069310075
419149000000,ground_plane,Floor,khm2,0.252724,-0.228037,0.0,0.0,0.0,0.0,1.0,-0.010923,0.300375,-0.916015,0.0,-0.08715572466147241,0.0,0.9961946996740816,-0.5450751114924155,-0.001818359372630803,-0.29402524904521027,-0.061625491427969276,-0.06148120450173581,0.7027039695641999,0.7061370203140414,0.0,0.0,0.0,0.0,0.0,0.0,0.0,0.0,0.0,0.0,0.0,0.0,-0.001860378501562363,-0.0002454345814471713,-0.00033426384782657957,0.0022747227823866015,-0.001792583217428147,-0.0007526900588810134
419149000000,ground_plane,Floor,khm2,0.252724,-0.228037,0.0,0.0,0.0,0.0,1.0,-0.010923,0.300375,-0.916015,0.0,-0.08715572466147241,0.0,0.9961946996740816,-0.5450762939682237,-0.0018181998359470676,-0.29402530737185295,-0.06162555995993436,-0.06148011641266535,0.7027044351056879,0.7061366457905337,0.0,0.0,0.0,0.0,0.0,0.0,0.0,0.0,0.0,0.0,0.0,0.0,-0.001182578404698088,0.00015955035146441294,-5.8343742952836094e-05,-0.0017293658651215125,0.0014517003011717043,0.0010412670080238134
419150000000,ground_plane,Floor,khm2,0.252724,-0.228037,0.0,0.0,0.0,0.0,1.0,-0.010923,0.300375,-0.916015,0.0,-0.08715572466147241,0.0,0.9961946996740816,-0.5450781542813644,-0.0018184449428244747,-0.29402564167966205,-0.061625409658588134,-0.061481525952836284,0.7027040422867072,0.7061369270933532,0.0,0.0,0.0,0.0,0.0,0.0,0.0,0.0,0.0,0.0,0.0,0.0,-0.0018603392460936636,-0.00024507857340161875,-0.0003343157171885054,0.0022762654230281,-0.0017931871510481281,-0.0007578990380228006
419151000000,ground_plane,Floor,khm2,0.252724,-0.228037,0.0,0.0,0.0,0.0,1.0,-0.010923,0.300375,-0.916015,0.0,-0.08715572466147241,0.0,0.9961946996740816,-0.545079336606197,-0.0018182852091970017,-0.2940257000391056,-0.061625478290076474,-0.061480437251960576,0.7027045069069727,0.7061365535315782,0.0,0.0,0.0,0.0,0.0,0.0,0.0,0.0,0.0,0.0,0.0,0.0,-0.0011824274222403815,0.0001597473182553827,-5.837652093345305e-05,-0.0017301344142044547,0.0014524282557107741,0.0010385261193964507
419151000000,ground_plane,Floor,khm2,0.252724,-0.228037,0.0,0.0,0.0,0.0,1.0,-0.010923,0.300375,-0.916015,0.0,-0.08715572466147241,0.0,0.9961946996740816,-0.5450811968950948,-0.001818529994110382,-0.29402603440063146,-0.06162532783409859,-0.061481847349275476,0.7027041123702238,0.7061368365082198,0.0,0.0,0.0,0.0,0.0,0.0,0.0,0.0,0.0,0.0,0.0,0.0,-0.001860314995786774,-0.0002447566176688231,-0.0003343694317995934,0.0022776847082092103,-0.001793762039556088,-0.0007625898069531247
419151000000,ground_plane,Floor,khm2,0.252724,-0.228037,0.0,0.0,0.0,0.0,1.0,-0.010923,0.300375,-0.916015,0.0,-0.08715572466147241,0.0,0.9961946996740816,-0.5450823790912519,-0.001818370078160734,-0.29402609279318426,-0.061625396554703935,-0.06148075806129394,0.7027045761655742,0.7061364638110998,0.0,0.0,0.0,0.0,0.0,0.0,0.0,0.0,0.0,0.0,0.0,0.0,-0.0011822987398787666,0.00015992966122565098,-5.840960867235714e-05,-0.001730877381271589,0.0014531359188507597,0.0010360620432526488
419154000000,ground_plane,Floor,khm2,0.252724,-0.228037,0.0,0.0,0.0,0.0,1.0,-0.010923,0.300375,-0.916015,0.0,-0.08715572466147241,0.0,0.9961946996740816,-0.5450842393691744,-0.0018186145719646504,-0.29402642721007227,-0.061625245959736084,-0.061482168680936165,0.7027041800801567,0.7061367482949501,0.0,0.0,0.0,0.0,0.0,0.0,0.0,0.0,0.0,0.0,0.0,0.0,-0.0018603040130481798,-0.0002444655164567417,-0.0003344247918632988,0.0022789916390948245,-0.001794309391331369,-0.0007668138167077516
419155000000,ground_plane,Floor,khm2,0.252724,-0.228037,0.0,0.0,0.0,0.0,1.0,-0.010923,0.300375,-0.916015,0.0,-0.08715572466147241,0.0,0.9961946996740816,-0.5450854214567316,-0.001818454487125406,-0.29402648563608974,-0.06162531476003686,-0.061481078828770686,0.7027046431371358,0.7061363763751928,0.0,0.0,0.0,0.0,0.0,0.0,0.0,0.0,0.0,0.0,0.0,0.0,-0.0011821901331636158,0.00016009856959789585,-5.844305310137517e-05,-0.001731596246458093,0.0014538244135630489,0.0010338468938128251
419156000000,ground_plane,Floor,khm2,0.252724,-0.228037,0.0,0.0,0.0,0.0,1.0,-0.010923,0.300375,-0.916015,0.0,-0.08715572466147241,0.0,0.9961946996740816,-0.5450872817356658,-0.0018186987178920797,-0.2940268201098324,-0.061625164040095534,-0.06148248993965447,0.7027042456552688,0.7061366622162534,0.0,0.0,0.0,0.0,0.0,0.0,0.0,0.0,0.0,0.0,0.0,0.0,-0.0018603050174590102,-0.00024420248742907513,-0.0003344816443566225,0.002280197878179436,-0.0017948322283818333,-0.0007706175984255726
419157000000,ground_plane,Floor,khm2,0.252724,-0.228037,0.0,0.0,0.0,0.0,1.0,-0.010923,0.300375,-0.916015,0.0,-0.08715572466147241,0.0,0.9961946996740816,-0.5450884637326111,-0.0018185384764119468,-0.29402687856957765,-0.061625232911552474,-0.06148139954330862,0.7027047080517935,0.7061362909953268,0.0,0.0,0.0,0.0,0.0,0.0,0.0,0.0,0.0,0.0,0.0,0.0,-0.001182099514358419,0.0001602552274423663,-5.847676181534545e-05,-0.0017322942149559162,0.0014544966322254198,0.0010318557037266019
419158000000,ground_plane,Floor,khm2,0.252724,-0.228037,0.0,0.0,0.0,0.0,1.0,-0.010923,0.300375,-0.916015,0.0,-0.08715572466147241,0.0,0.9961946996740816,-0.5450903240232483,-0.0018187824695377356,-0.2940272131015157,-0.061625082079243707,-0.061482811117105844,0.7027043093105325,0.7061365780585739,0.0,0.0,0.0,0.0,0.0,0.0,0.0,0.0,0.0,0.0,0.0,0.0,-0.001860316713109671,-0.0002439648547241847,-0.00033453983762275806,0.0022813130035205017,-0.0017953324902989715,-0.0007740430991933212
419159000000,ground_plane,Floor,khm2,0.252724,-0.228037,0.0,0.0,0.0,0.0,1.0,-0.010923,0.300375,-0.916015,0.0,-0.08715572466147241,0.0,0.9961946996740816,-0.5450915059457684,-0.0018186220825689944,-0.2940272715952555,-0.06162515101414932,-0.0614817201948424,0.7027047711166338,0.7061362074658725,0.0,0.0,0.0,0.0,0.0,0.0,0.0,0.0,0.0,0.0,0.0,0.0,-0.0011820250823035643,0.00016040073137597703,-5.851073820419486e-05,-0.0017329729597434088,0.0014551538643130491,0.0010300658758104098
419160000000,ground_plane,Floor,khm2,0.252724,-0.228037,0.0,0.0,0.0,0.0,1.0,-0.010923,0.300375,-0.916015,0.0,-0.08715572466147241,0.0,0.9961946996740816,-0.5450933662573842,-0.00181886589559415,-0.29402760618842433,-0.06162500010352781,-0.061483132329949425,0.7027043711960179,0.7061364956601146,0.0,0.0,0.0,0.0,0.0,0.0,0.0,0.0,0.0,0.0,0.0,0.0,-0.0018603376924285642,-0.00024378475376940983,-0.00033460106866691787,0.0022824972430246925,-0.0017960209267485082,-0.0007772194625965027
419161000000,ground_plane,Floor,khm2,0.252724,-0.228037,0.0,0.0,0.0,0.0,1.0,-0.010923,0.300375,-0.916015,0.0,-0.08715572466147241,0.0,0.9961946996740816,-0.5450945480987927,-0.0018187053849086526,-0.294027664703629,-0.06162506908962315,-0.061482040802196124,0.7027048324696008,0.7061361256460164,0.0,0.0,0.0,0.0,0.0,0.0,0.0,0.0,0.0,0.0,0.0,0.0,-0.0011819439707109543,0.00016052446291402083,-5.8532186527624084e-05,-0.0017337594599289552,0.0014559417400905788,0.0010284192564795798
419162000000,ground_plane,Floor,khm2,0.252724,-0.228037,0.0,0.0,0.0,0.0,1.0,-0.010923,0.300375,-0.916015,0.0,-0.08715572466147241,0.0,0.9961946996740816,-0.5450931113588346,-0.0018203743312031448,-0.29402818283458887,-0.0616255825794984,-0.061502554391662884,0.7027021460825532,0.7061369677803394,0.0,0.0,0.0,0.0,0.0,0.0,0.0,0.0,0.0,0.0,0.0,0.0,0.001436745536348387,-0.001668883600305915,-0.0005180938241015175,0.028539216486113975,-0.029920791347705242,-0.002509203354777569
419163000000,ground_plane,Floor,khm2,0.252724,-0.228037,0.0,0.0,0.0,0.0,1.0,-0.010923,0.300375,-0.916015,0.0,-0.08715572466147241,0.0,0.9961946996740816,-0.5450856885810914,-0.0018193926139886028,-0.2940244777872362,-0.06163725464507143,-0.061490559213940185,0.7027028863269371,0.7061362570461647,0.0,0.0,0.0,0.0,0.0,0.0,0.0,0.0,0.0,0.0,0.0,0.0,0.00742111451923482,0.0009816192425949855,0.003702600723150397,-0.03352137250459069,0.0005556677713542288,-0.0008659658687200878
419164000000,ground_plane,Floor,khm2,0.252724,-0.228037,0.0,0.0,0.0,0.0,1.0,-0.010923,0.300375,-0.916015,0.0,-0.08715572466147241,0.0,0.9961946996740816,-0.545078159469483,-0.0018182852782117978,-0.2940304190913971,-0.06165570027965483,-0.06148603282048172,0.7027036965589989,0.7061342345711209,0.0,0.0,0.0,0.0,0.0,0.0,0.0,0.0,0.0,0.0,0.0,0.0,0.007529111608426712,0.001107335776804908,-0.005941304160886727,-0.0327606450926676,-0.01967994554106108,0.00116021286908963
419165000000,ground_plane,Floor,khm2,0.252724,-0.228037,0.0,0.0,0.0,0.0,1.0,-0.010923,0.300375,-0.916015,0.0,-0.08715572466147241,0.0,0.9961946996740816,-0.5450548772600305,-0.0018175907938680711,-0.294016263350053,-0.06166926452775656,-0.06150274812442081,0.7027086853462966,0.7061266298084427,0.0,0.0,0.0,0.0,0.0,0.0,0.0,0.0,0.0,0.0,0.0,0.0,0.022899587714204486,0.000887793097707793,0.013705610045925623,-0.0005130662105977445,-0.03705212322857205,0.020778075061499448
419165000000,ground_plane,Floor,khm2,0.252724,-0.228037,0.0,0.0,0.0,0.0,1.0,-0.010923,0.300375,-0.916015,0.0,-0.08715572466147241,0.0,0.9961946996740816,-0.5450275768506985,-0.0018186310642017047,-0.29400635955621635,-0.06169092380683905,-0.06154803403248299,0.7027028796429543,0.7061265696517125,0.0,0.0,0.0,0.0,0.0,0.0,0.0,0.0,0.0,0.0,0.0,0.0,0.027296252663948542,-0.0010370675306574412,0.009897959566974018,0.03375064318639954,-0.09507734379860647,-0.005172980191568634
419167000000,ground_plane,Floor,khm2,0.252724,-0.228037,0.0,0.0,0.0,0.0,1.0,-0.010923,0.300375,-0.916015,0.0,-0.08715572466147241,0.0,0.9961946996740816,-0.5449926727312603,-0.001815160656011906,-0.2939899425363202,-0.061741659748827206,-0.06154359469802058,0.7027161131024506,0.7061093525717455,0.0,0.0,0.0,0.0,0.0,0.0,0.0,0.0,0.0,0.0,0.0,0.0,0.033991955120116685,0.0027674267998325413,0.014569790964183925,-0.07194232202615006,-0.06660929595384073,0.03214367844001903
419168000000,ground_plane,Floor,khm2,0.252724,-0.228037,0.0,0.0,0.0,0.0,1.0,-0.010923,0.300375,-0.916015,0.0,-0.08715572466147241,0.0,0.9961946996740816,-0.5449526540406473,-0.001814743995324776,-0.29397378741962216,-0.06175748728300996,-0.06157332620985816,0.702712160461704,0.7061093100952484,0.0,0.0,0.0,0.0,0.0,0.0,0.0,0.0,0.0,0.0,0.0,0.0,0.04001906164879189,0.00041870696196189656,0.016155163694289938,0.019950531733077856,-0.06473796437819404,-0.0038207259143648235
419169000000,ground_plane,Floor,khm2,0.252724,-0.228037,0.0,0.0,0.0,0.0,1.0,-0.010923,0.300375,-0.916015,0.0,-0.08715572466147241,0.0,0.9961946996740816,-0.5449021379449598,-0.0018100973545119056,-0.29394900861815576,-0.061805829957336515,-0.06159875035169542,0.7027147438918566,0.706100291782546,0.0,0.0,0.0,0.0,0.0,0.0,0.0,0.0,0.0,0.0,0.0,0.0,0.050513057986563525,0.004646953000047257,0.024774586839460204,-0.03397037871123691,-0.10460231145992771,0.013507255332097092
419170000000,ground_plane,Floor,khm2,0.252724,-0.228037,0.0,0.0,0.0,0.0,1.0,-0.010923,0.300375,-0.916015,0.0,-0.08715572466147241,0.0,0.9961946996740816,-0.5448514856861014,-0.0018053499338195988,-0.2939339384379806,-0.06185529852760264,-0.061625354991749724,0.7027177206583868,0.7060906760033612,0.0,0.0,0.0,0.0,0.0,0.0,0.0,0.0,0.0,0.0,0.0,0.0,0.050652258858362095,0.004747420692306835,0.01507018017515608,-0.03402395083225846,-0.10791235266733895,0.014912330568139637
419171000000,ground_plane,Floor,khm2,0.252724,-0.228037,0.0,0.0,0.0,0.0,1.0,-0.010923,0.300375,-0.916015,0.0,-0.08715572466147241,0.0,0.9961946996740816,-0.5447928449896424,-0.001800334875699716,-0.2939109314722642,-0.061882289603417275,-0.0616400144430581,0.7027188036577073,0.7060859535770266,0.0,0.0,0.0,0.0,0.0,0.0,0.0,0.0,0.0,0.0,0.0,0.0,0.05863993471676556,0.005014902123396212,0.023005783126481206,-0.018231352901975025,-0.0590782526072047,0.00664710248580801
419173000000,ground_plane,Floor,khm2,0.252724,-0.228037,0.0,0.0,0.0,0.0,1.0,-0.010923,0.300375,-0.916015,0.0,-0.08715572466147241,0.0,0.9961946996740816,-0.5447310705223145,-0.0017968641435724493,-0.2938932825783412,-0.06191175559806954,-0.061672791717532614,0.7027119457650374,0.7060873335216019,0.0,0.0,0.0,0.0,0.0,0.0,0.0,0.0,0.0,0.0,0.0,0.0,0.061773591531770075,0.003470812248554364,0.017648043108028404,0.005462606540404645,-0.08836174762191978,-0.011189998362072726
419173000000,ground_plane,Floor,khm2,0.252724,-0.228037,0.0,0.0,0.0,0.0,1.0,-0.010923,0.300375,-0.916015,0.0,-0.08715572466147241,0.0,0.9961946996740816,-0.5446645537160839,-0.0017917214292070343,-0.29387397497164475,-0.06194448107782254,-0.06167136121766001,0.7027084022378305,0.7060881148227293,0.0,0.0,0.0,0.0,0.0,0.0,0.0,0.0,0.0,0.0,0.0,0.0,0.06651625117221512,0.005142564880465785,0.01930679820736349,-0.047691206068609576,-0.04431001904152388,-0.010311274322071975
419174000000,ground_plane,Floor,khm2,0.252724,-0.228037,0.0,0.0,0.0,0.0,1.0,-0.010923,0.300375,-0.916015,0.0,-0.08715572466147241,0.0,0.9961946996740816,-0.5445953278157214,-0.0017876208707352699,-0.29385949165559344,-0.06196439569890018,-0.06168405414788992,0.7026978935745772,0.7060957169501898,0.0,0.0,0.0,0.0,0.0,0.0,0.0,0.0,0.0,0.0,0.0,0.0,0.06922590777129262,0.004100555321289299,0.014483325599142156,-0.008046050265161617,-0.04627732894796648,-0.026408110560898167
419175000000,ground_plane,Floor,khm2,0.252724,-0.228037,0.0,0.0,0.0,0.0,1.0,-0.010923,0.300375,-0.916015,0.0,-0.08715572466147241,0.0,0.9961946996740816,-0.5445201216868221,-0.0017828964757846857,-0.2938421267835716,-0.0619846485745702,-0.06168018392865812,0.7026890801776854,0.7061030483227305,0.0,0.0,0.0,0.0,0.0,0.0,0.0,0.0,0.0,0.0,0.0,0.0,0.07520643894211775,0.004724332404278892,0.017364953537164097,-0.03204448038189536,-0.023195839395607945,-0.025720561692285718
419176000000,ground_plane,Floor,khm2,0.252724,-0.228037,0.0,0.0,0.0,0.0,1.0,-0.010923,0.300375,-0.916015,0.0,-0.08715572466147241,0.0,0.9961946996740816,-0.5444423860699377,-0.0017799923322215272,-0.2938298205344121,-0.06199610378943576,-0.06168426774314294,0.7026768336853277,0.7061138729906701,0.0,0.0,0.0,0.0,0.0,0.0,0.0,0.0,0.0,0.0,0.0,0.0,0.07773556444838921,0.002904212302403285,0.012306166067331275,-0.007584927007030285,-0.02204863195185523,-0.03341417679995926
419177000000,ground_plane,Floor,khm2,0.252724,-0.228037,0.0,0.0,0.0,0.0,1.0,-0.010923,0.300375,-0.916015,0.0,-0.08715572466147241,0.0,0.9961946996740816,-0.5443585743831815,-0.0017768498224405948,-0.2938149770429719,-0.06200973685856508,-0.06167702515602966,0.7026715622865529,0.7061185542502115,0.0,0.0,0.0,0.0,0.0,0.0,0.0,0.0,0.0,0.0,0.0,0.0,0.08381125409590037,0.003142356429687875,0.014842766384158225,-0.028200533117775893,-0.00900476665446669,-0.016606639852311162
419177000000,ground_plane,Floor,khm2,0.252724,-0.228037,0.0,0.0,0.0,0.0,1.0,-0.010923,0.300375,-0.916015,0.0,-0.08715572466147241,0.0,0.9961946996740816,-0.5442726513351137,-0.001775238511245474,-0.29380556988843115,-0.06201165206109857,-0.06167488701491551,0.702663608587252,0.7061264875980026,0.0,0.0,0.0,0.0,0.0,0.0,0.0,0.0,0.0,0.0,0.0,0.0,0.08592301593769891,0.0016113531435328428,0.009407104388264526,-0.0037443808095737204,0.0003204526610276207,-0.022883003296358912
419179000000,ground_plane,Floor,khm2,0.252724,-0.228037,0.0,0.0,0.0,0.0,1.0,-0.010923,0.300375,-0.916015,0.0,-0.08715572466147241,0.0,0.9961946996740816,-0.5441819387206007,-0.0017732345666620249,-0.2937953569545091,-0.06201557195383519,-0.06165115073679054,0.7026552379287971,0.7061365456193963,0.0,0.0,0.0,0.0,0.0,0.0,0.0,0.0,0.0,0.0,0.0,0.0,0.09071222977634624,0.0020039938503310754,0.010212609273547056,-0.03662013296096343,0.028224722238578408,-0.02938929097800697
419180000000,ground_plane,Floor,khm2,0.252724,-0.228037,0.0,0.0,0.0,0.0,1.0,-0.010923,0.300375,-0.916015,0.0,-0.08715572466147241,0.0,0.9961946996740816,-0.5440890179799489,-0.0017727202651827594,-0.2937902048801957,-0.06200446079252764,-0.06163296075522944,0.7026440034519598,0.7061502881139219,0.0,0.0,0.0,0.0,0.0,0.0,0.0,0.0,0.0,0.0,0.0,0.0,0.09292072636465519,0.0005143195478092474,0.005152053724875085,-0.006780766013340037,0.041605038546854,-0.03606470565350588
