%time,field.header.seq,field.header.stamp,field.header.frame_id,field.wrench.force.x,field.wrench.force.y,field.wrench.force.z,field.wrench.torque.x,field.wrench.torque.y,field.wrench.torque.z
419066000000,0,419057000000,BR_wheel_link,0.2019097598868219,0.3954581512127365,-1.7660531905607515,0.023790553388351572,-0.01003097729860488,0.0034493477579094945
419066000000,1,419058000000,BR_wheel_link,-0.0012971135725482854,-0.003843936910959261,0.00016722545069787866,-0.00012724625873168071,5.76524270234104e-05,8.57873796837111e-05
419066000000,2,419059000000,BR_wheel_link,-0.10040700024417334,-0.17677559891754624,-0.11151282506172286,-0.02605247752001272,0.006382299968731468,-0.001263065192636828
419066000000,3,419060000000,BR_wheel_link,0.15233516912039405,0.4070387977797393,-1.7989747873158939,0.024043213137356717,-0.008448377856947804,0.00336533899577892
419066000000,4,419061000000,BR_wheel_link,-0.008167607327543017,-0.004563351480690166,-0.0042521695839112875,-6.860812303047687e-05,0.00019621158157386901,-4.2991864865068555e-05
419066000000,5,419062000000,BR_wheel_link,-0.14400688476409734,-0.20941252137453603,-0.2611030437325275,-0.023403643776602548,0.017282616912358793,0.002366651622029932
419066000000,6,419063000000,BR_wheel_link,0.21252533131970036,0.39323950567891425,-1.689215502099969,0.02267358532041762,-0.01839142994457113,0.0008024838075582129
419067000000,7,419064000000,BR_wheel_link,-0.01538884708573738,-0.03010468737608266,0.0815377421204702,-0.0034060628553487246,-0.0025861514995264897,-0.0006638031093165312
419067000000,8,419065000000,BR_wheel_link,-0.11797586598184577,-0.14301622134964362,-0.2796964653264268,-0.01962275144853426,0.015454013087314259,0.002534419945145032
419067000000,9,419066000000,BR_wheel_link,0.09486652123936888,0.3133335466555358,-1.9488565792067614,0.02525012232192306,-0.010630634390050585,-0.0020336343188101414
419067000000,10,419067000000,BR_wheel_link,-0.0059166413732961816,-0.004969993913216951,-0.006107278551644323,0.00012351724821312414,-3.788425396376501e-05,-0.00025502224084262794
419068000000,11,419068000000,BR_wheel_link,-0.24244205901998864,-0.18059207682077505,-1.2837481721005246,-0.010080066616411892,0.00880542718333977,-0.006606454969682629
419069000000,12,419069000000,BR_wheel_link,0.11176457089909464,0.18752285377822747,-0.30136538763942966,0.003527021305751976,-0.006118863878397672,0.00039869778253815374
419070000000,13,419070000000,BR_wheel_link,0.0152138974853031,0.09006019790253515,-0.7761107163124257,0.0017615562552291777,0.0021270810317638874,0.0009835630995915605
419071000000,14,419071000000,BR_wheel_link,0.03205764083460042,0.0728298971774147,-0.3768872491206263,-0.004711384503622193,-0.004783059648179165,0.0006228916156666998
419072000000,15,419072000000,BR_wheel_link,-0.044320835631445,0.10592043673524959,-0.874152641755019,0.003124089741942858,0.003299644584122304,0.0001046639840573334
419073000000,16,419073000000,BR_wheel_link,-0.03331345906335307,0.08923630461633958,-0.5707362151243451,-0.0019546124250731088,-0.0019980835668864322,-0.000622216784535098
419074000000,17,419074000000,BR_wheel_link,0.015249334664364879,0.06926175525570763,-0.7506474106751065,0.0014550379534478614,0.001728335866426798,0.0008480674777319995
419075000000,18,419075000000,BR_wheel_link,-0.019179310018311076,0.0803802987820356,-0.5958725623881636,-0.0014160519030950993,-0.0016426679206671948,-0.0004969043350560964
419076000000,19,419076000000,BR_wheel_link,0.0252739752101213,0.0581171591672444,-0.7376254609647873,0.001136917506440157,0.0013636692733823943,0.0008398774940790688
419077000000,20,419077000000,BR_wheel_link,-0.01970214853257251,0.07524945167584132,-0.6146120921593554,-0.0010859948467689074,-0.001277273509153075,-0.0005562815569277327
419078000000,21,419078000000,BR_wheel_link,0.029145879138074156,0.05138707538800781,-0.7304786304158435,0.0009637888435770705,0.0011879421118873603,0.0008098228836612647
419081000000,22,419079000000,BR_wheel_link,-0.02069976590522333,0.07322524730040716,-0.6237926777002922,-0.0009164920950931702,-0.0011288059401676099,-0.0006069606415629274
419081000000,23,419080000000,BR_wheel_link,0.030426774749428658,0.048077227076267284,-0.7269616011672786,0.0008826282712451843,0.0011150946536671287,0.0007907114011022391
419081000000,24,419081000000,BR_wheel_link,-0.021810766112047787,0.07248506752719744,-0.6273123165058333,-0.0008504657183432385,-0.001078703454436751,-0.000638576643632701
419082000000,25,419082000000,BR_wheel_link,0.03034558312496085,0.046643710798200094,-0.7257710994731701,0.0008550144592262183,0.0010957032535394383,0.0007794398070687841
419083000000,26,419083000000,BR_wheel_link,-0.022931163931846348,0.07225847233969795,-0.6278039675572906,-0.0008398412264585827,-0.00107854643523283,-0.000660342279992652
419084000000,27,419084000000,BR_wheel_link,0.029639735447911538,0.04614892987609247,-0.7257780196255437,0.0008542760534485645,0.0011016640558466457,0.0007735529981558406
419085000000,28,419085000000,BR_wheel_link,-0.02395659484521945,0.07215841291844571,-0.6271969998291926,-0.0008492567648267251,-0.0010955234366811846,-0.0006781838191849052
419086000000,29,419086000000,BR_wheel_link,0.028807422955189885,0.04603812405016152,-0.7262294668046161,0.0008628826416837332,0.0011159079506086818,0.0007719401508089479
419087000000,30,419087000000,BR_wheel_link,-0.024814281749139886,0.07200862612698868,-0.6262418294823209,-0.0008644479012327063,-0.0011171859052413874,-0.0006954577520929977
419088000000,31,419088000000,BR_wheel_link,0.02807008092216149,0.04609784739449771,-0.7268026327017529,0.0008733047417280246,0.0011315308173622432,0.0007742352533715896
419089000000,32,419089000000,BR_wheel_link,-0.025482175285389055,0.07178208453503959,-0.6253944111097642,-0.0008772361208106511,-0.0011360007177447962,-0.000712981559660213
419090000000,33,419090000000,BR_wheel_link,0.027542092217529325,0.04622417744673367,-0.7273220964604152,0.0008816055983569224,0.0011450340507441355,0.000780068198437597
419091000000,34,419091000000,BR_wheel_link,-0.025976802922517177,0.07150273058827039,-0.6247336845422959,-0.0008862098813746775,-0.0011508453787555952,-0.000731011473834197
419092000000,35,419092000000,BR_wheel_link,0.027214875545603732,0.04637995886613351,-0.7277434070522395,0.0008872260122604616,0.0011559169066024254,0.0007887000394083798
419093000000,36,419093000000,BR_wheel_link,-0.026331230891396606,0.07119588531281165,-0.6242770216502718,-0.0008913622726839964,-0.0011616211982402175,-0.000749003814930401
419094000000,37,419094000000,BR_wheel_link,0.02705343496890142,0.046547054650005255,-0.7280703505256504,0.0008904052646214473,0.0011643908183844856,0.0007991708061055687
419095000000,38,419095000000,BR_wheel_link,-0.026587581984274307,0.07088868801220491,-0.6239751381158282,-0.0008939592795505165,-0.0011689751039300072,-0.0007661148718940062
419097000000,39,419096000000,BR_wheel_link,0.027010569635150534,0.04671405666918366,-0.7283189613335816,0.0008921991881803744,0.0011705521961234552,0.0008102009381787667
419097000000,40,419097000000,BR_wheel_link,-0.02676961402176066,0.07058744365342667,-0.6237575267864994,-0.0008950351221295317,-0.0011745132570797061,-0.0007824346973384214
419098000000,41,419098000000,BR_wheel_link,0.02703033666891545,0.046882737304774345,-0.7285254828882821,0.0008930922701233344,0.0011756079733037511,0.0008213983190520038
419099000000,42,419099000000,BR_wheel_link,-0.02690420563074543,0.07030615386663258,-0.6236000671218531,-0.0008951888019718048,-0.0011787720579349893,-0.0007976182056976273
419100000000,43,419100000000,BR_wheel_link,0.027085469652957415,0.04704608856352416,-0.7286992616665053,0.000893503673855361,0.0011798799000146258,0.0008322545218591173
419101000000,44,419101000000,BR_wheel_link,-0.027013576925457552,0.0700427274847409,-0.6234633444741841,-0.0008951669437275489,-0.001182477524722915,-0.0008117362920849976
419102000000,45,419102000000,BR_wheel_link,0.027146001684817483,0.047205165993944066,-0.7288559804103609,0.0008937764094855457,0.001183726000870236,0.0008426171168166467
419103000000,46,419103000000,BR_wheel_link,-0.027100737764242072,0.06980705011082686,-0.623340884445305,-0.0008950728990102538,-0.0011857297477976868,-0.0008243240215445694
419104000000,47,419104000000,BR_wheel_link,0.02720605039151953,0.04735559522517714,-0.7290059550217002,0.0008941761428682021,0.0011872576242884117,0.0008521476850016298
419104000000,48,419105000000,BR_wheel_link,-0.027181608819099083,0.069585017989923,-0.6232014534554299,-0.0008954253226260234,-0.0011891051274387247,-0.0008359482986119433
419106000000,49,419106000000,BR_wheel_link,0.02725573783995301,0.047499652736539,-0.7291542828638207,0.0008947716209235944,0.0011906829790353022,0.0008609107514119609
419107000000,50,419107000000,BR_wheel_link,-0.027254252107354236,0.06938062519692392,-0.6230701317374034,-0.0008958331877869604,-0.0011922274834705157,-0.0008465012770914031
419108000000,51,419108000000,BR_wheel_link,0.027297883183477954,0.04763346318090422,-0.7292960622541902,0.0008954618879749331,0.001193882101488847,0.0008688998376162225
419109000000,52,419109000000,BR_wheel_link,-0.027321515949084184,0.06919457465921641,-0.6229373933099694,-0.0008964753032003759,-0.0011952560277853517,-0.000856007716308637
419112000000,53,419110000000,BR_wheel_link,0.027332473771463327,0.047757169732001684,-0.7294294404030002,0.0008962481992728297,0.0011968491211888318,0.000876118458382016
419112000000,54,419111000000,BR_wheel_link,-0.02738136320870761,0.06902422915162937,-0.6228118455398035,-0.0008971635457818747,-0.001198090169512621,-0.0008646443279839005
419112000000,55,419112000000,BR_wheel_link,0.02736073306238291,0.04787046942324536,-0.729554344250129,0.0008970583026127501,0.00119961794208592,0.0008826664633659054
419113000000,56,419113000000,BR_wheel_link,-0.02743495152141603,0.06886785567197759,-0.6226895184095571,-0.0008979380219529743,-0.0012007940714864578,-0.000872478369521095
419114000000,57,419114000000,BR_wheel_link,0.02738356704533342,0.04797512537890826,-0.7296728481711047,0.0008978996083014877,0.0012022138601293624,0.000888614674504783
419115000000,58,419115000000,BR_wheel_link,-0.027482912889418246,0.06872446311322603,-0.6225743055360391,-0.0008987155948532098,-0.001203305801624036,-0.0008795678171598729
419116000000,59,419116000000,BR_wheel_link,0.02740268956185539,0.04807122135836968,-0.7297843285464325,0.0008987336436456045,0.0012046240775556777,0.0008940137827162084
419117000000,60,419117000000,BR_wheel_link,-0.027523359907634302,0.06859633063671734,-0.6224674449720092,-0.0008994801872344018,-0.0012056195596790225,-0.0008858939540676951
419118000000,61,419118000000,BR_wheel_link,0.027418186235962434,0.04815791219446661,-0.7298871885319009,0.0008995415160563578,0.0012068322741249052,0.0008988560390889586
419119000000,62,419119000000,BR_wheel_link,-0.027566475587776963,0.0684753608570541,-0.6223667591228387,-0.0009002507115031644,-0.0012077519504741915,-0.0008917512308546049
419120000000,63,419120000000,BR_wheel_link,0.027434441241574715,0.04823850620252145,-0.7299812509932821,0.0009003041713695164,0.0012088344757444568,0.0009033170556522843
419121000000,64,419121000000,BR_wheel_link,-0.027600925389845737,0.06836740615432049,-0.622275884351285,-0.0009009398996565925,-0.0012096902997320914,-0.0008970006606331836
419122000000,65,419122000000,BR_wheel_link,0.027449510062000027,0.048312120460909214,-0.7300680159044786,0.0009010128955663252,0.001210672435635861,0.0009073674728863961
419123000000,66,419123000000,BR_wheel_link,-0.027628863285516905,0.06827070141622102,-0.6221919766024248,-0.000901596064668795,-0.0012114666912271784,-0.0009017104887090139
419124000000,67,419124000000,BR_wheel_link,0.02746221444140392,0.048378994230919306,-0.7301488294088576,0.0009016927772045535,0.0012123693582707744,0.000911017771086994
419125000000,68,419125000000,BR_wheel_link,-0.02765938472361065,0.06817698367899795,-0.6221095742667672,-0.000902253161108919,-0.0012131653699083045,-0.0009061088515847705
419126000000,69,419126000000,BR_wheel_link,0.027474848265942632,0.0484426151841703,-0.7302261120101745,0.0009023349595690363,0.001213974593619442,0.0009144080032287851
419127000000,70,419127000000,BR_wheel_link,-0.027682886919506045,0.06809288484576174,-0.6220346990603001,-0.0009028463619294861,-0.0012147239886992436,-0.00091008743122289
419128000000,71,419128000000,BR_wheel_link,0.027486357234042975,0.04850195251433503,-0.7302995320992566,0.0009029529799809912,0.0012154859570954236,0.0009175227623777389
419129000000,72,419129000000,BR_wheel_link,-0.027703475447461795,0.06801656194569138,-0.6219635742880656,-0.0009034378152939893,-0.0012161841886908092,-0.0009136771840841021
419130000000,73,419130000000,BR_wheel_link,0.027496342268008855,0.04855680710176841,-0.730368633570899,0.0009035560727033919,0.0012168975491749726,0.0009203583568635962
419131000000,74,419131000000,BR_wheel_link,-0.02772156833611178,0.0679477244399891,-0.6218975790342571,-0.0009040022202718088,-0.0012175315939355197,-0.0009168963707603595
419132000000,75,419132000000,BR_wheel_link,0.02750496671867972,0.048606588138568795,-0.7304325583152732,0.0009041315754624321,0.00121819849148564,0.0009229185045164974
419133000000,76,419133000000,BR_wheel_link,-0.027737829350121986,0.06788522697345309,-0.6218360121553381,-0.0009045447283709461,-0.0012187833864770693,-0.0009198094333922927
419134000000,77,419134000000,BR_wheel_link,0.027512389061855703,0.048651795772511046,-0.730491718456719,0.0009046825015044148,0.0012194007428722982,0.0009252314803870129
419135000000,78,419135000000,BR_wheel_link,-0.02775224999921127,0.06782913828088882,-0.6217797960694482,-0.0009050536477672063,-0.001219930575926247,-0.0009224271019562121
419136000000,79,419136000000,BR_wheel_link,0.027518850129600477,0.04869248709149452,-0.73054576146685,0.0009051982997489377,0.0012205021157580735,0.0009273094817864688
419137000000,80,419137000000,BR_wheel_link,-0.027764911063845946,0.06777930228226264,-0.6217287309981596,-0.00090553372155761,-0.0012209796807650139,-0.0009247664778452688
419138000000,81,419138000000,BR_wheel_link,0.027524429707652193,0.048728744140580135,-0.7305944379338543,0.0009056785710774924,0.0012215039162732592,0.0009291657566644684
419139000000,82,419139000000,BR_wheel_link,-0.027777169354282906,0.06773305457683443,-0.6216811322221003,-0.0009059978610247556,-0.0012219463029671186,-0.0009269133145749473
419140000000,83,419140000000,BR_wheel_link,0.027529983068354514,0.04876220345064815,-0.7306396772739712,0.0009061395210520237,0.001222423346628619,0.0009308587276600544
419141000000,84,419141000000,BR_wheel_link,-0.027788468923798694,0.06768969085220872,-0.6216358725535097,-0.0009064503117197995,-0.0012228557878023022,-0.0009288984996361272
419142000000,85,419142000000,BR_wheel_link,0.027535404952414685,0.048793867693851536,-0.7306830132373667,0.0009065900591750582,0.0012232928260597611,0.0009324290019834406
419143000000,86,419143000000,BR_wheel_link,-0.027798263333962736,0.0676508621328345,-0.6215940334389598,-0.0009068787295312239,-0.0012236947368877789,-0.0009306662409355527
419144000000,87,419144000000,BR_wheel_link,0.02754015293356539,0.048822705552806545,-0.7307234408539764,0.0009070201053920687,0.0012241008630785987,0.0009338489034033453
419145000000,88,419145000000,BR_wheel_link,-0.027806999068321705,0.06761559328099248,-0.6215546681718143,-0.0009072926046580196,-0.0012244805113287953,-0.0009322633654578164
419146000000,89,419146000000,BR_wheel_link,0.027544218505924447,0.04884901389466991,-0.7307613276661695,0.0009074320880188855,0.001224855875455305,0.0009351323693556993
419147000000,90,419147000000,BR_wheel_link,-0.027814796307320543,0.06758353095512123,-0.6215178431628576,-0.0009076885151536551,-0.0012252130138976896,-0.0009337066719241911
419147000000,91,419148000000,BR_wheel_link,0.02754772263301161,0.04887298907558882,-0.7307968469912489,0.0009078262483328704,0.001225561250132266,0.0009362925355110494
419147000000,92,419149000000,BR_wheel_link,-0.02782173629494935,0.06755435577888239,-0.6214831919570666,-0.0009080699195905133,-0.0012258996141195524,-0.0009350119162070715
419150000000,93,419150000000,BR_wheel_link,0.027550717374861946,0.048894887031149886,-0.730830252194401,0.0009082048194962958,0.0012262224167628893,0.0009373420377378951
419151000000,94,419151000000,BR_wheel_link,-0.027827901132024387,0.06752778791832532,-0.6214506123812673,-0.0009084363605397693,-0.0012265428881287773,-0.0009361921636232451
419151000000,95,419152000000,BR_wheel_link,0.027553271371299957,0.04891489483715167,-0.7308617283653347,0.0009085688002320966,0.0012268431371152948,0.0009382917731214945
419151000000,96,419153000000,BR_wheel_link,-0.027833364612968915,0.06750357253737481,-0.6214198487650797,-0.0009087901240244923,-0.001227148045561279,-0.0009372598408053819
419154000000,97,419154000000,BR_wheel_link,0.027555422130492554,0.048933208742702856,-0.7308914757446381,0.0009089199068216832,0.0012274276645424676,0.000939151715307182
419155000000,98,419155000000,BR_wheel_link,-0.027838197989793055,0.06748147819983295,-0.6213907615955656,-0.0009091317775724735,-0.0012277181624008103,-0.0009382258702434042
419156000000,99,419156000000,BR_wheel_link,0.02755721320323166,0.048949988679928225,-0.7309196584049709,0.000909259247000999,0.001227979392321211,0.0009399306963085582
419157000000,100,419157000000,BR_wheel_link,-0.027842464500122933,0.06746129591753595,-0.6213631607972305,-0.0009094629116928557,-0.001228257147222685,-0.0009391003469934671
419158000000,101,419158000000,BR_wheel_link,0.02755867528266886,0.048965390037748316,-0.7309464365833211,0.0009095881339145461,0.0012285017055000142,0.0009406367522672332
419159000000,102,419159000000,BR_wheel_link,-0.027846222428432182,0.06744283619936126,-0.6213369135111261,-0.0009097843189826841,-0.0012287678394333327,-0.0009398922731971744
419160000000,103,419160000000,BR_wheel_link,0.027562344859059104,0.04898161574994276,-0.7309752850474418,0.0009099628087273226,0.001229045415751342,0.0009413212474174203
419161000000,104,419161000000,BR_wheel_link,-0.027850010250983586,0.06742490426438161,-0.6213064327931981,-0.0009101972384630006,-0.001229344179711907,-0.0009406391096321213
419162000000,105,419162000000,BR_wheel_link,0.006933662847740246,0.49425913144465733,-1.2796247214475593,-0.05185941017121492,0.009325714042503246,0.002516176808115918
419163000000,106,419163000000,BR_wheel_link,0.11361062553649562,0.24058623027945092,0.021390859291210193,-0.07168577999530415,-0.019228489217327623,-0.0029130538826390292
419164000000,107,419164000000,BR_wheel_link,-0.03214591727579028,0.10191858537591125,-0.22310075611357832,-0.05599217968695516,0.0003526566947387316,-0.0007623539559366328
419165000000,108,419165000000,BR_wheel_link,-0.36759289003181456,1.192979098708442,-2.492542806007398,-0.05603178132086811,0.010332851916831427,-0.007197516320555556
419165000000,109,419166000000,BR_wheel_link,0.24007585455032743,0.9468945038088015,-1.3037829711151834,-0.022799103446807252,0.01018729234976649,0.01236496789610618
419167000000,110,419167000000,BR_wheel_link,-0.15161893016185657,-0.08067219643374897,0.3528215507868485,-0.008403241974023964,-0.03179867268136901,-0.02014254987032566
419168000000,111,419168000000,BR_wheel_link,0.09829698764395167,0.8823610363771406,-1.5889836108183517,-0.001402215714993443,0.027654187645774674,0.019042172881315808
419169000000,112,419169000000,BR_wheel_link,-0.21086290124253387,0.8570849273139785,-1.1217634382126258,0.01245335519996267,-0.016271129413414936,-0.009234707506957148
419170000000,113,419170000000,BR_wheel_link,-0.025294020433858113,0.02148877767130263,-0.054494466974193134,0.0013526887869197688,-2.3417911680486932e-05,-0.0007813719944383701
419171000000,114,419171000000,BR_wheel_link,-0.009385838830856114,0.4635855852750009,-0.8216349970008728,-0.014914806332100818,0.004570334336031112,0.004099252517623931
419171000000,115,419172000000,BR_wheel_link,0.18518056296053995,0.602333521767488,-0.8140459093137011,0.008863458395403905,0.006974295718127209,0.008588721192975119
419171000000,116,419173000000,BR_wheel_link,0.1397145954103807,0.08051295465519175,0.23080666698341476,-0.013490934857859672,-0.016489535496541363,-0.002241945978222718
419174000000,117,419174000000,BR_wheel_link,0.05244522809653421,0.4142450165745585,-0.728031429519713,0.0004614188452764043,0.011912428653535846,0.008394821963561488
419175000000,118,419175000000,BR_wheel_link,0.07491585699257822,0.31776583245562673,-0.3498313407986392,-0.007290385938278289,-0.007462394564349976,-0.0009048618833340695
419176000000,119,419176000000,BR_wheel_link,0.07956206908498159,0.2873536273712087,-0.5493576978329502,-0.0002287352442745267,0.007408521231010819,0.0038928270400660414
419177000000,120,419177000000,BR_wheel_link,-0.09870544216188983,0.22206968686922435,-0.4837260803708855,-0.004127017497829558,-0.006003166282805514,-0.0078401221179837
419178000000,121,419178000000,BR_wheel_link,0.048972223871163414,0.1936017361798693,-0.43344921843300294,-0.0028315835987065764,0.007411005721562338,0.003391921795678948
419179000000,122,419179000000,BR_wheel_link,0.20674467409624325,0.2653351277821451,-0.08371177104814592,-0.008482928886278048,-0.01031591071872466,0.0017201061723698973
419180000000,123,419180000000,BR_wheel_link,0.030732774911235397,0.18194170148801567,-0.455719517029752,-0.004319667192158625,0.009027085068594766,0.003924030264855133
419181000000,124,419181000000,BR_wheel_link,0.02564545545263043,0.2392468511481816,-0.29500058741721985,-0.007663524911561592,-0.006492657150682744,-0.0018548050141109292
419182000000,125,419182000000,BR_wheel_link,0.05087326246262516,0.19944082285394985,-0.43889072099724913,-0.0017754695550427318,0.006709531959327549,0.0027598068218193236
419183000000,126,419183000000,BR_wheel_link,-0.07791671824465994,0.22158798193472046,-0.4000925459553726,-0.0056977363026365245,-0.006378402649081358,-0.005556769859238666
419184000000,127,419184000000,BR_wheel_link,0.037908663774942356,0.1714055073041704,-0.40302752582382045,-0.002749603373306499,0.0069942257534270245,0.002920220196322618
419185000000,128,419185000000,BR_wheel_link,0.23452536787371325,0.13857187008211136,0.14405028983623813,-0.013888002387605326,-0.01228520253107543,0.0016233323371920116
419186000000,129,419186000000,BR_wheel_link,-0.10030691778712496,0.3513940953754453,-0.7614979151582494,0.0023340303724629636,0.0072909705257774605,0.0006143860464943861
419187000000,130,419187000000,BR_wheel_link,0.05408169977322156,0.12338239488344023,-0.33225952371827255,-0.004982110261639983,0.0069486013407501785,0.003069791012224626
419188000000,131,419188000000,BR_wheel_link,0.1617973548493541,0.27840239286938084,-0.11630525509968492,-0.00836201647743963,-0.01157843198151251,0.0004852783668978072
419189000000,132,419189000000,BR_wheel_link,0.03046445765508965,0.17871576650103005,-0.4518497437832951,-0.004040776546545466,0.008698768941777076,0.003596758551932926
419190000000,133,419190000000,BR_wheel_link,-0.15956967244570452,0.24106528304103136,-0.5154646735865092,-0.0038810121823089324,-0.005647145871071372,-0.007209938859569293
419191000000,134,419191000000,BR_wheel_link,2.377339916867676,13.408408937665948,21.179338409488075,1.5237709605766034,-0.3220171484159251,-0.017954282091960358
419192000000,135,419192000000,BR_wheel_link,0.14409997366400565,0.18995826599432197,0.05837642175767395,0.018207810160574444,-0.017652038309452372,0.00027717031189608055
419193000000,136,419193000000,BR_wheel_link,-2.8368199521643325,3.2184359660088497,12.81921345253307,0.36004308179679284,0.2756574436513467,-0.010122327091635337
419194000000,137,419194000000,BR_wheel_link,0.38369684688461664,0.4377431952188014,-0.44494235892647865,0.030824085284646585,-0.0015151402130991493,0.011473905993355772
419195000000,138,419195000000,BR_wheel_link,-0.30026748761374766,-0.5992736602660216,0.05831588926939682,-0.037386706882198556,0.02154698664386654,-0.0010426416540840176
419196000000,139,419196000000,BR_wheel_link,0.28059272497850324,0.15363483594400085,-1.6824215701595788,0.02323416275966047,-0.017525969689831573,0.002435642459109104
419197000000,140,419197000000,BR_wheel_link,-0.01677693311123258,-0.02149686528359169,0.0027203679738295474,-0.0003506960782286272,0.0005687699169167037,-9.276789939261738e-05
419198000000,141,419198000000,BR_wheel_link,-0.146885511160569,-0.22542564911298482,-0.18313939413890096,-0.02173750311893735,0.015839374387834122,0.0013889101151389307
419199000000,142,419199000000,BR_wheel_link,0.17210582956711484,0.2895114133044749,-1.6621126947838158,0.020423988025021128,-0.01742342900898361,0.003330173195764488
419200000000,143,419200000000,BR_wheel_link,-0.011858821218434314,-0.050378555710224565,0.13535668077648363,-0.005361429672738898,-0.0029288305625283775,-4.772501283922389e-05
419201000000,144,419201000000,BR_wheel_link,-0.10341942856953142,-0.12127762174859977,-0.23610169680321225,-0.016660595080638954,0.013546774592903932,0.0018645372283819777
419202000000,145,419202000000,BR_wheel_link,1.8927376913239349,0.7238755918346339,2.0478058463039353,0.07660858711954563,-0.21620312536197125,-0.00171265241766623
419203000000,146,419203000000,BR_wheel_link,0.0223921461444383,-0.02322706914134737,-0.053449555535685596,-0.004741097637550854,-0.009180290832093966,5.502484774179883e-05
419204000000,147,419204000000,BR_wheel_link,-4.311897993015649,-2.2768473450666,8.067392442709465,-0.26857075702607913,0.4837567079345287,0.001579353427101948
419205000000,148,419205000000,BR_wheel_link,0.045264409236494406,-0.028760602836228968,-0.175979338682544,0.0008288576304064394,-0.01864397173443158,-0.003699067697658211
419206000000,149,419206000000,BR_wheel_link,-1.624269504472243,-0.3715589244312303,5.247609254492832,-0.03671222533950661,0.15937636196960614,-0.005758824952871958
419207000000,150,419207000000,BR_wheel_link,-0.9688907315409432,1.1068733863896454,0.902865266037691,0.11718056890175947,0.1029280986249749,-0.0019062494076670673
419208000000,151,419208000000,BR_wheel_link,0.06584049765740947,-0.10268131270645411,0.2866978287584251,-0.02837630391957613,-0.0008140161813801113,0.00217978590708544
419209000000,152,419209000000,BR_wheel_link,-4.870634538494535,8.887448875079171,26.993678427177272,0.12896184703024627,0.4811391022510241,-0.12841272213702407
419210000000,153,419210000000,BR_wheel_link,-2.5822876355896898,2.306608626536076,20.371440830115358,-0.31074893356411687,0.30556444739621225,-0.07549749159681449
419211000000,154,419211000000,BR_wheel_link,-0.038278766892081297,-0.021118934859849725,-0.023753139521828056,0.0014495253625673257,0.004220751753920116,-0.0010696859714453433
419212000000,155,419212000000,BR_wheel_link,-2.8954153450150164,5.0490053502447285,10.05074375444239,0.22094798874973537,0.29022482963968244,-0.07519706863995682
419213000000,156,419213000000,BR_wheel_link,0.14140970922097684,1.1770772972091437,18.945312266969697,-0.3856514156518005,-0.0008121782566637148,0.00042139567143359685
419214000000,157,419214000000,BR_wheel_link,0.03506303484389143,-0.08216300767578129,-0.06452199241760856,-0.004582108605077767,-0.0040976208543991414,0.0011087983223657578
419215000000,158,419215000000,BR_wheel_link,-2.060503594347437,4.434247067618424,9.824535865681973,0.16101497279645366,0.19934142750922065,-0.05215021841450322
419216000000,159,419216000000,BR_wheel_link,1.1920975600355561,0.2423545469348123,18.453793133530787,-0.4666279191683361,-0.11412069317134532,0.029020681352704383
419217000000,160,419217000000,BR_wheel_link,0.08053021001931843,-0.14498334097952317,-0.06933311441895129,-0.010629388069646396,-0.008892046455160464,0.0023632648833465907
419218000000,161,419218000000,BR_wheel_link,-1.4131231175166172,3.5305270280029433,9.091744133774158,0.08429857913657277,0.13181307793071728,-0.03440375885625715
419219000000,162,419219000000,BR_wheel_link,1.5934299662425575,-0.27692156040177685,18.06356338883657,-0.5090335882127975,-0.15605499898281686,0.039911824582710816
419220000000,163,419220000000,BR_wheel_link,0.11928326504071639,-0.18881641360238693,-0.02632778435602275,-0.016422564248240984,-0.013401885071052383,0.0035644080986849554
419221000000,164,419221000000,BR_wheel_link,-1.0628677901479027,3.239531743278464,9.374430793196161,0.04172854458386971,0.0935768927765939,-0.024464821960505263
419222000000,165,419222000000,BR_wheel_link,1.8971881011676714,-0.7324899004369351,17.32030476160612,-0.5392182370056214,-0.1890482446171605,0.04876048439929595
419223000000,166,419223000000,BR_wheel_link,0.15091799078817114,-0.2408605637492244,-0.014791929552369278,-0.018537261073037777,-0.01538005279928287,0.003917635831631764
419224000000,167,419224000000,BR_wheel_link,-0.8431079219257349,2.992221683585289,9.354211896866474,0.014433056062754922,0.0701804006286276,-0.018342770211915715
419225000000,168,419225000000,BR_wheel_link,2.1158494843821707,-1.0448139802430392,17.03086820370565,-0.5600294262450899,-0.21052264960127243,0.05438048334878948
419226000000,169,419226000000,BR_wheel_link,0.16124519640331242,-0.23709747013625238,0.020770216625570742,-0.021952203408339387,-0.01733037049827588,0.004451267053629894
419227000000,170,419227000000,BR_wheel_link,-0.7482431821580517,2.946897665977584,9.602291414896438,0.000732924464195938,0.05956430727190838,-0.015577257354982567
419228000000,171,419228000000,BR_wheel_link,2.208514396211095,-1.1970701464016662,16.71070714257507,-0.568834145558649,-0.2205076957705547,0.05718657435616828
419229000000,172,419229000000,BR_wheel_link,0.16767261525160998,-0.25221672175828413,0.015599006782586557,-0.02218694764484759,-0.01763979584799161,0.004445572054004594
419230000000,173,419230000000,BR_wheel_link,-0.6814166605117302,2.8296800950654886,9.43921745409384,-0.006886469018474988,0.05290744918164449,-0.013821752087032813
419231000000,174,419231000000,BR_wheel_link,0.6745491181732686,-3.924287488818461,10.15000370020893,-0.7080308961768491,-0.048190531750587406,0.018368584473045034
419232000000,175,419232000000,BR_wheel_link,0.1712280787124918,-0.030081881921173587,-0.4885100947039094,-0.01966364060544826,-0.005247102965083502,0.006190502583236297
419233000000,176,419233000000,BR_wheel_link,1.4251868105968628,-1.6629965495483021,7.167833228234018,-0.3978725190623203,-0.15475698347282196,0.03425770040106007
419234000000,177,419234000000,BR_wheel_link,0.015123812938484617,-0.08161148277489705,-0.21410050347467768,-0.014617929431721514,-0.006350616146998877,-0.0005222944956395962
419235000000,178,419235000000,BR_wheel_link,-0.01785610629142309,1.4282295767373687,13.194959674445222,-0.24094742551140413,0.002237598155478124,-0.0026955032233947794
419236000000,179,419236000000,BR_wheel_link,0.6163193061090096,-0.9680970704734342,4.150010800784576,-0.229256026628726,-0.061078168306831424,0.01701464120733083
419237000000,180,419237000000,BR_wheel_link,-0.23651790880537263,-0.516677298385525,-0.5126402695563574,-0.042181280020307015,0.02439464939352567,-0.000594211075505052
419238000000,181,419238000000,BR_wheel_link,-2.758296269639147,-1.4876238437534886,3.599726685454211,-0.31672145483496167,0.3205101873272732,-0.07200137573967122
419239000000,182,419239000000,BR_wheel_link,-0.2918124209549723,-0.6307705351074648,-0.17748197447050268,-0.040273206504832224,0.023067407055066547,-0.018314050456771265
419240000000,183,419240000000,BR_wheel_link,-3.6770299383804756,0.5247903776843752,7.14764069972092,-0.21644572735781303,0.4139209147468357,-0.09730265504093442
419241000000,184,419241000000,BR_wheel_link,0.2336576069143748,-0.07757207816849132,0.6589103867088858,-0.02818622477206062,-0.004102339210695345,-0.007293535438697898
419242000000,185,419242000000,BR_wheel_link,-0.7019228023809376,4.055386104797745,20.466965977458173,-0.17397644092025769,0.05733462830161399,-0.02003684990689018
419243000000,186,419243000000,BR_wheel_link,-0.020276606799893643,0.022970229893602034,0.007870461435383426,0.0009233210455579264,0.0019987938293135757,-0.0005904605143937092
419244000000,187,419244000000,BR_wheel_link,-0.11968209073185901,-0.2713467487378318,-0.12056353886532858,-0.030241675947528968,0.0036001066889242046,-0.0053644652698663885
419245000000,188,419245000000,BR_wheel_link,-1.5929337435812922,1.8928249214100017,15.238475908917158,-0.26248379087705814,0.1708770297416703,-0.044427620215934764
419246000000,189,419246000000,BR_wheel_link,-0.05898793943911577,-0.0441536483193855,0.0014152718781970616,-0.004579759361148537,0.006740048802989408,-0.0016425329182612398
419246000000,190,419247000000,BR_wheel_link,0.3550928449186185,-1.3581061593258745,14.81706828285667,-0.5821354713251539,-0.01507057519981958,0.009886427416989056
419246000000,191,419248000000,BR_wheel_link,0.07226099645571182,-0.07029921740831677,-0.05656359607571134,-0.006087612726417372,-0.008042869765949957,0.002100577162142267
419249000000,192,419249000000,BR_wheel_link,-1.0304861911550758,0.5125163645730898,12.235491377389405,-0.30020331231526226,0.09756916739993979,-0.029673640358426963
419250000000,193,419250000000,BR_wheel_link,-0.01709818957350289,-0.0846786149444933,-0.05517663992270869,-0.007486161738380036,0.0027127022771179315,-0.0004997354591694349
419251000000,194,419251000000,BR_wheel_link,0.553058435748734,-0.26687960847595776,17.725550363397204,-0.5488596838532787,-0.04013245991085712,0.015145012402235432
419252000000,195,419252000000,BR_wheel_link,0.08441775916061708,-0.03200024480565428,-0.022348639831251647,-0.003242329749136503,-0.009736159806776227,0.002458540464319493
419253000000,196,419253000000,BR_wheel_link,-0.019212060369980577,-1.0271927298891184,10.266737122455876,-0.40976007322161867,-0.005536543269864247,-0.0014187292815847742
419254000000,197,419254000000,BR_wheel_link,0.03251133469516366,-0.060425235030843974,-0.042726469761775826,-0.005297264606400781,-0.003317608466373156,0.0009239421952456489
419255000000,198,419255000000,BR_wheel_link,0.3035713074998201,1.6350676508568076,18.782148488072835,-0.36302036640397917,-0.029185303981913352,0.0076379446221930295
419256000000,199,419256000000,BR_wheel_link,0.07993876478665776,0.03755037473771232,-0.05895450370358886,-0.007749570442120949,-0.0033522064509588414,0.004377182050179935
419257000000,200,419257000000,BR_wheel_link,-1.248828836311743,2.7415744529325523,5.655371973910187,0.11278820573043344,0.12206713616715363,-0.03207886274889803
419258000000,201,419258000000,BR_wheel_link,0.1255788323431851,-0.11414370575319555,0.5451326722174683,-0.031435406338834807,-0.005442049999743964,0.0006811306776190601
419259000000,202,419259000000,BR_wheel_link,-0.9835591197187206,4.572703915317745,22.11984683597482,-0.16842074440261795,0.08968321443776726,-0.02645376133142541
419260000000,203,419260000000,BR_wheel_link,-0.04219361861908211,0.016310421772290293,0.006723701869062026,0.0001676177327451277,0.004628075512587702,-0.0012566526994763818
419261000000,204,419261000000,BR_wheel_link,0.13171312348993636,-0.2305565676055229,0.8495761853538137,-0.022921831341095787,-0.01713182820558852,-0.0002459973708543068
419262000000,205,419262000000,BR_wheel_link,-1.0527039903100426,5.274372965328272,25.824718778319784,-0.2047247718244152,0.09861328409626177,-0.02289582067981024
419263000000,206,419263000000,BR_wheel_link,-0.05300674216278811,0.0005924058361733431,-0.004730108659413002,-0.0010273300278716246,0.006047657371373336,-0.0014784984752692024
419264000000,207,419264000000,BR_wheel_link,0.12698983734914987,-0.21959057264162535,0.8362578003728678,-0.023390304068113415,-0.0164846270310348,0.0006659361288931321
419265000000,208,419265000000,BR_wheel_link,-1.1884905010339004,5.160175134362937,25.519394153924832,-0.21055926049310647,0.11427722671629582,-0.02597029939233729
419266000000,209,419266000000,BR_wheel_link,-0.06083096399725492,-0.006109997643342715,-0.008792142433175828,-0.0015191900060183942,0.006972983823097054,-0.0016755319318991406
419267000000,210,419267000000,BR_wheel_link,0.12398874365572349,-0.21462906874938362,0.8329383524639875,-0.023446497727839022,-0.01665044369233849,0.0007646492564750769
419268000000,211,419268000000,BR_wheel_link,-1.2669650957367429,5.171072207812728,25.357911253164477,-0.20555211329553075,0.1225866123921025,-0.02800850328279535
419269000000,212,419269000000,BR_wheel_link,-0.06516368319156265,-0.006712811223595717,-0.010690349075209462,-0.0015245002027839418,0.007464259021652009,-0.0017852651533997916
419270000000,213,419270000000,BR_wheel_link,0.015421030801910915,-0.12026110604625735,0.09085879899857888,-0.02648559218815677,-0.002336517819537908,0.0002272033450200822
419271000000,214,419271000000,BR_wheel_link,-1.8064755155022607,3.7295233074123937,19.02790732408564,-0.17282915493328463,0.18797120186243804,-0.048184295003409094
419272000000,215,419272000000,BR_wheel_link,-0.07636631442835592,-0.006060431958763879,0.004938694447068818,-0.0009449394738969804,0.008635000337946973,-0.0021423684603920166
419273000000,216,419273000000,BR_wheel_link,0.05792477711350644,-0.08975374040651021,0.13107850390250786,-0.02581738528555856,-0.004038386991577544,0.0008769546591033879
419274000000,217,419274000000,BR_wheel_link,-1.7793814416035891,4.17635353055035,19.801091771471885,-0.14424001978129036,0.18367409081784947,-0.047912348811151174
419275000000,218,419275000000,BR_wheel_link,-0.0760139780450571,0.00777892907280061,0.013386137830923735,-2.6164491105717252e-05,0.008539809134295959,-0.0021405496324319083
419276000000,219,419276000000,BR_wheel_link,0.1159925874528654,-0.07683121375984182,0.3054583736245571,-0.024439906958143374,-0.007580250796966115,0.0022453298075759826
419277000000,220,419277000000,BR_wheel_link,-1.5483414988490651,4.881584621364504,21.608418170881613,-0.11880901817141172,0.15606118720444642,-0.040723474595404735
419278000000,221,419278000000,BR_wheel_link,-0.06886797519447338,0.018536492850251354,0.015502017528900701,0.0007660414348840154,0.007689929340745817,-0.001946234861393697
419279000000,222,419279000000,BR_wheel_link,0.2516475233824344,0.15402668090863886,0.18193864350320318,-0.02109187242124332,-0.008467175302414517,0.008283668381217284
419283000000,223,419280000000,BR_wheel_link,-1.0467666646049905,5.603008156451557,21.368645460396607,-0.022329795847169577,0.09505851641925574,-0.028568311548944278
419283000000,226,419283000000,BR_wheel_link,-1.3783982178308387,5.26601621247263,21.857091664542754,-0.07829691262116538,0.13576097351898372,-0.037076387305803336
419283000000,227,419284000000,BR_wheel_link,-0.06052108308494361,0.02943553514677418,0.01985249556490953,0.0018673244536104592,0.006714712950597877,-0.001727928287562136
419285000000,228,419285000000,BR_wheel_link,0.13600876214503982,-0.21553771795126028,0.85756550449066,-0.022927210163940448,-0.01685000336500026,0.0005558901576208055
419286000000,229,419286000000,BR_wheel_link,-2.489129803909484,4.1251358845038615,22.823536590541586,-0.24130027137224586,0.2533931571404651,-0.0641947728696414
419287000000,230,419287000000,BR_wheel_link,-0.06654116152055146,0.013922873580867447,-0.11492823271343033,-0.005056281407645053,0.012442739550012245,-0.0019380552828430185
419288000000,231,419288000000,BR_wheel_link,0.11621594387405275,-0.1809683948628336,0.7377583616547694,-0.019636461341934846,-0.015566942259073561,8.296814797620572e-05
419289000000,232,419289000000,BR_wheel_link,-1.657191224618572,4.883414305658118,23.83467117208452,-0.1890477894767652,0.17287263700127167,-0.041396923109453976
419290000000,233,419290000000,BR_wheel_link,-0.047973009441095206,0.018556950977490848,0.036829745716964415,0.00014688579635683575,0.005053591653027084,-0.0012032776220149994
419291000000,234,419291000000,BR_wheel_link,0.12966137606655248,-0.014421902511719084,0.26705756107337897,-0.025557342757544302,-0.006476340593337029,0.004752366344460355
419292000000,235,419292000000,BR_wheel_link,-1.2735703046408127,5.109966739484365,21.259299551455573,-0.08143645912663217,0.12360747450433322,-0.03305257064942292
419293000000,236,419293000000,BR_wheel_link,0.2953933470867169,0.32226004794743973,-0.9787193010827069,0.031116347335113655,-0.011816963409131956,0.0072045191662298905
419294000000,237,419294000000,BR_wheel_link,-0.40068115383813907,-0.7329286215425728,-1.1903987755361864,-0.021850310085791448,0.016129613069423895,-0.006601949426476907
419295000000,238,419295000000,BR_wheel_link,0.009375777879421943,-0.003171562412422011,-0.0009157814156532805,0.00013743046377469954,-0.0007111867302788057,3.6065010053046036e-05
419296000000,239,419296000000,BR_wheel_link,0.25502359809863717,0.2515784699348615,-0.8825178110789887,0.026454113037801902,-0.015247557135791175,0.006154808236827226
419297000000,240,419297000000,BR_wheel_link,-0.4300485970049188,-0.6974503169503237,-1.0001846364713884,-0.027347073289815425,0.011781836017990962,-0.01033915868788629
419298000000,241,419298000000,BR_wheel_link,0.006556776810345364,0.013849509552770171,-0.01903632961244358,0.0004911109727655034,-0.0003552901242315503,-2.808702467623392e-05
419299000000,242,419299000000,BR_wheel_link,0.24932243555571332,0.2572905369908158,-0.7878673898509678,0.02429326999869711,-0.013754953318878195,0.005518825964016753
419300000000,243,419300000000,BR_wheel_link,-0.35678792430849404,-0.5582314848051839,-1.2033340840088471,-0.024172793302099697,0.013511599059681675,-0.00824623200017539
419301000000,244,419301000000,BR_wheel_link,0.012418441736232008,0.022964845691388496,-0.021681132766161387,0.0006730011927496422,-0.00029220658083307883,8.575538956064842e-05
419302000000,245,419302000000,BR_wheel_link,0.2803481558270515,0.2773440803845893,-0.7381380422172683,0.023534902400493964,-0.013624621232208978,0.005970870084185763
419303000000,246,419303000000,BR_wheel_link,-0.31517944176873613,-0.4986842541984356,-1.2329493717664326,-0.024265915907497035,0.01337210997096655,-0.007328042186570613
419304000000,247,419304000000,BR_wheel_link,0.014933327744717069,0.029665893114250032,-0.02771246517009568,0.0008558617368425209,-0.00025093805755354903,0.00014224007105063436
419305000000,248,419305000000,BR_wheel_link,0.26159757284977575,0.22900006262963613,-0.497255997642736,0.013045074454015955,-0.01664542030667152,0.008261485878114462
419306000000,249,419306000000,BR_wheel_link,-0.2407095689352579,-0.3078677794194573,-0.48349965076472123,-0.02916843434890326,0.025564329100091345,-0.0009400518302796031
419307000000,250,419307000000,BR_wheel_link,0.363684180678316,0.5034352173522025,-1.3751908860054525,0.04301393579725212,-0.021247357718203456,0.006133931671752027
419308000000,251,419308000000,BR_wheel_link,-0.36187609678649746,-0.6281656143292165,-1.2514728613742663,-0.02335391646879334,0.017632206886186542,-0.010783574993900057
419309000000,252,419309000000,BR_wheel_link,0.019870917693823216,0.022179926845680334,-0.01279203736725866,0.0007348486107513419,-0.0005391899831704145,-1.8344007984041148e-05
419310000000,253,419310000000,BR_wheel_link,0.1688173541587928,-0.034580487057355516,-1.4162771540088448,0.01031686521979223,-0.0037608441196805347,0.0016045517021453662
419311000000,254,419311000000,BR_wheel_link,0.0535299978728409,0.06627162079701204,-0.07775060723409749,0.003249604919397947,-0.001713651385501913,0.0005396335613685477
419312000000,255,419312000000,BR_wheel_link,-0.05685073065445399,-0.19674764636550518,-0.03595804823670463,-0.03146867791849263,0.0034759489855021395,-0.0024322577638839424
419313000000,256,419313000000,BR_wheel_link,0.2191624470530543,0.4461340116644905,-1.1915457522255388,0.028862748408041802,-0.015676166904212144,0.010129076072540419
419314000000,257,419314000000,BR_wheel_link,-0.09256865238536881,-0.08974988478388747,-0.06912344902060857,-0.032329509043298225,-0.0028050737590681538,0.0007451886367748851
419315000000,258,419315000000,BR_wheel_link,-0.00036880142247844305,0.035332498768577886,-0.06217079719227235,0.0012863724469984875,0.00030431219133277454,0.0003198203883748252
419316000000,259,419316000000,BR_wheel_link,-0.20336549111111188,-0.1369731852899801,-0.012941101087956468,-0.004876978759020104,-0.02208560817598141,-0.005489320629696738
419316000000,260,419317000000,BR_wheel_link,-0.15031330206427215,0.1788482303283496,-0.9430410210432703,-0.006351414296576471,0.02244187103202827,0.005261822522685484
419318000000,261,419318000000,BR_wheel_link,-0.08347753772736852,0.23529486685815026,-0.9625167491998241,0.01733020795594293,-0.020079359581433726,0.0032878197765150584
419318000000,262,419319000000,BR_wheel_link,-0.18792983300432514,-0.12972686149041537,-0.5709593301813538,-0.019300270776976332,0.02163765993635733,0.00045662104532599295
419321000000,263,419320000000,BR_wheel_link,0.13763253023349564,0.3419044352169267,-1.2099458926324305,0.03580727699503147,-0.015057206430571665,0.0013243927268194438
419321000000,264,419321000000,BR_wheel_link,-0.10100736662812074,-0.32599021141762574,0.060709867487163914,-0.040165029222899454,0.004740842614448428,-0.001701673498758353
419322000000,265,419322000000,BR_wheel_link,-0.019833903455054494,0.23465606204773606,-1.0191949899345567,0.028546305692057274,-0.009606448486511841,-0.002030376104443292
419323000000,266,419323000000,BR_wheel_link,-0.30732077580216294,-0.309442994407857,-0.48133482753235834,-0.026182389696640666,0.01617698215333655,-0.0072821392085096
419324000000,267,419324000000,BR_wheel_link,0.2861263502513157,0.3435125484896605,-1.0208223805890773,0.03143585140968481,-0.016117007852939232,0.005885145716245662
419324000000,268,419325000000,BR_wheel_link,-0.29540630245989274,-0.4253298940408931,-0.9371366074054371,-0.022878146706322915,0.012521327684624928,-0.0070019388273456756
419326000000,269,419326000000,BR_wheel_link,0.010238979114260496,0.025182358270497227,-0.024666156372122702,0.0007991977260989595,-0.00010782919801401587,9.840251569828045e-05
419327000000,270,419327000000,BR_wheel_link,0.2101387609129872,0.10043802638605848,-0.29604730479985797,0.007601661715128141,-0.02050791648607605,0.006222077123441281
419327000000,271,419328000000,BR_wheel_link,-0.2120838759813467,-0.1842519670134235,-0.6118255728063033,-0.024396955097214238,0.025618955504317073,0.0005581340998957122
419329000000,272,419329000000,BR_wheel_link,0.3159351137988547,0.4314880053684122,-1.3191620396149046,0.04046427271360269,-0.01967258345679563,0.005912500019127262
419329000000,273,419330000000,BR_wheel_link,-0.40087371935064986,-0.5858013911059379,-1.1812169006081894,-0.022861328250141987,0.016136062747799988,-0.012083447969166355
419331000000,274,419331000000,BR_wheel_link,0.017133020720664194,0.023846106265837618,-0.015670934336727133,0.0006841328686986718,-0.00034604195137442765,7.592014533621414e-05
419332000000,275,419332000000,BR_wheel_link,0.19897287341286124,-0.026713715407972058,-1.421232903193704,0.010367980031440547,-0.003612443836611587,0.0035188531882879605
419333000000,276,419333000000,BR_wheel_link,0.06965277124260721,0.061989677209565434,-0.06112704117214025,0.0027555715247173994,-0.0018389012247065596,0.0012418994387666284
419334000000,277,419334000000,BR_wheel_link,0.02521766792508872,-0.13912967391657244,-0.012652963035863279,-0.03146697847135685,0.0011944944798771805,0.0008582556391557297
419335000000,278,419335000000,BR_wheel_link,0.15820855994023722,0.3171181892669017,-1.1582420547009762,0.033900914386720306,-0.01466698889159267,0.0027507451081999028
419336000000,279,419336000000,BR_wheel_link,-0.2849358622700676,-0.4011304293398109,-0.3675434223266306,-0.031339587287583404,0.023034894575414442,-0.00480162675862728
419337000000,280,419337000000,BR_wheel_link,0.31501215968550783,0.3815128248176493,-1.2276608046206583,0.03752419460103833,-0.01899635937789096,0.006552899373253566
419338000000,281,419338000000,BR_wheel_link,-0.3818165341487321,-0.5504485587008098,-1.0095287689857761,-0.024302107103762433,0.013692590421099177,-0.009851419791356671
419340000000,282,419339000000,BR_wheel_link,0.008364937292588444,0.022274297114066508,-0.023906051508937244,0.000721849921327365,-0.00014032823055039578,-8.726115251307108e-07
419340000000,283,419340000000,BR_wheel_link,0.20498379510672235,0.17442942401266703,-0.5193400927681304,0.010897116607744464,-0.016907943592998475,0.00951972280655402
419342000000,284,419341000000,BR_wheel_link,-0.2051641357472922,-0.282066479851339,-0.43888619798401785,-0.026819767689669236,0.02315969443723727,-0.0018878541110105597
419342000000,285,419342000000,BR_wheel_link,0.3013717172971978,0.4096965534304855,-1.3404668221631193,0.04086396753639267,-0.019768689527036518,0.005760399951623458
419343000000,286,419343000000,BR_wheel_link,-0.4138630344555863,-0.6285012491772275,-1.0647545102042981,-0.024701797732498542,0.014350835262320352,-0.013336775945586235
419344000000,287,419344000000,BR_wheel_link,0.013573699337333791,0.02318800993609796,-0.018820816318186398,0.0007438445570079954,-0.0003076180652219081,-1.2114908337188915e-05
419344000000,288,419345000000,BR_wheel_link,0.18728548489614677,-0.04245987374841283,-1.4390398717392732,0.010626648880174212,-0.0035672972196362693,0.003235366503523978
419346000000,289,419346000000,BR_wheel_link,0.048201643756127066,0.05029715424994715,-0.0719484804207716,0.002766019649804503,-0.0015379978177982728,0.0008033387503038974
419346000000,290,419347000000,BR_wheel_link,-0.00549481484236268,-0.15088640192746183,-0.06459872892500522,-0.030261438529817837,0.0028348503003132637,-0.00018958091614489558
419348000000,291,419348000000,BR_wheel_link,0.19519277668327412,0.31523850130172054,-1.158552876060323,0.03415344708225439,-0.015484440883499331,0.003957774552298788
419349000000,292,419349000000,BR_wheel_link,-0.33739625057868305,-0.41097526463408834,-0.4106405511414899,-0.031012939710562577,0.021412740509510843,-0.007249175211830451
419350000000,293,419350000000,BR_wheel_link,0.33072342781605274,0.35082665720237705,-1.137925411403323,0.034869049838780336,-0.018328527513637637,0.007557204912498144
419350000000,294,419351000000,BR_wheel_link,-0.2761777864178588,-0.4135352500329533,-0.2097208345543699,-0.03488355849287094,0.015069736413236886,-0.006556295822347896
419350000000,295,419352000000,BR_wheel_link,0.24494104657200072,0.2892032429091549,-1.0349438121230619,0.027425256714518252,-0.016066464031129074,0.009112875769461655
419350000000,296,419353000000,BR_wheel_link,-0.21447675748717088,-0.35040219859674965,-0.29078915267927896,-0.02816334918312583,0.021486193963799055,-0.003210166378723565
419350000000,297,419354000000,BR_wheel_link,0.2449339959448141,0.32778432992672807,-1.2685821521334706,0.03773859509142195,-0.018230756694882454,0.005296894103042458
419355000000,298,419355000000,BR_wheel_link,-0.3296260209762907,-0.535801594042191,-0.1770947963683257,-0.03525474342180726,0.015065684834041351,-0.011467496185048288
419356000000,299,419356000000,BR_wheel_link,0.2548667816588349,0.2864550516948238,-1.0965857277417448,0.03271644746360669,-0.016666269551622266,0.006038074446701302
419356000000,300,419357000000,BR_wheel_link,-0.27471305579396094,-0.42550026916230677,-0.22909368873983177,-0.033057366624059156,0.0151687654814805,-0.00789692470166515
419356000000,301,419358000000,BR_wheel_link,0.2466923088925947,0.2697975198198913,-1.0666935778852245,0.0315651040918648,-0.0161179618582451,0.006193837201633166
419358000000,302,419359000000,BR_wheel_link,-0.29638032478414744,-0.4090993033538394,-0.3165405927668815,-0.030888369468288185,0.017167581050835053,-0.008053529761047652
419358000000,303,419360000000,BR_wheel_link,0.2854850532970334,0.2773540889245849,-1.0541266474273439,0.03151055908147708,-0.016806583373428642,0.007340638457309357
419361000000,304,419361000000,BR_wheel_link,-0.27090668960259,-0.3979596670287656,-0.26972406217645994,-0.03178956753159182,0.01629577040918497,-0.007123156404139262
419362000000,305,419362000000,BR_wheel_link,0.2698702867776753,0.2671781720823493,-1.0572693821149732,0.03137052728451279,-0.016524222816181683,0.007062574311644395
419363000000,306,419363000000,BR_wheel_link,-0.2807903918521257,-0.39721896488782377,-0.2939981776613937,-0.031180626626677494,0.016844588658874438,-0.007377869681410958
419364000000,307,419364000000,BR_wheel_link,0.27749758194712487,0.2665552018821664,-1.0563252165459975,0.03138625950239195,-0.016689922149792816,0.00733021791339026
419365000000,308,419365000000,BR_wheel_link,-0.2739417743890735,-0.3952615488237735,-0.27753350318544606,-0.03146733259386003,0.01653359511806228,-0.007183715431557431
419366000000,309,419366000000,BR_wheel_link,0.2713500432787427,0.26137654527382237,-1.0578739153306267,0.03133754214866774,-0.016588026169436682,0.007238446390720611
419367000000,310,419367000000,BR_wheel_link,-0.27749439044302904,-0.3958694998036329,-0.28387872069741305,-0.03127624002265736,0.01668996104114385,-0.007326179001873274
419368000000,311,419368000000,BR_wheel_link,0.2736270616505462,0.25966256940506416,-1.0577009072128556,0.03133614382611957,-0.016642329896865336,0.007348028248024009
419369000000,312,419369000000,BR_wheel_link,-0.2758222301969016,-0.39587772487552586,-0.2780680097054894,-0.03136341567378147,0.01659577489388066,-0.007320281631387268
419370000000,313,419370000000,BR_wheel_link,0.2721491288650599,0.25676530372030987,-1.0581778431291373,0.031316502208850266,-0.01662189237981114,0.007359080641526087
419371000000,314,419371000000,BR_wheel_link,-0.27741329195987574,-0.3966839651620763,-0.2796476353822876,-0.03130221911959989,0.01665680865045336,-0.007417981356051341
419372000000,315,419372000000,BR_wheel_link,0.27353444217227174,0.25505486164109253,-1.0581360030674791,0.031314363850540046,-0.016654771849636395,0.007439340854732356
419374000000,316,419373000000,BR_wheel_link,-0.27739881105350894,-0.39731017796315365,-0.2775511992598028,-0.031328823002973724,0.016645073939600047,-0.007468980592021282
419374000000,317,419374000000,BR_wheel_link,0.2738323258052798,0.2530040884237243,-1.058348058035972,0.03130860183471347,-0.016666691777744193,0.00749133500059729
419375000000,318,419375000000,BR_wheel_link,-0.27837671915240936,-0.3982001144305576,-0.2777222886140229,-0.03131105171787401,0.016682879626119158,-0.007551155410068736
419378000000,319,419376000000,BR_wheel_link,0.2749926230170778,0.25130220973215583,-1.0584785344247465,0.03130991320475907,-0.016695624186272514,0.007564758260517578
419378000000,320,419377000000,BR_wheel_link,-0.21629293911691333,-0.31605097001566224,-0.46092168352675383,-0.030172947693209967,0.018137308268648233,-0.006405207387010784
419378000000,321,419378000000,BR_wheel_link,0.26151802239934746,0.22656280810313814,-1.0117632158160208,0.029800879525407366,-0.016107201769632946,0.007340981522050366
419378000000,322,419379000000,BR_wheel_link,-0.20516198588757445,-0.32536360906988315,-0.39402008375521047,-0.029129703652322897,0.01672896689287958,-0.006682452643100511
419378000000,323,419380000000,BR_wheel_link,0.24773973588875445,0.21058045824076038,-1.002784881089622,0.0293373123861507,-0.015843380812487467,0.007160634306551457
419381000000,324,419381000000,BR_wheel_link,-0.19030663312867263,-0.3211055583875252,-0.33716233139767526,-0.029571172251845454,0.01567796407779248,-0.00608330513907907
419382000000,325,419382000000,BR_wheel_link,0.23937205749242302,0.19161289458177524,-0.9450993825729903,0.023948476789923588,-0.015392937357743516,0.010673729086608838
419382000000,326,419383000000,BR_wheel_link,-0.11727243208087514,-0.2917664563591721,-0.3156987201257654,-0.025555365407059622,0.018376488282711313,-0.003903725060572842
419384000000,327,419384000000,BR_wheel_link,0.1663940453206092,0.20678438632700702,-1.181706424721507,0.03380891099973402,-0.016256747432878325,0.004718566151872206
419390000000,328,419385000000,BR_wheel_link,-0.228003202390147,-0.41990837386038893,-0.22720142441470395,-0.03207443817528113,0.01396119632578819,-0.009241120830806467
419390000000,329,419386000000,BR_wheel_link,0.2056258992622888,0.18424315627004914,-0.9674739009826732,0.02368727454207907,-0.015226115209198402,0.01027985369300818
419390000000,330,419387000000,BR_wheel_link,-0.20148350423413725,-0.3917177183116325,-0.15130800113310394,-0.02770347026689027,0.018211669341831098,-0.005327984906580522
419390000000,331,419388000000,BR_wheel_link,0.1782602242658124,0.24196703452438215,-1.2789140586754155,0.03697574003396947,-0.017392469172164866,0.0046307948381729665
419390000000,332,419389000000,BR_wheel_link,-0.21916408165424028,-0.41430335297981824,-0.23281126943993913,-0.03309874518459868,0.013548616509508608,-0.009246030531549963
419390000000,333,419390000000,BR_wheel_link,0.177526258587214,0.19099206085848303,-1.0584090717249102,0.03042165314181958,-0.014907942686831103,0.005140744617225511
419390000000,334,419391000000,BR_wheel_link,-0.26158247949582514,-0.4850563165479183,-0.20434666918761846,-0.03452928313714284,0.01607213190365535,-0.01000344087593531
419392000000,335,419392000000,BR_wheel_link,0.2604575321817494,0.2614012597705278,-1.183204591783035,0.034386449418733964,-0.01716109519536245,0.0075454175639893106
419393000000,336,419393000000,BR_wheel_link,-0.32974101424969815,-0.5621048309259398,-0.9624659770363713,-0.01933402377997365,0.016900147675061778,-0.007882759675361924
419394000000,337,419394000000,BR_wheel_link,0.009267114784702865,0.014073182068486314,-0.017166028332373826,0.0005350807713392019,-0.00021674171410995818,5.0229752889602675e-05
419395000000,338,419395000000,BR_wheel_link,0.17164740717468402,-0.13522312740378262,-1.4724350036436284,0.012506945188201285,-0.0057415037637750035,0.0036656924473192965
419396000000,339,419396000000,BR_wheel_link,0.040253476960342954,0.004994898573763659,-0.04406981970764289,-0.010020515290205466,0.000230760745143355,0.0017453903846069653
419397000000,340,419397000000,BR_wheel_link,0.006042533416073771,0.01498984864551772,-0.024344747101946,0.0005638926108163702,-5.1947170682933007e-05,0.00015536393326762323
419398000000,341,419398000000,BR_wheel_link,-0.09764571334377949,-0.42241029934424673,-2.134315666962538,0.0017629341843143375,0.0003852723816242231,-0.0012001238684368047
419399000000,342,419399000000,BR_wheel_link,0.0012824375570883043,0.010757903469452261,-0.016714297584365198,0.0004112590335855191,2.7059274051236416e-05,7.670096610966466e-06
419400000000,343,419400000000,BR_wheel_link,0.025220373227982595,-0.02799736776676176,0.2564598097150408,-0.007107771997174818,-0.007059159312119008,0.0005142894523362223
419401000000,344,419401000000,BR_wheel_link,-0.00589989520713071,-0.12147312532910763,-2.0791615732853703,0.007517071818550391,0.009057446927506237,0.0007906886131004024
419402000000,345,419402000000,BR_wheel_link,0.006083105548594606,0.007190647879550224,-0.008620342471259087,0.0001938753636145892,-5.37667988678102e-05,6.971915540720131e-05
419403000000,346,419403000000,BR_wheel_link,0.013590050731340687,-0.05728026854882985,-1.043148168430614,0.0002386988173446674,-0.0015313616451859942,0.0004416887876209875
419404000000,347,419404000000,BR_wheel_link,0.0028696256590695925,0.005822564900196711,-0.005107247583871997,0.00010704347655613194,3.576437244671644e-05,4.630347388936581e-05
419404000000,348,419405000000,BR_wheel_link,0.004435691620233315,-0.32307595182597637,-1.388254106357555,-0.005313574610037391,-0.0019095566862402636,0.0008663964722206271
419404000000,349,419406000000,BR_wheel_link,-0.004798217513682715,0.12375544055844516,-0.4246345575510045,0.0035659003765194635,0.0017579811842881705,-5.366421358878046e-05
419404000000,350,419407000000,BR_wheel_link,0.09851061634326237,0.08126394404291593,-0.29389848686053044,0.009103320835468734,-0.004961795321548196,0.002663874950686711
419408000000,351,419408000000,BR_wheel_link,-0.0838515302647909,-0.23369590704072368,0.017316322783372157,-0.03372500734730298,0.004674990038559269,-0.0021466710120531755
419409000000,352,419409000000,BR_wheel_link,0.22294529344663688,0.2627270608110018,-1.262076097911778,0.03673965114546779,-0.017193182363139912,0.006081041789927506
419410000000,353,419410000000,BR_wheel_link,-0.297486030157032,-0.44869147884959726,-0.2512009842134792,-0.03447576233699183,0.025802349674296482,-0.0054201581921314735
419411000000,354,419411000000,BR_wheel_link,0.3251848891360144,0.31131911333004547,-1.3838779250884414,0.041256588603114035,-0.02079022684858505,0.008719791349634375
