%time,field.header.seq,field.header.stamp,field.header.frame_id,field.name0,field.name1,field.name2,field.name3,field.position0,field.position1,field.position2,field.position3,field.velocity0,field.velocity1,field.velocity2,field.velocity3,field.effort0,field.effort1,field.effort2,field.effort3
419066000000,7076,419058000000,,BL_TO_BASELINK,BR_TO_BASELINK,FL_TO_BASELINK,FR_TO_BASELINK,0.04514609395207092,0.08845113629764523,-0.2631557787134513,-0.19256285881429225,4.4655404818350064e-08,1.4694075470278456e-10,-2.2234763356887566e-08,-3.730330902160239e-08,0.0,0.0,0.0,0.0
419067000000,7077,419059000000,,BL_TO_BASELINK,BR_TO_BASELINK,FL_TO_BASELINK,FR_TO_BASELINK,0.045145972049998484,0.08845071171943442,-0.26323872641991297,-0.19265840471407802,-0.00011591711371185254,-0.00042461653140422884,-0.08295440595294143,-0.0955468208414369,0.0,0.0,0.0,0.0
419067000000,7078,419060000000,,BL_TO_BASELINK,BR_TO_BASELINK,FL_TO_BASELINK,FR_TO_BASELINK,0.04516254010111176,0.08845084533957337,-0.26323866941157803,-0.192655617761039,0.010261715597031904,-0.00011295866110459449,-0.0001989003800668826,-0.00358271469025985,0.0,0.0,0.0,0.0
419067000000,7079,419061000000,,BL_TO_BASELINK,BR_TO_BASELINK,FL_TO_BASELINK,FR_TO_BASELINK,0.04516253006147508,0.08845084533959291,-0.26323866913077154,-0.19265561748915072,1.865930708555563e-09,4.2985393022831886e-11,-5.585214905151625e-09,-3.969358827737857e-09,0.0,0.0,0.0,0.0
419067000000,7080,419062000000,,BL_TO_BASELINK,BR_TO_BASELINK,FL_TO_BASELINK,FR_TO_BASELINK,0.04516245797155527,0.08845063760954286,-0.26323906241270834,-0.19274783640672677,-6.570445873502889e-05,-0.00020773589621857214,-0.0003934526633680227,-0.09220830866153865,0.0,0.0,0.0,0.0
419067000000,7081,419063000000,,BL_TO_BASELINK,BR_TO_BASELINK,FL_TO_BASELINK,FR_TO_BASELINK,0.045186561862978536,0.08845172052143191,-0.2632208281964292,-0.1927205565299559,-0.004774463152691113,0.00025914381859484803,-0.010053764726486978,-0.004636635249424682,0.0,0.0,0.0,0.0
419067000000,7082,419064000000,,BL_TO_BASELINK,BR_TO_BASELINK,FL_TO_BASELINK,FR_TO_BASELINK,0.04518652801460199,0.08845164076118728,-0.26324757937349297,-0.19272047190762986,-2.081352593728651e-05,-7.93457889472337e-05,-0.026823831700157168,8.067048661288597e-05,0.0,0.0,0.0,0.0
419067000000,7083,419065000000,,BL_TO_BASELINK,BR_TO_BASELINK,FL_TO_BASELINK,FR_TO_BASELINK,0.04518645430106538,0.0884514396132623,-0.2632479644063235,-0.1928093888805824,-6.549716181314391e-05,-0.00020115548495716618,-0.00038528869594878917,-0.08890148412967548,0.0,0.0,0.0,0.0
419067000000,7084,419066000000,,BL_TO_BASELINK,BR_TO_BASELINK,FL_TO_BASELINK,FR_TO_BASELINK,0.04519532602646148,0.08845199108517487,-0.2632474021468356,-0.19280137950276544,-0.0014777181572161943,0.0010433401698159567,0.030236081999882564,0.001228406516459158,0.0,0.0,0.0,0.0
419067000000,7085,419067000000,,BL_TO_BASELINK,BR_TO_BASELINK,FL_TO_BASELINK,FR_TO_BASELINK,0.0451953113662702,0.0884519910849404,-0.2632474020657982,-0.19280137355944138,-7.686914080262675e-08,-3.2915403042066416e-10,-1.262960953873904e-08,9.446521039360722e-08,0.0,0.0,0.0,0.0
419068000000,7086,419068000000,,BL_TO_BASELINK,BR_TO_BASELINK,FL_TO_BASELINK,FR_TO_BASELINK,0.045166547472391905,0.08845235426532216,-0.26324513497453506,-0.19284943192745718,-0.028743816903691103,0.0003631790437519586,0.002294307535000069,-0.0480534792890439,0.0,0.0,0.0,0.0
419069000000,7087,419069000000,,BL_TO_BASELINK,BR_TO_BASELINK,FL_TO_BASELINK,FR_TO_BASELINK,0.04515384738670125,0.08845213548853526,-0.2632580071764776,-0.19288364515917866,-0.012698797600824,-0.00021872889632508974,-0.012872938745438576,-0.03421745255108942,0.0,0.0,0.0,0.0
419070000000,7088,419070000000,,BL_TO_BASELINK,BR_TO_BASELINK,FL_TO_BASELINK,FR_TO_BASELINK,0.04514327170075294,0.0884522294154646,-0.26325798783140364,-0.19290959821068565,-0.010575356349721749,9.392376494048171e-05,1.9343799819424023e-05,-0.025954607929427678,0.0,0.0,0.0,0.0
419071000000,7089,419071000000,,BL_TO_BASELINK,BR_TO_BASELINK,FL_TO_BASELINK,FR_TO_BASELINK,0.0451204431264296,0.08845232800321678,-0.2632801762001886,-0.19294761228676105,-0.02283337971622645,9.854814272544556e-05,-0.02219149369475963,-0.03802094954733919,0.0,0.0,0.0,0.0
419072000000,7090,419072000000,,BL_TO_BASELINK,BR_TO_BASELINK,FL_TO_BASELINK,FR_TO_BASELINK,0.04510773848772853,0.08845257915401561,-0.263280020269689,-0.1929723543799211,-0.012705997677977462,0.00025115728525614,0.00015578895603049654,-0.02474355846336778,0.0,0.0,0.0,0.0
419073000000,7091,419073000000,,BL_TO_BASELINK,BR_TO_BASELINK,FL_TO_BASELINK,FR_TO_BASELINK,0.045095722000318084,0.08845234369472976,-0.26329082115724756,-0.19300025146979305,-0.012017210879937883,-0.00023536864780817962,-0.010801718439905636,-0.02790036742571413,0.0,0.0,0.0,0.0
419074000000,7092,419074000000,,BL_TO_BASELINK,BR_TO_BASELINK,FL_TO_BASELINK,FR_TO_BASELINK,0.04508432179007382,0.0884524727501299,-0.26329075475665764,-0.19302222722079332,-0.011401331503397612,0.0001290479470643104,6.619187034945283e-05,-0.021976180610012993,0.0,0.0,0.0,0.0
419075000000,7093,419075000000,,BL_TO_BASELINK,BR_TO_BASELINK,FL_TO_BASELINK,FR_TO_BASELINK,0.045073795415215834,0.08845230333847898,-0.2632998741431871,-0.1930462278051328,-0.010528117419932837,-0.00016936702933878153,-0.009120074901660294,-0.024002644507290623,0.0,0.0,0.0,0.0
419076000000,7094,419076000000,,BL_TO_BASELINK,BR_TO_BASELINK,FL_TO_BASELINK,FR_TO_BASELINK,0.0450623334807565,0.0884524852420947,-0.26329974970502246,-0.19306624286490592,-0.011464477497850727,0.0001818974759210893,0.00012422921088985962,-0.02001541048298819,0.0,0.0,0.0,0.0
419077000000,7095,419077000000,,BL_TO_BASELINK,BR_TO_BASELINK,FL_TO_BASELINK,FR_TO_BASELINK,0.045052256498709475,0.08845236995065964,-0.26330825068265806,-0.19308782053472218,-0.0100816557892161,-0.00011524416112626513,-0.00850164720473766,-0.021579268132139846,0.0,0.0,0.0,0.0
419078000000,7096,419078000000,,BL_TO_BASELINK,BR_TO_BASELINK,FL_TO_BASELINK,FR_TO_BASELINK,0.045040346850664825,0.08845256704806381,-0.26330810783825687,-0.19310661513128213,-0.011912676654616166,0.00019709113441779172,0.00014265264244278544,-0.0187949066725646,0.0,0.0,0.0,0.0
419081000000,7097,419079000000,,BL_TO_BASELINK,BR_TO_BASELINK,FL_TO_BASELINK,FR_TO_BASELINK,0.04503026017476319,0.08845248760357194,-0.2633164538241006,-0.1931266937241647,-0.010090728988290264,-7.940137063815493e-05,-0.008346541610156525,-0.020080036931017675,0.0,0.0,0.0,0.0
419081000000,7098,419080000000,,BL_TO_BASELINK,BR_TO_BASELINK,FL_TO_BASELINK,FR_TO_BASELINK,0.04501789401650047,0.08845269887067886,-0.2633162952286341,-0.19314460082994156,-0.012369190488754626,0.00021126083414975687,0.00015842091582742284,-0.017907416109772357,0.0,0.0,0.0,0.0
419081000000,7099,419081000000,,BL_TO_BASELINK,BR_TO_BASELINK,FL_TO_BASELINK,FR_TO_BASELINK,0.04500757103990072,0.08845264063833369,-0.26332471342939456,-0.1931637126728445,-0.010326792302566425,-5.8190803107406814e-05,-0.008418738525540353,-0.0191133590278243,0.0,0.0,0.0,0.0
419082000000,7100,419082000000,,BL_TO_BASELINK,BR_TO_BASELINK,FL_TO_BASELINK,FR_TO_BASELINK,0.04499479916672744,0.08845286601984448,-0.263324540052011,-0.19318091849638908,-0.012774657879920617,0.00022537536123347184,0.00017321468009486875,-0.017206143434196484,0.0,0.0,0.0,0.0
419083000000,7101,419083000000,,BL_TO_BASELINK,BR_TO_BASELINK,FL_TO_BASELINK,FR_TO_BASELINK,0.04498416718631848,0.08845282090059037,-0.26333312033398215,-0.19319936480275768,-0.010635514980476244,-4.507926149971723e-05,-0.008580799448945615,-0.018447807005227128,0.0,0.0,0.0,0.0
419084000000,7102,419084000000,,BL_TO_BASELINK,BR_TO_BASELINK,FL_TO_BASELINK,FR_TO_BASELINK,0.04497105050046368,0.088453059348919,-0.26333293368168675,-0.19321599086155228,-0.013119138750866698,0.00023844161061636134,0.00018649479049255677,-0.016626376263275244,0.0,0.0,0.0,0.0
419085000000,7103,419085000000,,BL_TO_BASELINK,BR_TO_BASELINK,FL_TO_BASELINK,FR_TO_BASELINK,0.04496012181190867,0.08845302327178839,-0.2633416861172595,-0.19323393359598118,-0.010932010295155269,-3.6040815218477346e-05,-0.00875299399719242,-0.017944212197274986,0.0,0.0,0.0,0.0
419086000000,7104,419086000000,,BL_TO_BASELINK,BR_TO_BASELINK,FL_TO_BASELINK,FR_TO_BASELINK,0.04494671750875501,0.08845327312670292,-0.26334148801110935,-0.19325006900458508,-0.013406442669729974,0.0002498481762781351,0.00019794907316854956,-0.016135706671127577,0.0,0.0,0.0,0.0
419087000000,7105,419087000000,,BL_TO_BASELINK,BR_TO_BASELINK,FL_TO_BASELINK,FR_TO_BASELINK,0.04493553111835258,0.08845324389280762,-0.26335039485527467,-0.19326761107017543,-0.011189350928922325,-2.9198992051114028e-05,-0.008907391590173425,-0.017543391634535218,0.0,0.0,0.0,0.0
419088000000,7106,419088000000,,BL_TO_BASELINK,BR_TO_BASELINK,FL_TO_BASELINK,FR_TO_BASELINK,0.04492188620879123,0.08845350344363823,-0.26335018707107327,-0.19328333084372584,-0.013646796199451628,0.0002595444901053259,0.0002076263466688291,-0.015720039149096685,0.0,0.0,0.0,0.0
419089000000,7107,419089000000,,BL_TO_BASELINK,BR_TO_BASELINK,FL_TO_BASELINK,FR_TO_BASELINK,0.044910490167960226,0.08845347990397023,-0.2633592197158636,-0.19330054051268686,-0.011398757144489877,-2.3504714224896386e-05,-0.009033198515509282,-0.017210945603846478,0.0,0.0,0.0,0.0
419090000000,7108,419090000000,,BL_TO_BASELINK,BR_TO_BASELINK,FL_TO_BASELINK,FR_TO_BASELINK,0.04489664134647331,0.088453747522788,-0.26335900401932655,-0.19331590843224955,-0.013850517329359819,0.0002676143797173073,0.00021554528938113682,-0.015368159173019277,0.0,0.0,0.0,0.0
419091000000,7109,419091000000,,BL_TO_BASELINK,BR_TO_BASELINK,FL_TO_BASELINK,FR_TO_BASELINK,0.0448850789939117,0.08845372884332647,-0.2633681350489656,-0.1933328381010435,-0.01156489075701169,-1.8644271586891166e-05,-0.009131590786871993,-0.016930892738836894,0.0,0.0,0.0,0.0
419092000000,7110,419092000000,,BL_TO_BASELINK,BR_TO_BASELINK,FL_TO_BASELINK,FR_TO_BASELINK,0.04487105571053096,0.08845400322249297,-0.26336791272173965,-0.19334790832737614,-0.01402484457394193,0.0002743762176548915,0.00022218154996776675,-0.015070442078315182,0.0,0.0,0.0,0.0
419093000000,7111,419093000000,,BL_TO_BASELINK,BR_TO_BASELINK,FL_TO_BASELINK,FR_TO_BASELINK,0.044859362239535905,0.08845398883415534,-0.263377119608891,-0.1933645994868778,-0.011695852044013239,-1.4361605104681483e-05,-0.009207418441147922,-0.01669234178062595,0.0,0.0,0.0,0.0
419094000000,7112,419094000000,,BL_TO_BASELINK,BR_TO_BASELINK,FL_TO_BASELINK,FR_TO_BASELINK,0.04484518803796522,0.08845426892925445,-0.26337689158629995,-0.19337941742092912,-0.014175665668898912,0.0002800870382480107,0.00022786979727318227,-0.014818120529838363,0.0,0.0,0.0,0.0
419095000000,7113,419095000000,,BL_TO_BASELINK,BR_TO_BASELINK,FL_TO_BASELINK,FR_TO_BASELINK,0.04483338876572862,0.08845425896539005,-0.2633861588933959,-0.19339590478512836,-0.011801623278501799,-9.914087138687949e-06,-0.00926790714737288,-0.016488532602687456,0.0,0.0,0.0,0.0
419097000000,7114,419096000000,,BL_TO_BASELINK,BR_TO_BASELINK,FL_TO_BASELINK,FR_TO_BASELINK,0.04481908293894232,0.08845454391191332,-0.2633859260188478,-0.1934105069221408,-0.014307218583182069,0.00028493332988340143,0.00023271554811274127,-0.0146023018453028,0.0,0.0,0.0,0.0
419097000000,7115,419097000000,,BL_TO_BASELINK,BR_TO_BASELINK,FL_TO_BASELINK,FR_TO_BASELINK,0.04480719694797752,0.08845453794561031,-0.2633952421736607,-0.19342681947436358,-0.011888269693861466,-5.915896189375748e-06,-0.009316757743798122,-0.016313689892509843,0.0,0.0,0.0,0.0
419098000000,7116,419098000000,,BL_TO_BASELINK,BR_TO_BASELINK,FL_TO_BASELINK,FR_TO_BASELINK,0.04479277587218089,0.08845482704725516,-0.26339500514760417,-0.1934412357816475,-0.014422409410351405,0.0002890842952331962,0.0002368631758847637,-0.0144164553054629,0.0,0.0,0.0,0.0
419099000000,7117,419099000000,,BL_TO_BASELINK,BR_TO_BASELINK,FL_TO_BASELINK,FR_TO_BASELINK,0.04478081777737675,0.08845482450206621,-0.26340436129575195,-0.19345739707117016,-0.011960306356237536,-2.494761253913659e-06,-0.00935674036275988,-0.01616239581415891,0.0,0.0,0.0,0.0
419100000000,7118,419100000000,,BL_TO_BASELINK,BR_TO_BASELINK,FL_TO_BASELINK,FR_TO_BASELINK,0.04476629586504277,0.08845511721333121,-0.26340412066468044,-0.19347165169915126,-0.014523194916904361,0.0002926904093090083,0.00024046586860973756,-0.014254763547963683,0.0,0.0,0.0,0.0
419101000000,7119,419101000000,,BL_TO_BASELINK,BR_TO_BASELINK,FL_TO_BASELINK,FR_TO_BASELINK,0.04475427686441602,0.08845511761741243,-0.26341351024585347,-0.19348768224222734,-0.01202115928109111,4.5200866373245295e-07,-0.009390170416603078,-0.016031627977239806,0.0,0.0,0.0,0.0
419102000000,7120,419102000000,,BL_TO_BASELINK,BR_TO_BASELINK,FL_TO_BASELINK,FR_TO_BASELINK,0.044739666397950906,0.08845541341538699,-0.26341326656963204,-0.19350179516799937,-0.014611706195839102,0.00029577625327181214,0.00024351350003824356,-0.014113063214957563,0.0,0.0,0.0,0.0
419103000000,7121,419103000000,,BL_TO_BASELINK,BR_TO_BASELINK,FL_TO_BASELINK,FR_TO_BASELINK,0.04472759449201913,0.08845541644367128,-0.26342268541424474,-0.1935177112787665,-0.012074020113815186,3.075909879770222e-06,-0.009419436852979057,-0.015917165051799992,0.0,0.0,0.0,0.0
419104000000,7122,419104000000,,BL_TO_BASELINK,BR_TO_BASELINK,FL_TO_BASELINK,FR_TO_BASELINK,0.04471290626745361,0.08845571498373239,-0.2634224390472717,-0.19353169818779659,-0.014689424859552816,0.000298518330612252,0.0002462077072503798,-0.01398704652954322,0.0,0.0,0.0,0.0
419105000000,7123,419105000000,,BL_TO_BASELINK,BR_TO_BASELINK,FL_TO_BASELINK,FR_TO_BASELINK,0.04470078802095134,0.088455720330062,-0.2634318838738263,-0.1935475147928285,-0.01212031736915617,5.393687117023673e-06,-0.00944542169390749,-0.015817632771779673,0.0,0.0,0.0,0.0
419106000000,7124,419106000000,,BL_TO_BASELINK,BR_TO_BASELINK,FL_TO_BASELINK,FR_TO_BASELINK,0.04468603134311255,0.08845602127906194,-0.26343163514711154,-0.19356139000684447,-0.01475784112222966,0.0003009272610327324,0.00024857084770530985,-0.013875352587635566,0.0,0.0,0.0,0.0
419107000000,7125,419107000000,,BL_TO_BASELINK,BR_TO_BASELINK,FL_TO_BASELINK,FR_TO_BASELINK,0.044673872523994795,0.08845602865746294,-0.2634411027843351,-0.1935771191154947,-0.012160831660807699,7.426873847152455e-06,-0.009468213510409662,-0.015730139278266612,0.0,0.0,0.0,0.0
419108000000,7126,419108000000,,BL_TO_BASELINK,BR_TO_BASELINK,FL_TO_BASELINK,FR_TO_BASELINK,0.04465905564803929,0.08845633173677214,-0.2634408519730558,-0.19359089481506953,-0.014818005070740187,0.0003030575643679905,0.0002506586752463627,-0.013775839676158181,0.0,0.0,0.0,0.0
419109000000,7127,419109000000,,BL_TO_BASELINK,BR_TO_BASELINK,FL_TO_BASELINK,FR_TO_BASELINK,0.04464686090288961,0.08845634091064003,-0.26345033999772216,-0.19360654696560342,-0.012196720701969406,9.222122920743599e-06,-0.009488603434954704,-0.015653160840727695,0.0,0.0,0.0,0.0
419112000000,7128,419110000000,,BL_TO_BASELINK,BR_TO_BASELINK,FL_TO_BASELINK,FR_TO_BASELINK,0.04463199087244529,0.08845664587726976,-0.26345008734145114,-0.19362023390753702,-0.014871128291172778,0.00030494487743399344,0.00025250673701774956,-0.013687084255811229,0.0,0.0,0.0,0.0
419112000000,7129,419111000000,,BL_TO_BASELINK,BR_TO_BASELINK,FL_TO_BASELINK,FR_TO_BASELINK,0.04461976457025241,0.08845665660249491,-0.26345959336970015,-0.19363581808068542,-0.012228253679962211,1.077317572092994e-05,-0.009506620379004115,-0.015585154436754569,0.0,0.0,0.0,0.0
419112000000,7130,419112000000,,BL_TO_BASELINK,BR_TO_BASELINK,FL_TO_BASELINK,FR_TO_BASELINK,0.04460484763182304,0.08845696323935037,-0.26345933908200525,-0.19364942577051014,-0.014918007926144939,0.0003066150975938129,0.0002541410217429801,-0.013607834145183495,0.0,0.0,0.0,0.0
419113000000,7131,419113000000,,BL_TO_BASELINK,BR_TO_BASELINK,FL_TO_BASELINK,FR_TO_BASELINK,0.04459259344527222,0.08845697532044028,-0.2634688611418765,-0.1936649500301213,-0.012256120063558295,1.2128327707623763e-05,-0.00952266872002192,-0.015525206852280309,0.0,0.0,0.0,0.0
419114000000,7132,419114000000,,BL_TO_BASELINK,BR_TO_BASELINK,FL_TO_BASELINK,FR_TO_BASELINK,0.04457763502666534,0.08845728343709425,-0.26346860541020245,-0.1936784869817556,-0.014959462717471032,0.00030809489121632694,0.00025558763839661556,-0.013537097917838177,0.0,0.0,0.0,0.0
419115000000,7133,419115000000,,BL_TO_BASELINK,BR_TO_BASELINK,FL_TO_BASELINK,FR_TO_BASELINK,0.044565356174488535,0.0884572967120576,-0.26347814176626994,-0.1936939582873647,-0.01228075739874317,1.3322009102071817e-05,-0.009536966530582499,-0.015472238801770913,0.0,0.0,0.0,0.0
419116000000,7134,419116000000,,BL_TO_BASELINK,BR_TO_BASELINK,FL_TO_BASELINK,FR_TO_BASELINK,0.04455036097888598,0.08845760614025888,-0.26347788475577083,-0.19370743210161034,-0.014996217270153671,0.0003094064339769461,0.0002568688729389756,-0.01347396325059991,0.0,0.0,0.0,0.0
419117000000,7135,419117000000,,BL_TO_BASELINK,BR_TO_BASELINK,FL_TO_BASELINK,FR_TO_BASELINK,0.044538060076541264,0.08845762044425687,-0.26348743399167596,-0.19372285630662045,-0.012302778999507108,1.43506545602942e-05,-0.00954984455639281,-0.015425136314055697,0.0,0.0,0.0,0.0
419118000000,7136,419118000000,,BL_TO_BASELINK,BR_TO_BASELINK,FL_TO_BASELINK,FR_TO_BASELINK,0.04452303220526854,0.08845793104335087,-0.2634871758399191,-0.1937362736092494,-0.015028873104800916,0.00031057732500461006,0.00025801233639188284,-0.013417454147432808,0.0,0.0,0.0,0.0
419119000000,7137,419119000000,,BL_TO_BASELINK,BR_TO_BASELINK,FL_TO_BASELINK,FR_TO_BASELINK,0.04451071198570755,0.08845794630474657,-0.2634967365084675,-0.19375165643141923,-0.01232206149435917,1.5308371954602003e-05,-0.009561269477675877,-0.015383745558201137,0.0,0.0,0.0,0.0
419120000000,7138,419120000000,,BL_TO_BASELINK,BR_TO_BASELINK,FL_TO_BASELINK,FR_TO_BASELINK,0.04449565493620877,0.0884582579280897,-0.26349647735882176,-0.19376502358953385,-0.015058033998990637,0.000311601569651488,0.0002590122339055558,-0.013367312298631901,0.0,0.0,0.0,0.0
419121000000,7139,419121000000,,BL_TO_BASELINK,BR_TO_BASELINK,FL_TO_BASELINK,FR_TO_BASELINK,0.04448331749412571,0.0884582740117148,-0.2635060482479057,-0.193780369753628,-0.012339265257067043,1.6130507004633423e-05,-0.009571491819093845,-0.015347076311903234,0.0,0.0,0.0,0.0
419122000000,7140,419122000000,,BL_TO_BASELINK,BR_TO_BASELINK,FL_TO_BASELINK,FR_TO_BASELINK,0.04446823439257752,0.08845858654803429,-0.26350578820911075,-0.1937936921568708,-0.015084070762994171,0.0003125145418081787,0.0002599032086632244,-0.013322559977565734,0.0,0.0,0.0,0.0
419123000000,7141,419123000000,,BL_TO_BASELINK,BR_TO_BASELINK,FL_TO_BASELINK,FR_TO_BASELINK,0.04445588144915913,0.08845860333000477,-0.26351536833999134,-0.1938090057599391,-0.01235474996887342,1.6828764751694895e-05,-0.009580735274890787,-0.01531450531448612,0.0,0.0,0.0,0.0
419124000000,7142,419124000000,,BL_TO_BASELINK,BR_TO_BASELINK,FL_TO_BASELINK,FR_TO_BASELINK,0.04444077510121058,0.08845891668398131,-0.2635151075051674,-0.19382228806884694,-0.015107303446043123,0.00031333219653204404,0.0002607008945489037,-0.013282468820376826,0.0,0.0,0.0,0.0
419125000000,7143,419125000000,,BL_TO_BASELINK,BR_TO_BASELINK,FL_TO_BASELINK,FR_TO_BASELINK,0.044428408475886805,0.08845893412412309,-0.26352469592365324,-0.1938375734308453,-0.012368416315602345,1.748682497925368e-05,-0.009589024205636624,-0.015286253753677044,0.0,0.0,0.0,0.0
419126000000,7144,419126000000,,BL_TO_BASELINK,BR_TO_BASELINK,FL_TO_BASELINK,FR_TO_BASELINK,0.04441328120598609,0.08845924819174211,-0.26352443439495143,-0.19385082027789746,-0.015128213496513103,0.00031404583675873304,0.00026139626434950746,-0.013247009476132169,0.0,0.0,0.0,0.0
419127000000,7145,419127000000,,BL_TO_BASELINK,BR_TO_BASELINK,FL_TO_BASELINK,FR_TO_BASELINK,0.04440090229419891,0.0884592661842758,-0.2635340302536795,-0.19386608082516954,-0.01238068887650666,1.8039084568347626e-05,-0.009596465315263574,-0.015261430813347406,0.0,0.0,0.0,0.0
419128000000,7146,419128000000,,BL_TO_BASELINK,BR_TO_BASELINK,FL_TO_BASELINK,FR_TO_BASELINK,0.04438575631022612,0.08845958088925077,-0.2635337681058427,-0.19387929601547338,-0.015146916998201308,0.00031468319070651683,0.000262016734898227,-0.013215355069234819,0.0,0.0,0.0,0.0
419129000000,7147,419129000000,,BL_TO_BASELINK,BR_TO_BASELINK,FL_TO_BASELINK,FR_TO_BASELINK,0.04437336629683575,0.0884595993645938,-0.2635433707567305,-0.19389453471366114,-0.012391778543276902,1.8521815752402335e-05,-0.009603258923760698,-0.015239572198344169,0.0,0.0,0.0,0.0
419130000000,7148,419130000000,,BL_TO_BASELINK,BR_TO_BASELINK,FL_TO_BASELINK,FR_TO_BASELINK,0.04435820351288822,0.08845991463659164,-0.26354310805844605,-0.19390772159865666,-0.015163707510049558,0.0003152502118933659,0.00026256837739979276,-0.013187051981657106,0.0,0.0,0.0,0.0
419131000000,7149,419131000000,,BL_TO_BASELINK,BR_TO_BASELINK,FL_TO_BASELINK,FR_TO_BASELINK,0.04434580332552063,0.08845993348878967,-0.26355271701270766,-0.1939229409582106,-0.012402042956516344,1.883866647163783e-05,-0.009609619712624374,-0.01522028528619902,0.0,0.0,0.0,0.0
419132000000,7150,419132000000,,BL_TO_BASELINK,BR_TO_BASELINK,FL_TO_BASELINK,FR_TO_BASELINK,0.04433062538650123,0.08846024926534568,-0.2635524538247003,-0.19393610249509496,-0.015178854203585498,0.00031575477045686553,0.0002630591683460239,-0.013161705920103442,0.0,0.0,0.0,0.0
419133000000,7151,419133000000,,BL_TO_BASELINK,BR_TO_BASELINK,FL_TO_BASELINK,FR_TO_BASELINK,0.0443182157745321,0.08846026834657827,-0.26356206867534393,-0.19395130482008138,-0.012411457746184278,1.9067746954200965e-05,-0.00961551715843267,-0.015203242823778171,0.0,0.0,0.0,0.0
419134000000,7152,419134000000,,BL_TO_BASELINK,BR_TO_BASELINK,FL_TO_BASELINK,FR_TO_BASELINK,0.04430302415972154,0.08846058457053818,-0.2635618050531363,-0.19396444366925447,-0.015192522451238586,0.0003162021731610118,0.00026349432073418115,-0.013139020100672479,0.0,0.0,0.0,0.0
419135000000,7153,419135000000,,BL_TO_BASELINK,BR_TO_BASELINK,FL_TO_BASELINK,FR_TO_BASELINK,0.044290605977844955,0.08846060384362797,-0.26357142531894695,-0.19397963082706848,-0.012420018709303263,1.925975797606016e-05,-0.00962093331610282,-0.015188072039400034,0.0,0.0,0.0,0.0
419136000000,7154,419136000000,,BL_TO_BASELINK,BR_TO_BASELINK,FL_TO_BASELINK,FR_TO_BASELINK,0.04427540202253066,0.08846092046494913,-0.2635711613109608,-0.19399274934386934,-0.015204856241665635,0.0003165995339213018,0.00026388095397746796,-0.013118689395468812,0.0,0.0,0.0,0.0
419137000000,7155,419137000000,,BL_TO_BASELINK,BR_TO_BASELINK,FL_TO_BASELINK,FR_TO_BASELINK,0.0442629760295743,0.08846093989323212,-0.26358078655961226,-0.19400792295020164,-0.01242782144612671,1.9414920685501946e-05,-0.009625916698303384,-0.015174514925592344,0.0,0.0,0.0,0.0
419138000000,7156,419138000000,,BL_TO_BASELINK,BR_TO_BASELINK,FL_TO_BASELINK,FR_TO_BASELINK,0.044247760930168134,0.08846125686733952,-0.26358052220884787,-0.19402102322339143,-0.015215994332137814,0.00031695231939807994,0.00026422450018937123,-0.01310044735312733,0.0,0.0,0.0,0.0
419139000000,7157,419139000000,,BL_TO_BASELINK,BR_TO_BASELINK,FL_TO_BASELINK,FR_TO_BASELINK,0.04423532783847062,0.08846127642699031,-0.2635901520109236,-0.19403618488862673,-0.012434897439842604,1.95482901498489e-05,-0.009630447172228322,-0.015162599511511672,0.0,0.0,0.0,0.0
419140000000,7158,419140000000,,BL_TO_BASELINK,BR_TO_BASELINK,FL_TO_BASELINK,FR_TO_BASELINK,0.04422010268951393,0.08846159371274442,-0.2635898873573357,-0.19404926885917728,-0.015226038596681162,0.00031726396646402093,0.00026452801665760584,-0.013084145912190846,0.0,0.0,0.0,0.0
419141000000,7159,419141000000,,BL_TO_BASELINK,BR_TO_BASELINK,FL_TO_BASELINK,FR_TO_BASELINK,0.0442076632066124,0.08846161338612735,-0.26359952126208164,-0.19406442019557968,-0.01244128220101645,1.9662018304277516e-05,-0.009634550461732692,-0.015152265137666196,0.0,0.0,0.0,0.0
419142000000,7160,419142000000,,BL_TO_BASELINK,BR_TO_BASELINK,FL_TO_BASELINK,FR_TO_BASELINK,0.04419242900589904,0.0884619309460879,-0.26359925634228354,-0.19407748963443883,-0.015235085612212183,0.00031753817302295926,0.00026479484014652705,-0.013069615543455782,0.0,0.0,0.0,0.0
419143000000,7161,419143000000,,BL_TO_BASELINK,BR_TO_BASELINK,FL_TO_BASELINK,FR_TO_BASELINK,0.04417998365593956,0.08846195071093987,-0.26360889406401533,-0.19409263186028713,-0.012447143405525619,1.9753484281389688e-05,-0.009638368005761764,-0.015143149557499716,0.0,0.0,0.0,0.0
419144000000,7162,419144000000,,BL_TO_BASELINK,BR_TO_BASELINK,FL_TO_BASELINK,FR_TO_BASELINK,0.04416474124641123,0.08846226851332162,-0.26360862890879044,-0.19410568829037,-0.015243290193698522,0.0003177805933089737,0.00026503081194459823,-0.013056607973210576,0.0,0.0,0.0,0.0
419146000000,7163,419145000000,,BL_TO_BASELINK,BR_TO_BASELINK,FL_TO_BASELINK,FR_TO_BASELINK,0.04415229048685898,0.08846228834949166,-0.2636182702004737,-0.1941208225044262,-0.01245254765905399,1.98247981864979e-05,-0.009641938460357928,-0.015135133156827884,0.0,0.0,0.0,0.0
419146000000,7164,419146000000,,BL_TO_BASELINK,BR_TO_BASELINK,FL_TO_BASELINK,FR_TO_BASELINK,0.04413704061964108,0.08846260636591907,-0.26361800483731646,-0.19413386729559345,-0.01525074410391179,0.000317994638994073,0.00026523923082272423,-0.013044970150700694,0.0,0.0,0.0,0.0
419147000000,7165,419147000000,,BL_TO_BASELINK,BR_TO_BASELINK,FL_TO_BASELINK,FR_TO_BASELINK,0.04412458486525761,0.08846262625568446,-0.2636276494708243,-0.19414899447214662,-0.012457537621454887,1.9878388961257166e-05,-0.009645280734798405,-0.015128091430909204,0.0,0.0,0.0,0.0
419147000000,7166,419148000000,,BL_TO_BASELINK,BR_TO_BASELINK,FL_TO_BASELINK,FR_TO_BASELINK,0.04410932821392688,0.0884629444606091,-0.2636273839244607,-0.19416202885443834,-0.015257524846352104,0.00031818313660496333,0.00026542286731524064,-0.01303456226378918,0.0,0.0,0.0,0.0
419147000000,7167,419149000000,,BL_TO_BASELINK,BR_TO_BASELINK,FL_TO_BASELINK,FR_TO_BASELINK,0.04409686783439337,0.08846296438798174,-0.26363703169518526,-0.19417714987335,-0.012462158330813726,1.9915991346496336e-05,-0.009648418359584111,-0.015121929906930062,0.0,0.0,0.0,0.0
419150000000,7168,419150000000,,BL_TO_BASELINK,BR_TO_BASELINK,FL_TO_BASELINK,FR_TO_BASELINK,0.04408160500373892,0.08846328275846282,-0.2636367659878287,-0.19419017495388768,-0.015263701163783278,0.0003183486937612351,0.0002655842446078556,-0.013025261404572903,0.0,0.0,0.0,0.0
419151000000,7169,419151000000,,BL_TO_BASELINK,BR_TO_BASELINK,FL_TO_BASELINK,FR_TO_BASELINK,0.0440691403326694,0.08846330270921765,-0.2636464167091246,-0.19420529060119396,-0.012466445808379358,1.9939368361719884e-05,-0.009651369296077992,-0.015116554728731694,0.0,0.0,0.0,0.0
419151000000,7170,419152000000,,BL_TO_BASELINK,BR_TO_BASELINK,FL_TO_BASELINK,FR_TO_BASELINK,0.04405387186592247,0.08846362122461837,-0.2636461508607484,-0.1942183073747321,-0.015269334579088413,0.0003184936127380428,0.00026572560617726775,-0.013016955211534493,0.0,0.0,0.0,0.0
419151000000,7171,419153000000,,BL_TO_BASELINK,BR_TO_BASELINK,FL_TO_BASELINK,FR_TO_BASELINK,0.044041403201307894,0.08846364118594519,-0.2636558043653592,-0.19423341835839647,-0.012470435635304627,1.9949934679806e-05,-0.009654152941968353,-0.015111887786833306,0.0,0.0,0.0,0.0
419154000000,7172,419154000000,,BL_TO_BASELINK,BR_TO_BASELINK,FL_TO_BASELINK,FR_TO_BASELINK,0.04402612958654739,0.08846395982772659,-0.2636555383939063,-0.1942464277195599,-0.015274480208646385,0.0003186199943144962,0.00026584898723178044,-0.013009543564798894,0.0,0.0,0.0,0.0
419155000000,7173,419155000000,,BL_TO_BASELINK,BR_TO_BASELINK,FL_TO_BASELINK,FR_TO_BASELINK,0.04401365719642936,0.088463979788167,-0.2636651945305646,-0.19426153467393892,-0.012474157727325255,1.9949042227740193e-05,-0.009656785284122433,-0.015107855451686284,0.0,0.0,0.0,0.0
419156000000,7174,419156000000,,BL_TO_BASELINK,BR_TO_BASELINK,FL_TO_BASELINK,FR_TO_BASELINK,0.04399837887232305,0.08846429853966153,-0.2636649284521635,-0.19427453742672984,-0.015279187435123215,0.0003187297073428512,0.0002659562044165539,-0.013002935845172767,0.0,0.0,0.0,0.0
419157000000,7175,419157000000,,BL_TO_BASELINK,BR_TO_BASELINK,FL_TO_BASELINK,FR_TO_BASELINK,0.043985902996634074,0.08846431848890202,-0.2636745870852284,-0.19428964092259893,-0.012477640157880901,1.9937837555404625e-05,-0.009659281956570948,-0.015104394116109792,0.0,0.0,0.0,0.0
419158000000,7176,419158000000,,BL_TO_BASELINK,BR_TO_BASELINK,FL_TO_BASELINK,FR_TO_BASELINK,0.04397062035750832,0.08846463733513055,-0.26367432091437504,-0.1943026377899999,-0.015283500570492103,0.00031882444136947146,0.0002660488953548678,-0.012997051039743166,0.0,0.0,0.0,0.0
419159000000,7177,419159000000,,BL_TO_BASELINK,BR_TO_BASELINK,FL_TO_BASELINK,FR_TO_BASELINK,0.04395814121190167,0.08846465726392516,-0.2636839819215764,-0.19431773833965327,-0.01248090718513294,1.9917384442412955e-05,-0.009661656334218399,-0.015101445271348162,0.0,0.0,0.0,0.0
419160000000,7178,419160000000,,BL_TO_BASELINK,BR_TO_BASELINK,FL_TO_BASELINK,FR_TO_BASELINK,0.04394285478654236,0.08846497622096994,-0.26368371564139004,-0.19433072956549235,-0.015287285194874151,0.00031893525754975063,0.00026615843984817444,-0.012991410058505733,0.0,0.0,0.0,0.0
419161000000,7179,419161000000,,BL_TO_BASELINK,BR_TO_BASELINK,FL_TO_BASELINK,FR_TO_BASELINK,0.04393037251057219,0.0884649961224504,-0.26369337895729394,-0.19434582764524233,-0.012484034615058606,1.9890063486568488e-05,-0.00966396529806502,-0.015098972886192653,0.0,0.0,0.0,0.0
419162000000,7180,419162000000,,BL_TO_BASELINK,BR_TO_BASELINK,FL_TO_BASELINK,FR_TO_BASELINK,0.04414043417736124,0.08866340228243086,-0.26349499311093716,-0.19423298749922768,0.2101702701152924,0.1984060319947647,0.19838560956141532,0.11284233473980178,0.0,0.0,0.0,0.0
419163000000,7181,419163000000,,BL_TO_BASELINK,BR_TO_BASELINK,FL_TO_BASELINK,FR_TO_BASELINK,0.04454021060740221,0.08906269453663018,-0.26331861392131906,-0.19384890966553403,0.3998032035651355,0.39929198356814966,0.17635266781920925,0.3838452687194764,0.0,0.0,0.0,0.0
419164000000,7182,419164000000,,BL_TO_BASELINK,BR_TO_BASELINK,FL_TO_BASELINK,FR_TO_BASELINK,0.045140193362016134,0.08966269452123488,-0.2627186120633258,-0.19324890967886432,0.5999999249985655,0.600000002452639,0.6000000978610354,0.5999999978684405,0.0,0.0,0.0,0.0
419165000000,7183,419165000000,,BL_TO_BASELINK,BR_TO_BASELINK,FL_TO_BASELINK,FR_TO_BASELINK,0.045939810243861956,0.09046140449512396,-0.2622436389618006,-0.19280184725027105,0.7991085479964358,0.7978166703624312,0.46751411883185634,0.42999575784905825,0.0,0.0,0.0,0.0
419166000000,7184,419166000000,,BL_TO_BASELINK,BR_TO_BASELINK,FL_TO_BASELINK,FR_TO_BASELINK,0.04686916039208899,0.09139057309223819,-0.26131469723761214,-0.19190500673932664,0.9293571125670333,0.929168614027131,0.9289402887741267,0.8963893956400028,0.0,0.0,0.0,0.0
419167000000,7185,419167000000,,BL_TO_BASELINK,BR_TO_BASELINK,FL_TO_BASELINK,FR_TO_BASELINK,0.0477982650459472,0.09231880206338872,-0.26067185040310203,-0.19097424085634085,0.9290834115099126,0.9282905922516842,0.6305964315183682,0.9308956971592441,0.0,0.0,0.0,0.0
419168000000,7186,419168000000,,BL_TO_BASELINK,BR_TO_BASELINK,FL_TO_BASELINK,FR_TO_BASELINK,0.04872806643698269,0.09324929012774774,-0.2597408824028866,-0.1903357384732951,0.9298032525104932,0.9305021735472383,0.9309504740929844,0.6386008938115688,0.0,0.0,0.0,0.0
419169000000,7187,419169000000,,BL_TO_BASELINK,BR_TO_BASELINK,FL_TO_BASELINK,FR_TO_BASELINK,0.049657971293868286,0.09417978330151833,-0.2589672535119574,-0.18940722617695727,0.9299028900746509,0.9304823970268232,0.7735801607988101,0.9284724449658182,0.0,0.0,0.0,0.0
419170000000,7188,419170000000,,BL_TO_BASELINK,BR_TO_BASELINK,FL_TO_BASELINK,FR_TO_BASELINK,0.05058740245320337,0.09510921555983298,-0.2580378041603426,-0.18847779200075454,0.9294322374764072,0.9294323046505606,0.9294330302811036,0.9294321100528484,0.0,0.0,0.0,0.0
419171000000,7189,419171000000,,BL_TO_BASELINK,BR_TO_BASELINK,FL_TO_BASELINK,FR_TO_BASELINK,0.051516598143196646,0.09603781337435358,-0.25728347770423365,-0.18773459543311155,0.9291963897562041,0.9285978281355418,0.7543041423020537,0.7431892677053586,0.0,0.0,0.0,0.0
419171000000,7190,419172000000,,BL_TO_BASELINK,BR_TO_BASELINK,FL_TO_BASELINK,FR_TO_BASELINK,0.05244596285481151,0.09696701323250068,-0.256354476429272,-0.1868344141736502,0.9293651953681542,0.9291999036225667,0.9289912212760617,0.8998008996027066,0.0,0.0,0.0,0.0
419171000000,7191,419173000000,,BL_TO_BASELINK,BR_TO_BASELINK,FL_TO_BASELINK,FR_TO_BASELINK,0.05337524484145195,0.09789590149722738,-0.2555833061007631,-0.18592148860650237,0.9292822562238456,0.9288882373816857,0.7711744871390082,0.9126789431379077,0.0,0.0,0.0,0.0
419174000000,7192,419174000000,,BL_TO_BASELINK,BR_TO_BASELINK,FL_TO_BASELINK,FR_TO_BASELINK,0.05430457849326231,0.09882507899769255,-0.25465439429836945,-0.18510394654142193,0.9293338937652255,0.9291775591045852,0.9289008627371468,0.8175567944226443,0.0,0.0,0.0,0.0
419175000000,7193,419175000000,,BL_TO_BASELINK,BR_TO_BASELINK,FL_TO_BASELINK,FR_TO_BASELINK,0.055234091296433974,0.0997547911184613,-0.2538730183456108,-0.18428393020690859,0.9295128071876821,0.9297115407266723,0.7814274252793152,0.8200246954110639,0.0,0.0,0.0,0.0
419176000000,7194,419176000000,,BL_TO_BASELINK,BR_TO_BASELINK,FL_TO_BASELINK,FR_TO_BASELINK,0.05616344844931476,0.10068397346215185,-0.25294404585503205,-0.18344367453279364,0.9293572958693762,0.92918240624227,0.9289658872894664,0.8402744162812648,0.0,0.0,0.0,0.0
419177000000,7195,419177000000,,BL_TO_BASELINK,BR_TO_BASELINK,FL_TO_BASELINK,FR_TO_BASELINK,0.05709294824904365,0.10161351693247678,-0.2521186965913973,-0.18259913708932007,0.9294996742429049,0.9295431268155067,0.825353621864797,0.8445260504198833,0.0,0.0,0.0,0.0
419178000000,7196,419178000000,,BL_TO_BASELINK,BR_TO_BASELINK,FL_TO_BASELINK,FR_TO_BASELINK,0.05802231747531117,0.10254274130872965,-0.25118964877584027,-0.181749205128785,0.9293693268246168,0.9292244442414727,0.929042806279709,0.8499489859117365,0.0,0.0,0.0,0.0
419179000000,7197,419179000000,,BL_TO_BASELINK,BR_TO_BASELINK,FL_TO_BASELINK,FR_TO_BASELINK,0.05895150362060164,0.1034715697765316,-0.25038502633123016,-0.18090361107683872,0.9291847894831924,0.9288252748393957,0.8046057197224299,0.8455656747643718,0.0,0.0,0.0,0.0
419180000000,7198,419180000000,,BL_TO_BASELINK,BR_TO_BASELINK,FL_TO_BASELINK,FR_TO_BASELINK,0.05988086916224322,0.10440078918755358,-0.24945599367428972,-0.18005698647244817,0.9293656331366594,0.9292194880208247,0.9290273322778525,0.846641444910958,0.0,0.0,0.0,0.0
419181000000,7199,419181000000,,BL_TO_BASELINK,BR_TO_BASELINK,FL_TO_BASELINK,FR_TO_BASELINK,0.060810366090003676,0.10533044066322628,-0.24865908276370963,-0.17921416716530736,0.9294968515843641,0.9296509437541243,0.7969541192403288,0.8428172550333776,0.0,0.0,0.0,0.0
419182000000,7200,419182000000,,BL_TO_BASELINK,BR_TO_BASELINK,FL_TO_BASELINK,FR_TO_BASELINK,0.06173973726873072,0.1062596653602963,-0.2477300306461485,-0.17836207460322306,0.9293712707693534,0.929224781147804,0.9290478426550192,0.8521085908099945,0.0,0.0,0.0,0.0
419183000000,7201,419183000000,,BL_TO_BASELINK,BR_TO_BASELINK,FL_TO_BASELINK,FR_TO_BASELINK,0.0626692257334982,0.10718921880734378,-0.24691136687719073,-0.17750948285671164,0.9294883976946638,0.9295530839186715,0.8186779351056963,0.8525733072680899,0.0,0.0,0.0,0.0
419184000000,7202,419184000000,,BL_TO_BASELINK,BR_TO_BASELINK,FL_TO_BASELINK,FR_TO_BASELINK,0.06359860028862574,0.10811846004159076,-0.2459822881142255,-0.17665248386208532,0.9293746502945188,0.929241325868758,0.9290744083893436,0.8570106392846367,0.0,0.0,0.0,0.0
419185000000,7203,419185000000,,BL_TO_BASELINK,BR_TO_BASELINK,FL_TO_BASELINK,FR_TO_BASELINK,0.06452847439868137,0.1090484635021971,-0.24521088110724687,-0.17582339512696699,0.9298654425812568,0.9299618437901366,0.7716549737716812,0.8291902885583663,0.0,0.0,0.0,0.0
419186000000,7204,419186000000,,BL_TO_BASELINK,BR_TO_BASELINK,FL_TO_BASELINK,FR_TO_BASELINK,0.06545781640368364,0.10997765404034698,-0.2442886681094043,-0.17496321266357828,0.9293424667781216,0.9291905915310521,0.9221107244491142,0.8601763368061194,0.0,0.0,0.0,0.0
419187000000,7205,419187000000,,BL_TO_BASELINK,BR_TO_BASELINK,FL_TO_BASELINK,FR_TO_BASELINK,0.06638719326710874,0.1109068943224969,-0.2433595813932543,-0.17410890882666052,0.9293769768761273,0.9292403942408932,0.9290788958892956,0.8543225244280428,0.0,0.0,0.0,0.0
419188000000,7206,419188000000,,BL_TO_BASELINK,BR_TO_BASELINK,FL_TO_BASELINK,FR_TO_BASELINK,0.06731648490886233,0.11183581409407584,-0.24257912563303563,-0.17325682780941687,0.9292914205473602,0.9289210647677253,0.7804467883222713,0.8520348858769784,0.0,0.0,0.0,0.0
419189000000,7207,419189000000,,BL_TO_BASELINK,BR_TO_BASELINK,FL_TO_BASELINK,FR_TO_BASELINK,0.06824585109677006,0.1127650324330336,-0.24165009059591114,-0.17240251242120408,0.9293663091846844,0.9292184595296116,0.929026588683156,0.8543255080857796,0.0,0.0,0.0,0.0
419190000000,7208,419190000000,,BL_TO_BASELINK,BR_TO_BASELINK,FL_TO_BASELINK,FR_TO_BASELINK,0.06917530784948323,0.11369448034282659,-0.24084412609089156,-0.17154036270641004,0.9294566797749443,0.9294475190912714,0.8059712795127738,0.8621279630484422,0.0,0.0,0.0,0.0
419191000000,7209,419191000000,,BL_TO_BASELINK,BR_TO_BASELINK,FL_TO_BASELINK,FR_TO_BASELINK,0.07022316608879109,0.11473909483831246,-0.23991484955962594,-0.17051814130606147,1.017272388993328,0.9901408460658515,0.9265858532274102,0.9618444225118956,0.0,0.0,0.0,0.0
419192000000,7210,419192000000,,BL_TO_BASELINK,BR_TO_BASELINK,FL_TO_BASELINK,FR_TO_BASELINK,0.07115255222919448,0.11566849900245835,-0.23898541215886038,-0.16958870900775924,0.9294326720698434,0.9294326209433316,0.9294326008781602,0.9294323080906246,0.0,0.0,0.0,0.0
419193000000,7211,419193000000,,BL_TO_BASELINK,BR_TO_BASELINK,FL_TO_BASELINK,FR_TO_BASELINK,0.0720819512179327,0.11663453027025916,-0.2380557911539407,-0.16863996493650202,0.9294286146638007,0.9660762762224238,0.9296179483476387,0.9487457935233279,0.0,0.0,0.0,0.0
419194000000,7212,419194000000,,BL_TO_BASELINK,BR_TO_BASELINK,FL_TO_BASELINK,FR_TO_BASELINK,0.07312389548021159,0.11756302896304227,-0.2371271701284483,-0.1677110498967771,1.041902811404443,0.9285008806781998,0.9286190136864331,0.9289148199895846,0.0,0.0,0.0,0.0
419195000000,7213,419195000000,,BL_TO_BASELINK,BR_TO_BASELINK,FL_TO_BASELINK,FR_TO_BASELINK,0.07405324433979121,0.11849228256056765,-0.23619805474993782,-0.16686187380718476,0.9293954514310743,0.9293006141285228,0.9291940810977646,0.8699492921778985,0.0,0.0,0.0,0.0
419196000000,7214,419196000000,,BL_TO_BASELINK,BR_TO_BASELINK,FL_TO_BASELINK,FR_TO_BASELINK,0.0750368348894428,0.11942227181834664,-0.23526803432635646,-0.16589873468631833,0.9618235973866733,0.9292138191043324,0.9292502861412315,0.9409967040058317,0.0,0.0,0.0,0.0
419197000000,7215,419197000000,,BL_TO_BASELINK,BR_TO_BASELINK,FL_TO_BASELINK,FR_TO_BASELINK,0.07596622422328725,0.12035170347572777,-0.23433860151847963,-0.16496930164242674,0.9294323196219445,0.9294323044957211,0.9294323217572144,0.9294322924401408,0.0,0.0,0.0,0.0
419198000000,7216,419198000000,,BL_TO_BASELINK,BR_TO_BASELINK,FL_TO_BASELINK,FR_TO_BASELINK,0.07689557519354828,0.1212809699963584,-0.23340948905743275,-0.16411412889498855,0.9293781007457905,0.9292669595372312,0.929112146485686,0.8551815040806823,0.0,0.0,0.0,0.0
419199000000,7217,419199000000,,BL_TO_BASELINK,BR_TO_BASELINK,FL_TO_BASELINK,FR_TO_BASELINK,0.07785570032887001,0.12221176651704191,-0.2324608449430272,-0.1631512175886476,0.9319415054042643,0.9301604447193621,0.9212350934789527,0.9345294304244104,0.0,0.0,0.0,0.0
419200000000,7218,419200000000,,BL_TO_BASELINK,BR_TO_BASELINK,FL_TO_BASELINK,FR_TO_BASELINK,0.07878508295536335,0.12314112476791284,-0.2315653852561157,-0.16222171071550662,0.9294130091434796,0.9293589430268352,0.8954451601381578,0.9295037837372797,0.0,0.0,0.0,0.0
419201000000,7219,419201000000,,BL_TO_BASELINK,BR_TO_BASELINK,FL_TO_BASELINK,FR_TO_BASELINK,0.07971443434204506,0.12407037917925035,-0.23063629885489956,-0.16136990195406042,0.929370445020701,0.9292545407603214,0.9290839920011371,0.851815314758509,0.0,0.0,0.0,0.0
419202000000,7220,419202000000,,BL_TO_BASELINK,BR_TO_BASELINK,FL_TO_BASELINK,FR_TO_BASELINK,0.0806491791714734,0.12500279147178883,-0.22971162190685845,-0.16042233670865702,0.9229358943064244,0.9274858348885294,0.9125307686506565,0.9184678044933795,0.0,0.0,0.0,0.0
419203000000,7221,419203000000,,BL_TO_BASELINK,BR_TO_BASELINK,FL_TO_BASELINK,FR_TO_BASELINK,0.08157856186175483,0.12593212683114974,-0.22881569728335993,-0.15949281025720463,0.9294075602500738,0.9293361323794296,0.8958809135135928,0.9295215010550639,0.0,0.0,0.0,0.0
419204000000,7222,419204000000,,BL_TO_BASELINK,BR_TO_BASELINK,FL_TO_BASELINK,FR_TO_BASELINK,0.08250798915492386,0.12684491668444053,-0.2278851600586167,-0.158584850178916,0.9294428500214608,0.9127876674176939,0.9305329252027463,0.9079920408862348,0.0,0.0,0.0,0.0
419205000000,7223,419205000000,,BL_TO_BASELINK,BR_TO_BASELINK,FL_TO_BASELINK,FR_TO_BASELINK,0.08341813440238788,0.12777512435455574,-0.2269806496360829,-0.15765554481002297,0.9100885121771762,0.9302080842989728,0.9045199092335,0.9292909814310554,0.0,0.0,0.0,0.0
419206000000,7224,419206000000,,BL_TO_BASELINK,BR_TO_BASELINK,FL_TO_BASELINK,FR_TO_BASELINK,0.08432210120453654,0.1286857104093162,-0.2260506953051289,-0.1567493000699276,0.9039888119362265,0.910582690531591,0.9299467463601022,0.9062611535297093,0.0,0.0,0.0,0.0
419207000000,7225,419207000000,,BL_TO_BASELINK,BR_TO_BASELINK,FL_TO_BASELINK,FR_TO_BASELINK,0.08525553544572073,0.129619924782145,-0.2251213448752587,-0.15581995164205953,0.9334401145852421,0.9342143118375654,0.9293455218686513,0.9293332534290158,0.0,0.0,0.0,0.0
419208000000,7226,419208000000,,BL_TO_BASELINK,BR_TO_BASELINK,FL_TO_BASELINK,FR_TO_BASELINK,0.08618482728983068,0.13054891099174526,-0.22429145155645536,-0.1549838048620824,0.9293098020834316,0.9289902563985128,0.8306656646995103,0.8363628078639336,0.0,0.0,0.0,0.0
419209000000,7227,419209000000,,BL_TO_BASELINK,BR_TO_BASELINK,FL_TO_BASELINK,FR_TO_BASELINK,0.08711424844283044,0.13161310759294764,-0.22336298238630103,-0.1540601910836923,0.9356555022684876,1.00851860448789,0.9272049333594318,0.9576146019282384,0.0,0.0,0.0,0.0
419210000000,7228,419210000000,,BL_TO_BASELINK,BR_TO_BASELINK,FL_TO_BASELINK,FR_TO_BASELINK,0.08804363775160162,0.13250863031845306,-0.22248683986455386,-0.15313052973609498,0.9293769121119,0.9335582345549468,0.9114954389648713,0.9297524681742185,0.0,0.0,0.0,0.0
419211000000,7229,419211000000,,BL_TO_BASELINK,BR_TO_BASELINK,FL_TO_BASELINK,FR_TO_BASELINK,0.08897306562957219,0.1334380390519465,-0.22155739954084908,-0.15220109484153177,0.9294322848514094,0.9294323575529422,0.9294322646081262,0.9294323244610202,0.0,0.0,0.0,0.0
419212000000,7230,419212000000,,BL_TO_BASELINK,BR_TO_BASELINK,FL_TO_BASELINK,FR_TO_BASELINK,0.08990252253642783,0.1344242580258026,-0.22062822917729985,-0.151271831734884,0.9294597238422403,0.9861930475823836,0.9291651924051786,0.9292614430136932,0.0,0.0,0.0,0.0
419213000000,7231,419213000000,,BL_TO_BASELINK,BR_TO_BASELINK,FL_TO_BASELINK,FR_TO_BASELINK,0.09083193627301878,0.13532314181944827,-0.21975092789580053,-0.15034226967712883,0.9293491077612388,0.9132310821387347,0.8900702580744677,0.9299277080255104,0.0,0.0,0.0,0.0
419214000000,7232,419214000000,,BL_TO_BASELINK,BR_TO_BASELINK,FL_TO_BASELINK,FR_TO_BASELINK,0.09176136740417906,0.1362525630890996,-0.21882148745442365,-0.14941283672262795,0.9294322825509962,0.9294323654667448,0.9294322404846329,0.9294323240940683,0.0,0.0,0.0,0.0
419215000000,7233,419215000000,,BL_TO_BASELINK,BR_TO_BASELINK,FL_TO_BASELINK,FR_TO_BASELINK,0.09269082413720842,0.1372272940674515,-0.21789227994114935,-0.14848356026413612,0.9294574804387452,0.974718334460963,0.9292022503948507,0.929276048736079,0.0,0.0,0.0,0.0
419216000000,7234,419216000000,,BL_TO_BASELINK,BR_TO_BASELINK,FL_TO_BASELINK,FR_TO_BASELINK,0.09362023783607754,0.13810747581419136,-0.21702904395725042,-0.14755397202507048,0.92876768151887,0.8918556321743804,0.8715972066209207,0.9326959847164199,0.0,0.0,0.0,0.0
419217000000,7235,419217000000,,BL_TO_BASELINK,BR_TO_BASELINK,FL_TO_BASELINK,FR_TO_BASELINK,0.09454966979928692,0.13903690586701511,-0.21609960143116336,-0.14662453959117272,0.9294322952847974,0.9294323161393349,0.9294322791442413,0.9294323112033797,0.0,0.0,0.0,0.0
419218000000,7236,419218000000,,BL_TO_BASELINK,BR_TO_BASELINK,FL_TO_BASELINK,FR_TO_BASELINK,0.09547911996615,0.13999776025725819,-0.21517032530779634,-0.14569521927791662,0.929450389695499,0.9608495000400339,0.9292695429986542,0.9293202343420592,0.0,0.0,0.0,0.0
419219000000,7237,419219000000,,BL_TO_BASELINK,BR_TO_BASELINK,FL_TO_BASELINK,FR_TO_BASELINK,0.0964085286904579,0.1408663579821603,-0.21431355582486145,-0.14476558925401228,0.9269014729742657,0.8702056388545959,0.8504065931273067,0.9385866974910606,0.0,0.0,0.0,0.0
419220000000,7238,419220000000,,BL_TO_BASELINK,BR_TO_BASELINK,FL_TO_BASELINK,FR_TO_BASELINK,0.09733796086526603,0.1417957902154745,-0.21338411098505006,-0.1438361569576161,0.9294322995565624,0.9294323058202542,0.9294323152226152,0.9294323076397265,0.0,0.0,0.0,0.0
419221000000,7239,419221000000,,BL_TO_BASELINK,BR_TO_BASELINK,FL_TO_BASELINK,FR_TO_BASELINK,0.09826740828796154,0.14274996140217322,-0.21245480371880898,-0.1429068186853284,0.9294475108931339,0.9541706897289239,0.9292992208066301,0.9293382797236719,0.0,0.0,0.0,0.0
419222000000,7240,419222000000,,BL_TO_BASELINK,BR_TO_BASELINK,FL_TO_BASELINK,FR_TO_BASELINK,0.0991968147362412,0.1436111970728584,-0.21160102610277853,-0.1419771789894888,0.925416716794447,0.8619146400084686,0.843331613621332,0.9401843352335296,0.0,0.0,0.0,0.0
419223000000,7241,419223000000,,BL_TO_BASELINK,BR_TO_BASELINK,FL_TO_BASELINK,FR_TO_BASELINK,0.10012624696606043,0.14454062767912124,-0.21067157941572212,-0.1410477467276401,0.9294323015375783,0.9294323167919074,0.929432349106273,0.9294323066738464,0.0,0.0,0.0,0.0
419224000000,7242,419224000000,,BL_TO_BASELINK,BR_TO_BASELINK,FL_TO_BASELINK,FR_TO_BASELINK,0.10105569210469056,0.14549011694392178,-0.20974224863847368,-0.14011839400556614,0.9294451914415185,0.9494922588094904,0.929321565503153,0.9293527515537999,0.0,0.0,0.0,0.0
419225000000,7243,419225000000,,BL_TO_BASELINK,BR_TO_BASELINK,FL_TO_BASELINK,FR_TO_BASELINK,0.10198510204772226,0.14634611926748065,-0.20889042668515678,-0.139188771380657,0.9263293058159938,0.8487275697113866,0.8355273553186059,0.9353857243898513,0.0,0.0,0.0,0.0
419226000000,7244,419226000000,,BL_TO_BASELINK,BR_TO_BASELINK,FL_TO_BASELINK,FR_TO_BASELINK,0.10291453429243269,0.14727554712236302,-0.2079609785954073,-0.13825933912660027,0.9294323023111526,0.929432336063565,0.929432377558795,0.9294323065855972,0.0,0.0,0.0,0.0
419227000000,7245,419227000000,,BL_TO_BASELINK,BR_TO_BASELINK,FL_TO_BASELINK,FR_TO_BASELINK,0.10384397843564486,0.14822297177958,-0.2070316371577361,-0.1373299801175749,0.9294441858334054,0.9474304344733336,0.92933134274729,0.929359043068865,0.0,0.0,0.0,0.0
419228000000,7246,419228000000,,BL_TO_BASELINK,BR_TO_BASELINK,FL_TO_BASELINK,FR_TO_BASELINK,0.10477339019408927,0.1490767344311692,-0.2061798947184572,-0.13640036567040514,0.9257789022414133,0.8482999113436163,0.8357745989268208,0.9373336481860237,0.0,0.0,0.0,0.0
419229000000,7247,419229000000,,BL_TO_BASELINK,BR_TO_BASELINK,FL_TO_BASELINK,FR_TO_BASELINK,0.10570282244421314,0.15000615999462763,-0.2052504458012976,-0.13547093341657845,0.9294323026994634,0.9294323534847955,0.9294323966288535,0.929432306723837,0.0,0.0,0.0,0.0
419230000000,7248,419230000000,,BL_TO_BASELINK,BR_TO_BASELINK,FL_TO_BASELINK,FR_TO_BASELINK,0.10663226549098148,0.1509517807027363,-0.20432109416929567,-0.13454156757766444,0.9294430860049351,0.9456284523470556,0.929341016413629,0.9293658721818114,0.0,0.0,0.0,0.0
419231000000,7249,419231000000,,BL_TO_BASELINK,BR_TO_BASELINK,FL_TO_BASELINK,FR_TO_BASELINK,0.10756167264229877,0.15181981436121905,-0.20348327287652612,-0.13367077296773022,0.9293911076363789,0.8640232973349798,0.8365530933676026,0.868605494122918,0.0,0.0,0.0,0.0
419232000000,7250,419232000000,,BL_TO_BASELINK,BR_TO_BASELINK,FL_TO_BASELINK,FR_TO_BASELINK,0.10849105181476304,0.1527490692478075,-0.20255415527286935,-0.13278830953349807,0.9293791032463845,0.9292634356495925,0.9291062277681184,0.8823872895168147,0.0,0.0,0.0,0.0
419233000000,7251,419233000000,,BL_TO_BASELINK,BR_TO_BASELINK,FL_TO_BASELINK,FR_TO_BASELINK,0.10942047893296714,0.15365602917223953,-0.20166995239156194,-0.13188020337187822,0.9294271855103335,0.9069563896409336,0.8841925988527263,0.9081054060826544,0.0,0.0,0.0,0.0
419234000000,7252,419234000000,,BL_TO_BASELINK,BR_TO_BASELINK,FL_TO_BASELINK,FR_TO_BASELINK,0.11034984356092714,0.15458519676519789,-0.20080196219909485,-0.13099804250778035,0.929364688697711,0.9291743773950016,0.8679876609484711,0.8821622185217719,0.0,0.0,0.0,0.0
419235000000,7253,419235000000,,BL_TO_BASELINK,BR_TO_BASELINK,FL_TO_BASELINK,FR_TO_BASELINK,0.11127925522776927,0.15550305434614575,-0.1998903208394065,-0.13008260419182704,0.9294116267397738,0.9178532909646633,0.9116384525470514,0.9154317216553116,0.0,0.0,0.0,0.0
419236000000,7254,419236000000,,BL_TO_BASELINK,BR_TO_BASELINK,FL_TO_BASELINK,FR_TO_BASELINK,0.11220868245692461,0.15641473061293087,-0.19898863552722368,-0.1291718355604985,0.9294272803395459,0.9116748273132337,0.9016850615280958,0.9107690511345725,0.0,0.0,0.0,0.0
419237000000,7255,419237000000,,BL_TO_BASELINK,BR_TO_BASELINK,FL_TO_BASELINK,FR_TO_BASELINK,0.11313798783160145,0.15734373281401748,-0.19805995674208177,-0.12841593600398404,0.929305714754895,0.9290308820558731,0.9287336466149053,0.7795825067050767,0.0,0.0,0.0,0.0
419238000000,7256,419238000000,,BL_TO_BASELINK,BR_TO_BASELINK,FL_TO_BASELINK,FR_TO_BASELINK,0.11406746298992854,0.1582392862130062,-0.19713079866481298,-0.12748672461889132,0.9294750800573426,0.8955625818149844,0.9291561169785314,0.929176833598965,0.0,0.0,0.0,0.0
419239000000,7257,419239000000,,BL_TO_BASELINK,BR_TO_BASELINK,FL_TO_BASELINK,FR_TO_BASELINK,0.11499871040828147,0.15917487340442626,-0.19614220326357312,-0.12670940803994668,0.9312417742395658,0.9355588268912411,0.9889997484490066,0.7777298873922459,0.0,0.0,0.0,0.0
419240000000,7258,419240000000,,BL_TO_BASELINK,BR_TO_BASELINK,FL_TO_BASELINK,FR_TO_BASELINK,0.11592808783294739,0.160094080133514,-0.19521246410730608,-0.12577957686508956,0.9293774705355062,0.9191901621599077,0.9297366664701582,0.9297640452570064,0.0,0.0,0.0,0.0
419241000000,7259,419241000000,,BL_TO_BASELINK,BR_TO_BASELINK,FL_TO_BASELINK,FR_TO_BASELINK,0.11685733422174227,0.16102283692166885,-0.19442337534928722,-0.12488918042319241,0.9292690338079909,0.9288209613882844,0.8084102534117884,0.8251775478922324,0.0,0.0,0.0,0.0
419242000000,7260,419242000000,,BL_TO_BASELINK,BR_TO_BASELINK,FL_TO_BASELINK,FR_TO_BASELINK,0.11778674183998206,0.16196838506786548,-0.1934904205911998,-0.1239596314038165,0.9293985614811463,0.9324255008430167,0.9195642551642704,0.9295952532053857,0.0,0.0,0.0,0.0
419243000000,7261,419243000000,,BL_TO_BASELINK,BR_TO_BASELINK,FL_TO_BASELINK,FR_TO_BASELINK,0.11871617408432122,0.16289781443496043,-0.19256098756505846,-0.12303017970258079,0.9294323060343423,0.9294323412231333,0.9294323101786355,0.9294324549493161,0.0,0.0,0.0,0.0
419244000000,7262,419244000000,,BL_TO_BASELINK,BR_TO_BASELINK,FL_TO_BASELINK,FR_TO_BASELINK,0.11964545371053692,0.16382668551084567,-0.19173348145941382,-0.12221945806974865,0.9292797066491089,0.9288729425718267,0.8275043836542607,0.8107239266134385,0.0,0.0,0.0,0.0
419245000000,7263,419245000000,,BL_TO_BASELINK,BR_TO_BASELINK,FL_TO_BASELINK,FR_TO_BASELINK,0.12057482902573025,0.16474085322431176,-0.19081442789390568,-0.12128969811302959,0.9293753656420458,0.9141610713187921,0.9190509061661114,0.9297458515456892,0.0,0.0,0.0,0.0
419246000000,7264,419246000000,,BL_TO_BASELINK,BR_TO_BASELINK,FL_TO_BASELINK,FR_TO_BASELINK,0.12150426126619074,0.16567028310872534,-0.18988499509364587,-0.12036025686663887,0.9294323058314217,0.9294322451732997,0.929432259514304,0.9294322852449116,0.0,0.0,0.0,0.0
419246000000,7265,419247000000,,BL_TO_BASELINK,BR_TO_BASELINK,FL_TO_BASELINK,FR_TO_BASELINK,0.12243367263602867,0.16657806216360527,-0.18899587486689917,-0.11945897200048172,0.9294114232995913,0.9077807835324768,0.8891166983863729,0.9012757556717766,0.0,0.0,0.0,0.0
419246000000,7266,419248000000,,BL_TO_BASELINK,BR_TO_BASELINK,FL_TO_BASELINK,FR_TO_BASELINK,0.12336310487177382,0.16750749433033363,-0.18806644260632055,-0.11852953648029363,0.9294323050253196,0.9294323173152387,0.9294323069699393,0.9294324059803868,0.0,0.0,0.0,0.0
419249000000,7267,419249000000,,BL_TO_BASELINK,BR_TO_BASELINK,FL_TO_BASELINK,FR_TO_BASELINK,0.12429253265444373,0.16841129153439915,-0.18716167010506712,-0.11763039532536812,0.9294278318176826,0.9037931480013057,0.904772160989391,0.8991371881374343,0.0,0.0,0.0,0.0
419250000000,7268,419250000000,,BL_TO_BASELINK,BR_TO_BASELINK,FL_TO_BASELINK,FR_TO_BASELINK,0.12522196489092252,0.16934072358542718,-0.18623223786876064,-0.11670096115168871,0.9294323046705235,0.9294322986657472,0.9294322951332546,0.9294323360255067,0.0,0.0,0.0,0.0
419251000000,7269,419251000000,,BL_TO_BASELINK,BR_TO_BASELINK,FL_TO_BASELINK,FR_TO_BASELINK,0.12615132634198734,0.1702582498566798,-0.18533263232196528,-0.11578526686956536,0.9293608067864528,0.9175179554738728,0.899596319887619,0.915685231851498,0.0,0.0,0.0,0.0
419252000000,7270,419252000000,,BL_TO_BASELINK,BR_TO_BASELINK,FL_TO_BASELINK,FR_TO_BASELINK,0.12708075857838796,0.17118768171859777,-0.184403199989168,-0.11485583426111923,0.9294323046009508,0.9294322744075156,0.9294322850875273,0.9294323469630537,0.0,0.0,0.0,0.0
419253000000,7271,419253000000,,BL_TO_BASELINK,BR_TO_BASELINK,FL_TO_BASELINK,FR_TO_BASELINK,0.12801018065933345,0.17209906582341095,-0.18349702705237192,-0.11394562100500494,0.929422147051537,0.9113821178984168,0.9061713290642278,0.9102116046420636,0.0,0.0,0.0,0.0
419254000000,7272,419254000000,,BL_TO_BASELINK,BR_TO_BASELINK,FL_TO_BASELINK,FR_TO_BASELINK,0.12893961289443734,0.17302849757127703,-0.18256759465970163,-0.11301618868008223,0.9294323042717415,0.9294322953686016,0.9294322951261831,0.9294323204791995,0.0,0.0,0.0,0.0
419255000000,7273,419255000000,,BL_TO_BASELINK,BR_TO_BASELINK,FL_TO_BASELINK,FR_TO_BASELINK,0.12986717809208148,0.17392308497236364,-0.18168241633825755,-0.11212351572511192,0.9275941442995908,0.8943927370429852,0.8850470318139794,0.8925491605021705,0.0,0.0,0.0,0.0
419256000000,7274,419256000000,,BL_TO_BASELINK,BR_TO_BASELINK,FL_TO_BASELINK,FR_TO_BASELINK,0.13079657733086325,0.17485244539279599,-0.18075313684497374,-0.11122036130043522,0.9293992987301405,0.9293615029293109,0.9292790595242357,0.9031510846989864,0.0,0.0,0.0,0.0
419257000000,7275,419257000000,,BL_TO_BASELINK,BR_TO_BASELINK,FL_TO_BASELINK,FR_TO_BASELINK,0.13172602063032546,0.1757964113622208,-0.17982381947044956,-0.11029100278452741,0.9294433569893445,0.9439678601838021,0.9293171226361902,0.9293585725166064,0.0,0.0,0.0,0.0
419258000000,7276,419258000000,,BL_TO_BASELINK,BR_TO_BASELINK,FL_TO_BASELINK,FR_TO_BASELINK,0.13265528267269033,0.17672523881205127,-0.1790321738305103,-0.10947417030148365,0.9292810178036062,0.9288843731689044,0.8117318586086834,0.8243098517782776,0.0,0.0,0.0,0.0
419259000000,7277,419259000000,,BL_TO_BASELINK,BR_TO_BASELINK,FL_TO_BASELINK,FR_TO_BASELINK,0.13358469505995085,0.1776717510831185,-0.17809453803541597,-0.10854467408290347,0.9294017137466453,0.9300342992447985,0.9208679990835804,0.9295898256151718,0.0,0.0,0.0,0.0
419260000000,7278,419260000000,,BL_TO_BASELINK,BR_TO_BASELINK,FL_TO_BASELINK,FR_TO_BASELINK,0.134514127295998,0.17860118295683236,-0.17716510543594044,-0.10761524091570962,0.9294323008947912,0.9294322911870574,0.929432303508942,0.9294322860073486,0.0,0.0,0.0,0.0
419261000000,7279,419261000000,,BL_TO_BASELINK,BR_TO_BASELINK,FL_TO_BASELINK,FR_TO_BASELINK,0.13544349447936987,0.1795303638116561,-0.17633005590126594,-0.10668554602492009,0.9293672646055599,0.9291811380713988,0.8350631266271432,0.9296944033355979,0.0,0.0,0.0,0.0
419262000000,7280,419262000000,,BL_TO_BASELINK,BR_TO_BASELINK,FL_TO_BASELINK,FR_TO_BASELINK,0.1363729405402223,0.18047395337343097,-0.17538785751080166,-0.10575620310377509,0.9294322458306834,0.9261331393789014,0.9246645322950713,0.9294655815273886,0.0,0.0,0.0,0.0
419263000000,7281,419263000000,,BL_TO_BASELINK,BR_TO_BASELINK,FL_TO_BASELINK,FR_TO_BASELINK,0.13730237277973423,0.18140338419472446,-0.17445842173334203,-0.10482677061219103,0.9294323032313712,0.9294322666415723,0.9294323546858042,0.9294323051105404,0.0,0.0,0.0,0.0
419264000000,7282,419264000000,,BL_TO_BASELINK,BR_TO_BASELINK,FL_TO_BASELINK,FR_TO_BASELINK,0.13823174479208156,0.18233258180119893,-0.17362404826161182,-0.10389710074174552,0.9293720918917718,0.9291985314942242,0.8343988576216157,0.9296698113795874,0.0,0.0,0.0,0.0
419266000000,7283,419265000000,,BL_TO_BASELINK,BR_TO_BASELINK,FL_TO_BASELINK,FR_TO_BASELINK,0.13916118991556914,0.1832739953992295,-0.17268571153556156,-0.10296774353751292,0.9294317423192321,0.9244150362033606,0.9217397813728646,0.9294759337875592,0.0,0.0,0.0,0.0
419266000000,7284,419266000000,,BL_TO_BASELINK,BR_TO_BASELINK,FL_TO_BASELINK,FR_TO_BASELINK,0.14009062215745072,0.18420342523726152,-0.17175627096090018,-0.10203831122984575,0.9294323044112203,0.9294322650739572,0.9294323714556872,0.9294323028538346,0.0,0.0,0.0,0.0
419267000000,7285,419267000000,,BL_TO_BASELINK,BR_TO_BASELINK,FL_TO_BASELINK,FR_TO_BASELINK,0.14101999300885826,0.18513261735346198,-0.17092467316841553,-0.10110863737425024,0.9293709288831505,0.9291936554774786,0.8316306163569499,0.9296739080683037,0.0,0.0,0.0,0.0
419268000000,7286,419268000000,,BL_TO_BASELINK,BR_TO_BASELINK,FL_TO_BASELINK,FR_TO_BASELINK,0.14194943627985168,0.18607380567521759,-0.16998897927988477,-0.10017926702103441,0.929429388395154,0.9243327615655847,0.9195079940461282,0.9294902725755897,0.0,0.0,0.0,0.0
419269000000,7287,419269000000,,BL_TO_BASELINK,BR_TO_BASELINK,FL_TO_BASELINK,FR_TO_BASELINK,0.14287886852374765,0.18700323479510672,-0.1690595343707546,-0.09924983476109173,0.9294323048944513,0.9294322714640848,0.9294323658698682,0.9294323019530182,0.0,0.0,0.0,0.0
419270000000,7288,419270000000,,BL_TO_BASELINK,BR_TO_BASELINK,FL_TO_BASELINK,FR_TO_BASELINK,0.14380816398680984,0.18793216990849348,-0.1682291672871301,-0.0984217478514342,0.9292955346731899,0.9289371008503288,0.8303641651722464,0.8280828797477406,0.0,0.0,0.0,0.0
419271000000,7289,419271000000,,BL_TO_BASELINK,BR_TO_BASELINK,FL_TO_BASELINK,FR_TO_BASELINK,0.14473755890062634,0.18885835359913372,-0.16730977707757688,-0.09749210767811167,0.929394964708324,0.9261778408478911,0.9193824712809049,0.9296403047712085,0.0,0.0,0.0,0.0
419272000000,7290,419272000000,,BL_TO_BASELINK,BR_TO_BASELINK,FL_TO_BASELINK,FR_TO_BASELINK,0.14566699114275306,0.18978778301016508,-0.16638033918419293,-0.09656267543154762,0.9294323048436498,0.929432281229478,0.9294323305688922,0.9294323080733624,0.0,0.0,0.0,0.0
419273000000,7291,419273000000,,BL_TO_BASELINK,BR_TO_BASELINK,FL_TO_BASELINK,FR_TO_BASELINK,0.14659629111740546,0.19071673509254072,-0.16554787221636502,-0.0957323357874742,0.9293000523159546,0.9289539190066186,0.8324649949479314,0.8303364653923283,0.0,0.0,0.0,0.0
419274000000,7292,419274000000,,BL_TO_BASELINK,BR_TO_BASELINK,FL_TO_BASELINK,FR_TO_BASELINK,0.14752569060911913,0.19164776002213912,-0.1646224631958173,-0.09480273257693028,0.9293975007306803,0.9293026675774608,0.9236995143534072,0.9296179330122721,0.0,0.0,0.0,0.0
419275000000,7293,419275000000,,BL_TO_BASELINK,BR_TO_BASELINK,FL_TO_BASELINK,FR_TO_BASELINK,0.14845512285015516,0.19257718953637148,-0.16369302879360959,-0.09387330032951269,0.9294323047761321,0.9294322736203395,0.9294323248411764,0.9294323122023935,0.0,0.0,0.0,0.0
419276000000,7294,419276000000,,BL_TO_BASELINK,BR_TO_BASELINK,FL_TO_BASELINK,FR_TO_BASELINK,0.14938418403917275,0.19350569697057818,-0.16285710923278884,-0.09304094517423511,0.9290553564295861,0.9284994161954632,0.8358979092339223,0.8323175486249762,0.0,0.0,0.0,0.0
419277000000,7295,419277000000,,BL_TO_BASELINK,BR_TO_BASELINK,FL_TO_BASELINK,FR_TO_BASELINK,0.15031359644591014,0.19444345673960228,-0.1619253995397436,-0.092111421878462,0.9294069141653483,0.9320096518454278,0.9259512923195836,0.9295658558551039,0.0,0.0,0.0,0.0
