%time,field.header.seq,field.header.stamp,field.header.frame_id,field.wrench.force.x,field.wrench.force.y,field.wrench.force.z,field.wrench.torque.x,field.wrench.torque.y,field.wrench.torque.z
419066000000,0,419058000000,FR_wheel_link,0.01776162292536372,0.015291245377899096,-0.0039041375225410306,-0.0007211809193206204,-0.002468475063370363,-0.00048193538987296764
419066000000,1,419059000000,FR_wheel_link,-0.7357678463354613,-8.972182264611696,12.294282986910098,-0.5904037198483785,0.07315853277946338,0.018893262065366068
419066000000,2,419060000000,FR_wheel_link,1.1890845357354556,-3.81483176050335,15.44986564922095,-0.010211322552478232,-0.1252166227630322,-0.03061738851984654
419066000000,3,419061000000,FR_wheel_link,0.03222987325300373,0.019069657077049343,-0.0247258208042064,-0.001145089590796345,-0.003885141170162688,-0.0009061664778797974
419066000000,4,419062000000,FR_wheel_link,-3.1800947563768824,-8.293479633340844,12.755326195493804,-0.5045763468795085,0.304907866486849,0.08392913929879936
419066000000,5,419063000000,FR_wheel_link,0.7506903584498663,-4.3006175730568135,15.077191513442695,-0.06924086494615554,-0.06601159417301904,-0.01910185609221074
419067000000,6,419064000000,FR_wheel_link,0.026639390492511628,0.006809252912428863,-0.13270660268058443,-0.004974566516903915,-0.0021428025254815316,-0.0015507041089177255
419067000000,7,419065000000,FR_wheel_link,-2.927684117106832,-7.719507556536977,11.411147137331605,-0.4862159412791699,0.28024640086349206,0.07742198873540321
419067000000,8,419066000000,FR_wheel_link,-0.40767243046642654,-4.335389895597821,18.386742374720747,0.022488871137443557,0.05667827369803875,0.010948501593995089
419067000000,9,419067000000,FR_wheel_link,-0.033768214380202784,-0.0017353688935446282,0.03510268019025484,0.00018091532760658446,0.004358364642033361,0.0007877803091274864
419068000000,10,419068000000,FR_wheel_link,-1.2347373231266427,-8.177139738858328,23.35386804831478,-0.21111298187136052,0.13718714418387323,0.03018165209848502
419069000000,11,419069000000,FR_wheel_link,-0.24405597958459546,-2.8033820135956296,3.34618261563722,-0.21375463462339855,0.031844493436020305,0.00768952174865916
419070000000,12,419070000000,FR_wheel_link,-0.6359658293714805,-4.021987301624719,10.643151182579231,-0.14016774216614888,0.06262194283827782,0.017509633596164465
419071000000,13,419071000000,FR_wheel_link,0.42363798455317103,-4.131986609843258,6.712788696274547,-0.255900854204209,-0.04487885037400853,-0.011716874313250511
419072000000,14,419072000000,FR_wheel_link,-0.3829401121688859,-4.0713366326864335,10.85211135546874,-0.14063532662931527,0.03530902142638153,0.009752673992017466
419073000000,15,419073000000,FR_wheel_link,-0.0017618707100612863,-3.796128673098988,8.213302224834864,-0.1827165801826406,-0.0011291163468076099,-0.0012115279221694003
419074000000,16,419074000000,FR_wheel_link,-0.4740191423030805,-3.653009043252058,10.488014071348546,-0.1051045491027974,0.04653594968953738,0.013134642798354645
419075000000,17,419075000000,FR_wheel_link,-0.06535949895686433,-3.6446257310252035,8.70905511595897,-0.15330057411388182,0.0064178107169900744,0.0009298376453368631
419076000000,18,419076000000,FR_wheel_link,-0.4733757883238281,-3.5436506107585837,10.628323171416367,-0.08926459762850386,0.047356013084220536,0.013273932689114008
419077000000,19,419077000000,FR_wheel_link,-0.07206336829383064,-3.5468532773060204,8.95862093788047,-0.13608781991299818,0.007483343677387226,0.0012058683376093456
419078000000,20,419078000000,FR_wheel_link,-0.462472030070605,-3.471320726213835,10.689734304216833,-0.0796044557854014,0.0467027815864163,0.013044370762033984
419081000000,21,419079000000,FR_wheel_link,-0.05528185840291666,-3.482085376911515,9.069389032980247,-0.12624603253632197,0.0059851412619538885,0.0007896636829779497
419081000000,22,419080000000,FR_wheel_link,-0.439325771359533,-3.419321014113195,10.712255375406293,-0.07334761082043481,0.044528484980194016,0.012452348924394195
419081000000,23,419081000000,FR_wheel_link,-0.02765167926201939,-3.435373135679411,9.104473567534395,-0.12040342301159065,0.0032311203795700252,5.360655338372544e-05
419082000000,24,419082000000,FR_wheel_link,-0.4100783775093374,-3.3794070156395617,10.716799551466634,-0.06897243054799952,0.0415811336620825,0.011675787820861025
419083000000,25,419083000000,FR_wheel_link,0.004933270257218236,-3.3984370530419845,9.101087727812416,-0.11665095972604436,-0.00010065702636059132,-0.0008291923579217455
419084000000,26,419084000000,FR_wheel_link,-0.3792459239203293,-3.347133462874518,10.712757748603796,-0.06569743587786334,0.03839463802268647,0.01084641897684769
419085000000,27,419085000000,FR_wheel_link,0.03762836769767541,-3.3679983624113197,9.085381027749674,-0.1139159341142137,-0.0034616161993362426,-0.0017181337722767965
419086000000,28,419086000000,FR_wheel_link,-0.34999092766076056,-3.320235785116292,10.70622919176736,-0.06308068287490921,0.03533950501717986,0.01005647130903374
419087000000,29,419087000000,FR_wheel_link,0.06822752627651718,-3.3427684257439703,9.068697672486952,-0.1117439894145896,-0.006596933543563596,-0.0025489023109990985
419088000000,30,419088000000,FR_wheel_link,-0.32355986323872354,-3.297804907119796,10.69997673571914,-0.06093582363898867,0.03256388989115905,0.009342914475579521
419089000000,31,419089000000,FR_wheel_link,0.09554474641888322,-3.321992536875926,9.056668500542294,-0.10990186582714509,-0.009376121884296824,-0.003287476575059404
419090000000,32,419090000000,FR_wheel_link,-0.3004856661848887,-3.2792395444067726,10.695437338065496,-0.05915314931254366,0.03013409605301517,0.00872209389261355
419091000000,33,419091000000,FR_wheel_link,0.1194407592347404,-3.3050661265412327,9.04997472391818,-0.10830992219061505,-0.011784605889812443,-0.003930313277964071
419092000000,34,419092000000,FR_wheel_link,-0.2804438404211955,-3.263791476826875,10.692479225879246,-0.05765479731531954,0.02801949210261008,0.008185181561810098
419093000000,35,419093000000,FR_wheel_link,0.1402204474177675,-3.2912965239115133,9.047962385884604,-0.10691618029564054,-0.01385942471764387,-0.004486302230462156
419094000000,36,419094000000,FR_wheel_link,-0.263130775601387,-3.250970937255758,10.690939063982025,-0.05639196659581553,0.026190163977088267,0.007723435632328684
419095000000,37,419095000000,FR_wheel_link,0.15852433869111704,-3.2799842405633006,9.049045324740852,-0.10569285106275991,-0.01567401427718494,-0.004974100365984866
419097000000,38,419096000000,FR_wheel_link,-0.2481401485339889,-3.24016788648241,10.690304864310715,-0.055315102093467364,0.024605543332025054,0.0073259362077114885
419097000000,39,419097000000,FR_wheel_link,0.17462868304744028,-3.270614543917558,9.051918632409105,-0.10462293564759315,-0.01725993778183014,-0.0054015548220441596
419098000000,40,419098000000,FR_wheel_link,-0.23500005279630032,-3.231006333779575,10.6902062433752,-0.05439390010869407,0.02321517683139639,0.006978450781956802
419099000000,41,419099000000,FR_wheel_link,0.18888745596542833,-3.2628092728619427,9.055658572437874,-0.10369347246414888,-0.0186579209514124,-0.00577894289691399
419100000000,42,419100000000,FR_wheel_link,-0.22346197701384019,-3.2231213651057264,10.690337107088205,-0.05359783728956564,0.02199346496103744,0.006673922592060141
419101000000,43,419101000000,FR_wheel_link,0.2015322891992678,-3.256205785173568,9.059479944059188,-0.10288770011877124,-0.019893554326696025,-0.006113195548055341
419102000000,44,419102000000,FR_wheel_link,-0.21309121655228314,-3.216296136474596,10.690476471520704,-0.05291081495981889,0.02089366529783646,0.006400467570577032
419103000000,45,419103000000,FR_wheel_link,0.21298678882002198,-3.250484798926778,9.063006001685956,-0.1021833549746004,-0.021012788715352185,-0.0064158908097154705
419104000000,46,419104000000,FR_wheel_link,-0.2038229437802327,-3.2102808049673635,10.690595161982912,-0.05230720331668372,0.01991025056670728,0.006156299311951346
419104000000,47,419105000000,FR_wheel_link,0.2233526315170794,-3.2455001649713537,9.066027090561956,-0.10156981901265241,-0.022024962146591442,-0.006689988657406084
419106000000,48,419106000000,FR_wheel_link,-0.19545802355195996,-3.204977434164636,10.690610660149984,-0.051778951848676036,0.019021551942995714,0.005935845249839125
419107000000,49,419107000000,FR_wheel_link,0.23271184151943625,-3.241110632634285,9.068668039531161,-0.10102967043537794,-0.0229385512229111,-0.0069374694136185985
419108000000,50,419108000000,FR_wheel_link,-0.18792189514194257,-3.2002766995589553,10.690566564718832,-0.051313252127353944,0.01822020966624649,0.005737186960483869
419109000000,51,419109000000,FR_wheel_link,0.2412505049506969,-3.237237373169111,9.070851593671259,-0.1005568672824024,-0.023772833136477045,-0.007163357336335887
419112000000,52,419110000000,FR_wheel_link,-0.18114039266548088,-3.1961010244039865,10.690445397164684,-0.050902545457238914,0.017498700218567618,0.005558363804469954
419112000000,53,419111000000,FR_wheel_link,0.24892192983615113,-3.2338672446421044,9.072787950311398,-0.10014403684996054,-0.024521921661989812,-0.007366300288365132
419112000000,54,419112000000,FR_wheel_link,-0.17503034105958792,-3.1923895257349897,10.690276395556166,-0.05053975417258071,0.016848170289048867,0.005397194024452508
419113000000,55,419113000000,FR_wheel_link,0.25585022997935614,-3.2309070413298784,9.074452541552617,-0.0997820610950706,-0.025198297703310647,-0.007549605771097524
419114000000,56,419114000000,FR_wheel_link,-0.1695222263052012,-3.189100522555038,10.690081650504876,-0.050220127500943984,0.016261282808535383,0.005251855441438261
419115000000,57,419115000000,FR_wheel_link,0.2621026943623964,-3.2283004601091103,9.07590799000883,-0.09946333921112957,-0.02580859388057826,-0.0077150378536959075
419116000000,58,419116000000,FR_wheel_link,-0.16456496523179487,-3.186191842316121,10.689887160131434,-0.04993864388153882,0.015732753707621495,0.005121028016369833
419117000000,59,419117000000,FR_wheel_link,0.2677729118141009,-3.2259924979722565,9.077153263187961,-0.09918248019907408,-0.026362287525190355,-0.007865025962533134
419118000000,60,419118000000,FR_wheel_link,-0.16011475717636448,-3.183612525496285,10.689692507221524,-0.0496899957827691,0.015258189162539973,0.005003561600877507
419119000000,61,419119000000,FR_wheel_link,0.2728896155705589,-3.2239859682617253,9.078259369290006,-0.09893699289254597,-0.026861994922091306,-0.008000519745645116
419120000000,62,419120000000,FR_wheel_link,-0.15612331062948204,-3.1813502467042767,10.689505690458486,-0.049473005150886644,0.014832331254342995,0.004898241388651534
419121000000,63,419121000000,FR_wheel_link,0.2774831615341117,-3.2222290520926324,9.079266983438771,-0.09872107222151841,-0.02731022726443865,-0.008122060530956661
419122000000,64,419122000000,FR_wheel_link,-0.15254104224254306,-3.1793621885316394,10.689344952809012,-0.049282733063226655,0.014449959967183262,0.00480373364507699
419123000000,65,419123000000,FR_wheel_link,0.2816126236221086,-3.220678953461901,9.080146894564036,-0.09853093156152194,-0.027712922717169144,-0.008231259208326232
419124000000,66,419124000000,FR_wheel_link,-0.14932110047750746,-3.1776100216571184,10.689199097282668,-0.04911557305965882,0.014106140165456398,0.004718777666672834
419125000000,67,419125000000,FR_wheel_link,0.28533542076446183,-3.219300772428774,9.080914709695612,-0.09836163989670903,-0.028075815086707,-0.0083298385308682
419126000000,68,419126000000,FR_wheel_link,-0.1464225763766671,-3.1760974495499545,10.689085423865002,-0.048971841494857005,0.01379632096053797,0.004642344367932257
419127000000,69,419127000000,FR_wheel_link,0.2886301254618642,-3.2181054805725977,9.081626952011579,-0.09821356371527341,-0.02839618909359263,-0.008416985549022754
419128000000,70,419128000000,FR_wheel_link,-0.14380625227642285,-3.174781010059017,10.688993589035189,-0.04884719045953188,0.013516378601068992,0.004573355205005593
419129000000,71,419129000000,FR_wheel_link,0.29158402153558005,-3.217060845803618,9.082233731328392,-0.09808454401422376,-0.028683279755890356,-0.008495120118050857
419130000000,72,419130000000,FR_wheel_link,-0.14144697125428463,-3.1736321805571004,10.688908131897477,-0.04873910221130291,0.013263773525406749,0.0045111426385163
419131000000,73,419131000000,FR_wheel_link,0.2942456651415324,-3.2161477187755665,9.08275201516632,-0.09797213655126245,-0.02894200738057713,-0.008565528374593151
419132000000,74,419132000000,FR_wheel_link,-0.13932630406515156,-3.1726292278259263,10.688827808873484,-0.048645323902735974,0.01303664054764958,0.0044552231756868855
419133000000,75,419133000000,FR_wheel_link,0.29664280901113893,-3.2153515203364833,9.083193656097954,-0.09787440961668956,-0.029174967214201514,-0.008628949637314184
419134000000,76,419134000000,FR_wheel_link,-0.1374199444538332,-3.1717571082447487,10.688752054734127,-0.048564371069502676,0.012832385272936998,0.004404956645624645
419135000000,77,419135000000,FR_wheel_link,0.2988046885399861,-3.214666490041049,9.083575839030281,-0.09779031553170156,-0.029385098181673293,-0.008686152094552646
419136000000,78,419136000000,FR_wheel_link,-0.13570960395646436,-3.170999024358852,10.68867870739981,-0.04849459684659201,0.01264911886900976,0.004359864953293353
419137000000,79,419137000000,FR_wheel_link,0.30075888622361513,-3.2140865339429667,9.083905566869998,-0.09771902188858572,-0.029575154492679667,-0.00873786525803789
419138000000,80,419138000000,FR_wheel_link,-0.13417792384215066,-3.170339815350688,10.688602328457467,-0.04843460177431154,0.012485026227323358,0.00431949121302014
419139000000,81,419139000000,FR_wheel_link,0.3025103755461451,-3.2135882878713997,9.084184089144795,-0.09765782362943626,-0.0297453439385041,-0.008784241039358417
419140000000,82,419140000000,FR_wheel_link,-0.13280093266780868,-3.1697772461394274,10.688534126095638,-0.0483840115079515,0.012337438549459082,0.004283217222186989
419141000000,83,419141000000,FR_wheel_link,0.30405858939185626,-3.2131663022996584,9.084421830253946,-0.09760580854885423,-0.029895402731432867,-0.008825248926012604
419142000000,84,419142000000,FR_wheel_link,-0.13155479671212267,-3.1693053314353867,10.688476224923907,-0.048342247625758984,0.012203714552076788,0.0042504095324370356
419143000000,85,419143000000,FR_wheel_link,0.3054545498915342,-3.2128100971197986,9.084614074561298,-0.09756220703894733,-0.030030778389188675,-0.00886222863813286
419144000000,86,419144000000,FR_wheel_link,-0.13043479172868389,-3.1689086134700744,10.688424092488521,-0.0483077535284392,0.012083482951133335,0.004220928656945503
419145000000,87,419145000000,FR_wheel_link,0.30671237583087896,-3.212511587821036,9.084765039914279,-0.09752598003169285,-0.030152737892395295,-0.008895557908721567
419146000000,88,419146000000,FR_wheel_link,-0.12942810625966783,-3.1685797548921286,10.688377398626322,-0.04827981544152375,0.011975373415964413,0.004194436004521038
419147000000,89,419147000000,FR_wheel_link,0.3078451883559903,-3.2122652152811235,9.084881975181574,-0.09749632692352642,-0.030262553141462076,-0.008925582447315974
419147000000,90,419148000000,FR_wheel_link,-0.1285238781653314,-3.1683118092030345,10.688336298848753,-0.04825773622297998,0.011878228435644969,0.004170646034645093
419147000000,91,419149000000,FR_wheel_link,0.30886559815706327,-3.2120656466143274,9.084967444414275,-0.09747259983766202,-0.03036144740467525,-0.00895263567889437
419150000000,92,419150000000,FR_wheel_link,-0.12771170085019257,-3.168098719254406,10.688300078954672,-0.04824093901113903,0.011790933319794826,0.004149284272049627
419151000000,93,419151000000,FR_wheel_link,0.30978460448676526,-3.2119081420596687,9.085025568067259,-0.09745417409743873,-0.03045049074231157,-0.008977007908216417
419151000000,94,419152000000,FR_wheel_link,-0.12698250297076485,-3.167934911972971,10.688268515566179,-0.04822887729975537,0.01171251898825858,0.004130111749601928
419151000000,95,419153000000,FR_wheel_link,0.31061243553004747,-3.2117884100810516,9.085058588630396,-0.09744052428705796,-0.030530677525851202,-0.00899896968454794
419154000000,96,419154000000,FR_wheel_link,-0.12632790003989458,-3.167815426150211,10.688241028436087,-0.048221077539869275,0.0116420879059243,0.004112907180043659
419155000000,97,419155000000,FR_wheel_link,0.3113581334552986,-3.211702591561883,9.085069293625695,-0.09743115702874033,-0.03060288721071454,-0.009018759975182237
419156000000,98,419156000000,FR_wheel_link,-0.12574046592631438,-3.1677357649494358,10.688217291059441,-0.0482171037088272,0.01157884606949236,0.004097474714547023
419157000000,99,419157000000,FR_wheel_link,0.3120299663461171,-3.211647227050172,9.08505963561796,-0.09742564472977039,-0.030667923612287186,-0.009036597496965837
419158000000,100,419158000000,FR_wheel_link,-0.12521343555864162,-3.1676919106121417,10.688196860587823,-0.048216571427269685,0.01152206941067534,0.004083635793238801
419159000000,101,419159000000,FR_wheel_link,0.3126353002162454,-3.2116192128271175,9.085031719745027,-0.09742359408681397,-0.030726502780345805,-0.009052676992044097
419160000000,102,419160000000,FR_wheel_link,-0.12475327379358103,-3.167664353170133,10.688182718000752,-0.04821764010187951,0.011472452425619634,0.0040716294794305935
419161000000,103,419161000000,FR_wheel_link,0.3131920129374388,-3.211604131763303,9.084940497620533,-0.09742462698486862,-0.03078036379699617,-0.009067502462772159
419162000000,104,419162000000,FR_wheel_link,-1.3756708851665773,-8.071222597989355,13.529242010134887,-0.5785414462787092,0.13208498474015318,0.038170519184979705
419163000000,105,419163000000,FR_wheel_link,2.740769683638738,-5.615018555507633,3.2581401629879396,-0.575574353688857,-0.26150792351987323,-0.07324880700453144
419164000000,106,419164000000,FR_wheel_link,0.13607373237316991,0.03617622264194152,0.26363561379173056,-0.060784511022865584,-0.012566207460885343,-0.004232577048336273
419165000000,107,419165000000,FR_wheel_link,-0.17487836558069958,-25.589585705028043,27.03231226925786,-2.0911122015000307,0.018593150564785832,-0.0005123039145114583
419165000000,108,419166000000,FR_wheel_link,-3.9710818946874804,-13.497382732431815,8.951516070370783,-1.2588761742152077,0.37386639974330105,0.10987811586644641
419167000000,109,419167000000,FR_wheel_link,0.7800677473343769,-0.19360576333483942,-0.13969116768598566,-0.019379526449716643,-0.007848894543062217,-0.027007612695345976
419168000000,110,419168000000,FR_wheel_link,-4.3345210265011165,-19.572922575952624,17.84494839010356,-1.6345208025179074,0.36896306265534407,0.11762104886374453
419169000000,111,419169000000,FR_wheel_link,0.7998510351793868,-8.781205575881529,5.727810522828454,-0.817876828748825,-0.06230302014420491,-0.02771065595090759
419170000000,112,419170000000,FR_wheel_link,0.0537628894392843,0.08340472038337256,-0.001313558579960428,0.0007290594062897976,-0.0059036654531416845,-0.0017716017100292791
419171000000,113,419171000000,FR_wheel_link,-0.501928705858826,-15.114289449978905,14.81151873868393,-1.2186620696629782,0.03143732537002453,0.013410449336833247
419171000000,114,419172000000,FR_wheel_link,-3.2464254262078347,-9.738659452165095,6.672968063643964,-0.8728557520827501,0.3109848347941086,0.08938762607527057
419171000000,115,419173000000,FR_wheel_link,0.6648721155968951,-5.081678546356816,2.9974708162815276,-0.4577604053906904,-0.04831543177091652,-0.01722991820607802
419174000000,116,419174000000,FR_wheel_link,-1.9177789177446725,-8.685589515956995,7.812452789134563,-0.7316685773779343,0.16426165206974075,0.052470294651049174
419175000000,117,419175000000,FR_wheel_link,-1.2568325047959594,-9.10260787083062,7.538695815435041,-0.7661557012218121,0.1386748569466646,0.033179452785994726
419176000000,118,419176000000,FR_wheel_link,-3.678386949677985,-8.267562273331437,7.732843996295957,-0.6713669879551384,0.36576290843896814,0.09979075309286381
419177000000,119,419177000000,FR_wheel_link,-1.4113956852024647,-7.984789636234179,8.579260715912248,-0.615672712383038,0.17108715589940604,0.03482950906909993
419177000000,120,419178000000,FR_wheel_link,-3.060618212233261,-7.05983416938329,7.1310282451664415,-0.5566367003277741,0.30229213196987625,0.0826443832769795
419179000000,121,419179000000,FR_wheel_link,-1.2520528516178837,-7.9989609021562025,5.26585580570063,-0.7105163233430001,0.13766537291027536,0.03572071402523075
419180000000,122,419180000000,FR_wheel_link,-2.914624842319985,-7.345110541978476,7.789066465322456,-0.5682153839869192,0.2838301363348136,0.07815835146744904
419181000000,123,419181000000,FR_wheel_link,-1.4781973316706871,-7.7014974957287645,6.864384684908729,-0.6351470846530337,0.1615638053484445,0.03826471524760111
419182000000,124,419182000000,FR_wheel_link,-3.209181693818806,-6.946518527901027,6.942340570258239,-0.5504071180783952,0.32011516590030337,0.08669123040672487
419183000000,125,419183000000,FR_wheel_link,-1.2116422710646186,-7.229412003774333,7.379654255911185,-0.5712259103197255,0.1419571221360477,0.02954743322135349
419184000000,126,419184000000,FR_wheel_link,-2.815644789167163,-6.464033096279864,6.659401787421132,-0.5065158510058272,0.2779805570989857,0.07591772789567
419185000000,127,419185000000,FR_wheel_link,-1.0467497552278715,-7.359758383398013,4.98131008780728,-0.6448274282404706,0.11441812570816368,0.029632167213566936
419186000000,128,419186000000,FR_wheel_link,-2.0123600814297404,-7.268959666281278,7.59728790727479,-0.5754963212828197,0.20072552015665662,0.052734482056892316
419187000000,129,419187000000,FR_wheel_link,-3.1162705283443493,-6.5527078144495,6.972968611834577,-0.5034770526148993,0.3097040986131827,0.0839012271246795
419188000000,130,419188000000,FR_wheel_link,-0.7101734471233083,-7.772963489293941,5.249735743045142,-0.689197465519213,0.0837709189905021,0.020348173216575116
419189000000,131,419189000000,FR_wheel_link,-2.9064147658270487,-7.195582818838329,7.685291620058955,-0.5555990305187258,0.28407797685617964,0.07791190610634949
419190000000,132,419190000000,FR_wheel_link,-0.8456414409942141,-6.85148283497388,7.5764552850186195,-0.5288841014551164,0.10455900158868575,0.018402960818998677
419191000000,133,419191000000,FR_wheel_link,0.7565569033476334,3.5486464237789366,15.674328244392225,0.8624201935486153,-0.04398605675822509,-0.03259297769587663
419192000000,134,419192000000,FR_wheel_link,0.18150288189588104,0.21152041026263096,-0.2381439996473976,0.009429022877085502,-0.018805241473622267,-0.005115705995427287
419193000000,135,419193000000,FR_wheel_link,-1.644438272899019,0.030900942902600148,6.169896451703606,0.18798810403445024,0.16472260338599393,0.03813546017649737
419194000000,136,419194000000,FR_wheel_link,0.11387210149417432,0.3209525050166169,0.8379937654513365,0.025318925209770644,-0.015130149545076518,0.004956861133876366
419195000000,137,419195000000,FR_wheel_link,-2.574803684701785,-6.447151599455492,14.443279293710287,-0.2341481229123845,0.24178888328925618,0.06447862547731302
419196000000,138,419196000000,FR_wheel_link,0.4923203950688684,-1.6328458050858587,16.58207596566346,0.26062261767355416,-0.03682142912405231,-0.009912312585227224
419197000000,139,419197000000,FR_wheel_link,0.05735993236497776,0.08187250362402668,-0.062436863575834334,0.003304887083313303,-0.006629052953170298,-0.0015760414380169476
419198000000,140,419198000000,FR_wheel_link,-2.3937366874421357,-6.581857819947495,11.141299138135832,-0.3667437672662161,0.2254441528436805,0.0619608217909476
419199000000,141,419199000000,FR_wheel_link,1.3781766816963852,-3.1578906434958043,14.231220672393604,0.02701589247644278,-0.1420437535483367,-0.03606964933755393
419200000000,142,419200000000,FR_wheel_link,0.0286803986208842,0.014343262392883499,-0.2109810076217211,-0.004050877655398745,-0.00452993692604181,-0.0015440422758496552
419201000000,143,419201000000,FR_wheel_link,-2.310645150546822,-6.263065825404953,9.730958428684632,-0.379763668470746,0.21832066169432007,0.06025550237419666
419202000000,144,419202000000,FR_wheel_link,-0.006812095989686573,-2.846094171850313,11.247134515118212,-0.0044220403618991785,0.01404441371598209,-0.0021126288780295775
419203000000,145,419203000000,FR_wheel_link,-0.02115833064292451,-0.025682519176446456,-0.08547686626827611,-0.007596440019975722,-0.0036105978965342974,-0.0013253339676540046
419204000000,146,419204000000,FR_wheel_link,-4.471109730739773,-4.382657226799694,14.802132751825447,-0.08150392090598668,0.4377550142038886,0.12199883118367368
419205000000,147,419205000000,FR_wheel_link,0.22463064176380254,-0.0798894059456414,0.29982844185614443,-0.00037391987449936,0.0029548503100635466,-0.006803424958554433
419206000000,148,419206000000,FR_wheel_link,-2.735987337206778,-3.7285165704454517,14.051191142134108,-0.00676919950037666,0.27386123577565546,0.06892392284080956
419207000000,149,419207000000,FR_wheel_link,-0.026056182726337543,-0.002743189911503463,0.34484665071386433,0.002815022468235989,0.010640481920922179,0.001320681551523305
419208000000,150,419208000000,FR_wheel_link,-0.383707639261444,-8.153647532971421,8.921294975383447,-0.5949440157510066,0.03860203214950314,0.01163635719095038
419209000000,151,419209000000,FR_wheel_link,-3.392703206094308,2.9226498413058652,3.431658690205838,0.3847094724823333,0.35842864518092965,0.08511442414392723
419210000000,152,419210000000,FR_wheel_link,0.3319326492397013,0.1094757237316436,-1.6702774788301056,-0.012624284782722952,-0.0181213786065216,0.0017267205710054024
419211000000,153,419211000000,FR_wheel_link,-0.00035858146469370383,0.0275352712386277,0.007376943262116889,0.0002688274602243192,-0.0007082767767104385,7.878797315976381e-05
419212000000,154,419212000000,FR_wheel_link,-0.13074785116836785,0.3296514318374585,0.006485495756384173,0.02202697482282422,0.011272658513482543,0.0017367089111657657
419213000000,155,419213000000,FR_wheel_link,0.23042545849441107,0.02665320231144022,-1.7309165044322492,-0.019381802026487125,-0.01599599807991377,-0.0021137300290597193
419214000000,156,419214000000,FR_wheel_link,-0.010937491982607624,0.027883355627782963,0.014662221989290406,0.0005979407749282482,-0.00013581337631775027,8.89853895700583e-05
419215000000,157,419215000000,FR_wheel_link,-0.1739758701922704,0.35733026329436457,0.023014644712492434,0.023560405692219576,0.013000012636190633,0.00145843649587125
419216000000,158,419216000000,FR_wheel_link,0.2397502042223934,-0.0063752922208037965,-1.850529605993319,-0.023186049311629566,-0.017370072104372074,-0.003230466632569444
419217000000,159,419217000000,FR_wheel_link,-0.0358599195348899,0.04717974264592713,0.04461100631589421,0.0020411540471831644,0.0007268289122290325,0.00031346210906106544
419218000000,160,419218000000,FR_wheel_link,-0.20163384540923068,0.3896877504960814,0.06936027503041098,0.02407278254371516,0.013162426027833393,0.0016974043326542206
419219000000,161,419219000000,FR_wheel_link,0.2612593353608191,-0.06462444375358176,-1.958014849283376,-0.027480585687605388,-0.019553036790846388,-0.0035488984998793684
419220000000,162,419220000000,FR_wheel_link,-0.06514986791897645,0.10344534494510135,0.11151929139525674,0.004792391178675948,0.002137587914874996,0.0005540764288674052
419221000000,163,419221000000,FR_wheel_link,-0.23794705086956125,0.44244051724415967,0.10129963071897755,0.026430047150147726,0.014475468088959612,0.001903084622572531
419222000000,164,419222000000,FR_wheel_link,0.29088488362694587,-0.11149536849561409,-1.97549675505261,-0.029754111104560103,-0.021240560290899168,-0.0038862313002401365
419223000000,165,419223000000,FR_wheel_link,-0.0998407267436368,0.1411972722610364,0.12621237847360983,0.005745610171648434,0.0031678209883705824,0.0009210629033053851
419224000000,166,419224000000,FR_wheel_link,-0.2553484049658006,0.46822718544440195,0.12055536904047691,0.027358449072600495,0.014931044842927958,0.0020195371439890595
419225000000,167,419225000000,FR_wheel_link,0.28360270217558725,-0.11030567491401791,-1.974895233344883,-0.030062522280669097,-0.021640480597924887,-0.0038481461545742204
419226000000,168,419226000000,FR_wheel_link,-0.08860844766996012,0.1273049909821996,0.10704745523338992,0.004933168123263161,0.002945018746386295,0.0008742614922991679
419227000000,169,419227000000,FR_wheel_link,-0.27220782321552284,0.496114271524346,0.13376882655115419,0.028625153487455115,0.015593418769410705,0.0021265784645899985
419228000000,170,419228000000,FR_wheel_link,0.29235344666422713,-0.12603957810449282,-1.9710244681622027,-0.030770960761736917,-0.022034025321374662,-0.003829606450124018
419229000000,171,419229000000,FR_wheel_link,-0.10095745670008688,0.14063251884582129,0.11586390373629755,0.005435420312271089,0.0032289347525040835,0.0009787739910279846
419230000000,172,419230000000,FR_wheel_link,-0.27331937195071804,0.4979986971796964,0.13784165576659116,0.028456496200825535,0.015450455477545935,0.002133950778711078
419231000000,173,419231000000,FR_wheel_link,-0.583447589268661,-6.370109470781695,10.99982236938851,-0.36280868061208016,0.0506235583159691,0.01969907355985022
419232000000,174,419232000000,FR_wheel_link,-2.215688015813705,-5.425048827828927,5.24181525137421,-0.43788270174327515,0.2159207774208729,0.05991861293594885
419233000000,175,419233000000,FR_wheel_link,-2.2326123036834056,-3.666807103168762,5.626902994551941,-0.24148927188781294,0.24673608584383142,0.05783167241828874
419234000000,176,419234000000,FR_wheel_link,-0.6755645206545471,-4.1954714719763375,5.583944622749947,-0.2842398607155195,0.07475635396379687,0.016911635495834493
419235000000,177,419235000000,FR_wheel_link,-2.1230159046543564,-2.591522664225534,2.855070135987038,-0.1993238768167706,0.22794593585416772,0.05636214345600307
419236000000,178,419236000000,FR_wheel_link,-0.5823301235840679,-1.881921276953403,2.65431214423588,-0.132122799713007,0.055409554297367526,0.015510435225160615
419237000000,179,419237000000,FR_wheel_link,-6.100589235988973,-11.20508616624958,23.168902162309514,-1.1976450232253781,0.6193667579191255,0.015211731137426035
419238000000,180,419238000000,FR_wheel_link,-0.5641934428172798,0.1627466659068615,0.7813816533513798,-0.02446601732548482,0.042676328172885934,0.010685559826023221
419239000000,181,419239000000,FR_wheel_link,-6.25799008017179,-11.714829084916717,22.806725794737748,-1.2245719427138098,0.7209577634258828,-0.009264247642871426
419240000000,182,419240000000,FR_wheel_link,-0.5654652628465461,0.32625988963635166,0.3743774124339967,-0.017594684626998345,0.04349409673871013,0.015063744339122932
419241000000,183,419241000000,FR_wheel_link,-2.5082432431736863,-9.19803697264761,8.157762611633288,-0.9889332886287026,0.32262909494650727,-0.008391316617905271
419242000000,184,419242000000,FR_wheel_link,-0.011178561979769241,0.22978992504741041,-0.34911983566960286,-0.005218483664039375,0.013152751599087683,-0.004725450670878579
419243000000,185,419243000000,FR_wheel_link,0.02429521062049982,0.02475678207794047,0.003656602323133564,4.51366648256548e-05,-0.001892410542279662,-0.0002999748277518295
419244000000,186,419244000000,FR_wheel_link,-1.4767930245691843,-9.486515399620977,16.342675254049784,-1.0193000733370041,0.16927726454424408,-0.001914468484448241
419245000000,187,419245000000,FR_wheel_link,0.011066670392154851,0.1732830952508519,-0.017201145218165945,-0.013493187730875905,0.008131335491573391,-0.0005803128795249987
419246000000,188,419246000000,FR_wheel_link,0.015109349092870471,0.03802164101712828,0.013926700401703171,0.00025524177351049287,-0.0014689066228494184,5.3946457802175985e-05
419246000000,189,419247000000,FR_wheel_link,-0.22880330670875582,-3.1020950170324424,4.352184983811846,-0.38411719010999057,0.01518145179538441,0.005210973268634379
419246000000,190,419248000000,FR_wheel_link,0.01343240117531945,-0.061525837457486104,0.021793262641471897,-0.008105980774219668,-0.00198399071232904,-0.00011554843202613583
419249000000,191,419249000000,FR_wheel_link,-1.3408569796832466,-2.8234808096476955,9.272479224387006,-0.3230241261689756,0.15624449787946532,-0.0018129425102072268
419250000000,192,419250000000,FR_wheel_link,-0.02011295143709451,-0.0781779392940864,0.08954112138737322,-0.008930820124184571,0.0016438768232368843,6.871973654247465e-05
419251000000,193,419251000000,FR_wheel_link,-0.06839038563656097,-2.1358929786362912,2.078402987428883,-0.27969822539501193,-0.0007849849720562851,0.003992985312433823
419252000000,194,419252000000,FR_wheel_link,0.02566891244945792,-0.0225080177284597,-0.0215288204076503,-0.0038111773881500536,-0.0030468733767038715,-0.00019222800865549404
419253000000,195,419253000000,FR_wheel_link,-0.5934409953089983,-2.463241888523528,7.814529457483591,-0.2910484767709505,0.0692239155104647,-0.0015782562588130752
419254000000,196,419254000000,FR_wheel_link,0.005760008034681682,-0.04749316462207966,0.03768279181442,-0.0056606053736749685,-0.0010372121880111197,-4.308600426648307e-05
419255000000,197,419255000000,FR_wheel_link,-0.14426838447540036,-1.851302305039758,2.300487485006521,-0.2271704416321022,0.010785488150282255,0.0010282601625802162
419256000000,198,419256000000,FR_wheel_link,-0.16869113759050547,-1.6428970531950577,1.5085552874197141,-0.19030193596169143,0.012200031809436657,0.0024761666023937774
419257000000,199,419257000000,FR_wheel_link,-0.12640184428941206,0.1328977528839635,0.031290042926854514,0.005615947557795172,0.009472003322954453,0.0007670857122351978
419258000000,200,419258000000,FR_wheel_link,0.48346384350108274,-8.207164108133764,9.812999298510196,-0.885637619440822,-0.04060449578305175,-0.0020622095428352444
419259000000,201,419259000000,FR_wheel_link,0.01891589947575037,0.23858714377730095,-0.5237445753519947,-0.004888459528154728,0.0029935342264975134,-0.002359019560667412
419260000000,202,419260000000,FR_wheel_link,0.002822483969026004,0.018198054266832887,0.010170373798727143,2.9564704403938014e-05,0.0002048755685722787,-8.202407637206266e-05
419261000000,203,419261000000,FR_wheel_link,0.3337238999873972,-0.2925609073845778,-0.7220636401582167,-0.02308141440867474,-0.015849627623902632,-0.006862508243604776
419262000000,204,419262000000,FR_wheel_link,-0.33941647215553217,0.7315681218796819,-1.0144823773997984,0.026365388350796083,0.013262263182692375,0.004386035075727967
419263000000,205,419263000000,FR_wheel_link,-0.005895789627672302,0.01493499420800014,0.005207772617871288,6.444489743425387e-06,0.00012284815944207944,0.00021982177245968246
419264000000,206,419264000000,FR_wheel_link,0.28373148875409243,-0.2855085539415505,-0.763751009249908,-0.023536777624092127,-0.015339311962822523,-0.005737322376470795
419265000000,207,419265000000,FR_wheel_link,-0.36739824503924107,0.7515441682474444,-1.011324195700133,0.026139089357743714,0.012972455019087475,0.005324981790779159
419266000000,208,419266000000,FR_wheel_link,-0.006261799336714913,0.012856744732349004,0.0060239252022690325,5.086790487276323e-05,1.8399102469532514e-05,0.00027183733686940757
419267000000,209,419267000000,FR_wheel_link,0.28104034972030134,-0.28719662995276296,-0.7709480114283239,-0.02359571441598078,-0.01544789918601286,-0.005698847268542091
419268000000,210,419268000000,FR_wheel_link,-0.36979541306177893,0.7572919916198044,-1.001813803643832,0.02622079317126136,0.012774256267676717,0.005414038258781428
419269000000,211,419269000000,FR_wheel_link,-0.005846212652287285,0.011388126790383693,0.006570029545883428,7.556267336417954e-05,-3.9235039817102794e-05,0.00028145979779415394
419270000000,212,419270000000,FR_wheel_link,-0.16599205359986113,-7.298300948839817,10.59727621909818,-0.7892736973216257,0.018378359481979745,-0.00012319852167021195
419271000000,213,419271000000,FR_wheel_link,-0.03630851006551554,0.252897949820514,-0.39023586761034545,-0.007572568743371202,0.004551102060078125,0.0008374767018113075
419272000000,214,419272000000,FR_wheel_link,0.0036606907843935305,0.019630269108963136,0.010318576242619006,0.00012922678207118128,-0.0002268240321528778,0.00011231915554010198
419273000000,215,419273000000,FR_wheel_link,-0.05265240511008651,-7.360559662435238,10.00770379674822,-0.7974952956524223,0.008242943894169574,-0.0002303252400064279
419274000000,216,419274000000,FR_wheel_link,-0.017185977377154577,0.24168338924624283,-0.42299374253466093,-0.006425375236823647,0.004918237093262203,0.0001294249081620691
419275000000,217,419275000000,FR_wheel_link,0.005095270328789708,0.0216728662517396,0.006630188784316702,7.157619087941914e-05,-0.00022556386629463983,8.134841319909887e-05
419276000000,218,419276000000,FR_wheel_link,0.4946260820373394,-5.892362632996209,7.00475249738839,-0.6382276169139384,-0.04890508796712595,-0.0007941230344277461
419277000000,219,419277000000,FR_wheel_link,-0.03509759979028079,0.262919714814285,-0.662886677936295,-0.005647367081353837,0.0022405779344175326,0.000519421341920527
419278000000,220,419278000000,FR_wheel_link,0.003133398372930434,0.02118332234649535,0.004643788904330063,7.786555747428525e-06,-1.883921599358524e-05,6.29567382338498e-05
419279000000,221,419279000000,FR_wheel_link,1.1608468644599954,-7.560667775434249,6.125999783958482,-0.8371913976057137,-0.13452499929976447,0.00393908983042536
419283000000,222,419280000000,FR_wheel_link,0.012145077333914261,0.2111710533825299,-0.7009398144052643,0.0022622881254406417,0.004969566127164447,-0.002842249597583041
419283000000,225,419283000000,FR_wheel_link,0.0004627514107453101,0.2279582062662338,-0.6596206852838102,-0.0027926558325109788,0.0030669656552163066,-0.000993560769829301
419283000000,226,419284000000,FR_wheel_link,0.004094774752972342,0.016873974673651253,0.0016068477014775987,-2.6581713658457266e-05,7.921271910225947e-05,-3.815521985709267e-06
419285000000,227,419285000000,FR_wheel_link,0.3203701146649848,-0.31013219657939134,-0.7210397887350273,-0.023073986937287284,-0.015489139629379362,-0.00597234503906814
419286000000,228,419286000000,FR_wheel_link,-1.5358112423788532,-1.3492348635019094,6.540090188175444,-0.19277496046734832,0.1507215313005753,0.005065297748983205
419287000000,229,419287000000,FR_wheel_link,-1.505381321313453,-2.301098494050291,3.4775643261651776,-0.2518079902092879,0.15738849590327103,0.003049233415382194
419288000000,230,419288000000,FR_wheel_link,0.24302504760346677,-0.3588694364955472,-0.5751960159626651,-0.027010446883026812,-0.007514554242219355,-0.005978454497587147
419289000000,231,419289000000,FR_wheel_link,-0.7420100930448646,0.1671894524319275,-0.3554380505507748,-0.03395198009047395,0.06312545998611571,0.004730865638550084
419290000000,232,419290000000,FR_wheel_link,0.05779937107000978,0.08384783416758847,-0.07550556220897728,0.007262174073903615,-0.0068356559647474065,0.00041020614317585413
419291000000,233,419291000000,FR_wheel_link,0.7029186971684371,-6.339219691578421,7.074036102581476,-0.6919174320371551,-0.08157505173050017,0.0017324351643168284
419292000000,234,419292000000,FR_wheel_link,-0.059722779979610764,0.2483095673381717,-0.6766884932595119,-0.004033531430005072,0.0030325161517020375,-3.48956379600383e-05
419293000000,235,419293000000,FR_wheel_link,0.1999481349370153,0.43326658241255095,1.0857779305289854,0.030041859397215154,-0.01928989937705293,0.0012957824997030648
419294000000,236,419294000000,FR_wheel_link,-0.6251271483174826,-2.786224151275215,26.75183770374614,-0.26601890341763884,0.049489055177618216,0.0003299825870014452
419295000000,237,419295000000,FR_wheel_link,-0.06450093664576426,-0.004009719088706648,0.02903607024186526,-0.00013145435382676653,0.007271252092539433,-5.2666156348863855e-05
419296000000,238,419296000000,FR_wheel_link,0.18026739138773257,0.3708169695566249,0.9333915407227068,0.02641142671058662,-0.01571530319234974,-7.565597633605518e-05
419297000000,239,419297000000,FR_wheel_link,-0.44415119743472786,-4.858776795771585,27.113697175525203,-0.4888777111452275,0.047170534510048934,-0.00480389865632069
419298000000,240,419298000000,FR_wheel_link,-0.0570559266483799,-0.12297857432013387,0.055851639891835184,-0.01156676220276617,0.0066801254586192575,-0.000167550882812016
419299000000,241,419299000000,FR_wheel_link,0.19331298950743275,0.36585355993801694,0.8831877347405637,0.0242609193685685,-0.014853098124839252,-0.00013463275277210266
419300000000,242,419300000000,FR_wheel_link,-0.6691139994456472,-5.884628473925079,28.825088334839023,-0.6107083213858435,0.06723137986644856,-0.0019518693555293995
419301000000,243,419301000000,FR_wheel_link,-0.06941122574697584,-0.17940780249345042,0.08586116031970346,-0.017224399199431414,0.008118736747729848,-0.00012135420238306707
419302000000,244,419302000000,FR_wheel_link,0.20938729852814317,0.38131223208375964,0.88520524569736,0.023503735924448176,-0.015300259751600973,0.00034018172136473525
419303000000,245,419303000000,FR_wheel_link,-0.6945158173986039,-6.5047101475552385,29.480226996463287,-0.6823223549087873,0.06958648426201314,-0.0010942794226051072
419304000000,246,419304000000,FR_wheel_link,-0.07091626504345845,-0.21346791219289296,0.10002141772742003,-0.020840410805063013,0.008213987224632185,-6.841354448273583e-05
419305000000,247,419305000000,FR_wheel_link,0.14237680218372953,0.31981348567999246,0.4343668497472609,0.01327241902292095,-0.019034242243820474,0.001171766424403465
419306000000,248,419306000000,FR_wheel_link,-3.8277264410127243,-8.499905570847265,18.962169608190145,-0.905923286242651,0.36871060826086344,0.012391711587093353
419307000000,249,419307000000,FR_wheel_link,0.11613169106813365,0.24748942568490886,1.6942550416549977,0.004856450988635967,0.006634602600863826,-0.002585494371305567
419308000000,250,419308000000,FR_wheel_link,-2.481757586686064,-6.062314140849201,30.998294068817238,-0.6221043989158833,0.2677277161833888,-0.0011657480369527684
419309000000,251,419309000000,FR_wheel_link,-0.17105505614628536,-0.2024625620554327,0.13458005879745227,-0.018330185895981094,0.02003355406611839,-0.0002769452666092237
419310000000,252,419310000000,FR_wheel_link,-1.760992202277029,-2.686792804128614,18.96700442915239,-0.2938330993708829,0.19757346992879143,0.001768322676806663
419311000000,253,419311000000,FR_wheel_link,-0.04281928873116344,-0.01674325143600011,0.16620785473253677,-0.006327647756603609,0.00839556038810828,-0.000196807550985535
419312000000,254,419312000000,FR_wheel_link,-1.4462442972734033,-9.06441643132272,15.745976394526249,-0.9690135997631396,0.15635365214615216,0.0007041590230367489
419313000000,255,419313000000,FR_wheel_link,-0.07792841414040136,0.21847577027859555,0.968786400278334,-0.009749523365545036,-0.008748851570414893,0.0029138601921495535
419314000000,256,419314000000,FR_wheel_link,0.659938222833111,-8.054197126084174,13.332523372106884,-0.8772771212908368,-0.08216653616589248,-0.0005094869018698392
419315000000,257,419315000000,FR_wheel_link,0.0413842121704535,-0.2806131453787598,0.08331499283015077,-0.029454504358595188,-0.006070747492054782,9.415087956481626e-05
419316000000,258,419316000000,FR_wheel_link,0.40399838197248805,-0.0990523352013937,-0.37034569911568554,-0.005289701452838849,-0.021357568854278627,-0.01420195290924458
419316000000,259,419317000000,FR_wheel_link,-0.42858236405322714,-7.512164681416827,11.7835435440041,-0.8409327909697828,-0.01247091278631779,0.014047820577185392
419318000000,260,419318000000,FR_wheel_link,0.03929417246030964,0.01622608506136137,0.3470690518211045,-0.020721511579572274,-0.01624937597438969,-0.005097821884850671
419318000000,261,419319000000,FR_wheel_link,-2.669890421266361,-7.417569069660827,15.040214366368309,-0.8023834002899631,0.24521921824356407,0.01119911925527188
419321000000,262,419320000000,FR_wheel_link,0.1083116686547417,0.17799566448248139,1.3309640068312594,0.0018499825592979305,0.005692082330462582,-0.004767750073204461
419321000000,263,419321000000,FR_wheel_link,-1.1388932116058355,-8.90049143845652,17.677663826350646,-0.9450619523635125,0.11484275255246246,0.001456347143868629
419322000000,264,419322000000,FR_wheel_link,0.15064833012779577,0.01521315977630331,1.0479975840624611,-0.007491005517647361,-0.0014960982786985017,-0.0061513757254430725
419323000000,265,419323000000,FR_wheel_link,-2.062423127735985,-7.821787080204097,18.639899203157732,-0.8303195423442232,0.21058105792572768,0.001344708446430934
419324000000,266,419324000000,FR_wheel_link,0.13777069807419465,0.15084505382508473,1.2702017958663148,-0.0022783990205950135,-0.00281514883455014,-0.0010685873148604023
419324000000,267,419325000000,FR_wheel_link,-1.0626251467362953,-6.021164517784758,24.302104524204793,-0.6325033432225238,0.10734197581726701,-0.0008163783870988629
419326000000,268,419326000000,FR_wheel_link,-0.07388347062199735,-0.21303504019358,0.08385027191792577,-0.022619820527460144,0.00855577733118363,-6.780200579868754e-05
419327000000,269,419327000000,FR_wheel_link,0.26690843741203774,0.1901000402333894,0.23798900668440273,0.007796309028330115,-0.022279243302716027,-0.0023253190893225127
419327000000,270,419328000000,FR_wheel_link,-3.069508279405656,-8.434502398559863,17.839426687989658,-0.9080068017542742,0.28076701610330673,0.013083796682670464
419329000000,271,419329000000,FR_wheel_link,0.12919617520223975,0.23310912446887172,1.5694243211060916,0.0014146828152145072,0.003445595139769392,-0.002195790869246679
419329000000,272,419330000000,FR_wheel_link,-2.022624715916417,-5.8041747048100945,29.237575796526897,-0.5956521508628274,0.21963283723102778,-0.003363460366478846
419331000000,273,419331000000,FR_wheel_link,-0.13906876181228234,-0.20589259920539515,0.12140354673401116,-0.020314681514432716,0.016273283727197795,-0.00017028938390986078
419332000000,274,419332000000,FR_wheel_link,-1.3695371742975,-2.5044316079607905,18.647019432438206,-0.2779297211694934,0.15044456609483373,0.0032418102558158714
419333000000,275,419333000000,FR_wheel_link,-0.030918829077943584,-0.018590428377701175,0.14979178379161118,-0.007142495621708309,0.005898302758025607,0.00042262241590723416
419334000000,276,419334000000,FR_wheel_link,-0.9012631191628189,-8.821441838452861,15.242702071192943,-0.9451431581426235,0.0924824105363466,0.0023444299827257153
419335000000,277,419335000000,FR_wheel_link,0.22227808934045223,0.12472242683235937,1.2857832495939039,-0.004063290116493841,-0.009526238145237346,-0.003562749285442121
419336000000,278,419336000000,FR_wheel_link,-2.4518121936490447,-7.566997558436201,19.32901155878131,-0.793917949684601,0.23548156874165277,0.00648123282456485
419337000000,279,419337000000,FR_wheel_link,0.14631842556344324,0.22662494396108565,1.4617793703868946,0.0023867057146844967,-0.0007875105293532151,-0.0013956074067511216
419338000000,280,419338000000,FR_wheel_link,-1.31693341354353,-5.605673445001129,26.254456899502145,-0.5763118296477614,0.1371313428030447,-0.002863974264392076
419340000000,281,419339000000,FR_wheel_link,-0.10043364535888707,-0.2050252581950264,0.08829953089203321,-0.02114276232845332,0.011564509275065672,-0.00012763093899583085
419340000000,282,419340000000,FR_wheel_link,0.0802778845854488,0.32273473883532205,0.2620853553986174,0.011187258699824041,-0.020269660366710466,0.0022125544511236
419341000000,283,419341000000,FR_wheel_link,-3.907599419161312,-7.791486326478362,17.950045901738633,-0.8260908360768784,0.38156250088183674,0.01061857877647589
419342000000,284,419342000000,FR_wheel_link,0.09817356866511429,0.2668231134386257,1.5773546512647263,0.0037158666306471256,0.007707097244348657,-0.002376554436626055
419343000000,285,419343000000,FR_wheel_link,-2.15421311388746,-5.625583927909522,28.77582573699668,-0.569743672534357,0.23818163359236827,-0.00511676565026809
419344000000,286,419344000000,FR_wheel_link,-0.14512425866099876,-0.21397763414988805,0.11777514140175113,-0.02108287246408053,0.01703446151653409,-0.00022597799856348926
419344000000,287,419345000000,FR_wheel_link,-1.4645307605177629,-2.4844489943712875,18.745149365390212,-0.2752333645788239,0.1609247841959353,0.0030660499610940892
419344000000,288,419346000000,FR_wheel_link,-0.03550879142314838,-0.031018954711306744,0.14242876755698147,-0.007613343383133938,0.006209124644368778,0.00011364294567786919
419346000000,289,419347000000,FR_wheel_link,-1.1915686862346515,-8.56460052429664,15.608227621626796,-0.9142742085343669,0.1236441243531991,0.0022250229031614624
419348000000,290,419348000000,FR_wheel_link,0.2135839125768194,0.15021022463163597,1.3095059239554443,-0.0035900352240265804,-0.008812255301853901,-0.0027224920714444783
419349000000,291,419349000000,FR_wheel_link,-2.191592012782965,-7.376864595252015,19.863489367714912,-0.7707751466790194,0.21395397954590295,0.00335001719078502
419350000000,292,419350000000,FR_wheel_link,0.1456669540398403,0.21340260859245735,1.372118321003692,0.0008676082802289333,-0.002885292422153673,-0.00020250405873526256
419350000000,293,419351000000,FR_wheel_link,-1.8637638755165717,-7.5312429039648165,19.28042633207442,-0.7858809777212571,0.18736973267709933,0.0013908271382558346
419350000000,294,419352000000,FR_wheel_link,-0.005233104763382179,0.14789832437529712,0.9943300722963913,-0.005421502803447374,-0.004574645757919425,0.001938542121049755
419350000000,295,419353000000,FR_wheel_link,-3.841890954082027,-6.718004736737237,17.030688445696697,-0.7035265818634547,0.3802011591253663,0.008628079931271147
419350000000,296,419354000000,FR_wheel_link,0.05897419893624009,0.2570430333821346,1.4155260222696477,0.005061061608380648,0.008402687548574542,-0.002188725210318497
419355000000,297,419355000000,FR_wheel_link,-2.9321662299744924,-7.315622283764406,20.92661959887289,-0.7489995729507752,0.31793845690883255,-0.0022416422875396608
419355000000,298,419356000000,FR_wheel_link,0.07314447978581973,0.16556673981034106,1.2898076268110743,2.9268382409734133e-05,0.003621585886750744,-0.0010864004660339189
419356000000,299,419357000000,FR_wheel_link,-2.596540686694589,-7.470051462953942,19.52241641004403,-0.776437148190494,0.2707203782064087,0.0008037684643102116
419356000000,300,419358000000,FR_wheel_link,0.07807148105386455,0.13700091394715563,1.224134713331984,-0.002338012084240424,0.0011676518469284848,-0.0006947004596545082
419358000000,301,419359000000,FR_wheel_link,-2.728039349534813,-7.325612513557294,19.459939746851262,-0.7630162585663511,0.28114905266248436,0.0015092175601678394
419358000000,302,419360000000,FR_wheel_link,0.06994250745968444,0.15085348203379562,1.231942234376024,-0.002245399314256708,0.0012548714517343097,0.0001565610098278581
419361000000,303,419361000000,FR_wheel_link,-2.6412002227177154,-7.3646622352276765,19.15017026105655,-0.7677791187317237,0.27069844331551585,0.001973197742034076
419362000000,304,419362000000,FR_wheel_link,0.0728836010862785,0.14386110835054766,1.215121670776993,-0.002599957944584381,0.0006380313978489794,-1.801618502793759e-06
419362000000,305,419363000000,FR_wheel_link,-2.6753032841493516,-7.285217856313858,19.169564399603235,-0.7592406919811447,0.27378661457698295,0.00197064651739514
419364000000,306,419364000000,FR_wheel_link,0.07084682024889105,0.1497338345986961,1.2169337382771221,-0.0024254108464093135,0.0007049909032921379,0.00019354310996779427
419365000000,307,419365000000,FR_wheel_link,-2.643250219098246,-7.268301082346063,19.07933399635113,-0.757190212810656,0.2702426806529055,0.0020081154517499755
419366000000,308,419366000000,FR_wheel_link,0.07193193064229197,0.1488321498804548,1.2109114722023506,-0.002480476150591614,0.0005248342128293693,0.0001429570426240574
419367000000,309,419367000000,FR_wheel_link,-2.653543761543543,-7.220359434239269,19.091125579298982,-0.7517101740836261,0.2712820885200097,0.0019435093541620846
419368000000,310,419368000000,FR_wheel_link,0.07134525333933665,0.1518961808385407,1.2111068898653992,-0.0024105001094683956,0.0005591171621765482,0.00022651077080542955
419369000000,311,419369000000,FR_wheel_link,-2.64684201562844,-7.195012583093614,19.072981522895752,-0.7486084585765085,0.2705887712012585,0.001908467573519878
419370000000,312,419370000000,FR_wheel_link,0.07156646649661685,0.15281358160460606,1.2091667002920272,-0.0024298926035033882,0.00052906626632502,0.00024323410621865903
419371000000,313,419371000000,FR_wheel_link,-2.656643005517826,-7.161500383698233,19.089841101947034,-0.7446087682344581,0.2716512939398944,0.001849074524963825
419372000000,314,419372000000,FR_wheel_link,0.07109151846065777,0.15495895218041753,1.2093617526221436,-0.0024175278081456893,0.0005835667838878442,0.0003062955113539206
419374000000,315,419373000000,FR_wheel_link,-2.664035318610675,-7.135842239496559,19.09932712972231,-0.7414382030829733,0.272470925468942,0.0018036237088351406
419374000000,316,419374000000,FR_wheel_link,0.07068662371833041,0.156413157812865,1.208990544160437,-0.0024362757721971082,0.0006353801472265552,0.00035018134491381683
419375000000,317,419375000000,FR_wheel_link,-2.6787234229600525,-7.107874995355089,19.119922823054743,-0.7380149151395198,0.2740594542466249,0.001753812326991875
419377000000,318,419376000000,FR_wheel_link,0.06991876864733378,0.1582075104434364,1.2093155695960673,-0.0024476156935325528,0.0007276493108956106,0.00040834724149128203
419377000000,319,419377000000,FR_wheel_link,-4.048252927876896,-9.292320753155257,21.717050164314337,-0.9868543965710133,0.41790962261896697,0.0015152567797251174
419378000000,320,419378000000,FR_wheel_link,0.040055103866945246,0.1634941380717971,1.2050321427714663,0.000428340353282006,0.003007627602853208,0.00017747369438824524
419378000000,321,419379000000,FR_wheel_link,-4.112492905019542,-8.64641863490452,20.615809758764478,-0.9160719708378942,0.4283750671101557,0.000518697379440547
419378000000,322,419380000000,FR_wheel_link,0.03804994922863339,0.18239044739912158,1.1689885110061748,0.002520157498592986,0.002608456718805173,0.00012635253511184482
419381000000,323,419381000000,FR_wheel_link,-3.864534075502722,-8.378922698721743,19.92333598555181,-0.8874623759544912,0.40170514438188704,0.0005928960631283939
419382000000,324,419382000000,FR_wheel_link,-0.10491680598834902,0.17074490955592272,0.8730444006115267,-0.00131541704444776,0.00010619323734466083,0.0035083425294575197
419382000000,325,419383000000,FR_wheel_link,-5.843845670202987,-7.798314774981861,18.115411238263746,-0.8269819158723941,0.604040197963495,0.00366068984906222
419384000000,326,419384000000,FR_wheel_link,0.023083362113588413,0.272623792451869,1.2710135020433917,0.008367521892324122,0.008177014145640283,-0.002377612461423942
419390000000,327,419385000000,FR_wheel_link,-4.03120956244693,-7.989720568158923,20.711913507030598,-0.8331060681162715,0.43185698600423894,-0.0028900680682922633
419390000000,328,419386000000,FR_wheel_link,-0.13629936742053816,0.190326479436484,0.8538169868974119,-0.0004876359011730787,0.0019563431624123437,0.0031215718149075825
419390000000,329,419387000000,FR_wheel_link,-4.20546057796764,-5.524863023157288,16.017526380595324,-0.5970850976695292,0.4287965439426022,-0.0013866558628534862
419390000000,330,419388000000,FR_wheel_link,0.03532092171689072,0.28896092469171675,1.3353352469864836,0.0067678354231365005,0.010384069029824508,-0.0030387060965838646
419390000000,331,419389000000,FR_wheel_link,-4.193345054976167,-8.436415090645278,21.44954805830062,-0.8798093713078331,0.4499850770437209,-0.0029113707496046005
419390000000,332,419390000000,FR_wheel_link,0.042110600678047866,0.1867316622507714,1.1971124953863748,0.004157139962459958,0.004781602262979059,-0.0015647404701647325
419391000000,333,419391000000,FR_wheel_link,-4.650483580434513,-7.952692122553236,21.67499904894455,-0.8558544947123159,0.4948751442730286,-0.004246255497559812
419392000000,334,419392000000,FR_wheel_link,0.079665974377781,0.23583812731685388,1.228519825612157,0.002107609049561799,0.00015105430371768606,-0.00012518437026313637
419393000000,335,419393000000,FR_wheel_link,-2.466625534830769,-3.859924719815306,23.513660117274014,-0.42860598579247866,0.24592640687654477,-0.0028435949254460276
419394000000,336,419394000000,FR_wheel_link,-0.1627099351161608,-0.19035268485007148,0.09170309332041482,-0.019430642468439552,0.01787866304996875,-0.000313549509386281
419395000000,337,419395000000,FR_wheel_link,-1.372954687998652,-1.4561617980498556,18.020365979157503,-0.19834312372344987,0.15248467802198512,-0.00029749527594138676
419396000000,338,419396000000,FR_wheel_link,-1.149156481019541,-3.5714649719871803,5.39670679899797,-0.39250668129905636,0.11540829765370214,0.0007742789549096546
419397000000,339,419397000000,FR_wheel_link,-0.05945716665196642,-0.14756038634945554,0.06897837862655623,-0.016563367334480765,0.0062489194480270125,-6.594867300198029e-05
419398000000,340,419398000000,FR_wheel_link,-0.13030632219916854,-2.830947447875461,31.091451559745472,-0.35555175735864786,0.008885026875996599,-0.0009974080589869611
419399000000,341,419399000000,FR_wheel_link,-0.05567131298725031,-0.12155667323965552,0.03397465866634429,-0.0136551007841242,0.006064793087333766,-0.00010283304198796918
419400000000,342,419400000000,FR_wheel_link,0.15657815579031817,-0.08807622395118538,-0.22956945075093016,-0.0071966751251239134,-0.00834667179744896,-0.0022894312734514834
419401000000,343,419401000000,FR_wheel_link,-1.3869488218738852,-4.810609190401884,27.350117331112816,-0.582799046208311,0.13248033195141198,0.0036337795069098164
419402000000,344,419402000000,FR_wheel_link,-0.06769060723265827,-0.09835193218128624,0.10972652095354916,-0.00976124802423057,0.007020865173285747,-0.00011244903529142234
419403000000,345,419403000000,FR_wheel_link,-0.45201646347123015,-3.2713155017148727,15.557176804768211,-0.3891875184899488,0.049213943118242814,-0.0005108677251433082
419404000000,346,419404000000,FR_wheel_link,-0.03942322119829593,-0.07811782509109229,0.060433674694595804,-0.008244221492519901,0.0040919114967008065,-7.53993823311202e-05
419408000000,347,419405000000,FR_wheel_link,0.283195875034414,-2.6484285765347426,24.059900548729455,-0.317398929155192,-0.03360042679411504,0.0010394584468304217
419408000000,348,419406000000,FR_wheel_link,-0.6886055058886332,-2.169161486353789,3.9363546270669616,-0.2567893349171272,0.07261429398147835,-0.0006468937817292351
419408000000,349,419407000000,FR_wheel_link,0.04849463841005404,0.09213053082009362,0.34186703722502154,1.5637972879681316e-05,-0.0013942625766286277,0.00035245017524504463
419408000000,350,419408000000,FR_wheel_link,-0.6143928829630787,-7.183889616786897,16.20975213668651,-0.7820147100531512,0.0606290779722134,-0.00037611497074298283
419409000000,351,419409000000,FR_wheel_link,0.27059255976391516,0.2831424343191737,1.3826079043981665,0.002233845261785626,-0.01413509430373066,-0.0015025658948007287
419410000000,352,419410000000,FR_wheel_link,-2.738881959592835,-5.947033513836204,18.996562366849226,-0.6428626955914005,0.2533667390595977,0.00321671181873686
419411000000,353,419411000000,FR_wheel_link,0.1560709168323777,0.3932206904989174,1.5548619699098187,0.00907569751943546,-0.00010917992152824959,-0.00041446336109785085
419412000000,354,419412000000,FR_wheel_link,-2.53754650429205,-5.972899772421651,21.76286135029437,-0.6333792440678064,0.2697687075891549,-0.008123533013380303
419413000000,355,419413000000,FR_wheel_link,0.11309022830798918,0.27625280842574995,1.357480068700895,0.0037292881430458563,0.00032033817625065067,0.0004500130202196302
419413000000,356,419414000000,FR_wheel_link,-3.0783405914553446,-6.123032843259983,20.192718614221548,-0.6547560830359633,0.315676459633055,-0.003982547005449019
419415000000,357,419415000000,FR_wheel_link,0.08554430790963222,0.27229612077541876,1.3759973104435277,0.0024223678041939423,0.003180051632955216,0.0003078402654952417
419416000000,358,419416000000,FR_wheel_link,-3.261948537566467,-6.245157486560984,20.569079904777634,-0.6684291147765895,0.3376031265110007,-0.005073068794126136
419419000000,359,419417000000,FR_wheel_link,0.06390928123947717,0.24915770186807304,1.3419711725323058,0.0006194057492629162,0.004463366024795978,0.0005149695663122101
419419000000,360,419418000000,FR_wheel_link,-3.140196526458501,-6.394003218243112,20.508320659435064,-0.687533055831555,0.3278532725868618,-0.006032084234164828
419419000000,361,419419000000,FR_wheel_link,0.05216689377567697,0.20973230465413334,1.2658152288557694,-0.0015676006291187622,0.003897701633153512,0.0007956935679743692
