%time,field.header.seq,field.header.stamp,field.header.frame_id,field.wrench.force.x,field.wrench.force.y,field.wrench.force.z,field.wrench.torque.x,field.wrench.torque.y,field.wrench.torque.z
419066000000,0,419058000000,FL_wheel_link,-0.002424715533833414,0.007350781752614583,-0.005773055547947132,-0.00014191423067254163,-0.00030821049306593634,1.6706816347477585e-05
419066000000,1,419059000000,FL_wheel_link,-0.6270935441155512,-7.332898558163864,6.321543497874642,-0.5775186415385507,0.06140948092495724,0.017262604381966196
419066000000,2,419060000000,FL_wheel_link,0.012922493080242972,0.35002862650879085,-0.6205352696037749,-0.0015346713737088395,-0.004802015387108477,9.679149757840138e-05
419066000000,3,419061000000,FL_wheel_link,-0.004141953259036801,0.012391501170639533,0.0023884402150810497,-9.527456575273777e-05,-0.00012605485532732135,-3.1802132093444654e-05
419066000000,4,419062000000,FL_wheel_link,-0.35057039878467944,-0.187264926557047,-0.7664827981747393,-0.023345972437949013,0.01539255303786052,0.010518462013916804
419066000000,5,419063000000,FL_wheel_link,1.498838548112294,-2.070173385079639,4.934118103261299,-0.11321112616839452,-0.14120636723647462,-0.0425125806260581
419067000000,6,419064000000,FL_wheel_link,1.2938764440092667,-2.4697469094891336,2.7602408297560346,-0.17917134342033647,-0.13078482344186276,-0.037569697257320296
419067000000,7,419065000000,FL_wheel_link,-0.25275286107148914,-0.2607113175614708,-0.6303960323545293,-0.027862826794525522,0.006727264498529683,0.008011262353618695
419067000000,8,419066000000,FL_wheel_link,0.4381889715103667,0.6346865848747392,-0.6220937823252086,0.005634517418864254,-0.028416028927832154,-0.011898572390670964
419067000000,9,419067000000,FL_wheel_link,-0.08453995208723394,0.1272556007881871,-0.059361092648087754,0.009180383991693774,0.009051889345167834,0.0018215787802375984
419068000000,10,419068000000,FL_wheel_link,-0.5817413810357615,-2.1269075532429413,0.2743288134385811,-0.2374708622662121,0.07013443224248782,0.014834389106688758
419069000000,11,419069000000,FL_wheel_link,0.58049756082198,-1.882360228592312,3.8356257518850714,-0.10467376824481678,-0.05192007377885178,-0.015484414112576266
419070000000,12,419070000000,FL_wheel_link,-0.01138012791814631,0.1757554105036737,-0.448537713281678,-0.0021412265222204834,-0.0011370455267380104,0.0011908859891534844
419071000000,13,419071000000,FL_wheel_link,1.014709081692184,-3.3162905757318706,6.411502531985855,-0.17225492159793931,-0.10486002065170208,-0.02958567293168582
419072000000,14,419072000000,FL_wheel_link,-0.013057064381640886,0.17563447002201782,-0.3593291081419573,-0.0037617167093811047,-0.0022146439471038486,0.00030446718053834604
419073000000,15,419073000000,FL_wheel_link,1.5604819715354743,-3.791012201598027,4.565634076861478,-0.2778044378717117,-0.15980064036629682,-0.04549163663693234
419074000000,16,419074000000,FL_wheel_link,-0.0036847730381366975,0.17302319263824387,-0.4622284796286401,-0.001803616786589513,-0.0013921270756581446,0.0009492035344685732
419075000000,17,419075000000,FL_wheel_link,1.3156196254645642,-3.249470865359031,3.6312322250978264,-0.2468661197229381,-0.13390179631359966,-0.038083457375305566
419076000000,18,419076000000,FL_wheel_link,0.0017448976734831673,0.18339371445447922,-0.5084014321920608,-0.0016221009378514207,-0.0011097893452770144,0.0009168306568383669
419077000000,19,419077000000,FL_wheel_link,1.1942800435437322,-2.9975002864018525,3.1379662148871663,-0.23440803646175018,-0.12117128095787932,-0.034520383225720194
419078000000,20,419078000000,FL_wheel_link,0.004454934733632742,0.1870398505342695,-0.5305115146344825,-0.0016211595385176656,-0.0009434577217220569,0.0008820166263416575
419081000000,21,419079000000,FL_wheel_link,1.149372309619596,-2.903594714402611,2.934088392445363,-0.23039261515781181,-0.11639362152664337,-0.03320858986870593
419081000000,22,419080000000,FL_wheel_link,0.0057692568667499985,0.18766876733117113,-0.5396133397166366,-0.001665816099392091,-0.000891156922305753,0.0008566398078717988
419081000000,23,419081000000,FL_wheel_link,1.14108902419955,-2.885145348355939,2.8725890334455446,-0.23021984721202404,-0.11548612392279217,-0.03297650305684735
419082000000,24,419082000000,FL_wheel_link,0.006204825686693824,0.1869818769267527,-0.5421834259799968,-0.001722620373524671,-0.0008973693139395621,0.0008386638487769939
419083000000,25,419083000000,FL_wheel_link,1.149220833262036,-2.9043811680151936,2.880833601876957,-0.23199733013319535,-0.11631831340463723,-0.03322983468063179
419084000000,26,419084000000,FL_wheel_link,0.006086867589332648,0.18577799191915365,-0.5416990099981319,-0.0017777718149997851,-0.0009237107802858132,0.0008277470648947377
419085000000,27,419085000000,FL_wheel_link,1.159850037989268,-2.934281602331624,2.9109150374494845,-0.23427023796937713,-0.11742197184934547,-0.03355868363471941
419086000000,28,419086000000,FL_wheel_link,0.005635074648014542,0.1845161245552674,-0.5403019283771351,-0.0018254067990247245,-0.0009457995184251756,0.0008242968298659278
419087000000,29,419087000000,FL_wheel_link,1.1670172815836812,-2.96349792447202,2.942758248881219,-0.2364278653871639,-0.11816206166012791,-0.033786986704683525
419088000000,30,419088000000,FL_wheel_link,0.004973835758677103,0.18335722275933905,-0.5388586609875633,-0.0018650025494485797,-0.0009557285558018373,0.0008280835866147757
419089000000,31,419089000000,FL_wheel_link,1.1686374826101535,-2.9867083992750993,2.9667787542580966,-0.23818818276107317,-0.11831710108715052,-0.0338522164127316
419090000000,32,419090000000,FL_wheel_link,0.004199757948807892,0.1823667341186988,-0.5377780235236025,-0.0018974524384835884,-0.0009516804630698392,0.0008383103992861261
419091000000,33,419091000000,FL_wheel_link,1.1654689914011014,-3.0042278668792575,2.982140663739944,-0.23960711545509034,-0.11796389004117763,-0.03377571734973142
419092000000,34,419092000000,FL_wheel_link,0.0033683823856357556,0.18152807046589567,-0.5370860561241408,-0.0019238266737967207,-0.0009367587488141643,0.0008533234728675997
419093000000,35,419093000000,FL_wheel_link,1.1587027754801134,-3.016731357083591,2.989914928008621,-0.24072239424303055,-0.11722939439379457,-0.03359218143302757
419094000000,36,419094000000,FL_wheel_link,0.002525470695733549,0.18082017634320088,-0.5367263300911902,-0.0019454942226118,-0.0009142708432359963,0.0008713976347296253
419095000000,37,419095000000,FL_wheel_link,1.1497174793937415,-3.0256200814858074,2.9924717154367486,-0.241609206274377,-0.1162627359064678,-0.03334233310451282
419097000000,38,419096000000,FL_wheel_link,0.0017155723354352753,0.1802218722018728,-0.5365819496864676,-0.0019638462728973466,-0.0008865914608784694,0.0008907209597864488
419097000000,39,419097000000,FL_wheel_link,1.1397140838872155,-3.032176349661322,2.9919797501174963,-0.24233937557977775,-0.11518806362533626,-0.03306119374352055
419098000000,40,419098000000,FL_wheel_link,0.0009389970072304771,0.17970349566386823,-0.5365595174410762,-0.001979348250673598,-0.0008575494304488197,0.0009102544503358681
419099000000,41,419099000000,FL_wheel_link,1.1295110192395976,-3.0371911507644924,2.9899028474751637,-0.24295282692151898,-0.11409319584924699,-0.03277295659638112
419100000000,42,419100000000,FL_wheel_link,0.00021159046266132006,0.1792463968284401,-0.5365932493651602,-0.0019924016236357507,-0.0008287961283316304,0.0009291610842569824
419101000000,43,419101000000,FL_wheel_link,1.1197203996549692,-3.0413645387234727,2.9874337718383934,-0.24348809182835218,-0.11304262563675327,-0.0324958170998447
419102000000,44,419102000000,FL_wheel_link,-0.00047231466492303475,0.17883517514076985,-0.5366397012246859,-0.0020034028108295854,-0.0008017218005853977,0.0009470602343685572
419103000000,45,419103000000,FL_wheel_link,1.1104862154139332,-3.0449551513319357,2.9850163527143834,-0.24395793859992412,-0.11205371483197386,-0.03223417241345662
419104000000,46,419104000000,FL_wheel_link,-0.0011035675690053912,0.17846522418282695,-0.5366748958598011,-0.0020128821035750896,-0.0007760403585725381,0.0009637265850374216
419104000000,47,419105000000,FL_wheel_link,1.102022098133869,-3.0483506650115304,2.983073808763005,-0.2443917285786109,-0.11114711687599493,-0.03199447224559429
419106000000,48,419106000000,FL_wheel_link,-0.0016884532380619308,0.17812803980286301,-0.5366864075443669,-0.0020210532283859153,-0.0007524599212021767,0.0009790896335811162
419107000000,49,419107000000,FL_wheel_link,1.0942357350145624,-3.0513868914731925,2.9814065458208296,-0.24477798619452673,-0.1103136208278743,-0.031773968078787636
419108000000,50,419108000000,FL_wheel_link,-0.0022265475533467492,0.1778228363513116,-0.5366855368166632,-0.002028051680916169,-0.0007307737937681999,0.0009931713825049818
419109000000,51,419109000000,FL_wheel_link,1.0871499039293897,-3.054268661254983,2.9801924081283113,-0.2451329381888157,-0.10955579872389754,-0.031573427952879596
419112000000,52,419110000000,FL_wheel_link,-0.002719293944134251,0.17754503601190424,-0.5366676475022675,-0.0020341360958757732,-0.0007108168329194919,0.0010060046554216029
419112000000,53,419111000000,FL_wheel_link,1.0806807030891932,-3.0568769045213706,2.979167940921762,-0.24545222392165877,-0.10886400459193964,-0.03139033237658369
419112000000,54,419112000000,FL_wheel_link,-0.0031703344896562187,0.17729395054976524,-0.5366430069242873,-0.002039385779445062,-0.0006925836771262064,0.0010176990411407307
419113000000,55,419113000000,FL_wheel_link,1.0747916391978052,-3.05928329500442,2.9783660236679874,-0.24574239411404664,-0.10823434887162794,-0.03122368494232037
419114000000,56,419114000000,FL_wheel_link,-0.0035827076905392656,0.17706654028900462,-0.536611607958488,-0.0020439335868117966,-0.000676004018755536,0.0010283484263813622
419115000000,57,419115000000,FL_wheel_link,1.0694248374134974,-3.061461206709639,2.977691815623669,-0.24600349776429029,-0.10766070844877818,-0.031071826647569502
419116000000,58,419116000000,FL_wheel_link,-0.0039589310063755,0.17686125382077433,-0.5365779599310672,-0.002047896362322714,-0.0006609020581809491,0.0010380429523504649
419117000000,59,419117000000,FL_wheel_link,1.0645375586522954,-3.06346498986407,2.977193349509769,-0.2462398637041172,-0.10713865985093603,-0.03093350602522637
419118000000,60,419118000000,FL_wheel_link,-0.004300426496344736,0.17667623556832648,-0.5365417424841128,-0.0020513945089820334,-0.0006470687357051165,0.0010468231043727016
419119000000,61,419119000000,FL_wheel_link,1.0601082511006026,-3.065281062877362,2.976734118930734,-0.24645443774053677,-0.10666566077091792,-0.030808295134163787
419120000000,62,419120000000,FL_wheel_link,-0.004611310162765267,0.17650872789940109,-0.5365063877726595,-0.0020544660011006543,-0.0006344420605037679,0.001054854831959443
419121000000,63,419121000000,FL_wheel_link,1.0560673663553457,-3.0669135878219533,2.9763328353779177,-0.24664708250690734,-0.10623409992420013,-0.03069395953172455
419122000000,64,419122000000,FL_wheel_link,-0.004893431243325919,0.17635789686306214,-0.5364732219343415,-0.002057176991664075,-0.0006229634028968424,0.0010621590509801086
419123000000,65,419123000000,FL_wheel_link,1.0524012960832243,-3.0684087486499614,2.976032275841045,-0.24682148220656347,-0.1058424948817026,-0.030590163574854685
419124000000,66,419124000000,FL_wheel_link,-0.005148909869524525,0.17622198983228118,-0.5364400295889449,-0.002059575324033864,-0.0006125729361466253,0.0010687671788160173
419125000000,67,419125000000,FL_wheel_link,1.049104537482112,-3.0697654049318768,2.97572747395457,-0.24698071537960004,-0.10549011451612769,-0.0304969510735567
419126000000,68,419126000000,FL_wheel_link,-0.005382117830342956,0.17609844054105211,-0.5364083284870116,-0.0020617032704194874,-0.000603268050738048,0.0010748290127724279
419127000000,69,419127000000,FL_wheel_link,1.0461239499797905,-3.07098853984938,2.9754664307470993,-0.24712407589650276,-0.10517108931154118,-0.03041256932766078
419128000000,70,419128000000,FL_wheel_link,-0.005594125446284515,0.17598671062681637,-0.5363781976503631,-0.0020635599484465643,-0.0005949783077014811,0.0010803465808152148
419129000000,71,419129000000,FL_wheel_link,1.0434532799133835,-3.0721244664314127,2.975286332897949,-0.24725523337454594,-0.1048850866169477,-0.03033696230112012
419130000000,72,419130000000,FL_wheel_link,-0.005786310992658441,0.17588531668199953,-0.5363474835754188,-0.0020652095626048778,-0.0005875600532590495,0.0010853487255176623
419131000000,73,419131000000,FL_wheel_link,1.0410529315612362,-3.0731691614444516,2.9751661982690107,-0.24737440603803423,-0.10462804127376531,-0.03026901291771578
419132000000,74,419132000000,FL_wheel_link,-0.005960077749440282,0.17579340499511115,-0.5363171329814385,-0.002066701520094835,-0.0005808655219405995,0.0010898726417020916
419133000000,75,419133000000,FL_wheel_link,1.0388955997232827,-3.07413971368785,2.9751023391928424,-0.24748363510016508,-0.10439693903106351,-0.030207951837587812
419134000000,76,419134000000,FL_wheel_link,-0.006117189404330512,0.1757100168136359,-0.5362871070574542,-0.002068047542291533,-0.0005748319343653619,0.0010939648172715254
419135000000,77,419135000000,FL_wheel_link,1.0369540805960733,-3.075038356700884,2.9750816809872243,-0.24758356568426965,-0.10418896571678686,-0.030153004110448793
419136000000,78,419136000000,FL_wheel_link,-0.00625885233020354,0.17563460730431366,-0.5362575484673395,-0.0020692683446393535,-0.0005693665135511645,0.0010976593543832465
419137000000,79,419137000000,FL_wheel_link,1.0352064790162914,-3.0758770295774465,2.9751062577560186,-0.2476754273329598,-0.10400182984091658,-0.030103550404939946
419138000000,80,419138000000,FL_wheel_link,-0.0063862862560482014,0.17556639484157754,-0.5362282289566467,-0.002070379435348529,-0.0005643956180196891,0.0011009877200398523
419139000000,81,419139000000,FL_wheel_link,1.0336376395295686,-3.07665473874047,2.975160361521353,-0.24775972399827273,-0.10383369709164642,-0.03005917639903335
419140000000,82,419140000000,FL_wheel_link,-0.00650142238013203,0.17550433847760472,-0.5361996684051723,-0.0020713629154673245,-0.000559937119161156,0.0011040134150569051
419141000000,83,419141000000,FL_wheel_link,1.0322371905799321,-3.077372657733894,2.975233488471642,-0.24783693177377977,-0.10368331448547195,-0.030019572570344384
419142000000,84,419142000000,FL_wheel_link,-0.006606022107434752,0.1754477289504456,-0.5361720184448252,-0.002072218411379872,-0.0005560122246944281,0.0011067810321272434
419143000000,85,419143000000,FL_wheel_link,1.0309868750592306,-3.0780422293252014,2.975335417912494,-0.24790782015194698,-0.10354905795532482,-0.029984219654496228
419144000000,86,419144000000,FL_wheel_link,-0.006700451539957186,0.1753962974967563,-0.5361448053252106,-0.002072999129580828,-0.0005524856354676394,0.0011092850326141876
419145000000,87,419145000000,FL_wheel_link,1.029869725440328,-3.0786736839051034,2.9754667906358145,-0.24797354492013285,-0.10342902679569885,-0.029952640267902564
419146000000,88,419146000000,FL_wheel_link,-0.006785728773325214,0.17534951848109534,-0.5361178686737305,-0.0020737152543991283,-0.0005493193662893232,0.0011115510085741502
419147000000,89,419147000000,FL_wheel_link,1.0288711192172106,-3.0792671906147775,2.975619441285637,-0.24803439298813157,-0.10332166652820964,-0.029924418706037906
419147000000,90,419148000000,FL_wheel_link,-0.006862731461548251,0.17530698717106108,-0.5360913886277694,-0.002074373147431212,-0.0005464743753986843,0.001113602548213557
419147000000,91,419149000000,FL_wheel_link,1.0279798183527222,-3.079827985204977,2.97579301710951,-0.2480909526365904,-0.10322577042133577,-0.029899236792379106
419150000000,92,419150000000,FL_wheel_link,-0.006932283138417261,0.17526826561261344,-0.5360652627107646,-0.002074978387863452,-0.0005439207289115058,0.0011154610315784982
419151000000,93,419151000000,FL_wheel_link,1.0271847939801582,-3.0803578604724358,2.975983482302696,-0.24814355247149755,-0.10314016423502356,-0.029876781563280087
419151000000,94,419152000000,FL_wheel_link,-0.006995111626873371,0.17523299517484175,-0.536039531793121,-0.002075536078247827,-0.0005416288323132107,0.0011171455668815894
419151000000,95,419153000000,FL_wheel_link,1.0264768269346494,-3.080860604325455,2.9761901051278734,-0.2481926335471285,-0.10306386084291662,-0.029856792106125362
419154000000,96,419154000000,FL_wheel_link,-0.007051883441585187,0.175200824234216,-0.5360141234146788,-0.00207605093899748,-0.0005395736682136896,0.0011186733344891685
419155000000,97,419155000000,FL_wheel_link,1.025847191184432,-3.08133840247004,2.9764106297178614,-0.2482385102129171,-0.10299592936978762,-0.02983902115325063
419156000000,98,419156000000,FL_wheel_link,-0.007103194846819694,0.17517145119463623,-0.5359890298398422,-0.00207652722555348,-0.0005377316162492879,0.0011200598063043216
419157000000,99,419157000000,FL_wheel_link,1.0252882918047153,-3.0817940890987296,2.976644166663834,-0.24828152381904423,-0.10293555736768109,-0.029823253752906332
419158000000,100,419158000000,FL_wheel_link,-0.007149587748694893,0.1751445931201133,-0.5359642017354558,-0.0020769688148412763,-0.0005360819785372355,0.0011213189368453026
419159000000,101,419159000000,FL_wheel_link,1.0247930895475208,-3.082229688951355,2.9768892110966343,-0.24832194665087887,-0.10288199318826946,-0.029809290521840805
419160000000,102,419160000000,FL_wheel_link,-0.007191352470808182,0.17511916786272197,-0.5359363902318882,-0.002077324043739884,-0.0005345716457399496,0.0011225280620906519
419161000000,103,419161000000,FL_wheel_link,1.0243817605461472,-3.0827075656786507,2.977235421014571,-0.24836376311575672,-0.1028371949310156,-0.029797736424937302
419162000000,104,419162000000,FL_wheel_link,-0.14751772659374812,0.3746334328314287,0.14850785390074822,-0.05485739036328004,0.006636835983279028,0.006533697264227076
419163000000,105,419163000000,FL_wheel_link,2.50948970178902,-17.923868933102323,18.417815022505206,-1.4248414044095234,-0.23695943556958,-0.07310139438302393
419164000000,106,419164000000,FL_wheel_link,0.17375992063611065,-0.7264408710711827,0.24138748437748658,-0.12515832043646263,-0.01552958561251748,-0.0047859992244510124
419165000000,107,419165000000,FL_wheel_link,0.6233337854796552,-29.390498837304875,18.266657022135988,-2.7092570371933418,-0.0636474764939341,-0.022802886372275455
419165000000,108,419166000000,FL_wheel_link,-0.31950214840895247,-0.8944818803952583,0.5328198374781715,-0.1252029215472377,0.0014935897214755564,0.015143454584965165
419167000000,109,419167000000,FL_wheel_link,7.195192516546499,-25.31439667076581,21.75953539001746,-2.084231509535269,-0.6593645568249895,-0.2073038956094615
419168000000,110,419168000000,FL_wheel_link,-0.4986382775626846,-1.1057147551857056,0.13888745759367555,-0.09389664642423158,-0.023198212512552628,0.020503377115782796
419169000000,111,419169000000,FL_wheel_link,8.186109977735484,-28.475803783678067,21.866125021470083,-2.469864799750819,-0.8162624704204055,-0.22988201801075164
419170000000,112,419170000000,FL_wheel_link,0.1938869301366019,-0.5212386242730573,0.12048778858806408,-0.04732595034863123,-0.017868508676386764,-0.004704975367742857
419171000000,113,419171000000,FL_wheel_link,1.131916964202568,-14.406061989029897,12.79459566956639,-1.1908907839301288,-0.13670338284222894,-0.03012787061755015
419171000000,114,419172000000,FL_wheel_link,-0.18167114246047944,-0.4153867395107411,0.29304583129746065,-0.04514512206739288,-0.0016459345135433623,0.009905739707182263
419171000000,115,419173000000,FL_wheel_link,2.444156410430175,-13.349437738909627,14.709534526661662,-1.0247716070806026,-0.22990877020668626,-0.06579245300479665
419174000000,116,419174000000,FL_wheel_link,-0.2447679882488129,-0.5291945762213293,0.08806517250886885,-0.048381946086987426,-0.006919135490405171,0.00975225526954768
419175000000,117,419175000000,FL_wheel_link,2.415106144795906,-12.866045073058945,12.082241536951098,-1.0576523187793927,-0.23659254471771307,-0.06397004962669224
419176000000,118,419176000000,FL_wheel_link,-0.102149248299823,-0.3509596118000749,-0.1808344433032912,-0.046165926980618305,0.001284120914485161,0.0061889152902614
419177000000,119,419177000000,FL_wheel_link,2.1441289662903635,-13.94852703331399,10.411188743780576,-1.232215001652862,-0.19223664788549866,-0.05939210971616575
419177000000,120,419178000000,FL_wheel_link,-0.08204782238986802,-0.2800441497927595,-0.14866126174063207,-0.035099381385050386,-0.0011787630537229143,0.005141306098785745
419179000000,121,419179000000,FL_wheel_link,1.6671889783971343,-9.840314762682596,11.294645187266685,-0.7477060257691069,-0.16046875400835625,-0.04232091694986652
419180000000,122,419180000000,FL_wheel_link,-0.10389276637875208,-0.3645487426023509,-0.20349110680755372,-0.0427983138072994,-0.0032194096984750273,0.005440318936796874
419181000000,123,419181000000,FL_wheel_link,2.8998339076690196,-12.020427080822511,11.065612759633611,-0.9919661331591949,-0.28584498145001763,-0.07739816424598857
419182000000,124,419182000000,FL_wheel_link,-0.05362289764347031,-0.34330099252860735,-0.1967980987547298,-0.042889022774539265,-0.0014320025856703125,0.004255294021836896
419183000000,125,419183000000,FL_wheel_link,3.0929136211350334,-13.80201191269652,11.248394796170833,-1.1842140589630232,-0.2980124906689087,-0.08444380306148247
419184000000,126,419184000000,FL_wheel_link,-0.04902570515761892,-0.3179429043670693,-0.1487871016485467,-0.03709611044460917,-0.0037978115366133942,0.003962228099400765
419185000000,127,419185000000,FL_wheel_link,1.857057506450034,-10.138295589034842,12.385145770616104,-0.7400153498917685,-0.17883434847647245,-0.044877510058556516
419186000000,128,419186000000,FL_wheel_link,1.276282989914143,-5.185021774828461,2.5659252478865096,-0.49150833365785507,-0.13910054320420742,-0.036671063217515475
419187000000,129,419187000000,FL_wheel_link,-0.06290307663057665,0.03112388679674986,-0.172539278742518,-0.007128260410753559,-0.0018134707013296235,0.0045118830583297485
419188000000,130,419188000000,FL_wheel_link,2.2340467100644124,-11.926245278863462,12.930694665298212,-0.9256548848345375,-0.2170210538575001,-0.058354720509619415
419189000000,131,419189000000,FL_wheel_link,-0.058324002112610185,-0.4771181750629545,-0.13575463691796513,-0.05004427605353526,-0.006326785986472707,0.004353769712267381
419190000000,132,419190000000,FL_wheel_link,3.610608495229979,-15.257250796294429,11.698251765392724,-1.3297464612103247,-0.35082938898363475,-0.09956309200004769
419191000000,133,419191000000,FL_wheel_link,0.4772874728425255,0.6137742647223402,-0.9731819932656225,0.020807715864666558,-0.012111185256306967,-0.024353711028033173
419192000000,134,419192000000,FL_wheel_link,-0.030622693939791078,0.004495531829725877,-0.04673662729765033,-0.0015097737306123224,0.0018914331420024771,-1.7054520487559414e-05
419193000000,135,419193000000,FL_wheel_link,-0.2758703220405027,0.05934293041716257,0.27341071629739666,0.004515734949220857,0.024957634096726244,0.004445553684016789
419194000000,136,419194000000,FL_wheel_link,0.17302481263167835,0.148406425067324,-0.5721002756394552,0.019476652324051824,-0.02138427261708393,0.001238265558966845
419195000000,137,419195000000,FL_wheel_link,-0.41640642816157614,-0.4072780133674245,-1.2058691353826692,-0.03731689163036034,0.020689808099776996,0.00949198511309281
419196000000,138,419196000000,FL_wheel_link,0.30364408123982256,0.7000883139006537,-1.1824807911724147,0.023189839683361538,-0.016878455246535157,-0.006300501224960271
419197000000,139,419197000000,FL_wheel_link,-0.015760733360419492,0.002870387666902301,-0.0021284843959767027,-0.0003394202918249438,0.000674073157503772,0.0001843470076157611
419198000000,140,419198000000,FL_wheel_link,-0.33436908232145074,-0.21587678362293747,-0.6910323891367113,-0.021689424957315042,0.01461527145691699,0.00900677564185254
419199000000,141,419199000000,FL_wheel_link,2.0394522744915595,-1.5958982683881735,5.267478201683481,-0.052775783902492546,-0.20921615085273054,-0.05498495161862428
419200000000,142,419200000000,FL_wheel_link,1.6852840486709022,-2.7622200637002443,3.5969640975835304,-0.19006660081312263,-0.17350023155411495,-0.04551170335926126
419201000000,143,419201000000,FL_wheel_link,-0.19288432153150886,-0.2896660783606857,-0.5184978005516004,-0.02712910454645044,0.001732859950017528,0.005773537682598081
419202000000,144,419202000000,FL_wheel_link,1.3140777045138587,-1.8147485218665969,6.795269993565013,-0.04843429395449228,-0.12025675032342018,-0.03782473794761885
419203000000,145,419203000000,FL_wheel_link,2.3326870320841584,-3.395638774868253,3.759110218549371,-0.25517754271023046,-0.24373191281167336,-0.06358545528572307
419203000000,146,419204000000,FL_wheel_link,-0.27177082092957927,-0.20326554329047825,-0.2802386685468624,-0.015545302539910632,0.008520178056520729,0.013446814655640063
419205000000,147,419205000000,FL_wheel_link,3.2929166470514053,-4.390356357322638,12.036085747351546,-0.168662320575585,-0.31004136048738457,-0.08979189089418887
419206000000,148,419206000000,FL_wheel_link,-0.052619502446354285,0.07235471319718241,-0.20990668915186553,-0.010027182534596928,0.00016794121661137858,0.00025254627744527767
419207000000,149,419207000000,FL_wheel_link,0.10556729295703093,0.20322135130756636,0.07137617237291481,0.010159429425794966,-0.0025782657890770088,-0.0023567379865154312
419208000000,150,419208000000,FL_wheel_link,1.2265337430832175,-9.742405742945593,12.422620511771452,-0.6700517142746536,-0.12635606719178244,-0.031694510361182385
419209000000,151,419209000000,FL_wheel_link,-0.09459879530199838,0.16615205410861747,1.7541042924932082,0.02252220105384373,0.022209585684465728,0.0018662608292476244
419210000000,152,419210000000,FL_wheel_link,1.2205695580438167,-8.289869997755966,28.179823543425663,-0.06483715339863481,-0.108965428806202,-0.023925113783378717
419211000000,153,419211000000,FL_wheel_link,0.08003512950384706,-0.06799072682042027,-0.016537277358389536,-0.005395302508933966,-0.00888438584029769,-0.0019431558805019815
419212000000,154,419212000000,FL_wheel_link,-0.14890763994300804,0.19506555814089366,0.7903095118526826,0.022056788511762355,0.012976878279663637,0.003324048135373861
419213000000,155,419213000000,FL_wheel_link,2.082443875720396,-9.226245821324538,28.67790676617127,-0.1671209091453974,-0.20506913124633508,-0.05252717303381491
419214000000,156,419214000000,FL_wheel_link,0.1206983978513741,-0.12858070643550434,0.00978206301686687,-0.011767605323679134,-0.013453595711601735,-0.003163837337233373
419215000000,157,419215000000,FL_wheel_link,-0.18923663156502138,0.23556899739265091,0.9013066360117142,0.023583212969854467,0.014431644169668825,0.0031177289499459515
419216000000,158,419216000000,FL_wheel_link,2.5695223714430053,-10.281318147462715,30.65711358536265,-0.22309486194550243,-0.2556029081473362,-0.06655059583265575
419217000000,159,419217000000,FL_wheel_link,0.14566719490632749,-0.14292335831498224,-0.04909653305687518,-0.016914424281381485,-0.017210761959080816,-0.003983003451813011
419218000000,160,419218000000,FL_wheel_link,-0.2168032364480351,0.2593670858104891,0.9483525697329388,0.024088438163207153,0.014572328049944315,0.003357115414722905
419219000000,161,419219000000,FL_wheel_link,2.917754714323025,-10.919339770630847,31.8817044522269,-0.2520108816941132,-0.289957245646144,-0.07599841914326544
419220000000,162,419220000000,FL_wheel_link,0.15718646687842672,-0.1234989056491366,-0.18402546485558466,-0.022565075786202923,-0.021144125277177853,-0.0043771294190847986
419221000000,163,419221000000,FL_wheel_link,-0.2537307519172746,0.29877795688872727,1.0618382503750716,0.026442087040187683,0.015932164196854975,0.0036990864129221586
419222000000,164,419222000000,FL_wheel_link,3.122952645391002,-11.154076080263337,32.22863691474062,-0.2675372083504618,-0.3112307564040496,-0.08245766865894963
419223000000,165,419223000000,FL_wheel_link,0.16574065350956477,-0.13984730970382972,-0.22927674766198314,-0.0243025627422813,-0.02289355112315426,-0.003733022770283247
419224000000,166,419224000000,FL_wheel_link,-0.2717245567114863,0.3183983551618431,1.1086243806347187,0.027368037605526155,0.016437586319340995,0.003871536139410317
419225000000,167,419225000000,FL_wheel_link,3.1516717227704865,-11.247764118803746,32.682942379133266,-0.26430732136767643,-0.3150467540311649,-0.08237443511330839
419226000000,168,419226000000,FL_wheel_link,0.17991818149887934,-0.147302916343877,-0.27775616439747763,-0.02604739243124914,-0.02371244757312391,-0.004934382433267971
419227000000,169,419227000000,FL_wheel_link,-0.28906200086839023,0.3390739130526967,1.1644562346289473,0.0286336426274763,0.017137857524594024,0.004053609136941022
419228000000,170,419228000000,FL_wheel_link,3.196817643611574,-11.218200958310115,32.59469102730132,-0.26307105989021595,-0.3198486847386781,-0.08397278425818504
419229000000,171,419229000000,FL_wheel_link,0.17705931945192205,-0.1483079470928113,-0.2674206223257588,-0.026072803808450666,-0.023751682959532044,-0.004455096369842532
419230000000,172,419230000000,FL_wheel_link,-0.29042435414580897,0.3418575732947049,1.1584901617337902,0.028464083727454452,0.017015979638666447,0.004053084892175881
419231000000,173,419231000000,FL_wheel_link,0.327769574755548,-11.48884651831861,24.026780520757725,-0.5307496178077022,-0.04323974126656788,-0.005415317564564967
419232000000,174,419232000000,FL_wheel_link,-0.09089151885141859,-0.262937495052545,0.04515766819884163,-0.028137503807833347,-0.0007689683773880567,0.004781145772329143
419233000000,175,419233000000,FL_wheel_link,-0.25126243545036564,-6.636328918386578,11.469206867756387,-0.4281766902401787,0.04465902873387004,0.00549209841607818
419234000000,176,419234000000,FL_wheel_link,0.35374224789521835,-5.066596892359184,4.242716845883143,-0.42354484027926587,-0.030266191626206418,-0.009975607003343878
419235000000,177,419235000000,FL_wheel_link,0.16427421384048502,-4.705091122338171,13.592020437911511,-0.1495852648078379,-0.005489359304267125,-0.0036267468481769004
419236000000,178,419236000000,FL_wheel_link,0.47756576416495955,-3.539707603599384,7.754772102605747,-0.16588333286841908,-0.05289162721729252,-0.012427145786803559
419237000000,179,419237000000,FL_wheel_link,-0.4511671595586882,-0.43596258492047735,-1.196871987739327,-0.045188115177908175,0.023147360404669207,0.011408302734450454
419238000000,180,419238000000,FL_wheel_link,-0.1459177131871598,0.1754909722084146,0.5958424878353188,0.021816372584605524,-0.0013196239456535787,0.01090362581183544
419239000000,181,419239000000,FL_wheel_link,-3.920523915098713,-5.612257702478354,2.4273352665640084,-0.5418545708768897,0.4585307334440713,0.10434063761018439
419240000000,182,419240000000,FL_wheel_link,-0.47937079804926314,0.5397734834666953,0.7850126851047584,0.047960411888479465,0.03493317906346041,0.02024062050024098
419241000000,183,419241000000,FL_wheel_link,-0.14013532403913675,-11.692215029827029,16.93799131751887,-0.7762840378495781,0.0700936236233543,0.010282456823911768
419242000000,184,419242000000,FL_wheel_link,-1.142610158869475,-4.702073858633042,15.556082472468779,-0.11033855860436965,0.12922921978068072,0.028005786782908257
419243000000,185,419243000000,FL_wheel_link,-0.019494558394958134,-0.00893417075561895,0.0004607254175562395,-0.0030669209545168934,0.002343381624860967,0.0004321718467462634
419244000000,186,419244000000,FL_wheel_link,-0.7505075700827044,-9.405591918660843,9.470060685706681,-0.7266458294392298,0.08956100557473362,0.018665820099557126
419245000000,187,419245000000,FL_wheel_link,-1.0037335628670119,-4.1222207151457715,12.498379521344477,-0.12275394443518975,0.11201346615822723,0.028603180081530656
419246000000,188,419246000000,FL_wheel_link,-0.004265260292693408,-0.01857807797343626,0.009326280007904033,-0.0030628445262359614,0.0003732374559178833,0.0002797625422297748
419248000000,189,419247000000,FL_wheel_link,0.21909232438841664,-7.9734892042286445,23.285739300958074,-0.20279394637191578,-0.03163092762175988,-0.002093001415182618
419248000000,190,419248000000,FL_wheel_link,0.03747580693255582,-0.13348647746958703,0.07202939845359871,-0.011878312009095617,-0.004146006412570798,-0.0010318733835877713
419249000000,191,419249000000,FL_wheel_link,-1.4869570128574725,-6.069282090677566,11.84751871222202,-0.33991196383046585,0.16614545067484954,0.03819218427249859
419250000000,192,419250000000,FL_wheel_link,0.0020761001247279684,-0.06659033170968691,0.010842747766864703,-0.0071826092908855105,-0.0005273065744401824,0.00017603881764692618
419251000000,193,419251000000,FL_wheel_link,0.2607868566402447,-7.513156286101097,24.557686968861198,-0.12699681786095735,-0.03472750157175519,-0.004056897120624231
419252000000,194,419252000000,FL_wheel_link,0.03875907494567468,-0.1037913977943915,0.07445255351907411,-0.008802755323109066,-0.004187400867975389,-0.0012079360474721757
419253000000,195,419253000000,FL_wheel_link,-0.6466067821008057,-7.282604972497396,13.844026871408886,-0.40931866631509656,0.07217564749949851,0.01552757904247299
419254000000,196,419254000000,FL_wheel_link,0.019263429211281723,-0.08225317604378243,0.05479897457086291,-0.006914127258121183,-0.002160296706511484,-0.00039416268266539154
419255000000,197,419255000000,FL_wheel_link,0.44333248198866837,-7.459172204978597,23.93698617409644,-0.1365371017724949,-0.04589436629751285,-0.011217370388357425
419256000000,198,419256000000,FL_wheel_link,-0.07470034680207688,-0.13590372681365123,0.10002979422669253,-0.010623779089286394,-0.002357236441302618,0.0022167962974946557
419257000000,199,419257000000,FL_wheel_link,-0.10946591599102924,0.15896059640765658,0.5159657193341664,0.01373490959864855,0.007897832976804861,0.0015506198298411446
419258000000,200,419258000000,FL_wheel_link,0.6375258719246388,-11.226142214721792,16.715410881158007,-0.6984348574164825,-0.055625715177641144,-0.014873260275380856
419259000000,201,419259000000,FL_wheel_link,-0.8162990185538384,-4.579810638656053,16.93955265714685,-0.05703885374701759,0.08923824790705819,0.019728025077720368
419260000000,202,419260000000,FL_wheel_link,-0.016017805837517038,0.0025231611894537508,-0.004396369861901055,-0.0026763586888959236,0.00201732649806642,0.00046257429435292706
419261000000,203,419261000000,FL_wheel_link,3.3432479555460266,-8.229044879969049,12.769760076118043,-0.4974274467545809,-0.32281831653688664,-0.0878098551350413
419262000000,204,419262000000,FL_wheel_link,1.0977707991659424,-4.022483222984578,19.864941336861417,0.09390482347744628,-0.13358823543485857,-0.03177755401933862
419263000000,205,419263000000,FL_wheel_link,0.026058256886146883,0.011331641210640212,-0.006738656364424674,-0.0014831235023639406,-0.0029797673888843313,-0.0005144601347635786
419264000000,206,419264000000,FL_wheel_link,3.775142844518613,-8.216794874301401,12.907856324165339,-0.489093812832614,-0.3716467904536495,-0.099363771969042
419265000000,207,419265000000,FL_wheel_link,1.4828180823790822,-4.188027574556386,19.92984025051654,0.08049553905747128,-0.17613814184073484,-0.04177727778501264
419266000000,208,419266000000,FL_wheel_link,0.03789515531636631,-0.002280928667912227,-0.0018173759855288274,-0.0023492891604786756,-0.004284397153521977,-0.0007583514152133901
419267000000,209,419267000000,FL_wheel_link,3.9172488568509563,-8.382624679073047,13.101758249038294,-0.500913512765946,-0.38658288865862006,-0.10318252703304323
419268000000,210,419268000000,FL_wheel_link,1.6315648355756078,-4.338160660430939,19.940900182990532,0.06518471225133128,-0.1918247744441628,-0.04571370269162689
419269000000,211,419269000000,FL_wheel_link,0.043011776264965926,-0.010931231759604714,0.0004973285795263939,-0.0030214257902643118,-0.004816165806834907,-0.0008637356468924741
419270000000,212,419270000000,FL_wheel_link,0.6848484774514145,-8.980133627543099,11.584737323187053,-0.6132352089790643,-0.06960294160168928,-0.018301091052308913
419271000000,213,419271000000,FL_wheel_link,-0.2792130778375932,-4.140069299771888,15.07646271391795,-0.051586675030499095,0.029744796148146062,0.008123215273349011
419272000000,214,419272000000,FL_wheel_link,0.005839147219961126,-0.01801006534854155,0.003709889646814267,-0.0030532242682218768,-0.0004889645201089925,8.601662970452909e-05
419273000000,215,419273000000,FL_wheel_link,0.5251685213477928,-8.935945353179779,12.022993293560699,-0.5971748119444544,-0.05156994469367959,-0.013408232168410854
419274000000,216,419274000000,FL_wheel_link,-0.6865838853957609,-3.7560028000269545,15.061744278484941,-0.013658228520716506,0.07371225510525893,0.01863303517791796
419275000000,217,419275000000,FL_wheel_link,-0.006553029061129213,0.0012948104251014878,-0.0028426748347990926,-0.0017645898203595938,0.0008680688162973513,0.00035634533704540194
419276000000,218,419276000000,FL_wheel_link,0.8189734527671271,-8.335525900262866,12.35683440561021,-0.5213038411787957,-0.08067924712940891,-0.020472685143169432
419277000000,219,419277000000,FL_wheel_link,-0.5164656633436857,-3.549938589695041,16.23740219336678,0.04047365616815497,0.051419104878853754,0.012978099239044508
419278000000,220,419278000000,FL_wheel_link,-0.007246683528971838,0.011888147372138719,-0.006503287418072722,-0.0011136238765303205,0.0009680076264924665,0.000333023217023635
419279000000,221,419279000000,FL_wheel_link,0.8341968071540471,-8.286504240501353,14.040533809897976,-0.4675512397616475,-0.09790922772423011,-0.01902433727176192
419283000000,222,419280000000,FL_wheel_link,-1.029134426536912,-3.141078400700314,15.444979170977764,0.05984340652592002,0.11219142961092939,0.024968597568151982
419283000000,225,419283000000,FL_wheel_link,-0.9682792602963398,-3.2287080457413904,16.065673828179364,0.0682457021448982,0.10262446238175639,0.02454637808171067
419283000000,226,419284000000,FL_wheel_link,-0.02099258277351819,0.02302108423428002,-0.012574962140718592,-0.0002348730120733404,0.002480806692242249,0.0006277997108158426
419285000000,227,419285000000,FL_wheel_link,3.1818178822996526,-7.5814346564891,12.428633016648408,-0.4347993620212369,-0.30743429686907664,-0.08299572543332286
419286000000,228,419286000000,FL_wheel_link,-0.7129928535503051,-4.062791659842119,15.29211800825902,-0.03876746480132754,0.06223684489925638,0.017502233508098094
419287000000,229,419287000000,FL_wheel_link,-0.027596857625941395,0.013079462911366416,-0.09226894851431,-0.003980814780324493,0.001547999874835468,0.001791971117334697
419288000000,230,419288000000,FL_wheel_link,2.8773014314076715,-7.111636547729775,11.27164432070694,-0.42199000397063346,-0.2763187066476792,-0.07513240603068977
419289000000,231,419289000000,FL_wheel_link,0.7407215004202203,-3.7883167249453806,18.75512997053768,0.08784841032230156,-0.09037285355102967,-0.01989497512988221
419290000000,232,419290000000,FL_wheel_link,0.05261089746698527,0.0015664522627209382,0.05212042227261867,0.0008029288784241482,-0.005834346670028414,-0.001200184278843601
419291000000,233,419291000000,FL_wheel_link,1.4881976796470475,-8.652415519251164,13.485139333497962,-0.5162547757953653,-0.15998909995506816,-0.03811629991544253
419292000000,234,419292000000,FL_wheel_link,-0.1736171320233727,-3.6468921028957832,16.24164215929801,0.030523619964356756,0.015275691093831428,0.0028824575691996
419293000000,235,419293000000,FL_wheel_link,0.198094082211105,0.36738207580365095,-0.13698546872964124,0.02792196218047152,-0.019062912549662067,-0.0005164644182043298
419294000000,236,419294000000,FL_wheel_link,-0.2760751381703519,-0.31108969268729103,-1.5151045684542397,-0.03679833122883797,0.012398280662903613,0.0006237623909895974
419295000000,237,419295000000,FL_wheel_link,-0.03222912753487879,0.07580728018608543,-0.046799398423240914,0.004465474222488523,0.003834136746636376,0.0007855918326617785
419296000000,238,419296000000,FL_wheel_link,0.1738380222466145,0.3820214437172234,-0.04357524041942451,0.026446561186261323,-0.01495724876683806,-0.0014947071509893014
419297000000,239,419297000000,FL_wheel_link,-0.1420453824698782,-3.785831769290787,4.244612262165807,-0.2631656897030229,0.015171492161117753,-0.003477855721986046
419298000000,240,419298000000,FL_wheel_link,-3.2588021737708917e-07,-0.045282267941932686,0.031854376180020044,-0.006815971434606098,0.0009118466480950217,0.00010179135128859159
419299000000,241,419299000000,FL_wheel_link,0.1829451773179618,0.36748448124343663,-0.0013321222748021166,0.024287200808445514,-0.013714664165788426,-0.00143584613691785
419300000000,242,419300000000,FL_wheel_link,-0.12969518783722056,-3.909268953981009,3.734428694674353,-0.29261363118142136,0.010149001656082485,-0.0022405708470900586
419301000000,243,419301000000,FL_wheel_link,9.148260512636258e-06,-0.06360527496587834,0.042577241482811,-0.00777093378262266,0.0011081260638560017,0.0002530837881008103
419302000000,244,419302000000,FL_wheel_link,0.19699372620724992,0.35580205373728374,-0.0017771768717554232,0.023527990103202147,-0.013977891795406646,-0.00100990135621852
419303000000,245,419303000000,FL_wheel_link,-0.030947972658259326,-4.314037024450064,4.445581220112623,-0.31686023583554845,-0.00039118069257990107,-0.004068225961514894
419304000000,246,419304000000,FL_wheel_link,0.008980773108484195,-0.07736690680644129,0.05540486047183833,-0.00893798318205724,0.00023595197112061782,9.917711638634922e-05
419305000000,247,419305000000,FL_wheel_link,3.469193018679986,-0.9223713726231682,6.338315193279429,0.0731105550447857,-0.359119802630803,-0.0885764856966119
419306000000,248,419306000000,FL_wheel_link,-0.38305185224262883,-0.4214965047956456,-0.83011505899358,-0.02927803405513188,0.0056804593121983025,0.0070941679795776865
419307000000,249,419307000000,FL_wheel_link,0.38224190029851224,0.7928136789699953,0.2563955134813525,0.0429296902910036,-0.02072843207459945,-0.0045227003171493686
419308000000,250,419308000000,FL_wheel_link,-1.1120816617012022,-1.4752510261043095,-0.4379581344399166,-0.15425460409655753,0.11959293696405664,0.024499894783691044
419309000000,251,419309000000,FL_wheel_link,-0.04491961065343325,0.03991578136641144,0.006548557593381989,0.001320068354881561,0.006894550715150853,0.0015116781738907792
419310000000,252,419310000000,FL_wheel_link,0.14553005353794757,0.38940089538001715,-0.9309550536654216,0.010316116372802208,-0.0035672437802601394,-0.00023750874354651298
419311000000,253,419311000000,FL_wheel_link,0.050028330051245185,0.0774023250496208,0.04413910479194956,0.003248265534038681,-0.0014413685505685618,-0.0002717630570062293
419312000000,254,419312000000,FL_wheel_link,-0.0608114975441314,-8.755963820833408,10.71944079513585,-0.6063417617294764,0.00953542915392147,0.0009484907498005651
419313000000,255,419313000000,FL_wheel_link,5.040403517638717,-0.9006427330447928,5.598010631404414,0.043190030786279116,-0.531719327421815,-0.13105449778932263
419314000000,256,419314000000,FL_wheel_link,3.7234949943174964,-14.032299066520691,20.181922901748,-1.5184024720610898,-0.4054983033178199,-0.007484765779478486
419315000000,257,419315000000,FL_wheel_link,0.13810591773339864,-0.31794142381094104,0.2029696190626961,-0.028391050575329452,-0.01507820683500415,0.0007573004549079822
419316000000,258,419316000000,FL_wheel_link,6.324422322885365,-5.999904149617119,19.218757322717362,-0.6892728948207265,-0.6455572191503417,-0.02118636432652471
419316000000,259,419317000000,FL_wheel_link,-0.3015749574276588,-0.4397998838493574,-0.07535575386038022,-0.03173759214507598,-0.02623570421007034,0.01627412376147783
419318000000,260,419318000000,FL_wheel_link,8.922149139764965,-4.991642200800906,16.08881850875425,-0.5762807308107716,-0.9533573559951539,-0.014607126319524086
419318000000,261,419319000000,FL_wheel_link,-0.2709171190761826,-0.4238671209031072,-0.3729832349036354,-0.031623951110824666,-0.006977123437849682,0.011489511661024918
419321000000,262,419320000000,FL_wheel_link,0.2830409509161926,0.7624576365703701,0.34531805104001145,0.03573451039008797,-0.012069203602727147,-0.006146259901374156
419321000000,263,419321000000,FL_wheel_link,0.8241672728214149,-9.517757944557927,13.90453905424402,-1.0272906787600529,-0.09295055321963025,-5.5384246626169475e-05
419322000000,264,419322000000,FL_wheel_link,0.2674747073682152,0.25602411902307015,0.4720645821429357,-0.0071104171408517165,-0.012815787327817196,-0.0066199564794777056
419323000000,265,419323000000,FL_wheel_link,-0.7334108655347356,-5.983752280797754,4.431536438214048,-0.6580663329068648,0.0699848199363049,0.0015834830918965218
419324000000,266,419324000000,FL_wheel_link,0.22746608905393498,0.312023057578674,0.13669845391133328,0.0071081255809852,-0.0117578317229466,-0.002426293912511648
419324000000,267,419325000000,FL_wheel_link,0.062398664666386994,-3.7457062623575856,4.978655988647599,-0.42807448241521473,-0.011670033781438938,-0.0005902642093716728
419324000000,268,419326000000,FL_wheel_link,-0.004406566079004658,-0.0782787942436464,0.059568762370447906,-0.009458628654562035,0.0015393607674548827,2.080396792196492e-05
419327000000,269,419327000000,FL_wheel_link,3.8146399561341084,-1.6162101472962773,10.177936262188483,-0.19146193718633664,-0.39683058542502236,-0.007380547520536837
419327000000,270,419328000000,FL_wheel_link,-0.40103282858026706,-0.4204679981594206,-0.6210166030275506,-0.02824051039249998,-0.0007961884083886248,0.013204303747048146
419329000000,271,419329000000,FL_wheel_link,0.34848930290580216,0.7684078929164502,0.2235265223350808,0.04037158516779967,-0.01895230828387461,-0.004152913088029347
419329000000,272,419330000000,FL_wheel_link,-0.7056668937683634,-3.523776093390937,1.7807127000698841,-0.41270698116908644,0.0807948041017931,-0.0028484823869831845
419331000000,273,419331000000,FL_wheel_link,-0.02342482946995503,-0.047891679626526885,0.023854639040201974,-0.008204331924177181,0.004319556226447909,-0.00014178345718080152
419332000000,274,419332000000,FL_wheel_link,0.09294005814532252,0.3329472319521098,-0.9503960901744413,0.010370429625969738,-0.003782423680573235,0.0015385839353387583
419333000000,275,419333000000,FL_wheel_link,0.039712378731881603,0.05369035803174728,0.006793784143737317,0.002752505765584831,-0.0016329820404880758,0.0002519591420550736
419334000000,276,419334000000,FL_wheel_link,0.3009756282659328,-8.515793444798224,13.338012103070724,-0.9206855656030357,-0.034987544096336254,0.001105131479601576
419335000000,277,419335000000,FL_wheel_link,0.2972003138822286,0.3161685129903712,0.33671180167231485,0.0021155653094869775,-0.01649444912555574,-0.004660449771570669
419336000000,278,419336000000,FL_wheel_link,-1.6844998522155514,-1.9566878359842539,0.27345595496008634,-0.2019604295089544,0.15401680033013931,0.007939279433053392
419337000000,279,419337000000,FL_wheel_link,0.2410728292712172,0.6760932071735728,0.14521414450058387,0.036381517148852176,-0.010275278225034053,-0.0032535832927933616
419338000000,280,419338000000,FL_wheel_link,-0.10929362608263893,-3.6202822732609237,4.285154749297157,-0.41529214096562733,0.009648756907821299,-0.00251187495548897
419340000000,281,419339000000,FL_wheel_link,0.0012363865530646834,-0.055605138765768364,0.055754171597036564,-0.00846371083691611,0.0011702311495039286,-9.602179587197255e-05
419340000000,282,419340000000,FL_wheel_link,5.042188225158997,-0.9474612729612542,8.963823712436753,-0.10817563968974267,-0.5443507826687038,-0.00373188613094632
419341000000,283,419341000000,FL_wheel_link,-0.3413181086535967,-0.4076975040800961,-0.7423136085473546,-0.029050398282158666,0.005775517421186888,0.009795995172417566
419342000000,284,419342000000,FL_wheel_link,0.36097059416174604,0.7854719555067917,0.22279365982061783,0.040787596881188236,-0.01934231397065151,-0.004345697195032331
419343000000,285,419343000000,FL_wheel_link,-0.6307480009070385,-3.7545415366084507,2.8818629043825172,-0.4382936428500114,0.07765883195058756,-0.0049187204313860845
419344000000,286,419344000000,FL_wheel_link,-0.01622040982671763,-0.055680514135161535,0.03780279047480551,-0.008661028308086247,0.0036804490620413436,-0.0002014467679500824
419346000000,287,419345000000,FL_wheel_link,0.09819812821187773,0.33847600849232495,-0.9474539096086745,0.010632658474664826,-0.003841334041171889,0.0012919205458492345
419346000000,288,419346000000,FL_wheel_link,0.03592179456959529,0.05765642980428766,0.018528572479317666,0.002759986360487329,-0.0013821446672325293,-1.493168811927602e-05
419346000000,289,419347000000,FL_wheel_link,0.12448521012578029,-7.903027765285267,12.014361717687281,-0.8540282254773978,-0.015767148945854792,0.0010761666481632834
419348000000,290,419348000000,FL_wheel_link,0.29499311473863904,0.3247857834921595,0.28288525453631364,0.004180871163656718,-0.016542196672308794,-0.003935540289003233
419349000000,291,419349000000,FL_wheel_link,-1.306080884442837,-3.956873966266553,1.9664552102431054,-0.4237938163619609,0.12011016063732524,0.004573220815414093
419350000000,292,419350000000,FL_wheel_link,0.24204704687457815,0.5838625986644106,0.08886569425332333,0.03216013848367901,-0.012550334835967942,-0.001976778246532435
419350000000,293,419351000000,FL_wheel_link,-0.578361366592238,-6.20033901171171,6.259089729361377,-0.6663989637822466,0.05130139548730672,0.0015701750247722676
419350000000,294,419352000000,FL_wheel_link,2.551483952180977,0.9605015306492944,3.1534304992647884,0.08379457628886572,-0.27416829949281685,-0.0015397602135454446
419350000000,295,419353000000,FL_wheel_link,-0.332025961019744,-0.35215863755326765,-0.8495135578090341,-0.022488054333739217,0.009930205479576806,0.007601771622343392
419350000000,296,419354000000,FL_wheel_link,0.3233297384884599,0.7149198620267808,0.16818074974876362,0.03767625955873774,-0.018849388069806128,-0.004018123151288166
419355000000,297,419355000000,FL_wheel_link,-1.5937588281860928,-5.826305203765262,4.171249637135642,-0.6365507931753852,0.1767934102667831,-0.0019822762924595894
419355000000,298,419356000000,FL_wheel_link,0.20572969753915818,0.3739015165858094,0.08611811489946812,0.010399120481006708,-0.009889247128085137,-0.002577091082848677
419356000000,299,419357000000,FL_wheel_link,-0.9016012162904856,-5.4982644383361,4.804205522811309,-0.5940052624082675,0.09162959721689865,0.0007203943678955396
419356000000,300,419358000000,FL_wheel_link,0.21856463802524956,0.3581644100767285,0.07664078795845657,0.011832684993752195,-0.013079132300682916,-0.0021588223883471673
419358000000,301,419359000000,FL_wheel_link,-0.9393629144330506,-4.859237948315095,3.436024017083506,-0.5247642293714836,0.09214910550517622,0.0015427611810151821
419358000000,302,419360000000,FL_wheel_link,0.21773929493183136,0.35388114133634047,0.02328023143604583,0.014158160512772387,-0.013806134821081615,-0.0014195165235192625
419361000000,303,419361000000,FL_wheel_link,-0.7462905156228485,-4.963495723213135,4.145881593176049,-0.5333807662031741,0.07042028749125176,0.0018162735249216584
419362000000,304,419362000000,FL_wheel_link,0.22093760143539262,0.3527929441960477,0.03386742864417315,0.013903950374035275,-0.014417143554398696,-0.001541398914201925
419362000000,305,419363000000,FL_wheel_link,-0.7803447930432283,-4.812845739474724,3.7427565438114003,-0.5173039119133287,0.07351516271591912,0.0018675089105009632
419364000000,306,419364000000,FL_wheel_link,0.21986199025420555,0.35244454355113597,0.020247287125165006,0.014388561337898658,-0.014467154741285434,-0.001371039164177557
419365000000,307,419365000000,FL_wheel_link,-0.732511751034572,-4.8560779332469295,3.96483808499793,-0.5211564082331398,0.06829342649581693,0.0018564618009720216
419366000000,308,419366000000,FL_wheel_link,0.2203426746892501,0.3522803562511234,0.023213665354810908,0.014228956395596896,-0.014576264732151484,-0.0014069811788035322
419367000000,309,419367000000,FL_wheel_link,-0.7515155674821512,-4.807683069750922,3.8300393872204443,-0.51592380037045,0.07026111312806571,0.001814165624994566
419368000000,310,419368000000,FL_wheel_link,0.21985303995071512,0.3521778192328938,0.017611744659634422,0.014351199620326494,-0.014559861006762731,-0.0013305513572152113
419369000000,311,419369000000,FL_wheel_link,-0.7421913752836149,-4.815653300003448,3.885033640895398,-0.5164328651201693,0.06929157572384684,0.0017659864819292125
419370000000,312,419370000000,FL_wheel_link,0.22008585160512034,0.35211605126825213,0.016753574569840533,0.014296850194327816,-0.014591364767331163,-0.0013099975260247648
419371000000,313,419371000000,FL_wheel_link,-0.7516045465882635,-4.793316137975728,3.8251827337894992,-0.5139154471292577,0.07032023610494703,0.0017119044014876142
419372000000,314,419372000000,FL_wheel_link,0.2201889437608471,0.35208353655312286,0.013025374032502045,0.014343055230838628,-0.014602622819794705,-0.0012506175687410019
419374000000,315,419373000000,FL_wheel_link,-0.750413162105616,-4.787069011910221,3.8221308432197,-0.5130218969710226,0.07023847209517317,0.0016573999402810548
419374000000,316,419374000000,FL_wheel_link,0.22064253296225694,0.3521057034541464,0.010673369537803117,0.014342290930110198,-0.014643597035081331,-0.0012074768077313083
419375000000,317,419375000000,FL_wheel_link,-0.7530892787423684,-4.770719253047884,3.782846080918407,-0.511109229807504,0.07056585048795444,0.001600904940756348
419377000000,318,419376000000,FL_wheel_link,0.2211552907788882,0.352171255407246,0.007422479853483287,0.014376752080534112,-0.014689829936698907,-0.0011525472549153489
419377000000,319,419377000000,FL_wheel_link,-0.8891572531565539,-4.614243467988284,3.683133970043202,-0.4986629611789169,0.08414928189309007,0.0035078305488637634
419378000000,320,419378000000,FL_wheel_link,0.19695712824842915,0.34308774267481884,-0.02347012750416786,0.015223187936241181,-0.012846387853613918,-0.0010906548134606096
419380000000,321,419379000000,FL_wheel_link,-0.8562610745775188,-4.247178264883999,3.2692222769164734,-0.4596033947418513,0.08446915552608514,0.002560049361815347
419380000000,322,419380000000,FL_wheel_link,0.19019091381041806,0.3452112089111511,-0.03673823514306154,0.016052823264904127,-0.01281587877445369,-0.001124198701322268
419381000000,323,419381000000,FL_wheel_link,-0.7109013283656938,-4.307670735398416,3.815270226770722,-0.46389146172804224,0.0685841881506585,0.002468162261975968
419382000000,324,419382000000,FL_wheel_link,2.4630037035154517,1.7389890245341095,2.854223549988647,0.1777249116752737,-0.2706585502491918,0.000302310062091961
419382000000,325,419383000000,FL_wheel_link,-0.2036325770136891,-0.23167476785480445,-0.8743283457294042,-0.017350154177089763,0.00915197266830339,0.0054198380777206985
419384000000,326,419384000000,FL_wheel_link,0.26611325098526994,0.6320598474476266,0.08898543440689921,0.03374132444577868,-0.016761965451164096,-0.0036002392801645286
419390000000,327,419385000000,FL_wheel_link,-1.1876550376677293,-4.905369235433453,4.03141703479639,-0.5337965868138418,0.13178080675775034,-0.0007867770850045683
419390000000,328,419386000000,FL_wheel_link,2.9766199511187716,1.7423649794574632,3.6000873688063324,0.1753857379101072,-0.3263360080045004,-0.0004232308821193829
419390000000,329,419387000000,FL_wheel_link,-0.23232852957686262,-0.3239747103295422,-0.8710959893083416,-0.022156049800015357,0.010029076770406625,0.00402216678260714
419390000000,330,419388000000,FL_wheel_link,0.3046497616394117,0.7195173540066792,0.14985423592702554,0.03692909258908903,-0.017493312428068085,-0.004227658048379442
419390000000,331,419389000000,FL_wheel_link,-1.1044880825359313,-5.375990349701739,4.834433397025586,-0.5846878816434932,0.12401338918847987,-0.0010620882680569682
419390000000,332,419390000000,FL_wheel_link,0.19087582280540852,0.374912707488872,0.06844305047562689,0.01186693595152601,-0.010274910192349506,-0.002555437920189876
419391000000,333,419391000000,FL_wheel_link,-0.7901536379267271,-4.5763023724343626,3.455977050992554,-0.49072733071773733,0.08948707627167515,-0.0011311679929992408
419392000000,334,419392000000,FL_wheel_link,0.21361436082101645,0.4229917128204889,-0.09772144134846038,0.013874411888546302,-0.015357775716612362,-0.0011177495213126423
419393000000,335,419393000000,FL_wheel_link,-0.3062579308877396,-0.16009738934169615,-1.209517828220056,-0.019293408657178355,0.017808164457424933,0.0009386801119641709
419394000000,336,419394000000,FL_wheel_link,0.011313044047736646,0.017714335996690526,0.01221499174427471,0.000497576745240148,-0.00024334862813095434,-7.611081423428193e-05
419395000000,337,419395000000,FL_wheel_link,0.11755028986829946,0.3200483948232102,-1.002971996126266,0.012886117603442918,-0.006337628348265762,0.0008110480430860314
419396000000,338,419396000000,FL_wheel_link,0.9654183106876056,-2.8752267875671027,5.362348478480146,-0.30521842243773856,-0.10612380296672627,0.0006522060630445858
419397000000,339,419397000000,FL_wheel_link,0.03852256974041829,-0.0749765762685562,0.058580169071728125,-0.0071122276648923986,-0.0038016203210749153,0.00013184123838368372
419398000000,340,419398000000,FL_wheel_link,1.0144593966438458,-2.203416445344097,3.787913234937807,-0.26722272335223024,-0.11193897149494686,-0.0018150192357500212
419399000000,341,419399000000,FL_wheel_link,0.020463680520748373,-0.03583687233622332,0.037793530453755095,-0.003940460936279673,-0.0018980494346513873,1.5889978925484182e-05
419400000000,342,419400000000,FL_wheel_link,1.786998678359075,-3.3046934956453544,6.212509815967069,-0.3551344194730844,-0.18036315414949594,-0.004422226384617627
419401000000,343,419401000000,FL_wheel_link,-0.09584205173580282,0.17533718857599573,-0.9218590843486549,-0.007844867924927695,-0.004568563626402231,0.0052056458281297836
419402000000,344,419402000000,FL_wheel_link,-0.0004188908264618719,0.01580451392597322,0.0010672169109620202,0.00014652311278661606,0.00044654228930576724,1.7802603852575215e-05
419403000000,345,419403000000,FL_wheel_link,1.148211014544432,-2.4998190778754,5.385745503997498,-0.29322898975024364,-0.12022343070254682,-0.0012853045003691083
419404000000,346,419404000000,FL_wheel_link,0.017439018931331842,-0.02934044343737592,0.028208077009334552,-0.0031418801373841307,-0.0015805938230215265,5.290663717500121e-05
419408000000,347,419405000000,FL_wheel_link,0.922594269582534,-2.6234200026720416,5.770739933474836,-0.2947706480549315,-0.09859773271330097,-0.0009328428170796987
419408000000,348,419406000000,FL_wheel_link,0.5366020186393645,-1.376841992558009,1.4629266407072103,-0.16495034133616798,-0.05931853633995167,0.0003912765522648548
419408000000,349,419407000000,FL_wheel_link,0.09058445096435006,0.10171048176839073,0.020274293205230384,0.004067247112842546,-0.0060487351011408366,5.0178223913502465e-05
419408000000,350,419408000000,FL_wheel_link,-0.029144348555714128,-7.598084401137241,11.919727251567501,-0.8086835785552315,-0.0015519031040439057,0.0002502606541346028
419409000000,351,419409000000,FL_wheel_link,0.3096531531363791,0.36207801606463114,0.22937917938923275,0.005248170041170337,-0.017432821432450344,-0.002785853155085196
419410000000,352,419410000000,FL_wheel_link,-0.8019140469387755,-0.8047296245885979,-0.7627680038661336,-0.058355261724719464,0.04861310433444236,0.007824762179406555
419411000000,353,419411000000,FL_wheel_link,0.3558109757233259,0.7699990834258583,0.08681247018507587,0.04020299523584837,-0.02063703499514903,-0.002098089186780822
419412000000,354,419412000000,FL_wheel_link,-1.5831645860130543,-5.6436674272289284,3.5367362113022427,-0.6056263412529329,0.16911189710502156,-0.002813454689509047
419413000000,355,419413000000,FL_wheel_link,0.23591658964755402,0.6031657865163405,0.01533734444536454,0.033062323742704014,-0.012139531337922806,-0.0009914610128694387
419413000000,356,419414000000,FL_wheel_link,-1.5411953351616217,-2.997559640815271,1.2085569672703222,-0.3106933371641711,0.1533393540694962,0.0017263526981702217
419415000000,357,419415000000,FL_wheel_link,0.23525077407429273,0.6374995921086799,-0.004151014567533168,0.0360069594797418,-0.012165926425575978,-0.0011702004528942793
419416000000,358,419416000000,FL_wheel_link,-1.3496496723849565,-3.555144913288307,1.7387114686229004,-0.37318674799839957,0.13570985090691207,0.0006717505755043894
419419000000,359,419417000000,FL_wheel_link,0.23341259518713725,0.6052256263209864,-0.01926421955636877,0.034741850903379626,-0.012959539016823644,-0.0009161498858603493
