%time,field.header.seq,field.header.stamp,field.header.frame_id,field.wrench.force.x,field.wrench.force.y,field.wrench.force.z,field.wrench.torque.x,field.wrench.torque.y,field.wrench.torque.z
425145000000,0,425138000000,FL_wheel_link,0.02564745983491523,-2.274406117000021,2.241645407423251,-0.17960537840213475,-0.00012145686376109632,-0.0006973189243012464
425145000000,1,425139000000,FL_wheel_link,0.04333734935311928,0.5732378273857563,6.657730051316134,0.2467884634304654,-0.003104152348294628,-0.0015488582720809135
425145000000,2,425140000000,FL_wheel_link,0.01063471578752509,0.03296835821404921,-0.10974590950146376,0.0062042105089387695,-0.0005964719427858866,-0.0006392209227081421
425145000000,3,425141000000,FL_wheel_link,0.03590167448261061,-4.086022979756539,12.017507495885559,-0.09415871484137772,-0.004162539417640866,-0.0011492486957818664
425145000000,4,425142000000,FL_wheel_link,0.0700902163922914,-1.7026215440009072,1.839381881038459,-0.13014575468542144,-0.008750982642442291,-0.00172734664549299
425145000000,5,425143000000,FL_wheel_link,0.02864561447809133,0.5346465905666096,6.1933528654721535,0.23194092507045963,-0.0020988621276232244,-0.0007438449854626702
425145000000,6,425144000000,FL_wheel_link,0.0033148712843827817,0.030725405821421185,-0.10803590514675981,0.007026856004938327,-0.00048333265569744724,-0.00019007924029722099
425146000000,7,425145000000,FL_wheel_link,0.0019918837658712274,-4.071891271548665,11.996353500606602,-0.09243773900002045,2.019451803567801e-05,-0.0001428702064445904
425146000000,8,425146000000,FL_wheel_link,0.05147556739678849,-1.625971713833825,1.7184405044307745,-0.12565141475380132,-0.00643716404849385,-0.0012482872058214916
425147000000,9,425147000000,FL_wheel_link,0.007632660978601824,0.5804575141781791,6.148346440919543,0.23589600758224624,0.0001844468665083976,-0.00012212337235126443
425148000000,10,425148000000,FL_wheel_link,0.0029783642681877436,0.030330675480702486,-0.11080218416494345,0.007120135609704446,-0.00041947944813919844,-0.00015263368548524886
425149000000,11,425149000000,FL_wheel_link,-0.004161042360955269,-4.045539428791514,11.923780945341097,-0.09149897105376079,0.0007548813019784897,4.023009204925498e-05
425150000000,12,425150000000,FL_wheel_link,0.048132980305843454,-1.6321154190204563,1.7242457571452088,-0.12604841466791777,-0.006059231492859786,-0.0011723213524551203
425151000000,13,425151000000,FL_wheel_link,0.0027106708995154882,0.5894805325784478,6.150644067614894,0.23697684772575622,0.0006740493875432851,1.2396503829436092e-05
425152000000,14,425152000000,FL_wheel_link,0.003269139912219705,0.030234095577125843,-0.11145610078252036,0.0070820757459281874,-0.00040319747037644016,-0.00015988624122640125
425153000000,15,425153000000,FL_wheel_link,-0.004966866422714267,-4.045171998152233,11.913332239361196,-0.09176540848259246,0.0008304003746165342,5.865938581961581e-05
425154000000,16,425154000000,FL_wheel_link,0.046570438343588094,-1.6399003416784819,1.7343923587658643,-0.12654674988554582,-0.005940025559837463,-0.0011364668462790304
425155000000,17,425155000000,FL_wheel_link,-0.0001469268309007843,0.5865199579962175,6.152752404760642,0.23671839792011679,0.0009501879731128593,8.136312489463379e-05
425156000000,18,425156000000,FL_wheel_link,0.003400416835685571,0.030250410754786523,-0.1112760152707376,0.007057027519634714,-0.0003910792660663403,-0.00016635608933589474
425157000000,19,425157000000,FL_wheel_link,-0.005859138627079208,-4.049025314844256,11.917517465004057,-0.09207683083084853,0.000915697996735361,7.808878089656662e-05
425157000000,20,425158000000,FL_wheel_link,-0.05192691300570594,-0.07995023974447651,0.01098009446832229,-0.007330683668461039,0.0013581042605414068,0.0017405023730610095
425160000000,21,425159000000,FL_wheel_link,0.44230563481690216,0.07985994140125388,8.5157285552509,0.24414869183999793,-0.04323156404910636,-0.0119142449603108
425160000000,22,425160000000,FL_wheel_link,-0.003135751068440913,0.007354109266539804,0.033792437092133344,0.006057112626157612,-0.00018402994936519328,-0.0008290334881575738
425166000000,23,425161000000,FL_wheel_link,-0.41406461690086616,-4.9710327072610925,15.532950997529724,-0.08485087202535024,0.04163304313462485,0.012634981982978442
425166000000,24,425162000000,FL_wheel_link,0.03678109415166042,-2.22031923330387,2.199135616570834,-0.1751513189450098,-0.0012438788115181204,-0.0009672384916018517
425166000000,25,425163000000,FL_wheel_link,0.06543067628104515,0.6228630436768523,6.529838296907204,0.24880836022251915,-0.005438860859389313,-0.002138041489613036
425166000000,26,425164000000,FL_wheel_link,0.011746707735984336,0.03477174164780678,-0.11365173215173019,0.006247570077967774,-0.0006144347532386824,-0.0007399028934290601
425166000000,27,425165000000,FL_wheel_link,0.04049192458795425,-4.051916635919433,11.913044343564405,-0.09318820622005515,-0.004748828546017395,-0.0012082402038957204
425166000000,28,425166000000,FL_wheel_link,0.07655854209658974,-1.7058781220578827,1.8338960262260293,-0.1306045537901976,-0.009302211773155336,-0.0019091218546747387
425167000000,29,425167000000,FL_wheel_link,0.041477897423836674,0.5603314136614799,6.151002560276417,0.23362034749743588,-0.00352191597100536,-0.0010561339496406863
425168000000,30,425168000000,FL_wheel_link,0.0037833348114672417,0.030980534977171393,-0.10933980421540673,0.006977950688588296,-0.000527453498853532,-0.00020430145355783983
425169000000,31,425169000000,FL_wheel_link,0.00019962737299983324,-4.0617432084708875,11.91836666909705,-0.09351426999044428,0.00020455039239976325,-8.715862520826921e-05
425170000000,32,425170000000,FL_wheel_link,0.057140784879239015,-1.6291276223850044,1.7145413130114742,-0.12613114617872842,-0.006888175985380586,-0.0014032486666615595
425171000000,33,425171000000,FL_wheel_link,0.020223928228916388,0.6010962653985827,6.102486920929635,0.23690911754235494,-0.0012310947228613978,-0.0004435627305775392
425172000000,34,425172000000,FL_wheel_link,0.0033828048516294645,0.03082887768068661,-0.11131288391627381,0.007073384151302655,-0.00045361737393438033,-0.0001760204574022318
425173000000,35,425173000000,FL_wheel_link,-0.006115981598515674,-4.037920416923665,11.85920672818369,-0.09248195298694693,0.0009530807896288573,9.657925316403776e-05
425174000000,36,425174000000,FL_wheel_link,0.05251823943179945,-1.6322568883867736,1.7176933635573906,-0.12628824484139659,-0.006397470318822561,-0.0012927031221224112
425175000000,37,425175000000,FL_wheel_link,0.013307611082156945,0.6094381491735252,6.102734939176864,0.2378583857055196,-0.0005288188058742566,-0.00025838873895762775
425176000000,38,425176000000,FL_wheel_link,0.00357958912386192,0.030761433534108186,-0.11203938965821938,0.007046574454711038,-0.0004321356547985489,-0.00017969715159958422
425176000000,39,425177000000,FL_wheel_link,-0.008005148449238275,-4.036403449554944,11.846467244995328,-0.09267843178877146,0.0011420718749221431,0.00014298381619216177
425178000000,40,425178000000,FL_wheel_link,0.04984247150413934,-1.639302202875109,1.7272384928845523,-0.12672405359000158,-0.006165331114342622,-0.001227377562096058
425179000000,41,425179000000,FL_wheel_link,0.008650338883847808,0.6074014085289647,6.104925273765203,0.23770100236355407,-6.380936074754096e-05,-0.00014137600426951738
425180000000,42,425180000000,FL_wheel_link,0.003663020301026488,0.030769649352257806,-0.11199978889962857,0.007024497211198139,-0.0004161692951795844,-0.0001833182739470768
425181000000,43,425181000000,FL_wheel_link,-0.009943415450166304,-4.039338896853119,11.847313913003019,-0.09298028444140499,0.0013341994541664626,0.00018975369589831897
425182000000,44,425182000000,FL_wheel_link,0.04715043189617807,-1.6425515728510542,1.7318460805641056,-0.12692507654626234,-0.0059214579683119495,-0.001158700047802579
425183000000,45,425183000000,FL_wheel_link,0.003991766813046582,0.605187755381624,6.1057368348482415,0.23748229838129273,0.00041041777143599467,-2.2446798310893704e-05
425184000000,46,425184000000,FL_wheel_link,0.003632191121490146,0.030781605017557646,-0.11192614341452733,0.0070145238709551985,-0.0003999660077723998,-0.0001830733510611463
425185000000,47,425185000000,FL_wheel_link,-0.01199089916065077,-4.0412610752566565,11.848792258187766,-0.09315076628763677,0.001542823083926101,0.0002417773661130872
425186000000,48,425186000000,FL_wheel_link,0.04456139468847076,-1.6440326138433643,1.7340347759844918,-0.12701376670823644,-0.005675641963820678,-0.0010916773120797215
425187000000,49,425187000000,FL_wheel_link,-0.0004294991646506263,0.6037943411561179,6.1065255995802605,0.2373508488178822,0.000866047148391072,9.252340170255377e-05
425187000000,50,425188000000,FL_wheel_link,0.003543334941362008,0.03078261929473399,-0.11187570309120343,0.007010362346248321,-0.0003841353842857103,-0.0001808188924915459
425189000000,51,425189000000,FL_wheel_link,-0.013743577500182846,-4.042530397689296,11.850877417168824,-0.09323203884826799,0.0017230783896937593,0.0002876835919211366
425190000000,52,425190000000,FL_wheel_link,0.042262591620165435,-1.6448871919031924,1.7352813453824776,-0.1270644227687577,-0.005453785078656667,-0.0010318243627605904
425191000000,53,425191000000,FL_wheel_link,-0.00431924883623469,0.6026438366036775,6.107560404419884,0.23725163618633782,0.0012701905345723075,0.00019451964770467525
425192000000,54,425192000000,FL_wheel_link,0.0034386331791118694,0.030775788340448335,-0.11183151464354821,0.007008911931480243,-0.00037000812768858823,-0.0001779831525220488
425193000000,55,425193000000,FL_wheel_link,-0.015124154071317397,-4.0436074357834215,11.853679081227398,-0.09327196778927388,0.0018653976010460163,0.00032443652253308364
425194000000,56,425194000000,FL_wheel_link,-0.05280445879130477,-0.0802793756248611,0.010338974943120525,-0.007358817644261513,0.0014102561458616595,0.0017552839477621093
425195000000,57,425195000000,FL_wheel_link,0.44533605608379845,0.07803453428773277,8.494774567342354,0.243455352751689,-0.04332492213487596,-0.012022126233327896
425196000000,58,425196000000,FL_wheel_link,-0.004518986090856683,0.0127094613339792,0.03949614431117193,0.006077179142188308,-0.00023995472661697635,-0.0007740846161020604
425197000000,59,425197000000,FL_wheel_link,-0.13720482204926987,-3.432390415071192,9.815318981130158,-0.08359896555651679,0.014723136118184411,0.004140157270531156
425198000000,60,425198000000,FL_wheel_link,0.0730974951494735,-1.8780016037628742,2.1291151500288557,-0.1396449472926029,-0.006860441254731869,-0.0017286989065726831
425199000000,61,425199000000,FL_wheel_link,0.009807323194275352,0.7504228655421583,6.289819342638289,0.2573224313240278,-4.090902463110835e-05,-6.469333343933625e-05
425200000000,62,425200000000,FL_wheel_link,0.006488105124214818,0.03146556333659441,-0.11682329269387035,0.0065296290644499405,-0.0004152891622339265,-0.00031508540946092084
425201000000,63,425201000000,FL_wheel_link,0.001602367402215421,-4.010662276049777,11.73814150137268,-0.09356093323105291,9.176318475169476e-06,-3.5001525332638284e-05
425202000000,64,425202000000,FL_wheel_link,0.06496115386634749,-1.6895381328144048,1.7888449291532198,-0.13019608766103824,-0.0076047021027014425,-0.001617400159968559
425203000000,65,425203000000,FL_wheel_link,0.033740154009155976,0.598781358524338,6.13475184060607,0.23736318124049147,-0.002686452702165665,-0.0007880134554177614
425204000000,66,425204000000,FL_wheel_link,0.005084002128870656,0.03192178594793903,-0.11012939624759266,0.00699202760063339,-0.000524145373738019,-0.00022175406441867358
425205000000,67,425205000000,FL_wheel_link,0.0006560692439001592,-4.048252213493598,11.8632899440647,-0.0935807891971118,0.00015824702035607818,-8.729576192294253e-05
425206000000,68,425206000000,FL_wheel_link,0.06104097298730882,-1.6349618488550557,1.7275861301874205,-0.12627940426962314,-0.0073358311170010695,-0.0015134111930718563
425207000000,69,425207000000,FL_wheel_link,0.028667710402802582,0.6092811070956072,6.090131796727001,0.23744483239634878,-0.0021680824098014445,-0.0006855839395718821
425208000000,70,425208000000,FL_wheel_link,0.004770006132105181,0.03188577831503452,-0.11192179624654666,0.007058651515815445,-0.00048551797581865676,-0.0002324690901937444
425209000000,71,425209000000,FL_wheel_link,-0.0029573569902519026,-4.034709279156556,11.833342825898674,-0.09283397016804712,0.0005460226118284839,7.779728218785913e-06
425210000000,72,425210000000,FL_wheel_link,0.055852897247471556,-1.63776119062452,1.729258670316263,-0.12648345107630007,-0.006806321917251695,-0.0013852029709030466
425211000000,73,425211000000,FL_wheel_link,0.01954831218343689,0.6137149182031152,6.088206913992813,0.23791401541891988,-0.0012259080540989037,-0.0004394142878298545
425212000000,74,425212000000,FL_wheel_link,0.004492134292237162,0.03150703090929126,-0.1126663338334017,0.007029219689169395,-0.00044906868334804867,-0.0002228276088331784
425213000000,75,425213000000,FL_wheel_link,-0.007141575500831943,-4.034411468890369,11.821940777944121,-0.09312214820132612,0.000992138861585612,0.00012270042116325694
425214000000,76,425214000000,FL_wheel_link,0.051227831298371496,-1.643556994983252,1.733084188898236,-0.12698228304956488,-0.006326774674860536,-0.0012680248329119802
425215000000,77,425215000000,FL_wheel_link,0.011560787524038219,0.6117423015547621,6.090404516452013,0.23776886851968768,-0.00040250068866241884,-0.00022332272404177247
425216000000,78,425216000000,FL_wheel_link,0.004196195871930309,0.03125095395693761,-0.11255370646242929,0.007006602310816439,-0.0004206890692189211,-0.00021052508608123994
425217000000,79,425217000000,FL_wheel_link,-0.010698646569005765,-4.037962022031113,11.823187449803736,-0.09348663639461893,0.0013751530242560456,0.00021677119949152154
425218000000,80,425218000000,FL_wheel_link,0.0474424090211909,-1.6459631407210245,1.7342619876120973,-0.12721003149889912,-0.005941545623444254,-0.0011702435995689358
425219000000,81,425219000000,FL_wheel_link,0.005219359462679707,0.6095260435756432,6.091624062677652,0.237562887114458,0.00025237933383075173,-5.42632430677089e-05
425220000000,82,425220000000,FL_wheel_link,0.0039522083597977615,0.03112287893447105,-0.11239076242153251,0.006997678981921865,-0.0003992123344305552,-0.0002011019174616388
425221000000,83,425221000000,FL_wheel_link,-0.013415090740587665,-4.04038921690414,11.826062916299335,-0.09367905238916412,0.0016651583225847505,0.0002873006562367497
425222000000,84,425222000000,FL_wheel_link,0.044424522176969794,-1.6468393820957545,1.7348067984516007,-0.12729024566103656,-0.005639949891361934,-0.0010915735181919826
425223000000,85,425223000000,FL_wheel_link,0.00020002301049293347,0.6080379706019672,6.092670403321542,0.23742847163284672,0.0007723712357946694,7.839367014288688e-05
425224000000,86,425224000000,FL_wheel_link,0.0037604192789452394,0.03105249579253839,-0.1123071966618523,0.00699510352637429,-0.000382754531569537,-0.00019390035092987294
425225000000,87,425225000000,FL_wheel_link,-0.015482006095082879,-4.041742544909789,11.828577623074867,-0.09376261330989621,0.0018835016398254315,0.0003405433795131557
425226000000,88,425226000000,FL_wheel_link,0.04201817979067202,-1.6472444247111482,1.7353338421726716,-0.1273176501546434,-0.005402152897921335,-0.0010285465351956014
425227000000,89,425227000000,FL_wheel_link,-0.003827750323241119,0.6069162414020315,6.093903286829996,0.2373376350775976,0.0011909393363873644,0.00018442754550017544
425228000000,90,425228000000,FL_wheel_link,0.003604738112852354,0.031002500085125947,-0.11226213378306185,0.0069949716370352015,-0.00036993015417855933,-0.00018790882233609525
425229000000,91,425229000000,FL_wheel_link,-0.017084516382468218,-4.042654769581302,11.830976655031632,-0.09380102683904562,0.0020520646388270947,0.0003815257378601434
425230000000,92,425230000000,FL_wheel_link,0.04009388066277875,-1.6474526088835066,1.7358216258559858,-0.12732409208937528,-0.005213263030686623,-0.0009779748163135588
425231000000,93,425231000000,FL_wheel_link,-0.007079495993685958,0.6059011875406941,6.095294614136565,0.23726219523920022,0.0015299413080896718,0.0002698306877258697
425232000000,94,425232000000,FL_wheel_link,0.0034740913921787447,0.030959879614997902,-0.11222716720137854,0.00699600299882062,-0.0003598838070636751,-0.0001826279077902097
425233000000,95,425233000000,FL_wheel_link,-0.018336404841934772,-4.043417022275397,11.833441014029562,-0.09382126867383267,0.0021839273282362737,0.00041323110891344425
425234000000,96,425234000000,FL_wheel_link,0.03855598167816521,-1.6475366943487764,1.736223498554837,-0.12731963070527608,-0.0050630915966048615,-0.0009374429295866439
425235000000,97,425235000000,FL_wheel_link,-0.009706458044826727,0.6049124048786442,6.096775811391984,0.23719196245998037,0.0018047482679563187,0.0003386777002282442
425236000000,98,425236000000,FL_wheel_link,0.003362618508373069,0.03091999714643087,-0.112194562754527,0.006997683198519496,-0.00035203895045915696,-0.00017784906840055638
425237000000,99,425237000000,FL_wheel_link,-0.019313362707575,-4.044120208406699,11.835970171528844,-0.09383329203308322,0.0022873552400084138,0.00043764568446779447
425237000000,100,425238000000,FL_wheel_link,0.03733091554950807,-1.6475394536753196,1.7365439815155537,-0.12730896453177898,-0.004944122159206289,-0.0009050727574028434
425239000000,101,425239000000,FL_wheel_link,-0.01182821193610617,0.6039392825169954,6.098309713726206,0.23712495250049323,0.0020275122753140445,0.0003941595849779097
425240000000,102,425240000000,FL_wheel_link,0.0032667673721970426,0.03088116158372265,-0.1121627829903813,0.006999687896272625,-0.000345930150901755,-0.00017349198226455605
425241000000,103,425241000000,FL_wheel_link,-0.020068474459274732,-4.044796211095051,11.838541842301833,-0.09384117402797146,0.002367935273065107,0.00045618501494452957
425242000000,104,425242000000,FL_wheel_link,0.03635848885780202,-1.6474925515437264,1.7368019759749396,-0.12729497819691615,-0.00485031032683049,-0.0008793135168281814
425243000000,105,425243000000,FL_wheel_link,-0.05823741233750068,-4.748470852296058,11.536836374145954,-0.2971174961845757,0.006944309057041409,0.0014600493063588425
425246000000,106,425244000000,FL_wheel_link,0.10184033421105809,-9.622176169020282,9.094967694888282,-0.8567223806089764,-0.011780582828766317,-0.0027000136519895607
425246000000,108,425246000000,FL_wheel_link,0.09688994261525785,-15.72626082926255,13.311882510409669,-1.4089844332810564,-0.009331397572848843,-0.0030108863981987213
425247000000,109,425247000000,FL_wheel_link,0.09191332783685713,-14.969088238307574,12.756744536864307,-1.3181305033654087,-0.00992683813176043,-0.0027415170290389715
425248000000,110,425248000000,FL_wheel_link,0.08776535237451633,-11.030227132675389,9.706401940555413,-0.9228799689088061,-0.008833522399354476,-0.0025048463465394896
425249000000,111,425249000000,FL_wheel_link,0.0704979015073035,-7.435672396922696,6.992158797498254,-0.6058147672976406,-0.007114778080469342,-0.001954196229333051
425250000000,112,425250000000,FL_wheel_link,0.05098827785986204,-6.454756837577394,6.293243280723869,-0.5179678769466587,-0.005268549147278756,-0.0014904568067441795
425251000000,113,425251000000,FL_wheel_link,0.058303792417217615,-5.830567522388592,5.827862968171285,-0.462300089827616,-0.006035002111674265,-0.001674697185309007
425252000000,114,425252000000,FL_wheel_link,0.04553970490203074,-5.621909859515753,5.69728465702737,-0.44281143343820384,-0.004821868447508898,-0.0012922183166360207
425253000000,115,425253000000,FL_wheel_link,0.03728674526841491,-5.5482991794564285,5.645502430504608,-0.4359265413458264,-0.003925857444557562,-0.00105995424125227
425254000000,116,425254000000,FL_wheel_link,0.03193101866448922,-5.539152406692358,5.64331770758608,-0.4347504118348101,-0.0033488685326301393,-0.0009096013725243615
425256000000,117,425255000000,FL_wheel_link,0.02931750109172171,-5.547202488531962,5.653206511368955,-0.43515474070924437,-0.003056388140222799,-0.000837112311891583
425256000000,118,425256000000,FL_wheel_link,0.02748562261252241,-5.558287166570736,5.66688472604603,-0.4358245044925383,-0.0028616555055138437,-0.0007849218176699882
425256000000,119,425257000000,FL_wheel_link,0.026135289970274922,-5.567294897827535,5.679260675630822,-0.43633771984854985,-0.0027200726468967484,-0.0007459116426874954
425257000000,120,425258000000,FL_wheel_link,0.025099891164450217,-5.573564655677815,5.689593237442848,-0.43663740323203487,-0.002613411287526124,-0.0007157654909341858
425259000000,121,425259000000,FL_wheel_link,0.024386135188238622,-5.576975391734908,5.697663892114662,-0.4367109917360624,-0.002540216439676085,-0.0006946421774461607
425260000000,122,425260000000,FL_wheel_link,0.0239994641798571,-5.577836357032012,5.703721152453137,-0.436580124142273,-0.0025013411822838727,-0.0006826523003727256
425261000000,123,425261000000,FL_wheel_link,0.023809124220602218,-5.576547636319748,5.7080228211590605,-0.43627748119905807,-0.0024827968108108722,-0.0006763654484757894
425261000000,124,425262000000,FL_wheel_link,-0.20707453154933964,6.596539098364394,9.384081297580025,0.961706434869813,0.02221777485424775,0.005757614482569423
425262000000,125,425263000000,FL_wheel_link,0.04414953772607545,0.20516321273398108,-0.5880341260012036,0.02788745553911169,0.002521721383910663,-0.0022581643949552755
425264000000,126,425264000000,FL_wheel_link,-0.058127862294942864,-0.21784454435355338,-0.4657955639939264,-1.2079841848519624e-05,-0.007431714547564523,0.00396012767010892
425264000000,127,425265000000,FL_wheel_link,-2.287711891389171,0.5247851210068364,5.226818343387848,0.22458926258952394,0.2397674393650352,0.05992413980271031
425266000000,128,425266000000,FL_wheel_link,-0.0555998861957695,0.02970055156439428,0.02157401780169385,0.006085462370182067,0.011218492961377778,0.001971297310151979
425269000000,129,425267000000,FL_wheel_link,1.7813012198336573,-2.2790587282114583,16.917822876183475,0.234403464583556,-0.17535905832007093,-0.04795019120505521
425269000000,130,425268000000,FL_wheel_link,0.07705610067576824,0.028959771913133547,-0.011902016973910336,0.0024973736635552192,-0.009032920383557644,-0.0023441094753782242
425269000000,131,425269000000,FL_wheel_link,-1.0219299891829372,-0.3958052358056423,10.750796804399787,0.2621033795847891,0.09943851370854415,0.026980490003223907
425270000000,132,425270000000,FL_wheel_link,0.019788122569048605,0.02415387331019913,-0.39513185433008724,0.003323134813152195,0.0003047325350349396,0.0006236690134956033
425271000000,133,425271000000,FL_wheel_link,2.9236866615023107,-4.962502413300733,7.196307482178909,-0.31194098047391533,-0.2974270795725375,-0.07766821961978077
425272000000,134,425272000000,FL_wheel_link,0.05628237776437703,0.1373340363723219,-0.6031551964365638,0.007061685115334213,-0.0008072536624161388,-0.0018685404866777343
425273000000,135,425273000000,FL_wheel_link,2.311461937233477,-1.748871806102841,5.076749893416633,-0.03213462811088792,-0.24271068728763662,-0.061354459882527725
425274000000,136,425274000000,FL_wheel_link,-0.044006686906464795,0.12894313653964556,0.5538355697537964,0.012119762365280135,0.001934304787564324,-0.0005036499479690811
425275000000,137,425275000000,FL_wheel_link,0.7054082588173431,-4.1422052952245405,13.286486680311606,-0.03663845813274913,-0.07589252748497777,-0.015431474736343547
425276000000,138,425276000000,FL_wheel_link,-0.0005195059525310679,0.06186404519292803,-0.041240272718771905,-0.002762135688496152,-0.0037161294005929758,-0.0016296550902723322
425277000000,139,425277000000,FL_wheel_link,-0.03530645896582714,0.10120310849923875,0.3353554425607238,0.010824980183298586,0.007976448770207312,2.548063156976592e-05
425278000000,140,425278000000,FL_wheel_link,1.4476780635460975,-3.015522919532337,9.191635999934594,-0.0445457672363573,-0.14722606233357932,-0.038619814521819645
425279000000,141,425279000000,FL_wheel_link,0.015046406462935778,0.006994642897833428,0.2130806958379684,0.006397873321471415,-0.0013759054539849084,4.1451429598538675e-05
425280000000,142,425280000000,FL_wheel_link,1.747431891082818,-3.1469163625136143,6.602997002296309,-0.12684255817061693,-0.17348665908819144,-0.04470673083488809
425281000000,143,425281000000,FL_wheel_link,0.5755758715060175,1.2767105232908469,6.518528892484677,0.3205550705504599,-0.06941836580904162,-0.015831881954591787
425282000000,144,425282000000,FL_wheel_link,0.044172016698112895,0.03290544689451244,-0.436204073027483,2.4309795209438365e-05,-0.000711561309149892,-0.0005545332264489217
425283000000,145,425283000000,FL_wheel_link,3.6284856459933605,-5.999320551937261,8.383346885248333,-0.38917400796212287,-0.36987274106073603,-0.09662984831127545
425284000000,146,425284000000,FL_wheel_link,0.07575529981630122,0.10591380160268665,-0.4487920271906539,0.005897321886207996,9.031655375108579e-05,-0.0015385258112406675
425285000000,147,425285000000,FL_wheel_link,1.9313499322161123,-2.0460977404915535,6.565235611199593,-0.026793927967616385,-0.19213936542301946,-0.050392783420272175
425285000000,148,425286000000,FL_wheel_link,0.895217743653264,-1.5679175752976569,13.126023696704939,0.19509039712586113,-0.10612094353812601,-0.02437350466075012
425287000000,149,425287000000,FL_wheel_link,0.016763103286684386,0.05621436239602139,0.09044373879902327,0.0062109622971704085,-0.0012592126553504315,0.00021945808408933382
425288000000,150,425288000000,FL_wheel_link,0.9279337704661363,-5.767297143071131,23.49300975470141,0.05742442618274196,-0.096556300855986,-0.02113814061901524
425289000000,151,425289000000,FL_wheel_link,1.248811365063699,-1.3272069238357427,1.2534778907476376,-0.10375745255549766,-0.13362866304049625,-0.03399550827022042
425290000000,152,425290000000,FL_wheel_link,-0.3841208197701523,-1.8233151995296746,14.794029474796684,0.19964727040049057,0.04966194605402095,0.008560058839850077
425290000000,153,425291000000,FL_wheel_link,0.021652070281318284,0.055138098702578596,0.006564429324114767,0.0054650836475151855,-0.0017364970814200155,-0.0005316137320436501
425292000000,154,425292000000,FL_wheel_link,0.8148825874383923,-4.94261368816716,23.84922851625995,0.14614230484612278,-0.08129920170614185,-0.019443098713163107
425293000000,155,425293000000,FL_wheel_link,-0.3782338525914123,-0.46016311244855623,-0.9508015436681849,-0.03407093170568467,0.015634364464912412,0.006230073006781633
425294000000,156,425294000000,FL_wheel_link,0.4184477074403167,0.785202520160412,0.1414159769055815,0.043902207091738324,-0.023562165150303398,-0.0033734782886761074
425295000000,157,425295000000,FL_wheel_link,-0.8551406773418808,-10.341486558336179,10.591517247329282,-1.1330670188948797,0.10912189654334237,-0.006424624081087085
425296000000,158,425296000000,FL_wheel_link,0.23329126468432157,0.2601808215044887,0.15113309150132542,0.0066905812135674755,-0.013614134438390059,-0.0024640476589867957
425297000000,159,425297000000,FL_wheel_link,0.1768642613104725,-6.739853185575011,9.238586568776423,-0.7200408580740013,-0.03394886674735581,0.0028115764396031417
425298000000,160,425298000000,FL_wheel_link,0.2402155276379989,0.28126517648475174,0.181269930872485,0.0062442339825876025,-0.01552232321050407,-0.003549799218571895
425299000000,161,425299000000,FL_wheel_link,-0.930448758077,-4.60069884088411,3.086032710416854,-0.4967069134776843,0.08634772396982188,0.0023751991666279403
425300000000,162,425300000000,FL_wheel_link,0.20318468706947612,0.33677076363578773,-0.023797357865167682,0.014923345020609623,-0.013562860615802346,-0.0013943360747436136
425301000000,163,425301000000,FL_wheel_link,-0.8148223349491099,-4.733965843046909,4.43764153827933,-0.5052718241106571,0.07499846044695133,0.0022775607672307855
425302000000,164,425302000000,FL_wheel_link,0.1977343658152917,0.3249717012331167,-0.01568728975004372,0.016238614106303464,-0.01348567823434166,-0.0018446343329820629
425303000000,165,425303000000,FL_wheel_link,-1.7060589582690442,-2.1071287375996306,0.2449958554936783,-0.2185768706305186,0.16669204923102088,0.004390804085272506
425304000000,166,425304000000,FL_wheel_link,0.14690152714454274,0.5099091374487037,0.04035312627498165,0.03873497041155715,-0.004103612315995032,-0.003130105620908443
425305000000,167,425305000000,FL_wheel_link,-1.2172442514766946,-2.619457294394394,6.031374567085521,-0.2681366068672845,0.11927695974720079,0.006805504566341847
425306000000,168,425306000000,FL_wheel_link,0.09320458034011418,0.2670032429227026,-0.14603950405966037,0.016722772208039246,-0.00682103978701051,-0.0012278131525255008
425307000000,169,425307000000,FL_wheel_link,-1.199602170576158,-3.879221021530499,2.7814377408766804,-0.41862175073768876,0.12908955960734936,-0.0007570324240575212
425308000000,170,425308000000,FL_wheel_link,0.18637140219978987,0.34280210163466446,-0.07875599289772806,0.01786612976413812,-0.009412113660684084,-0.0043797423664292965
425309000000,171,425309000000,FL_wheel_link,-1.2885442533184182,-3.348178227667294,2.053363582649502,-0.35723403719906555,0.12897058640635028,0.0017926184041696198
425310000000,172,425310000000,FL_wheel_link,0.8369801901059946,3.063197060993964,5.570308537570538,0.33458298109517404,-0.10020113992393795,0.0032647099141803193
425311000000,173,425311000000,FL_wheel_link,-0.1705847188448363,-0.13857465315843812,-0.6734310199594499,-0.0055295999219619925,0.009396385181506045,0.004639911693607984
425312000000,174,425312000000,FL_wheel_link,2.290383724148435,1.5626332086826422,4.677289185125877,0.16094223660797607,-0.2483203411436795,-0.0014509710406243538
425313000000,175,425313000000,FL_wheel_link,-2.327360236035199,-2.540712068580431,1.6565524556491424,-0.2842787284160625,0.25813451822750744,0.0010281749377233983
425314000000,176,425314000000,FL_wheel_link,0.06609079508630422,0.24323144153671006,-0.12460390779524147,0.013507682370378103,-0.0037488794058649962,-0.001296357183815214
425315000000,177,425315000000,FL_wheel_link,-0.6626107309082441,-5.09792760619119,6.363334419690855,-0.5466379863073855,0.07403694479627157,-0.001335838643762105
425316000000,178,425316000000,FL_wheel_link,0.11353902100185523,0.29788726727406545,0.2355525295944471,0.01876603356251489,-0.004327179180493139,-0.0033546775443060147
425317000000,179,425317000000,FL_wheel_link,-0.9328482140109693,-3.2543252411585937,3.4240557569679013,-0.34439896535351916,0.0977668739020218,0.000327015575980796
425318000000,180,425318000000,FL_wheel_link,0.20563358285804437,0.2934610336082979,-0.13952887466238292,0.018667611680985262,-0.00932598619410219,-0.0037921196158409226
425319000000,181,425319000000,FL_wheel_link,-0.8812176049646483,-3.4848125911537435,3.3730124972318456,-0.36737641290162243,0.08229449282711726,0.0024876920427811516
425320000000,182,425320000000,FL_wheel_link,0.16995108687879146,0.2698519963054843,-0.057404979445585,0.01955550145815241,-0.008734681816598745,-0.0019628853492585164
425321000000,183,425321000000,FL_wheel_link,-0.8651895804909104,-3.609112923901085,3.975775762834468,-0.37988477288353295,0.08110696794652644,0.002550522126673343
425322000000,184,425322000000,FL_wheel_link,0.16853017537090298,0.26149722551974086,-0.057421324026007144,0.018550847154172857,-0.008608615436664906,-0.0019206511978306238
425323000000,185,425323000000,FL_wheel_link,-0.8821002051690874,-3.6581823488281158,4.025501025985392,-0.38546603079398395,0.08264482620033317,0.002579172337157114
425324000000,186,425324000000,FL_wheel_link,0.1590227261061324,0.25350642224663567,-0.04292356106505628,0.018256333329952745,-0.008061781393451432,-0.001648104973904635
425325000000,187,425325000000,FL_wheel_link,-0.8430551240305844,-3.7725497675620563,4.417722502161901,-0.39738202388990107,0.07881640588758296,0.0024916069059829574
425325000000,188,425326000000,FL_wheel_link,0.14773844962445642,0.24529553192372533,-0.01569145936470329,0.017783108959261953,-0.007519934709556619,-0.001442122040657844
425327000000,189,425327000000,FL_wheel_link,-0.7933086381198482,-3.837034454307641,4.732667471755097,-0.4039879320067562,0.0740315122722755,0.002348623585577971
425328000000,190,425328000000,FL_wheel_link,0.127568109317778,0.23069113640012232,0.02315813825595253,0.017160594557600564,-0.006551637756550772,-0.0010327319866307594
425329000000,191,425329000000,FL_wheel_link,-0.7208400216062447,-3.9728971514193088,5.256495787319746,-0.41839341060102275,0.06751811266135607,0.0020795331639320135
425330000000,192,425330000000,FL_wheel_link,0.10790337312949522,0.21995180996912456,0.07076157443055413,0.016663786240489635,-0.00555655942405828,-0.0007305589218266202
425331000000,193,425331000000,FL_wheel_link,-0.6392164504810409,-4.0817704017126,5.762392832529784,-0.42972730444532925,0.06012370057508806,0.001779235729413537
425332000000,194,425332000000,FL_wheel_link,0.09038271336995833,0.2088820419656704,0.11328641484438468,0.015999503469537157,-0.004639810720309034,-0.000527819464884504
425333000000,195,425333000000,FL_wheel_link,-0.5516260646858147,-4.185724509409244,6.253910830145105,-0.4405779097065371,0.05196906037376797,0.0015079928686672246
425334000000,196,425334000000,FL_wheel_link,0.07772361379598987,0.20822469547320221,0.16153585690790145,0.015566610588249787,-0.00383200453686166,-0.000547617177831809
425335000000,197,425335000000,FL_wheel_link,-0.47060077357636376,-4.298535257831237,6.794455785643486,-0.4519304134800456,0.044177725751963215,0.001345649443856711
425336000000,198,425336000000,FL_wheel_link,-0.013270142680844796,0.06684139481958459,0.08285197080471049,0.013917780385940118,-0.0036854153758952863,0.0023952579463282484
425337000000,199,425337000000,FL_wheel_link,-0.6269084024543943,-4.053409529509835,5.7178250570024,-0.4318701024035163,0.0667261078193529,-0.00027549277104304236
425338000000,200,425338000000,FL_wheel_link,0.057885916836436846,0.18914200138665366,0.1857717979475215,0.012735757294740246,-0.0016681322994002885,-0.0010306417555795266
425339000000,201,425339000000,FL_wheel_link,-0.43429827310279645,-5.10498849455196,8.387981675364175,-0.5395204608573465,0.04319632765064951,0.000689740368437556
425340000000,202,425340000000,FL_wheel_link,0.13134255571642145,0.24694853733323135,0.19569107109861442,0.014983637129529673,-0.00460466896429466,-0.0030718669751711664
425341000000,203,425341000000,FL_wheel_link,-0.8188339175252675,-3.5375059589188593,4.410117587215515,-0.3717650387260376,0.08016961448803958,0.0013610619431517219
425342000000,204,425342000000,FL_wheel_link,0.12410139858623737,0.21303292529077017,0.0010114666675225138,0.01642450851361823,-0.00561288113176262,-0.0007265123595805911
425343000000,205,425343000000,FL_wheel_link,-0.7294539851981048,-4.289019274323166,5.804452360927267,-0.45136182219295784,0.06964780580238361,0.00151358760675146
425344000000,206,425344000000,FL_wheel_link,0.10057001626667517,0.21786128223598944,0.11417593973216594,0.016658093894912872,-0.004660480480748872,-0.00032515855624335095
425345000000,207,425345000000,FL_wheel_link,-0.6130178188687507,-3.962082196764655,5.793952356121424,-0.414976842588077,0.058432823931320904,0.0013059504304849257
425346000000,208,425346000000,FL_wheel_link,0.07989941924637159,0.19198249725503772,0.12231797754740067,0.014964239503683148,-0.0038692721587159674,-0.0001829507306446094
425347000000,209,425347000000,FL_wheel_link,-0.49732419199842104,-4.3056558922039,6.734465548836423,-0.45199524292276955,0.0470483732088291,0.0011621982494853245
425348000000,210,425348000000,FL_wheel_link,0.06251525897143503,0.1970354993725167,0.2009505648888992,0.015509634490347566,-0.003102755165796568,-7.941766487835688e-05
425349000000,211,425349000000,FL_wheel_link,-0.3992569810953803,-4.321777389276597,7.215817592415135,-0.45225933387079065,0.0376794485015553,0.0009496985876706176
425350000000,212,425350000000,FL_wheel_link,0.04689853254998573,0.18025965006202868,0.23052050933752344,0.013966515446147468,-0.002415313489738739,1.1217724670379556e-05
425351000000,213,425351000000,FL_wheel_link,-0.3060145882765186,-4.405677540455324,7.632147129140502,-0.4615074180776194,0.028713052118215204,0.0007670517478917237
425352000000,214,425352000000,FL_wheel_link,0.032621905097839465,0.17850670818930103,0.27573777648443654,0.014187627274761905,-0.0017804629499221219,0.0001113981306033869
425353000000,215,425353000000,FL_wheel_link,-0.2205545387818546,-4.538565954599144,8.232796597671404,-0.4746491848455584,0.020545183688430085,0.0005897191592543604
425354000000,216,425354000000,FL_wheel_link,0.01925352756981226,0.168733066838972,0.31506391403023865,0.013197249877530206,-0.001176503783252042,0.00020326901248753952
425355000000,217,425355000000,FL_wheel_link,-0.13736593540459685,-4.549496966713795,8.524423587435116,-0.47572597440042624,0.01256117636764631,0.0004301369765801824
425356000000,218,425356000000,FL_wheel_link,0.006622614592762574,0.16285809495336662,0.346567974759981,0.01299009813770667,-0.0005995663631430661,0.0002869700191170088
425357000000,219,425357000000,FL_wheel_link,-0.05855064692379042,-4.68069062729087,9.060550940390147,-0.4890770169483466,0.005036996898453716,0.0002690236328650904
425358000000,220,425358000000,FL_wheel_link,-0.005406170867263194,0.15689862791939618,0.3858002241656614,0.01242045560578273,-4.878771161263059e-05,0.0003682544273059033
425359000000,221,425359000000,FL_wheel_link,0.018482735748408086,-4.699408152407823,9.370126084011638,-0.49069182545508205,-0.0023460844632285927,0.00012388849366054555
425360000000,222,425360000000,FL_wheel_link,-0.01694614229337285,0.14994870404887822,0.4141424003494323,0.01198341139155143,0.00048103815807539786,0.00043931436319720387
425361000000,223,425361000000,FL_wheel_link,0.0932095388770624,-4.795937228960954,9.810113043715084,-0.5005489144052901,-0.009497765847183787,-1.921203127003973e-05
425362000000,224,425362000000,FL_wheel_link,-0.028060515878876424,0.14519268548057657,0.44909604614556403,0.011602646861503158,0.0009882697846967234,0.000510084304388103
425363000000,225,425363000000,FL_wheel_link,0.1664608740049398,-4.839986059563877,10.1543242863045,-0.5047665780225752,-0.01651842256979011,-0.00015540262488415203
425364000000,226,425364000000,FL_wheel_link,-0.038762139431484606,0.13878714536275277,0.477220111029087,0.011125159404859166,0.0014756008393053063,0.0005715589825380092
425365000000,227,425365000000,FL_wheel_link,0.23822405509487243,-4.909216436545964,10.525368555739451,-0.5117774772053034,-0.02340496411452292,-0.00028519785141314924
425366000000,228,425366000000,FL_wheel_link,-0.04913718736348595,0.13417877840661224,0.5076608644495018,0.010799990661075719,0.001942856098854257,0.000633146102035437
425366000000,229,425367000000,FL_wheel_link,0.3078460990523739,-4.964050948613643,10.87697289152364,-0.5171272242435963,-0.030092336275781756,-0.00040489264372092423
425366000000,230,425368000000,FL_wheel_link,-0.05916096754477775,0.12877603943622354,0.5354552235853316,0.01037021516862469,0.0023961406300255757,0.00068533473140465
425368000000,231,425369000000,FL_wheel_link,0.37549312791247713,-5.014384808576109,11.207949184538379,-0.522087332560855,-0.036592707141447245,-0.0005157153959650992
425370000000,232,425370000000,FL_wheel_link,-0.06888789061349072,0.12429917190207213,0.5628919920730702,0.01004409193143195,0.0028346689873973417,0.0007332147619676177
425371000000,233,425371000000,FL_wheel_link,0.44134674203057367,-5.0681606095095475,11.545808142126987,-0.5273381851224068,-0.04291920046336553,-0.0006211132429877857
425372000000,234,425372000000,FL_wheel_link,-0.0783180380571428,0.11971497987656811,0.5896271120734534,0.009667392577311328,0.003259147306311538,0.0007752398164656206
425373000000,235,425373000000,FL_wheel_link,0.5053070991843169,-5.110501550775602,11.856206319344416,-0.5314111058635141,-0.049070078484108576,-0.0007165112103819848
425374000000,236,425374000000,FL_wheel_link,-0.0874718110773676,0.11549787879454108,0.6150841225397023,0.009336903540786149,0.0036716171658325706,0.0008111307748142576
425375000000,237,425375000000,FL_wheel_link,0.567577815588082,-5.157987468582055,12.172881450517895,-0.5360034687730495,-0.05505588172464551,-0.0008070193426425515
425376000000,238,425376000000,FL_wheel_link,-0.09636055515788992,0.11153108186538353,0.6403233528036862,0.008999788935993614,0.004071316884738087,0.0008421621218960025
425377000000,239,425377000000,FL_wheel_link,0.6280309849290218,-5.196306127318116,12.469054726648029,-0.5396252605639805,-0.060870215787337645,-0.0008890792410034725
425378000000,240,425378000000,FL_wheel_link,-0.10499027926105568,0.10770602591246299,0.6642950444405634,0.008676542576919298,0.004459862659810149,0.0008672566630095369
425379000000,241,425379000000,FL_wheel_link,0.6849760313430022,-5.237337299028136,12.766936039847387,-0.5435171448903432,-0.06635245742532872,-0.0009598138546804587
425380000000,242,425380000000,FL_wheel_link,-0.11341898039574473,0.10419362836896695,0.6879179989328765,0.008362853899819457,0.00484491789279116,0.0008868841683804027
425381000000,243,425381000000,FL_wheel_link,0.7391547641068841,-5.273398730803981,13.052280332025347,-0.5468756219159265,-0.0715542585185954,-0.00102443261156945
425382000000,244,425382000000,FL_wheel_link,-0.12197989869509569,0.10027554215245979,0.710223588209588,0.008045944983394086,0.005225644025799724,0.0009122874997231601
425383000000,245,425383000000,FL_wheel_link,0.7907011217290201,-5.307694981561621,13.32708431459121,-0.550079975851723,-0.07646269255004046,-0.0010902060677843656
425384000000,246,425384000000,FL_wheel_link,-0.13043945672019608,0.09629620938408971,0.7318581509597253,0.007737145671187261,0.005604105025720679,0.0009418826136349758
425385000000,247,425385000000,FL_wheel_link,0.838667210211292,-5.342704006733464,13.59953700045984,-0.5533559301741213,-0.08101086156092299,-0.0011505247025245732
425386000000,248,425386000000,FL_wheel_link,-0.138641014990884,0.09263391496537379,0.7530764415184724,0.007422034805041978,0.005983769738802747,0.0009595694726880506
425388000000,249,425387000000,FL_wheel_link,0.8823174168016457,-5.3758969231721725,13.868467866553944,-0.5564319907464146,-0.0851402280625172,-0.0011943182379541232
425388000000,250,425388000000,FL_wheel_link,-0.14636891523284207,0.08980978861127233,0.7738262987945498,0.007110522992910066,0.006366642258188904,0.0009489398196125263
425389000000,251,425389000000,FL_wheel_link,0.928044756898446,-5.405247154939692,14.1239354711423,-0.5591157108548621,-0.08944802936840829,-0.001247156004286585
425390000000,252,425390000000,FL_wheel_link,-0.15385375115576788,0.08718019770867805,0.7940181777293026,0.00683445138225478,0.006720026863497991,0.0009452936473860116
425391000000,253,425391000000,FL_wheel_link,0.9747253896214465,-5.4298740995505685,14.366674504469714,-0.5612827873975011,-0.09387055488843057,-0.0012976973024922739
425392000000,254,425392000000,FL_wheel_link,-0.16101483831665447,0.08469773088357571,0.8133921082859166,0.006571487266730325,0.007046898650853281,0.0009417117590945837
425393000000,255,425393000000,FL_wheel_link,1.001792429971025,-5.428745110247323,14.504761505640634,-0.5608735609502089,-0.09615911105543759,-0.0013672299993827321
425394000000,256,425394000000,FL_wheel_link,-0.1644435040310357,0.0833878244532267,0.823133372274298,0.0063544260015399,0.007231138540881322,0.000894514705975372
425395000000,257,425395000000,FL_wheel_link,1.0226063350078314,-5.435704788215663,14.613358015601726,-0.561313671295387,-0.0980211607753492,-0.0014046883514795012
425396000000,258,425396000000,FL_wheel_link,-0.16557056412048582,0.083120271061381,0.829163419485202,0.00619465679795964,0.0072873863734260625,0.0008438173611835325
425397000000,259,425397000000,FL_wheel_link,1.0454190103996641,-5.436537673664161,14.699664351981909,-0.5610208834113971,-0.10030759681978915,-0.0014066648408307975
425398000000,260,425398000000,FL_wheel_link,-0.16681182547000545,0.08244184283571425,0.8349262734986054,0.0060535240560404035,0.007329277491958642,0.0008185483196442375
425399000000,261,425399000000,FL_wheel_link,1.0692006402806382,-5.43586341250132,14.787101196674552,-0.5605549092212277,-0.10271771281508554,-0.0014010732361620848
425400000000,262,425400000000,FL_wheel_link,-0.16807400375167503,0.08179335428900032,0.8404459330964658,0.005917028096304295,0.007364873697710206,0.0007900752890969761
425401000000,263,425401000000,FL_wheel_link,1.0924166440249712,-5.434003139629481,14.871751481954563,-0.5599616151797244,-0.10507282079586597,-0.0013932488331153767
425402000000,264,425402000000,FL_wheel_link,-0.16946152105590095,0.08093295074409991,0.845604426632254,0.005779432372516181,0.007401613522517338,0.0007648281855524654
425403000000,265,425403000000,FL_wheel_link,1.1149668657915313,-5.431620899778891,14.954180025200788,-0.5593253089285481,-0.10735040455605024,-0.0013857453161922693
425404000000,266,425404000000,FL_wheel_link,-0.17070289699606447,0.08051061666766204,0.8508607894311504,0.005643564697037013,0.007442669387663914,0.000726508792883476
425405000000,267,425405000000,FL_wheel_link,1.1364569646927567,-5.428335532489144,15.034780961552002,-0.5585844644226858,-0.1095220629049102,-0.0013739299171196847
425406000000,268,425406000000,FL_wheel_link,-0.17180531051526676,0.08033397220690347,0.8559020700390799,0.00551854059289222,0.007480641953766952,0.0006852187887834912
425407000000,269,425407000000,FL_wheel_link,1.1573142172074982,-5.423230064696589,15.1120231777323,-0.5576390455175261,-0.11163938269964838,-0.0013572976210580834
425408000000,270,425408000000,FL_wheel_link,-0.17307760603054473,0.0798348203476379,0.8606389196478095,0.0053993848773366306,0.0075197644948371825,0.0006567544127440853
425409000000,271,425409000000,FL_wheel_link,1.1772884355155564,-5.417696831529521,15.186432851240411,-0.5566613247013661,-0.11365058789151883,-0.001343079349205115
425410000000,272,425410000000,FL_wheel_link,-0.17436878259651556,0.0793129539209258,0.865199888406839,0.005279081448747749,0.007562140021771305,0.0006270522023503313
425411000000,273,425411000000,FL_wheel_link,1.1967069409909468,-5.411724334386105,15.259131474291543,-0.5556425835653256,-0.11559808253687501,-0.001329117086365043
425412000000,274,425412000000,FL_wheel_link,-0.17549777743839068,0.07920083176871956,0.8698179571077536,0.0051622961847927985,0.007604853622485238,0.0005858895782539367
425413000000,275,425413000000,FL_wheel_link,1.2158394354784385,-5.40459700935882,15.330907632490526,-0.554486510429274,-0.11752769132290589,-0.0013102253474824642
425414000000,276,425414000000,FL_wheel_link,-0.176672873678984,0.07894435597878,0.8741678222445359,0.005052676026214256,0.007644204838017205,0.0005516042383553106
425415000000,277,425415000000,FL_wheel_link,1.2343663417447082,-5.3968140361254,15.3998807582309,-0.5532653991200313,-0.11939182719739316,-0.001291533769347787
425416000000,278,425416000000,FL_wheel_link,-0.17790340618415917,0.07864486151247893,0.8783983492272962,0.004943615860627958,0.007685347628575921,0.0005188292102987209
425417000000,279,425417000000,FL_wheel_link,1.2523900717857255,-5.388697623677923,15.467467962073476,-0.5520136419285625,-0.12119762311632304,-0.001273249670618115
425418000000,280,425418000000,FL_wheel_link,-0.17897961740248727,0.07868261087867592,0.8826008523443869,0.004837096022655182,0.0077263677054971195,0.000474954877226316
425419000000,281,425419000000,FL_wheel_link,1.270093144441815,-5.379494896064122,15.533743543605375,-0.5506352189836541,-0.12298118464813804,-0.0012504367503655973
425420000000,282,425420000000,FL_wheel_link,-0.1799823113347797,0.07855964595818696,0.8865284972852154,0.004735933161890278,0.007764568678421837,0.00043431946975116376
425421000000,283,425421000000,FL_wheel_link,1.2888316031003313,-5.371256197213889,15.593056642779278,-0.549366860598817,-0.12483294794628927,-0.0012483816021205602
425422000000,284,425422000000,FL_wheel_link,-0.17896277592637166,0.07931554754968193,0.8868613778489909,0.00468536503578906,0.0076844771364987675,0.0003674868537288309
425423000000,285,425423000000,FL_wheel_link,1.3111091254910696,-5.3602912955776825,15.604793371470787,-0.547783577732516,-0.12708695325578548,-0.0012935914275803311
425424000000,286,425424000000,FL_wheel_link,-0.17773196481252984,0.0796899757502312,0.8869220214810896,0.004660367391239955,0.007513666770988758,0.00035524590832389843
425424000000,287,425425000000,FL_wheel_link,1.3333218666392672,-5.3500652484223945,15.62269088714488,-0.5462486554829524,-0.12948263804482912,-0.001295179275889739
425426000000,288,425426000000,FL_wheel_link,-0.17705593645268447,0.07923604307336193,0.8879994110011362,0.0045884298407526045,0.007379664219511809,0.0003571333853501336
425427000000,289,425427000000,FL_wheel_link,1.355304265586483,-5.343627450012105,15.659604820383525,-0.5451536099718582,-0.13183980230563688,-0.0012830838490529592
425428000000,290,425428000000,FL_wheel_link,-0.17601553067211445,0.0789576391363607,0.8889613086580047,0.0045028333912287615,0.007241160073893236,0.00033988963905808755
425429000000,291,425429000000,FL_wheel_link,1.3752879229941606,-5.337947200508882,15.693652392125262,-0.5441588319308645,-0.1340039047765475,-0.0012664069106066564
425430000000,292,425430000000,FL_wheel_link,-0.17551123078216732,0.0781976756418529,0.8904895819385245,0.0043830346691408634,0.007146105953951912,0.0003270069485612209
425431000000,293,425431000000,FL_wheel_link,1.3948425475669883,-5.333640007074004,15.737991379159897,-0.5433424925798164,-0.13607979427568032,-0.0012486012700780348
425432000000,294,425432000000,FL_wheel_link,-0.1746265366296646,0.07767515245400346,0.8915793545036346,0.004267981441987553,0.0070394196769257115,0.00029881212407280745
425433000000,295,425433000000,FL_wheel_link,2.1277872718213016,-7.4692796534257715,17.49070815915143,-0.7904374017853051,-0.20877727287576886,-0.002807978565323591
425434000000,296,425434000000,FL_wheel_link,-0.17610490765988723,0.03956093254487081,0.8685150861255861,0.00571962718858531,0.005718567445814654,0.001933579784414127
425435000000,297,425435000000,FL_wheel_link,2.166925139451681,-6.948361166276874,16.867195881947367,-0.735503561864326,-0.21598655975270303,-0.0016146635527902464
425436000000,298,425436000000,FL_wheel_link,-0.1815103941137598,0.04436508445426324,0.8466091714418545,0.00557022155026562,0.0061251945693482,0.0019899090731545555
425437000000,299,425437000000,FL_wheel_link,1.426555867048316,-4.6571975002266575,15.776778230036744,-0.49700937312014937,-0.14112409506067633,0.0022662179630029856
425438000000,300,425438000000,FL_wheel_link,-0.17465254043838876,0.12441128948050614,0.8094638479652239,0.004988271077447766,0.0064541984189443805,0.00014321236828237214
425439000000,301,425439000000,FL_wheel_link,1.181952376497548,-4.911542100093806,14.871019765293227,-0.5273765982321292,-0.11437790299694126,0.0007390240889641867
425439000000,302,425440000000,FL_wheel_link,-0.1911406851384962,0.0773961610449396,0.8716387307792698,0.003958810834450793,0.008891536548845514,0.0006592137931892717
425441000000,303,425441000000,FL_wheel_link,1.2525010778984422,-5.072810714849029,15.61829667399274,-0.5475809200090542,-0.11922538871745378,0.0006727308398654018
425442000000,304,425442000000,FL_wheel_link,-0.1837415965861101,0.08949634069394911,0.8794670353244998,0.004383287555954479,0.008153522028063732,0.0002451173872439706
425443000000,305,425443000000,FL_wheel_link,1.2581464569902348,-5.091180699967953,15.565131015819619,-0.5487070692216284,-0.12039223434513135,0.0006794061693891095
425444000000,306,425444000000,FL_wheel_link,-0.18374590886064013,0.08891866519355938,0.8800442099354646,0.004261922439299646,0.007999689442719657,0.0002759226039597524
425445000000,307,425445000000,FL_wheel_link,1.3126223415476013,-5.047077736348994,15.707066113804501,-0.5434622973357583,-0.12673717730867257,0.001030501021136539
425446000000,308,425446000000,FL_wheel_link,-0.1794992013044331,0.09238073204872221,0.8763644747859067,0.0043358994705243355,0.007625911122878361,7.025702298484886e-05
425447000000,309,425447000000,FL_wheel_link,1.337505439582296,-5.020917187683681,15.673217772811828,-0.5400078410142436,-0.12968100623942969,0.0010945405724088148
425448000000,310,425448000000,FL_wheel_link,-0.18013363726371448,0.09154717596320733,0.8789958452736969,0.004224122087954065,0.007546827916631406,7.452734065767789e-05
425449000000,311,425449000000,FL_wheel_link,1.3670206436541017,-5.008633814750141,15.74469404523143,-0.5383553302977598,-0.1328292629688089,0.0011873105437547457
425450000000,312,425450000000,FL_wheel_link,-0.17687585153506627,0.09344134452013854,0.8774106515495869,0.00423551221612573,0.007253659164178831,-7.902183406928465e-06
425451000000,313,425451000000,FL_wheel_link,1.383593009861247,-4.99314305422425,15.73383498749459,-0.5362026051987786,-0.1348203596956979,0.0012525216222969366
425452000000,314,425452000000,FL_wheel_link,-0.17876107551734766,0.09112805569054755,0.881202694228719,0.004052974952885129,0.007282381252774641,3.463740199558838e-05
425453000000,315,425453000000,FL_wheel_link,1.4043368738891677,-4.987941986541781,15.812304236061479,-0.5354652933250301,-0.13688637133149842,0.0013118253078403812
425454000000,316,425454000000,FL_wheel_link,-0.17591982911528692,0.0925294301660747,0.8800981536723438,0.004016500670432985,0.007068232885236558,-4.48858804353281e-05
425455000000,317,425455000000,FL_wheel_link,1.4159935996126969,-4.9760525420044734,15.80417587884579,-0.5337928151293675,-0.138258233819767,0.0013540969059644735
425456000000,318,425456000000,FL_wheel_link,-0.17803807026629243,0.08986004316364946,0.8838689952370955,0.003812189343592077,0.007136272557804618,-5.153329058081432e-06
425457000000,319,425457000000,FL_wheel_link,1.4352544722014344,-4.971127718887419,15.884887241787059,-0.5331299060927139,-0.14012670270336441,0.001409576709613244
425457000000,320,425458000000,FL_wheel_link,-0.17513383188081486,0.09102597911268953,0.8842895950660229,0.003720608114441546,0.0069374555524724145,-8.252559803475006e-05
425459000000,321,425459000000,FL_wheel_link,1.5216833223632322,-4.9336999970026,15.807452561607333,-0.529314008196276,-0.1480390112409466,0.001281973237245852
425460000000,322,425460000000,FL_wheel_link,-0.17417846572349333,0.08955057002115364,0.8886634408286226,0.003763591101815603,0.006492710658776031,-1.520752386965699e-05
425461000000,323,425461000000,FL_wheel_link,1.600181426558006,-4.914730277689234,15.849350724631321,-0.5270867057230901,-0.15607664453383707,0.0013922454238834182
425462000000,324,425462000000,FL_wheel_link,-0.17095858669425126,0.08986361412246197,0.8902741194036983,0.003743066742132994,0.005929370702915089,-9.24271701222761e-06
425463000000,325,425463000000,FL_wheel_link,1.6971953238053392,-4.879266397554986,15.902263810531554,-0.5230553299471636,-0.1662395565038347,0.0015591955247057213
425464000000,326,425464000000,FL_wheel_link,-0.15951816489131115,0.09651937421158832,0.8870123909534681,0.003932733033039399,0.004973776931031856,-0.00017655304879192122
425465000000,327,425465000000,FL_wheel_link,1.765490341223548,-4.857703792335027,15.845032625833117,-0.5199566291774169,-0.17408486282154947,0.001760850484480699
425465000000,328,425466000000,FL_wheel_link,-0.16149923814580253,0.09221559479503617,0.8942800096537593,0.0036516156880335533,0.004873074876891268,-8.243810333219158e-05
425467000000,329,425467000000,FL_wheel_link,1.8278700280791773,-4.856256881513726,15.960178218291933,-0.5200298652687865,-0.18020408075391914,0.0018292615658648745
425468000000,330,425468000000,FL_wheel_link,-0.14201675128919886,0.1028480111099106,0.8771425152918244,0.003963955396306647,0.0037053733869057597,-0.0003744106914453061
425469000000,331,425469000000,FL_wheel_link,1.894955419623032,-4.800258302521297,15.81472183782456,-0.512675612457622,-0.18866335887548571,0.0021519405941779497
425470000000,332,425470000000,FL_wheel_link,-0.157681275049559,0.09114224678171494,0.8982552111581119,0.0034188836240643867,0.00430656028040258,-0.00011904744844741726
425471000000,333,425471000000,FL_wheel_link,1.9166176462683562,-4.839119212065467,16.031391573208523,-0.5177718743277148,-0.18946159761929066,0.002012866059117242
425472000000,334,425472000000,FL_wheel_link,0.011970840794594845,0.42042438623198064,0.9723374926719051,0.03594614502719556,-0.0044352325785291455,-0.0026411519954794224
425473000000,335,425473000000,FL_wheel_link,0.8923964445427607,-1.021253278227202,11.516667405349413,-0.07305741534497712,-0.07964268911439716,-0.004101661478974394
425474000000,336,425474000000,FL_wheel_link,0.058202133094869726,-0.0414079812254078,0.0017211821756621204,-0.004980703438301548,-0.006283181668694315,-2.9999581503445353e-05
425477000000,337,425475000000,FL_wheel_link,-0.011878731438567616,0.1803404626747992,0.13921289324355746,0.026674047534148225,0.002324482143391527,3.8432739106704686e-05
425477000000,338,425476000000,FL_wheel_link,0.8000765178015493,-1.746662758077648,14.873650548223132,-0.18315101032371478,-0.08141411706952371,-0.0003306734377426612
425477000000,339,425477000000,FL_wheel_link,0.014336926790727192,-0.05222965414228413,-0.08404894750596564,-0.003452957380747944,-0.007211098361231087,0.0014510266984175879
425478000000,340,425478000000,FL_wheel_link,-0.05361630337285274,0.2168678133887189,0.4146646801629773,0.013803945712690675,0.010030901615127794,-0.0024198356400130885
425479000000,341,425479000000,FL_wheel_link,1.557650429862493,-1.664831090896286,11.6978736200099,-0.18388410993592966,-0.16167327802522727,0.00025813134172174637
425480000000,342,425480000000,FL_wheel_link,0.03706034446692289,0.1295710005516253,0.379984597817151,0.00424113969421737,-0.00019852312219925932,-0.0025387090000180993
425481000000,343,425481000000,FL_wheel_link,1.3671116845419693,0.07543379774620007,15.549009868003662,0.007951602615876394,-0.1448997259211865,0.0033074111572501527
425482000000,344,425482000000,FL_wheel_link,2.027658391524964,-0.03650015975304033,3.101424555298905,-0.003562510665218746,-0.2235263210197856,0.004813999443401591
425483000000,345,425483000000,FL_wheel_link,0.04335195660304554,-0.06053373047041799,-0.32613321388716976,0.0046381690859806455,0.002408936634932397,-0.0010849837082170168
425484000000,346,425484000000,FL_wheel_link,2.960170625980634,-0.9696892769258396,10.824080373987414,-0.1159740060414943,-0.3028431320594033,0.00021395175511908487
425485000000,347,425485000000,FL_wheel_link,-0.12894633463964117,0.10545449679177554,0.42653565864849996,0.005440149480673019,0.004357043865790269,-8.294479290069937e-05
425486000000,348,425486000000,FL_wheel_link,2.6121606941444626,-0.39794260604230547,20.127171999142405,-0.048642519081585636,-0.2676469077800985,0.004314711872897229
425487000000,349,425487000000,FL_wheel_link,0.11554029861460795,-0.06355499648891272,0.10377707880299486,-0.0062813547842045445,-0.013117400915538618,0.0001850004758497799
425488000000,350,425488000000,FL_wheel_link,0.6364404511725672,1.6726444696617286,17.256828410126417,0.1702120123518165,-0.0826335048634273,0.0036698305626464488
425489000000,351,425489000000,FL_wheel_link,0.023194473051760617,-0.01749064801805904,0.004725906276361488,0.001560513953472356,0.0010223885685153177,0.0005743073294091791
425490000000,352,425490000000,FL_wheel_link,1.6579080999155116,-0.511332297753255,22.790924822657693,-0.06376113996345886,-0.17432630489062556,0.0022369279199811213
425492000000,353,425491000000,FL_wheel_link,0.05549527514352476,-0.11002749902684904,0.07888073217894488,-0.010888267437356908,-0.006191666515903693,7.12943292739867e-05
425492000000,354,425492000000,FL_wheel_link,0.0831286097488762,1.418099693178928,19.934266362039764,0.1262415690017199,-0.011036394096753818,-0.001460578737417746
425493000000,355,425493000000,FL_wheel_link,-0.012868227829680046,-0.005678602266539546,0.04045868987754703,-0.00039179875162853085,0.0019659058400011177,6.835723900743375e-05
425494000000,356,425494000000,FL_wheel_link,1.1251388420541681,-0.10682770260237784,22.28405521742847,-0.025184591046033572,-0.11829552599148443,0.0017064387350137573
425496000000,357,425495000000,FL_wheel_link,0.032660413008405456,-0.07219293535013774,0.06079365017929911,-0.007128114253334093,-0.0035430920029486802,6.119833464545774e-05
425496000000,358,425496000000,FL_wheel_link,0.02673585943193868,1.3897459217595776,21.123445112832815,0.12600340273074784,-0.0026367846861115388,-0.0011321333742989033
