%time,field.header.seq,field.header.stamp,field.header.frame_id,field.orientation.x,field.orientation.y,field.orientation.z,field.orientation.w,field.orientation_covariance0,field.orientation_covariance1,field.orientation_covariance2,field.orientation_covariance3,field.orientation_covariance4,field.orientation_covariance5,field.orientation_covariance6,field.orientation_covariance7,field.orientation_covariance8,field.angular_velocity.x,field.angular_velocity.y,field.angular_velocity.z,field.angular_velocity_covariance0,field.angular_velocity_covariance1,field.angular_velocity_covariance2,field.angular_velocity_covariance3,field.angular_velocity_covariance4,field.angular_velocity_covariance5,field.angular_velocity_covariance6,field.angular_velocity_covariance7,field.angular_velocity_covariance8,field.linear_acceleration.x,field.linear_acceleration.y,field.linear_acceleration.z,field.linear_acceleration_covariance0,field.linear_acceleration_covariance1,field.linear_acceleration_covariance2,field.linear_acceleration_covariance3,field.linear_acceleration_covariance4,field.linear_acceleration_covariance5,field.linear_acceleration_covariance6,field.linear_acceleration_covariance7,field.linear_acceleration_covariance8
425145000000,0,425138000000,base_link,-2.0254747421343525e-05,1.3589259740325998e-05,0.7062701510675266,0.7079424221757942,0.0,0.0,0.0,0.0,0.0,0.0,0.0,0.0,0.0,-0.02197362467699076,-0.0007497747741223599,-0.0004957380825251119,0.0,0.0,0.0,0.0,0.0,0.0,0.0,0.0,0.0,0.0321953787640954,3.678350544305279,18.27678301286795,0.0,0.0,0.0,0.0,0.0,0.0,0.0,0.0,0.0
425145000000,1,425139000000,base_link,-2.9025484031152474e-05,4.76424913788633e-06,0.7062703634086365,0.7079422101453309,0.0,0.0,0.0,0.0,0.0,0.0,0.0,0.0,0.0,-0.02488409023338788,-0.00010614881784579838,0.0005995411239274098,0.0,0.0,0.0,0.0,0.0,0.0,0.0,0.0,0.0,0.10447763285541668,1.2626523890385963,1.5964130244661145,0.0,0.0,0.0,0.0,0.0,0.0,0.0,0.0,0.0
425145000000,2,425140000000,base_link,-2.1880704089356805e-05,1.2052026728906437e-05,0.7062706413595721,0.7079419330210085,0.0,0.0,0.0,0.0,0.0,0.0,0.0,0.0,0.0,0.02041054687335033,0.0002263561086671157,0.0007857332543796842,0.0,0.0,0.0,0.0,0.0,0.0,0.0,0.0,0.0,0.08994250476528176,-3.739456158977955,17.78043506264524,0.0,0.0,0.0,0.0,0.0,0.0,0.0,0.0,0.0
425145000000,3,425141000000,base_link,-2.1880704089356805e-05,1.2052026728906437e-05,0.7062706413595721,0.7079419330210085,0.0,0.0,0.0,0.0,0.0,0.0,0.0,0.0,0.0,0.02041054687335033,0.0002263561086671157,0.0007857332543796842,0.0,0.0,0.0,0.0,0.0,0.0,0.0,0.0,0.0,0.08994250476528176,-3.739456158977955,17.78043506264524,0.0,0.0,0.0,0.0,0.0,0.0,0.0,0.0,0.0
425145000000,4,425142000000,base_link,-2.028486278224032e-05,1.3643287555668233e-05,0.706270489881851,0.7079420841597392,0.0,0.0,0.0,0.0,0.0,0.0,0.0,0.0,0.0,-0.020187145154494893,-0.00038314647196402256,1.5015421588937732e-05,0.0,0.0,0.0,0.0,0.0,0.0,0.0,0.0,0.0,-0.0509109721271086,3.524709197766235,17.58192650191952,0.0,0.0,0.0,0.0,0.0,0.0,0.0,0.0,0.0
425145000000,5,425143000000,base_link,-2.9220999270156728e-05,4.685652441577855e-06,0.7062705524534608,0.707942021539378,0.0,0.0,0.0,0.0,0.0,0.0,0.0,0.0,0.0,-0.025306222255585917,-6.0237250163630573e-05,0.00017747061182739132,0.0,0.0,0.0,0.0,0.0,0.0,0.0,0.0,0.0,0.03293442002735687,1.4148902794861447,1.869701472375393,0.0,0.0,0.0,0.0,0.0,0.0,0.0,0.0,0.0
425145000000,6,425144000000,base_link,-2.1892795917529586e-05,1.2173008576187137e-05,0.706270739464917,0.7079418351448108,0.0,0.0,0.0,0.0,0.0,0.0,0.0,0.0,0.0,0.02095226850162906,0.0002497933052241323,0.0005271382732003746,0.0,0.0,0.0,0.0,0.0,0.0,0.0,0.0,0.0,0.013329512463523353,-3.687586220101871,17.969777159271693,0.0,0.0,0.0,0.0,0.0,0.0,0.0,0.0,0.0
425146000000,7,425145000000,base_link,-2.1892795917529586e-05,1.2173008576187137e-05,0.706270739464917,0.7079418351448108,0.0,0.0,0.0,0.0,0.0,0.0,0.0,0.0,0.0,0.02095226850162906,0.0002497933052241323,0.0005271382732003746,0.0,0.0,0.0,0.0,0.0,0.0,0.0,0.0,0.0,0.013329512463523353,-3.687586220101871,17.969777159271693,0.0,0.0,0.0,0.0,0.0,0.0,0.0,0.0,0.0
425148000000,8,425147000000,base_link,-2.9180820488046908e-05,4.839155639367104e-06,0.7062705951963687,0.7079419788980094,0.0,0.0,0.0,0.0,0.0,0.0,0.0,0.0,0.0,-0.025206285072913143,-6.753740989675489e-05,6.879445022066867e-05,0.0,0.0,0.0,0.0,0.0,0.0,0.0,0.0,0.0,0.0212387032007989,1.4296632174623407,1.88273896342156,0.0,0.0,0.0,0.0,0.0,0.0,0.0,0.0,0.0
425149000000,9,425148000000,base_link,-2.9180820488046908e-05,4.839155639367104e-06,0.7062705951963687,0.7079419788980094,0.0,0.0,0.0,0.0,0.0,0.0,0.0,0.0,0.0,-0.025206285072913143,-6.753740989675489e-05,6.879445022066867e-05,0.0,0.0,0.0,0.0,0.0,0.0,0.0,0.0,0.0,0.0212387032007989,1.4296632174623407,1.88273896342156,0.0,0.0,0.0,0.0,0.0,0.0,0.0,0.0,0.0
425151000000,10,425150000000,base_link,-1.3229691824600632e-05,2.115135016880699e-05,0.7062705806292109,0.7079419936091323,0.0,0.0,0.0,0.0,0.0,0.0,0.0,0.0,0.0,0.02480775037611162,0.0003456513836761991,-0.00047442803918924976,0.0,0.0,0.0,0.0,0.0,0.0,0.0,0.0,0.0,0.021851134736642183,-2.5085043529307987,9.852326953805806,0.0,0.0,0.0,0.0,0.0,0.0,0.0,0.0,0.0
425152000000,11,425151000000,base_link,-2.028210305098555e-05,1.382754400623067e-05,0.706270541643099,0.7079420325172104,0.0,0.0,0.0,0.0,0.0,0.0,0.0,0.0,0.0,-0.020330366601217943,-0.0004079548943433011,-0.00010868013360366806,0.0,0.0,0.0,0.0,0.0,0.0,0.0,0.0,0.0,-0.0820628317055039,3.6083097868731255,17.63063251196794,0.0,0.0,0.0,0.0,0.0,0.0,0.0,0.0,0.0
425153000000,12,425152000000,base_link,-2.9174056314667484e-05,4.903713245477744e-06,0.7062705519221376,0.7079420220699059,0.0,0.0,0.0,0.0,0.0,0.0,0.0,0.0,0.0,-0.02519587555085791,-7.478224339600541e-05,2.966758233387621e-05,0.0,0.0,0.0,0.0,0.0,0.0,0.0,0.0,0.0,0.01922637836418305,1.4226805494624626,1.8689142537245829,0.0,0.0,0.0,0.0,0.0,0.0,0.0,0.0,0.0
425154000000,13,425153000000,base_link,-2.1894475931300583e-05,1.2305697157530493e-05,0.7062706923525749,0.7079418821435953,0.0,0.0,0.0,0.0,0.0,0.0,0.0,0.0,0.0,0.020762848987203274,0.00019762376340092327,0.0003956892159211324,0.0,0.0,0.0,0.0,0.0,0.0,0.0,0.0,0.0,-8.306974329520887e-05,-3.6448009600331557,17.91893810242925,0.0,0.0,0.0,0.0,0.0,0.0,0.0,0.0,0.0
425155000000,14,425154000000,base_link,-2.028993146657091e-05,1.384754646739089e-05,0.706270452387017,0.7079421215619274,0.0,0.0,0.0,0.0,0.0,0.0,0.0,0.0,0.0,-0.02035118071180663,-0.0004116124681703866,-0.00015191506601396076,0.0,0.0,0.0,0.0,0.0,0.0,0.0,0.0,0.0,-0.07821497528599818,3.606484519929278,17.63421119129549,0.0,0.0,0.0,0.0,0.0,0.0,0.0,0.0,0.0
425156000000,15,425155000000,base_link,-2.028993146657091e-05,1.384754646739089e-05,0.706270452387017,0.7079421215619274,0.0,0.0,0.0,0.0,0.0,0.0,0.0,0.0,0.0,-0.02035118071180663,-0.0004116124681703866,-0.00015191506601396076,0.0,0.0,0.0,0.0,0.0,0.0,0.0,0.0,0.0,-0.07821497528599818,3.606484519929278,17.63421119129549,0.0,0.0,0.0,0.0,0.0,0.0,0.0,0.0,0.0
425157000000,16,425156000000,base_link,-2.1904917452379075e-05,1.2314773835535494e-05,0.7062705891053341,0.7079419851466117,0.0,0.0,0.0,0.0,0.0,0.0,0.0,0.0,0.0,0.020760339958930993,0.0001883767204335536,0.0003788194078898406,0.0,0.0,0.0,0.0,0.0,0.0,0.0,0.0,0.0,0.0011774638982918128,-3.648571759087767,17.921553251363488,0.0,0.0,0.0,0.0,0.0,0.0,0.0,0.0,0.0
425158000000,17,425157000000,base_link,-1.1198461031563461e-05,1.8329969647835996e-05,0.7062695873664332,0.7079429846391975,0.0,0.0,0.0,0.0,0.0,0.0,0.0,0.0,0.0,0.023655940251027907,-0.006606509078238216,-0.0028296472664976605,0.0,0.0,0.0,0.0,0.0,0.0,0.0,0.0,0.0,-0.2908468399056083,-0.7381788065645156,0.9406706813565933,0.0,0.0,0.0,0.0,0.0,0.0,0.0,0.0,0.0
425160000000,18,425158000000,base_link,-1.1198461031563461e-05,1.8329969647835996e-05,0.7062695873664332,0.7079429846391975,0.0,0.0,0.0,0.0,0.0,0.0,0.0,0.0,0.0,0.023655940251027907,-0.006606509078238216,-0.0028296472664976605,0.0,0.0,0.0,0.0,0.0,0.0,0.0,0.0,0.0,-0.2908468399056083,-0.7381788065645156,0.9406706813565933,0.0,0.0,0.0,0.0,0.0,0.0,0.0,0.0,0.0
425160000000,19,425159000000,base_link,-2.849626530155885e-05,6.1588705213849914e-06,0.7062695590212038,0.707943012642985,0.0,0.0,0.0,0.0,0.0,0.0,0.0,0.0,0.0,-0.02238445078819036,0.00028474067580165803,0.0005687648708652578,0.0,0.0,0.0,0.0,0.0,0.0,0.0,0.0,0.0,0.36128809493338704,2.1508412448701995,10.425319656265843,0.0,0.0,0.0,0.0,0.0,0.0,0.0,0.0,0.0
425166000000,20,425161000000,base_link,-1.2497579423289902e-05,2.1663766672103626e-05,0.7062674562351063,0.7079451106107619,0.0,0.0,0.0,0.0,0.0,0.0,0.0,0.0,0.0,0.026468295384016925,0.0006965592537444398,-0.002185961909099654,0.0,0.0,0.0,0.0,0.0,0.0,0.0,0.0,0.0,-0.014794972213254662,-1.6468993328649828,2.3256105097308506,0.0,0.0,0.0,0.0,0.0,0.0,0.0,0.0,0.0
425166000000,21,425162000000,base_link,-2.0126516071123505e-05,1.365259053059745e-05,0.70626728969845,0.7079452767767689,0.0,0.0,0.0,0.0,0.0,0.0,0.0,0.0,0.0,-0.0221176198230403,-0.0005668669609586209,-0.0004696605840292016,0.0,0.0,0.0,0.0,0.0,0.0,0.0,0.0,0.0,0.049902345937762285,3.72703426500368,18.286204691000407,0.0,0.0,0.0,0.0,0.0,0.0,0.0,0.0,0.0
425166000000,22,425163000000,base_link,-2.0126516071123505e-05,1.365259053059745e-05,0.70626728969845,0.7079452767767689,0.0,0.0,0.0,0.0,0.0,0.0,0.0,0.0,0.0,-0.0221176198230403,-0.0005668669609586209,-0.0004696605840292016,0.0,0.0,0.0,0.0,0.0,0.0,0.0,0.0,0.0,0.049902345937762285,3.72703426500368,18.286204691000407,0.0,0.0,0.0,0.0,0.0,0.0,0.0,0.0,0.0
425166000000,23,425166000000,base_link,-1.3149711803711404e-05,2.0964610891503095e-05,0.7062677616114007,0.7079448059672391,0.0,0.0,0.0,0.0,0.0,0.0,0.0,0.0,0.0,0.02476337947966034,0.0003589685034024147,-0.0003238297768039347,0.0,0.0,0.0,0.0,0.0,0.0,0.0,0.0,0.0,0.056074890854844336,-1.439383147695314,1.8762941222357092,0.0,0.0,0.0,0.0,0.0,0.0,0.0,0.0,0.0
425168000000,24,425167000000,base_link,-2.0228469268260728e-05,1.3672363648826579e-05,0.7062677637274204,0.7079448038677479,0.0,0.0,0.0,0.0,0.0,0.0,0.0,0.0,0.0,-0.02032310389680067,-0.0003260599620239033,7.152886629384892e-06,0.0,0.0,0.0,0.0,0.0,0.0,0.0,0.0,0.0,-0.04938470684277272,3.5386784584143713,17.623210907707517,0.0,0.0,0.0,0.0,0.0,0.0,0.0,0.0,0.0
425169000000,25,425168000000,base_link,-2.1854392932045162e-05,1.2180021278644027e-05,0.706268004751239,0.7079445633937282,0.0,0.0,0.0,0.0,0.0,0.0,0.0,0.0,0.0,0.020900648016562117,0.00018073715507095287,0.000504279628663693,0.0,0.0,0.0,0.0,0.0,0.0,0.0,0.0,0.0,0.002469060897476556,-3.6918774185459666,17.959739318706845,0.0,0.0,0.0,0.0,0.0,0.0,0.0,0.0,0.0
425170000000,26,425169000000,base_link,-1.3214345071503365e-05,2.103702247346683e-05,0.7062678754704289,0.7079446923745607,0.0,0.0,0.0,0.0,0.0,0.0,0.0,0.0,0.0,0.024744260369453895,0.0003361427892886737,-0.00036454696151334105,0.0,0.0,0.0,0.0,0.0,0.0,0.0,0.0,0.0,0.039154844456762324,-1.3717685657648244,1.7685251167552387,0.0,0.0,0.0,0.0,0.0,0.0,0.0,0.0,0.0
425171000000,27,425170000000,base_link,-1.3214345071503365e-05,2.103702247346683e-05,0.7062678754704289,0.7079446923745607,0.0,0.0,0.0,0.0,0.0,0.0,0.0,0.0,0.0,0.024744260369453895,0.0003361427892886737,-0.00036454696151334105,0.0,0.0,0.0,0.0,0.0,0.0,0.0,0.0,0.0,0.039154844456762324,-1.3717685657648244,1.7685251167552387,0.0,0.0,0.0,0.0,0.0,0.0,0.0,0.0,0.0
425172000000,28,425171000000,base_link,-2.918083199271392e-05,4.860163649674706e-06,0.7062678702230534,0.7079446974273133,0.0,0.0,0.0,0.0,0.0,0.0,0.0,0.0,0.0,-0.02521908212076689,-1.8959750626133115e-05,6.656921140646595e-05,0.0,0.0,0.0,0.0,0.0,0.0,0.0,0.0,0.0,0.024466386249197593,1.4232257172591558,1.874070168537072,0.0,0.0,0.0,0.0,0.0,0.0,0.0,0.0,0.0
425173000000,29,425172000000,base_link,-2.1870804564102342e-05,1.2259889505301168e-05,0.7062680180091219,0.7079445501653573,0.0,0.0,0.0,0.0,0.0,0.0,0.0,0.0,0.0,0.020802770142733032,0.00015147765208042493,0.00041623873001692363,0.0,0.0,0.0,0.0,0.0,0.0,0.0,0.0,0.0,-0.008918972086937281,-3.65318806632442,17.931024937241393,0.0,0.0,0.0,0.0,0.0,0.0,0.0,0.0,0.0
425174000000,30,425173000000,base_link,-1.3194166969458792e-05,2.1133080237988656e-05,0.7062678703006425,0.7079446975296174,0.0,0.0,0.0,0.0,0.0,0.0,0.0,0.0,0.0,0.024818934522723206,0.0003073810999084381,-0.00041660579760642103,0.0,0.0,0.0,0.0,0.0,0.0,0.0,0.0,0.0,0.04202257073939764,-1.3672233380947707,1.769978116144891,0.0,0.0,0.0,0.0,0.0,0.0,0.0,0.0,0.0
425175000000,31,425174000000,base_link,-1.3194166969458792e-05,2.1133080237988656e-05,0.7062678703006425,0.7079446975296174,0.0,0.0,0.0,0.0,0.0,0.0,0.0,0.0,0.0,0.024818934522723206,0.0003073810999084381,-0.00041660579760642103,0.0,0.0,0.0,0.0,0.0,0.0,0.0,0.0,0.0,0.04202257073939764,-1.3672233380947707,1.769978116144891,0.0,0.0,0.0,0.0,0.0,0.0,0.0,0.0,0.0
425176000000,32,425176000000,base_link,-2.1880994545068605e-05,1.2294492619752876e-05,0.7062679651060431,0.7079446029422337,0.0,0.0,0.0,0.0,0.0,0.0,0.0,0.0,0.0,0.02075688449698463,0.00012914182619600152,0.0003813631043555176,0.0,0.0,0.0,0.0,0.0,0.0,0.0,0.0,0.0,-0.008605187728173607,-3.649507097331202,17.919559139076128,0.0,0.0,0.0,0.0,0.0,0.0,0.0,0.0,0.0
425178000000,33,425177000000,base_link,-1.3196620889562143e-05,2.1162650256353403e-05,0.7062678005307896,0.7079447671332788,0.0,0.0,0.0,0.0,0.0,0.0,0.0,0.0,0.0,0.02482277946655776,0.00028932962573637554,-0.00046425571131037367,0.0,0.0,0.0,0.0,0.0,0.0,0.0,0.0,0.0,0.046251568509634224,-1.3691384799364048,1.7741457527366542,0.0,0.0,0.0,0.0,0.0,0.0,0.0,0.0,0.0
425179000000,34,425178000000,base_link,-1.3196620889562143e-05,2.1162650256353403e-05,0.7062678005307896,0.7079447671332788,0.0,0.0,0.0,0.0,0.0,0.0,0.0,0.0,0.0,0.02482277946655776,0.00028932962573637554,-0.00046425571131037367,0.0,0.0,0.0,0.0,0.0,0.0,0.0,0.0,0.0,0.046251568509634224,-1.3691384799364048,1.7741457527366542,0.0,0.0,0.0,0.0,0.0,0.0,0.0,0.0,0.0
425181000000,35,425180000000,base_link,-2.1890455725311646e-05,1.230525271223184e-05,0.706267867310848,0.7079447005053259,0.0,0.0,0.0,0.0,0.0,0.0,0.0,0.0,0.0,0.020754777415830133,0.00011635348769562133,0.0003646374413325533,0.0,0.0,0.0,0.0,0.0,0.0,0.0,0.0,0.0,-0.007786159572341196,-3.652072594235642,17.920383567086844,0.0,0.0,0.0,0.0,0.0,0.0,0.0,0.0,0.0
425182000000,36,425181000000,base_link,-1.3205611645056833e-05,2.1167874618438697e-05,0.7062676921926633,0.7079448752144354,0.0,0.0,0.0,0.0,0.0,0.0,0.0,0.0,0.0,0.02481562667755758,0.00028083081320032927,-0.0004940405023226054,0.0,0.0,0.0,0.0,0.0,0.0,0.0,0.0,0.0,0.04896513789863442,-1.3697921264601767,1.7746965023819872,0.0,0.0,0.0,0.0,0.0,0.0,0.0,0.0,0.0
425183000000,37,425182000000,base_link,-2.0289443881929e-05,1.3850843375226994e-05,0.7062676210976774,0.7079449461543744,0.0,0.0,0.0,0.0,0.0,0.0,0.0,0.0,0.0,-0.020365279812163746,-0.0003540136091541909,-0.0001995975072991299,0.0,0.0,0.0,0.0,0.0,0.0,0.0,0.0,0.0,-0.06795862719743022,3.6079106454072543,17.643652683255954,0.0,0.0,0.0,0.0,0.0,0.0,0.0,0.0,0.0
425184000000,38,425183000000,base_link,-2.920768728362821e-05,4.9382975196296595e-06,0.7062676176712654,0.7079449493791728,0.0,0.0,0.0,0.0,0.0,0.0,0.0,0.0,0.0,-0.02521714779997119,-2.178646021320195e-05,-9.052224612013844e-06,0.0,0.0,0.0,0.0,0.0,0.0,0.0,0.0,0.0,0.02217091626611346,1.4158212026275203,1.860217777279427,0.0,0.0,0.0,0.0,0.0,0.0,0.0,0.0,0.0
425185000000,39,425184000000,base_link,-2.189903885471278e-05,1.2307912513448383e-05,0.7062677441770057,0.7079448233471809,0.0,0.0,0.0,0.0,0.0,0.0,0.0,0.0,0.0,0.0207582791334507,0.00011082291077325196,0.0003563899938218278,0.0,0.0,0.0,0.0,0.0,0.0,0.0,0.0,0.0,-0.007614246418236072,-3.65336530040682,17.92191154966922,0.0,0.0,0.0,0.0,0.0,0.0,0.0,0.0,0.0
425186000000,40,425185000000,base_link,-1.321411886720532e-05,2.1168273581178302e-05,0.7062675633322801,0.707945003769343,0.0,0.0,0.0,0.0,0.0,0.0,0.0,0.0,0.0,0.024812540957490532,0.00027752694539437926,-0.0005102184839292745,0.0,0.0,0.0,0.0,0.0,0.0,0.0,0.0,0.0,0.05051955539983613,-1.3698523042834136,1.774520397173946,0.0,0.0,0.0,0.0,0.0,0.0,0.0,0.0,0.0
425187000000,41,425186000000,base_link,-2.029740539313778e-05,1.3851429257926781e-05,0.7062674889256436,0.7079450780129907,0.0,0.0,0.0,0.0,0.0,0.0,0.0,0.0,0.0,-0.020364242723717427,-0.00035452443729688983,-0.0002089484946037056,0.0,0.0,0.0,0.0,0.0,0.0,0.0,0.0,0.0,-0.06744470800618532,3.607363106812223,17.642731814720957,0.0,0.0,0.0,0.0,0.0,0.0,0.0,0.0,0.0
425187000000,42,425187000000,base_link,-2.9216122145154403e-05,4.937652519277573e-06,0.7062674834612871,0.707945083270799,0.0,0.0,0.0,0.0,0.0,0.0,0.0,0.0,0.0,-0.025219556715925413,-2.286592212803404e-05,-1.4807875364835782e-05,0.0,0.0,0.0,0.0,0.0,0.0,0.0,0.0,0.0,0.02189465985418466,1.4159029177552693,1.860492941883452,0.0,0.0,0.0,0.0,0.0,0.0,0.0,0.0,0.0
425189000000,43,425188000000,base_link,-2.1906595637115548e-05,1.2307952188293413e-05,0.7062676085646419,0.7079449586380265,0.0,0.0,0.0,0.0,0.0,0.0,0.0,0.0,0.0,0.020760488847202996,0.00011055599422029293,0.00035243040235148013,0.0,0.0,0.0,0.0,0.0,0.0,0.0,0.0,0.0,-0.007557339257218947,-3.6537235673258173,17.922433319357374,0.0,0.0,0.0,0.0,0.0,0.0,0.0,0.0,0.0
425190000000,44,425189000000,base_link,-1.3221678179584404e-05,2.116771881359582e-05,0.7062674243237664,0.7079451424483311,0.0,0.0,0.0,0.0,0.0,0.0,0.0,0.0,0.0,0.024811697944071773,0.0002766936797105532,-0.0005198127338392289,0.0,0.0,0.0,0.0,0.0,0.0,0.0,0.0,0.0,0.05143316417347943,-1.3699235854866856,1.7745197267741677,0.0,0.0,0.0,0.0,0.0,0.0,0.0,0.0,0.0
425191000000,45,425190000000,base_link,-2.0304653660522107e-05,1.3850547954862871e-05,0.706267348606628,0.7079452179992793,0.0,0.0,0.0,0.0,0.0,0.0,0.0,0.0,0.0,-0.020364263664287854,-0.0003554311477852821,-0.0002126455006481782,0.0,0.0,0.0,0.0,0.0,0.0,0.0,0.0,0.0,-0.06759811146362373,3.6071695437367057,17.642247423255704,0.0,0.0,0.0,0.0,0.0,0.0,0.0,0.0,0.0
425192000000,46,425191000000,base_link,-2.9222675989689585e-05,4.935254699140609e-06,0.7062673423517107,0.7079452240457095,0.0,0.0,0.0,0.0,0.0,0.0,0.0,0.0,0.0,-0.025220711928036765,-2.5983747754037764e-05,-1.7046594567651006e-05,0.0,0.0,0.0,0.0,0.0,0.0,0.0,0.0,0.0,0.02159907941402706,1.4160615314064935,1.8607672166362903,0.0,0.0,0.0,0.0,0.0,0.0,0.0,0.0,0.0
425193000000,47,425192000000,base_link,-2.1913474371249792e-05,1.2306976431320285e-05,0.7062674667747326,0.7079451000917656,0.0,0.0,0.0,0.0,0.0,0.0,0.0,0.0,0.0,0.0207620371621305,0.00011303252927585133,0.00035050954179486433,0.0,0.0,0.0,0.0,0.0,0.0,0.0,0.0,0.0,-0.007423754836573733,-3.6537937358603694,17.922523290723316,0.0,0.0,0.0,0.0,0.0,0.0,0.0,0.0,0.0
425194000000,48,425193000000,base_link,-1.1174155127059366e-05,1.8296975237762368e-05,0.7062664544298867,0.707946110157684,0.0,0.0,0.0,0.0,0.0,0.0,0.0,0.0,0.0,0.023666905606302493,-0.006688498254396059,-0.0028595991396543484,0.0,0.0,0.0,0.0,0.0,0.0,0.0,0.0,0.0,-0.28605082699173157,-0.7331510815374424,0.9346098585691891,0.0,0.0,0.0,0.0,0.0,0.0,0.0,0.0,0.0
425195000000,49,425194000000,base_link,-1.1174155127059366e-05,1.8296975237762368e-05,0.7062664544298867,0.707946110157684,0.0,0.0,0.0,0.0,0.0,0.0,0.0,0.0,0.0,0.023666905606302493,-0.006688498254396059,-0.0028595991396543484,0.0,0.0,0.0,0.0,0.0,0.0,0.0,0.0,0.0,-0.28605082699173157,-0.7331510815374424,0.9346098585691891,0.0,0.0,0.0,0.0,0.0,0.0,0.0,0.0,0.0
425197000000,50,425196000000,base_link,-2.1782411206735033e-05,1.1922720364289058e-05,0.7062663596527722,0.7079462045990474,0.0,0.0,0.0,0.0,0.0,0.0,0.0,0.0,0.0,0.017590022753184224,-0.0013560167289279647,-0.00016022880393689822,0.0,0.0,0.0,0.0,0.0,0.0,0.0,0.0,0.0,-0.3327726020458136,-3.192352476046522,16.72734543479236,0.0,0.0,0.0,0.0,0.0,0.0,0.0,0.0,0.0
425198000000,51,425197000000,base_link,-1.2461071783604051e-05,2.1581606253745585e-05,0.7062662763450529,0.7079462877059598,0.0,0.0,0.0,0.0,0.0,0.0,0.0,0.0,0.0,0.0268415594517098,0.0005092626179122716,-0.00023474440868299874,0.0,0.0,0.0,0.0,0.0,0.0,0.0,0.0,0.0,0.013689587769910805,-1.5201590445904716,2.158692533261095,0.0,0.0,0.0,0.0,0.0,0.0,0.0,0.0,0.0
425199000000,52,425198000000,base_link,-2.0232939039687435e-05,1.3615048545644026e-05,0.7062662457063057,0.7079463182905741,0.0,0.0,0.0,0.0,0.0,0.0,0.0,0.0,0.0,-0.022257095545137988,-0.00030192552939095965,-8.609147466567227e-05,0.0,0.0,0.0,0.0,0.0,0.0,0.0,0.0,0.0,-0.12092989842550028,3.778228914431836,18.36549759398205,0.0,0.0,0.0,0.0,0.0,0.0,0.0,0.0,0.0
425200000000,53,425199000000,base_link,-2.8960022093046743e-05,4.872083921993872e-06,0.7062663845840057,0.7079461795533734,0.0,0.0,0.0,0.0,0.0,0.0,0.0,0.0,0.0,-0.02470635304702694,-5.18152899653436e-05,0.00039201805895104034,0.0,0.0,0.0,0.0,0.0,0.0,0.0,0.0,0.0,0.019358600834019243,1.2560124452523527,1.570087337572403,0.0,0.0,0.0,0.0,0.0,0.0,0.0,0.0,0.0
425201000000,54,425200000000,base_link,-2.8960022093046743e-05,4.872083921993872e-06,0.7062663845840057,0.7079461795533734,0.0,0.0,0.0,0.0,0.0,0.0,0.0,0.0,0.0,0.020272625978119282,9.743991729081053e-05,0.0004896672260934882,0.0,0.0,0.0,0.0,0.0,0.0,0.0,0.0,0.0,-0.02741279875544827,-3.697149806025989,17.729181356883096,0.0,0.0,0.0,0.0,0.0,0.0,0.0,0.0,0.0
425202000000,55,425201000000,base_link,-1.3075718557822284e-05,2.099128692103648e-05,0.7062664462399945,0.7079461182208154,0.0,0.0,0.0,0.0,0.0,0.0,0.0,0.0,0.0,0.02498679968655678,0.0002885288074658699,-0.00031533476434373155,0.0,0.0,0.0,0.0,0.0,0.0,0.0,0.0,0.0,0.039894594851779104,-1.413390684018494,1.8513376661900152,0.0,0.0,0.0,0.0,0.0,0.0,0.0,0.0,0.0
425203000000,56,425202000000,base_link,-2.0169842003140015e-05,1.3638735205275066e-05,0.7062664101124593,0.7079461542758898,0.0,0.0,0.0,0.0,0.0,0.0,0.0,0.0,0.0,-0.020430033346117787,-0.0003898418429622366,-0.00010084446732880123,0.0,0.0,0.0,0.0,0.0,0.0,0.0,0.0,0.0,-0.07405994441243029,3.5681355739463005,17.68879256875134,0.0,0.0,0.0,0.0,0.0,0.0,0.0,0.0,0.0
425204000000,57,425203000000,base_link,-2.9104184417616037e-05,4.717698229815741e-06,0.7062664482536306,0.7079461160299501,0.0,0.0,0.0,0.0,0.0,0.0,0.0,0.0,0.0,-0.02525187862459982,-1.1054613538707611e-05,0.00010820433897056693,0.0,0.0,0.0,0.0,0.0,0.0,0.0,0.0,0.0,0.023592061122851643,1.3889973002994163,1.8262508732994451,0.0,0.0,0.0,0.0,0.0,0.0,0.0,0.0,0.0
425205000000,58,425204000000,base_link,-2.9104184417616037e-05,4.717698229815741e-06,0.7062664482536306,0.7079461160299501,0.0,0.0,0.0,0.0,0.0,0.0,0.0,0.0,0.0,-0.02525187862459982,-1.1054613538707611e-05,0.00010820433897056693,0.0,0.0,0.0,0.0,0.0,0.0,0.0,0.0,0.0,0.023592061122851643,1.3889973002994163,1.8262508732994451,0.0,0.0,0.0,0.0,0.0,0.0,0.0,0.0,0.0
425206000000,59,425205000000,base_link,-1.3037078827392104e-05,2.0975187894708508e-05,0.7062664248541239,0.7079461395571347,0.0,0.0,0.0,0.0,0.0,0.0,0.0,0.0,0.0,0.024831437890301046,0.0002611212056527236,-0.00047553660785100145,0.0,0.0,0.0,0.0,0.0,0.0,0.0,0.0,0.0,0.04708137139027559,-1.368520413819449,1.768599981004801,0.0,0.0,0.0,0.0,0.0,0.0,0.0,0.0,0.0
425207000000,60,425206000000,base_link,-1.3037078827392104e-05,2.0975187894708508e-05,0.7062664248541239,0.7079461395571347,0.0,0.0,0.0,0.0,0.0,0.0,0.0,0.0,0.0,0.024831437890301046,0.0002611212056527236,-0.00047553660785100145,0.0,0.0,0.0,0.0,0.0,0.0,0.0,0.0,0.0,0.04708137139027559,-1.368520413819449,1.768599981004801,0.0,0.0,0.0,0.0,0.0,0.0,0.0,0.0,0.0
425209000000,61,425208000000,base_link,-2.901049544874247e-05,4.780111628895551e-06,0.7062663806418726,0.7079461834847129,0.0,0.0,0.0,0.0,0.0,0.0,0.0,0.0,0.0,-0.02519916346316211,-1.6190341118880666e-05,6.579746869206866e-05,0.0,0.0,0.0,0.0,0.0,0.0,0.0,0.0,0.0,-0.01611774318765401,2.507864847071346,9.747975283779246,0.0,0.0,0.0,0.0,0.0,0.0,0.0,0.0,0.0
425211000000,62,425210000000,base_link,-2.0056438210640967e-05,1.3713770966641318e-05,0.7062662671937479,0.7079462968572415,0.0,0.0,0.0,0.0,0.0,0.0,0.0,0.0,0.0,-0.02037449169428269,-0.000341172755866731,-0.0002073709776248094,0.0,0.0,0.0,0.0,0.0,0.0,0.0,0.0,0.0,-0.06151865207416105,3.61261852456254,17.650424798127567,0.0,0.0,0.0,0.0,0.0,0.0,0.0,0.0,0.0
425212000000,63,425211000000,base_link,-2.8966536246119903e-05,4.815885021050083e-06,0.7062662832588686,0.7079462806381926,0.0,0.0,0.0,0.0,0.0,0.0,0.0,0.0,0.0,-0.025184927514814236,-1.2514632135911252e-05,4.594009583310539e-05,0.0,0.0,0.0,0.0,0.0,0.0,0.0,0.0,0.0,0.02579330295832478,1.417209886545519,1.8604471127411655,0.0,0.0,0.0,0.0,0.0,0.0,0.0,0.0,0.0
425213000000,64,425212000000,base_link,-2.1649787091172707e-05,1.2177027859706863e-05,0.7062664099975843,0.7079461543734317,0.0,0.0,0.0,0.0,0.0,0.0,0.0,0.0,0.0,0.020757789634481574,8.742361073822529e-05,0.00035703551405177425,0.0,0.0,0.0,0.0,0.0,0.0,0.0,0.0,0.0,-0.009792534356199393,-3.6504640730073437,17.912862197500104,0.0,0.0,0.0,0.0,0.0,0.0,0.0,0.0,0.0
425214000000,65,425213000000,base_link,-2.1649787091172707e-05,1.2177027859706863e-05,0.7062664099975843,0.7079461543734317,0.0,0.0,0.0,0.0,0.0,0.0,0.0,0.0,0.0,0.020757789634481574,8.742361073822529e-05,0.00035703551405177425,0.0,0.0,0.0,0.0,0.0,0.0,0.0,0.0,0.0,-0.009792534356199393,-3.6504640730073437,17.912862197500104,0.0,0.0,0.0,0.0,0.0,0.0,0.0,0.0,0.0
425215000000,66,425214000000,base_link,-2.0045404755119163e-05,1.3726317847962956e-05,0.7062661582620687,0.707946405530467,0.0,0.0,0.0,0.0,0.0,0.0,0.0,0.0,0.0,-0.02039430107415515,-0.00033766239139383473,-0.00021761039941957895,0.0,0.0,0.0,0.0,0.0,0.0,0.0,0.0,0.0,-0.06364198298476681,3.611806290508095,17.65414729099438,0.0,0.0,0.0,0.0,0.0,0.0,0.0,0.0,0.0
425216000000,67,425215000000,base_link,-2.0045404755119163e-05,1.3726317847962956e-05,0.7062661582620687,0.707946405530467,0.0,0.0,0.0,0.0,0.0,0.0,0.0,0.0,0.0,-0.02039430107415515,-0.00033766239139383473,-0.00021761039941957895,0.0,0.0,0.0,0.0,0.0,0.0,0.0,0.0,0.0,-0.06364198298476681,3.611806290508095,17.65414729099438,0.0,0.0,0.0,0.0,0.0,0.0,0.0,0.0,0.0
425217000000,68,425216000000,base_link,-2.89608331101811e-05,4.824945716820764e-06,0.706266166476792,0.707946397143291,0.0,0.0,0.0,0.0,0.0,0.0,0.0,0.0,0.0,-0.025197390070470956,-9.926729762419276e-06,2.375099843431173e-05,0.0,0.0,0.0,0.0,0.0,0.0,0.0,0.0,0.0,0.024387755544238846,1.4153363458834107,1.8580042763618714,0.0,0.0,0.0,0.0,0.0,0.0,0.0,0.0,0.0
425219000000,69,425218000000,base_link,-1.2947267525792402e-05,2.1050602711190896e-05,0.7062661128591586,0.7079464508111153,0.0,0.0,0.0,0.0,0.0,0.0,0.0,0.0,0.0,0.024841155036618337,0.0002649283157549285,-0.0004981262882156315,0.0,0.0,0.0,0.0,0.0,0.0,0.0,0.0,0.0,0.019769073718385263,-2.510935873738784,9.844561943736752,0.0,0.0,0.0,0.0,0.0,0.0,0.0,0.0,0.0
425220000000,70,425219000000,base_link,-2.004621244454297e-05,1.3730817082113333e-05,0.7062660334421538,0.7079465300540011,0.0,0.0,0.0,0.0,0.0,0.0,0.0,0.0,0.0,-0.02520677020565451,-9.272392018236722e-06,8.773581976150677e-06,0.0,0.0,0.0,0.0,0.0,0.0,0.0,0.0,0.0,0.023596234907131818,1.4149828664243376,1.8581481775733586,0.0,0.0,0.0,0.0,0.0,0.0,0.0,0.0,0.0
425221000000,71,425220000000,base_link,-2.16500225999745e-05,1.2187522749567505e-05,0.7062661576616127,0.707946406110408,0.0,0.0,0.0,0.0,0.0,0.0,0.0,0.0,0.0,0.02075557173496878,8.968151639605383e-05,0.00034169640965981947,0.0,0.0,0.0,0.0,0.0,0.0,0.0,0.0,0.0,-0.011294279427132953,-3.6546869558174,17.91633336168257,0.0,0.0,0.0,0.0,0.0,0.0,0.0,0.0,0.0
425222000000,72,425221000000,base_link,-1.2952985373653826e-05,2.105100489496331e-05,0.7062659789436305,0.7079465844086479,0.0,0.0,0.0,0.0,0.0,0.0,0.0,0.0,0.0,0.024834103592803976,0.0002648857341502626,-0.0005042157926687034,0.0,0.0,0.0,0.0,0.0,0.0,0.0,0.0,0.0,0.051170288114151134,-1.3691926106667394,1.7747126219203047,0.0,0.0,0.0,0.0,0.0,0.0,0.0,0.0,0.0
425223000000,73,425222000000,base_link,-2.00503483740067e-05,1.3732485299961587e-05,0.7062658988868282,0.7079466642897493,0.0,0.0,0.0,0.0,0.0,0.0,0.0,0.0,0.0,-0.0203865421986704,-0.0003370537940115756,-0.0002249564934584821,0.0,0.0,0.0,0.0,0.0,0.0,0.0,0.0,0.0,-0.06506504916311298,3.6086824043316827,17.649840114030518,0.0,0.0,0.0,0.0,0.0,0.0,0.0,0.0,0.0
425224000000,74,425223000000,base_link,-2.8970821853493096e-05,4.826417656495191e-06,0.7062658986038866,0.7079466643799105,0.0,0.0,0.0,0.0,0.0,0.0,0.0,0.0,0.0,-0.025211167051981245,-9.45660840350783e-06,-2.5052157052795106e-07,0.0,0.0,0.0,0.0,0.0,0.0,0.0,0.0,0.0,0.02309027451920218,1.4150024205471978,1.8585302680165672,0.0,0.0,0.0,0.0,0.0,0.0,0.0,0.0,0.0
425225000000,75,425224000000,base_link,-2.1654845806036222e-05,1.218892297081007e-05,0.7062660193931712,0.7079465440504832,0.0,0.0,0.0,0.0,0.0,0.0,0.0,0.0,0.0,0.02075861443778229,9.045706599249484e-05,0.00034023917369840754,0.0,0.0,0.0,0.0,0.0,0.0,0.0,0.0,0.0,-0.011189747760972157,-3.655050144194717,17.917707707631948,0.0,0.0,0.0,0.0,0.0,0.0,0.0,0.0,0.0
425226000000,76,425225000000,base_link,-1.2959019558088063e-05,2.105148237161666e-05,0.7062658389437034,0.7079467240760745,0.0,0.0,0.0,0.0,0.0,0.0,0.0,0.0,0.0,0.024831085726296075,0.0002652946605254825,-0.0005091071797047842,0.0,0.0,0.0,0.0,0.0,0.0,0.0,0.0,0.0,0.0517097735949324,-1.3691547610077683,1.774472228043539,0.0,0.0,0.0,0.0,0.0,0.0,0.0,0.0,0.0
425227000000,77,425226000000,base_link,-1.2959019558088063e-05,2.105148237161666e-05,0.7062658389437034,0.7079467240760745,0.0,0.0,0.0,0.0,0.0,0.0,0.0,0.0,0.0,0.024831085726296075,0.0002652946605254825,-0.0005091071797047842,0.0,0.0,0.0,0.0,0.0,0.0,0.0,0.0,0.0,0.0517097735949324,-1.3691547610077683,1.774472228043539,0.0,0.0,0.0,0.0,0.0,0.0,0.0,0.0,0.0
425229000000,78,425228000000,base_link,-2.8976490889611036e-05,4.826055945561667e-06,0.7062657564704556,0.7079468061756387,0.0,0.0,0.0,0.0,0.0,0.0,0.0,0.0,0.0,-0.025213645138346674,-9.874516759380073e-06,-6.51643248133813e-06,0.0,0.0,0.0,0.0,0.0,0.0,0.0,0.0,0.0,-0.021385076658054798,2.511464710698192,9.753778885233695,0.0,0.0,0.0,0.0,0.0,0.0,0.0,0.0,0.0
425231000000,79,425230000000,base_link,-2.0060481532945846e-05,1.3733315708209162e-05,0.7062656158450166,0.7079469466591639,0.0,0.0,0.0,0.0,0.0,0.0,0.0,0.0,0.0,-0.020383872075961554,-0.0003400941736068728,-0.00022345556821235456,0.0,0.0,0.0,0.0,0.0,0.0,0.0,0.0,0.0,-0.0658265929518453,3.60822284938474,17.647981514200154,0.0,0.0,0.0,0.0,0.0,0.0,0.0,0.0,0.0
425232000000,80,425231000000,base_link,-2.8982245482268544e-05,4.825331740149507e-06,0.706265611505434,0.7079469507961744,0.0,0.0,0.0,0.0,0.0,0.0,0.0,0.0,0.0,-0.02521570096104487,-1.0355098163356002e-05,-1.1709612462955591e-05,0.0,0.0,0.0,0.0,0.0,0.0,0.0,0.0,0.0,0.022326167783799145,1.4149625013443448,1.8587954408352232,0.0,0.0,0.0,0.0,0.0,0.0,0.0,0.0,0.0
425233000000,81,425232000000,base_link,-2.8982245482268544e-05,4.825331740149507e-06,0.706265611505434,0.7079469507961744,0.0,0.0,0.0,0.0,0.0,0.0,0.0,0.0,0.0,-0.02521570096104487,-1.0355098163356002e-05,-1.1709612462955591e-05,0.0,0.0,0.0,0.0,0.0,0.0,0.0,0.0,0.0,0.022326167783799145,1.4149625013443448,1.8587954408352232,0.0,0.0,0.0,0.0,0.0,0.0,0.0,0.0,0.0
425234000000,82,425233000000,base_link,-1.2971406826014976e-05,2.105229181641331e-05,0.7062655494065798,0.7079470129253783,0.0,0.0,0.0,0.0,0.0,0.0,0.0,0.0,0.0,0.02482816216345176,0.0002671508363443712,-0.0005164053665770194,0.0,0.0,0.0,0.0,0.0,0.0,0.0,0.0,0.0,0.05250098883222849,-1.3690768247534109,1.774189483671952,0.0,0.0,0.0,0.0,0.0,0.0,0.0,0.0,0.0
425235000000,83,425234000000,base_link,-2.0065837339584258e-05,1.3733147250739275e-05,0.7062654704925334,0.7079470916662652,0.0,0.0,0.0,0.0,0.0,0.0,0.0,0.0,0.0,-0.020383272108889308,-0.00034209585427767697,-0.00022170651701399375,0.0,0.0,0.0,0.0,0.0,0.0,0.0,0.0,0.0,-0.06617841701792761,3.6080990119804635,17.647287279398025,0.0,0.0,0.0,0.0,0.0,0.0,0.0,0.0,0.0
425236000000,84,425235000000,base_link,-2.8988142225403344e-05,4.824287715825648e-06,0.7062654644586015,0.7079470974935131,0.0,0.0,0.0,0.0,0.0,0.0,0.0,0.0,0.0,-0.025217703541667465,-1.0835465558762386e-05,-1.6495193705695713e-05,0.0,0.0,0.0,0.0,0.0,0.0,0.0,0.0,0.0,0.021983347307368846,1.4149084978737978,1.8588452085293916,0.0,0.0,0.0,0.0,0.0,0.0,0.0,0.0,0.0
425237000000,85,425236000000,base_link,-2.8988142225403344e-05,4.824287715825648e-06,0.7062654644586015,0.7079470974935131,0.0,0.0,0.0,0.0,0.0,0.0,0.0,0.0,0.0,-0.025217703541667465,-1.0835465558762386e-05,-1.6495193705695713e-05,0.0,0.0,0.0,0.0,0.0,0.0,0.0,0.0,0.0,0.021983347307368846,1.4149084978737978,1.8588452085293916,0.0,0.0,0.0,0.0,0.0,0.0,0.0,0.0,0.0
425237000000,86,425237000000,base_link,-1.2977859390738404e-05,2.1052417367503447e-05,0.706265401602588,0.7079471603781641,0.0,0.0,0.0,0.0,0.0,0.0,0.0,0.0,0.0,0.024826992951439527,0.00026837719002977163,-0.0005192868883724458,0.0,0.0,0.0,0.0,0.0,0.0,0.0,0.0,0.0,0.05279188635241155,-1.369026874843459,1.774049194178522,0.0,0.0,0.0,0.0,0.0,0.0,0.0,0.0,0.0
425239000000,87,425239000000,base_link,-2.0071342398307262e-05,1.3732692742808656e-05,0.7062653233814684,0.7079472384277123,0.0,0.0,0.0,0.0,0.0,0.0,0.0,0.0,0.0,-0.020382749442028454,-0.00034426030893750306,-0.0002197454752830177,0.0,0.0,0.0,0.0,0.0,0.0,0.0,0.0,0.0,-0.06651295294674814,3.607981290939644,17.64661340889019,0.0,0.0,0.0,0.0,0.0,0.0,0.0,0.0,0.0
425243000000,88,425243000000,base_link,-2.6419727699912816e-05,7.532611598476699e-06,0.7062653305075925,0.7079472312031871,0.0,0.0,0.0,0.0,0.0,0.0,0.0,0.0,0.0,-0.03811990172235917,-0.0001647942270119919,0.00022086874452573,0.0,0.0,0.0,0.0,0.0,0.0,0.0,0.0,0.0,-0.07863822618167947,-4.575338030942209,17.421668104984185,0.0,0.0,0.0,0.0,0.0,0.0,0.0,0.0,0.0
425246000000,89,425244000000,base_link,-7.371753740933775e-05,-3.806056516855783e-05,0.7062645207456001,0.7079480347123693,0.0,0.0,0.0,0.0,0.0,0.0,0.0,0.0,0.0,-0.08097600788459981,0.001086880810134673,-0.001598792856385588,0.0,0.0,0.0,0.0,0.0,0.0,0.0,0.0,0.0,-0.03433954766863636,-10.64117778797128,12.93456589947589,0.0,0.0,0.0,0.0,0.0,0.0,0.0,0.0,0.0
425246000000,90,425246000000,base_link,-0.00011676437889300114,-7.996202989790287e-05,0.7062641688548102,0.7079483764823375,0.0,0.0,0.0,0.0,0.0,0.0,0.0,0.0,0.0,-0.12013523117548895,0.0014768725694161572,-0.0009839522127421997,0.0,0.0,0.0,0.0,0.0,0.0,0.0,0.0,0.0,-0.006741834995939918,-12.053346082471847,14.389953465371876,0.0,0.0,0.0,0.0,0.0,0.0,0.0,0.0,0.0
425248000000,91,425247000000,base_link,-0.00017047251824289818,-0.00013275321338364858,0.7062637184870185,0.7079488069518829,0.0,0.0,0.0,0.0,0.0,0.0,0.0,0.0,0.0,-0.1506123529172947,0.0011175686446697614,-0.0012494309684351096,0.0,0.0,0.0,0.0,0.0,0.0,0.0,0.0,0.0,-0.006327223891248333,-11.597012744824944,13.88838993061543,0.0,0.0,0.0,0.0,0.0,0.0,0.0,0.0,0.0
425250000000,92,425249000000,base_link,-0.0003164526089195242,-0.0002771960029534325,0.7062626434985142,0.7079497873568528,0.0,0.0,0.0,0.0,0.0,0.0,0.0,0.0,0.0,-0.1203452449988805,0.00044599784398038217,-0.0008082783264725271,0.0,0.0,0.0,0.0,0.0,0.0,0.0,0.0,0.0,0.030331454675452264,-5.027285521712807,6.944182293162225,0.0,0.0,0.0,0.0,0.0,0.0,0.0,0.0,0.0
425251000000,93,425250000000,base_link,-0.0003518283290178163,-0.0003121831631130959,0.7062624084275348,0.7079499906071317,0.0,0.0,0.0,0.0,0.0,0.0,0.0,0.0,0.0,-0.09951008616208529,0.00043118540237348235,-0.0006239060734990977,0.0,0.0,0.0,0.0,0.0,0.0,0.0,0.0,0.0,0.03107792385247587,-4.54732126010806,6.436086347515971,0.0,0.0,0.0,0.0,0.0,0.0,0.0,0.0,0.0
425252000000,94,425251000000,base_link,-0.0003518283290178163,-0.0003121831631130959,0.7062624084275348,0.7079499906071317,0.0,0.0,0.0,0.0,0.0,0.0,0.0,0.0,0.0,-0.09951008616208529,0.00043118540237348235,-0.0006239060734990977,0.0,0.0,0.0,0.0,0.0,0.0,0.0,0.0,0.0,0.03107792385247587,-4.54732126010806,6.436086347515971,0.0,0.0,0.0,0.0,0.0,0.0,0.0,0.0,0.0
425253000000,95,425252000000,base_link,-0.00039945161838806324,-0.0003589889881120952,0.7062619769745132,0.7079503735752692,0.0,0.0,0.0,0.0,0.0,0.0,0.0,0.0,0.0,-0.055756637077971814,0.0005190415677206461,-0.0005600627363472363,0.0,0.0,0.0,0.0,0.0,0.0,0.0,0.0,0.0,0.012508352324451941,-4.371898188210549,6.249225145218147,0.0,0.0,0.0,0.0,0.0,0.0,0.0,0.0,0.0
425254000000,96,425253000000,base_link,-0.00041156642161971894,-0.00037068480080955395,0.7062617817229794,0.7079505553944722,0.0,0.0,0.0,0.0,0.0,0.0,0.0,0.0,0.0,-0.03367498623688568,0.0005523871625796838,-0.000532184683868934,0.0,0.0,0.0,0.0,0.0,0.0,0.0,0.0,0.0,0.007310541383153332,-4.375710219819729,6.250467755391976,0.0,0.0,0.0,0.0,0.0,0.0,0.0,0.0,0.0
425256000000,97,425254000000,base_link,-0.00041156642161971894,-0.00037068480080955395,0.7062617817229794,0.7079505553944722,0.0,0.0,0.0,0.0,0.0,0.0,0.0,0.0,0.0,-0.03367498623688568,0.0005523871625796838,-0.000532184683868934,0.0,0.0,0.0,0.0,0.0,0.0,0.0,0.0,0.0,0.007310541383153332,-4.375710219819729,6.250467755391976,0.0,0.0,0.0,0.0,0.0,0.0,0.0,0.0,0.0
425256000000,98,425256000000,base_link,-0.000412421571517973,-0.0003707073829691151,0.7062614386567884,0.7079508971326525,0.0,0.0,0.0,0.0,0.0,0.0,0.0,0.0,0.0,0.010379982975505856,0.0005985879463715239,-0.0004696084120073589,0.0,0.0,0.0,0.0,0.0,0.0,0.0,0.0,0.0,0.0038179223293766185,-4.396913407568988,6.267635828729713,0.0,0.0,0.0,0.0,0.0,0.0,0.0,0.0,0.0
425260000000,99,425260000000,base_link,-0.0003210808802366086,-0.0002777764321596806,0.7062608734730187,0.7079515508482562,0.0,0.0,0.0,0.0,0.0,0.0,0.0,0.0,0.0,0.09793503612848278,0.0006627973432372022,-0.00041520104265408125,0.0,0.0,0.0,0.0,0.0,0.0,0.0,0.0,0.0,-0.00028817907012752093,-4.443930870474285,6.299442103296254,0.0,0.0,0.0,0.0,0.0,0.0,0.0,0.0,0.0
425262000000,100,425262000000,base_link,-0.0003547363569119952,-0.0003197273003365299,0.7062526987657038,0.7079596721725965,0.0,0.0,0.0,0.0,0.0,0.0,0.0,0.0,0.0,-0.06149819992800637,-0.0006017712689689592,0.0061283351253515524,0.0,0.0,0.0,0.0,0.0,0.0,0.0,0.0,0.0,0.057022815914558315,4.2902922934611185,4.6977887486919165,0.0,0.0,0.0,0.0,0.0,0.0,0.0,0.0,0.0
425264000000,101,425263000000,base_link,-0.0003822173677582426,-0.00033297126496471433,0.7062502101628974,0.7079621343581054,0.0,0.0,0.0,0.0,0.0,0.0,0.0,0.0,0.0,-0.05761931747203388,0.020067657545987227,-0.0069925447924445785,0.0,0.0,0.0,0.0,0.0,0.0,0.0,0.0,0.0,1.190515655012641,2.595611617468334,3.1851795377616314,0.0,0.0,0.0,0.0,0.0,0.0,0.0,0.0,0.0
425264000000,102,425264000000,base_link,-0.0003822173677582426,-0.00033297126496471433,0.7062502101628974,0.7079621343581054,0.0,0.0,0.0,0.0,0.0,0.0,0.0,0.0,0.0,-0.05761931747203388,0.020067657545987227,-0.0069925447924445785,0.0,0.0,0.0,0.0,0.0,0.0,0.0,0.0,0.0,1.190515655012641,2.595611617468334,3.1851795377616314,0.0,0.0,0.0,0.0,0.0,0.0,0.0,0.0,0.0
425269000000,103,425266000000,base_link,-0.00042223667217426545,-0.00039459353359825195,0.706250321243455,0.7079619691449905,0.0,0.0,0.0,0.0,0.0,0.0,0.0,0.0,0.0,-0.04639976209309873,0.0199087290966848,0.006197977939415175,0.0,0.0,0.0,0.0,0.0,0.0,0.0,0.0,0.0,2.969157217619444,1.3261179619827006,18.320799391871027,0.0,0.0,0.0,0.0,0.0,0.0,0.0,0.0,0.0
425269000000,104,425267000000,base_link,-0.00044507681944917966,-0.0004040129489737743,0.7062524497933991,0.7079598264315458,0.0,0.0,0.0,0.0,0.0,0.0,0.0,0.0,0.0,-0.045644971204836085,0.018921058485844848,0.006050519642614917,0.0,0.0,0.0,0.0,0.0,0.0,0.0,0.0,0.0,0.09008571091607481,0.0352187372063361,0.001443708533209076,0.0,0.0,0.0,0.0,0.0,0.0,0.0,0.0,0.0
425269000000,105,425268000000,base_link,-0.00046142941399592637,-0.0004295152507404012,0.7062531896798693,0.7079590628465434,0.0,0.0,0.0,0.0,0.0,0.0,0.0,0.0,0.0,-0.05917618828885271,-0.013012257850006311,0.0021155478286079936,0.0,0.0,0.0,0.0,0.0,0.0,0.0,0.0,0.0,-1.7080323253247838,1.898097307950057,18.954788261115958,0.0,0.0,0.0,0.0,0.0,0.0,0.0,0.0,0.0
425270000000,106,425269000000,base_link,-0.00046142941399592637,-0.0004295152507404012,0.7062531896798693,0.7079590628465434,0.0,0.0,0.0,0.0,0.0,0.0,0.0,0.0,0.0,-0.05917618828885271,-0.013012257850006311,0.0021155478286079936,0.0,0.0,0.0,0.0,0.0,0.0,0.0,0.0,0.0,-1.7080323253247838,1.898097307950057,18.954788261115958,0.0,0.0,0.0,0.0,0.0,0.0,0.0,0.0,0.0
425272000000,107,425271000000,base_link,-0.0005149184098202406,-0.00048494031902307635,0.7062576291787549,0.7079545613376064,0.0,0.0,0.0,0.0,0.0,0.0,0.0,0.0,0.0,-0.0715001849215023,-0.009966941911042006,0.006863460882375482,0.0,0.0,0.0,0.0,0.0,0.0,0.0,0.0,0.0,-1.7568326955859803,3.1810409700570714,21.09541741431056,0.0,0.0,0.0,0.0,0.0,0.0,0.0,0.0,0.0
425273000000,108,425272000000,base_link,-0.0005346737153322635,-0.0004996322967714485,0.7062593602725722,0.7079528095282647,0.0,0.0,0.0,0.0,0.0,0.0,0.0,0.0,0.0,-0.04872972599203885,0.007110931874241725,0.004937748255113604,0.0,0.0,0.0,0.0,0.0,0.0,0.0,0.0,0.0,1.590127273019537,-0.7324632359826754,3.518708039386242,0.0,0.0,0.0,0.0,0.0,0.0,0.0,0.0,0.0
425274000000,109,425273000000,base_link,-0.0005346737153322635,-0.0004996322967714485,0.7062593602725722,0.7079528095282647,0.0,0.0,0.0,0.0,0.0,0.0,0.0,0.0,0.0,-0.04872972599203885,0.007110931874241725,0.004937748255113604,0.0,0.0,0.0,0.0,0.0,0.0,0.0,0.0,0.0,1.590127273019537,-0.7324632359826754,3.518708039386242,0.0,0.0,0.0,0.0,0.0,0.0,0.0,0.0,0.0
425276000000,110,425275000000,base_link,-0.0005708422167487525,-0.0005394325244436326,0.7062618726693665,0.7079502456848749,0.0,0.0,0.0,0.0,0.0,0.0,0.0,0.0,0.0,-0.026483505577986635,0.005269714942004067,-0.0025299281751865075,0.0,0.0,0.0,0.0,0.0,0.0,0.0,0.0,0.0,-0.136597329147693,-1.3014876858889965,13.064822704884183,0.0,0.0,0.0,0.0,0.0,0.0,0.0,0.0,0.0
425278000000,111,425277000000,base_link,-0.0006095155292922209,-0.0005901808235675536,0.7062626353577125,0.7079494120874698,0.0,0.0,0.0,0.0,0.0,0.0,0.0,0.0,0.0,-0.08044065992443541,-0.020559079346814765,0.0029815095537592115,0.0,0.0,0.0,0.0,0.0,0.0,0.0,0.0,0.0,-0.3861149747734739,0.9588329466668186,3.7928874694745547,0.0,0.0,0.0,0.0,0.0,0.0,0.0,0.0,0.0
425280000000,112,425279000000,base_link,-0.0006504246722512349,-0.0006054862351010348,0.706266790790558,0.7079452172029775,0.0,0.0,0.0,0.0,0.0,0.0,0.0,0.0,0.0,-0.008391533769413897,0.018094294464925036,0.006068425058616206,0.0,0.0,0.0,0.0,0.0,0.0,0.0,0.0,0.0,1.0043780899986026,-1.4241655721730266,3.522130505754749,0.0,0.0,0.0,0.0,0.0,0.0,0.0,0.0,0.0
425281000000,113,425280000000,base_link,-0.0006754250994747969,-0.0006412605632965423,0.7062658599771722,0.7079460908971321,0.0,0.0,0.0,0.0,0.0,0.0,0.0,0.0,0.0,-0.07631517052002518,-0.004810914441903354,0.0003648079787412884,0.0,0.0,0.0,0.0,0.0,0.0,0.0,0.0,0.0,-0.6470493241128142,4.475736091274111,22.03804355706772,0.0,0.0,0.0,0.0,0.0,0.0,0.0,0.0,0.0
425282000000,114,425281000000,base_link,-0.0006949354661882478,-0.0006642556276291086,0.7062661562637771,0.7079457552281452,0.0,0.0,0.0,0.0,0.0,0.0,0.0,0.0,0.0,-0.060030912135615545,-0.004891725677532044,0.0011221378934797906,0.0,0.0,0.0,0.0,0.0,0.0,0.0,0.0,0.0,-0.4740413659253327,-0.0311735437392288,3.810866813671222,0.0,0.0,0.0,0.0,0.0,0.0,0.0,0.0,0.0
425283000000,115,425282000000,base_link,-0.0007097170141138636,-0.0006652831843413241,0.7062678124906767,0.7079440872976333,0.0,0.0,0.0,0.0,0.0,0.0,0.0,0.0,0.0,-0.02237331488434143,0.019419010310776384,0.004716228330025985,0.0,0.0,0.0,0.0,0.0,0.0,0.0,0.0,0.0,1.8482124015609356,-2.5471212389293645,4.426730704293315,0.0,0.0,0.0,0.0,0.0,0.0,0.0,0.0,0.0
425284000000,116,425284000000,base_link,-0.000730495289862806,-0.00070001342096834,0.7062705192085695,0.7079413323536773,0.0,0.0,0.0,0.0,0.0,0.0,0.0,0.0,0.0,-0.07316655182438693,-0.013925013535903374,0.00664546070287309,0.0,0.0,0.0,0.0,0.0,0.0,0.0,0.0,0.0,-2.652467284853898,2.944211784571172,19.99716148809753,0.0,0.0,0.0,0.0,0.0,0.0,0.0,0.0,0.0
425287000000,117,425286000000,base_link,-0.000771548164426518,-0.000733721606866413,0.7062749501659568,0.7079368341413724,0.0,0.0,0.0,0.0,0.0,0.0,0.0,0.0,0.0,-0.0625389728857703,-0.003851352479730924,0.002485982039807858,0.0,0.0,0.0,0.0,0.0,0.0,0.0,0.0,0.0,0.6358852176431072,-0.42789940310218433,8.913324317454375,0.0,0.0,0.0,0.0,0.0,0.0,0.0,0.0,0.0
425289000000,118,425288000000,base_link,-0.0008330982716462338,-0.0007790985053386216,0.7062703745518564,0.7079412807452109,0.0,0.0,0.0,0.0,0.0,0.0,0.0,0.0,0.0,-0.037850146262154535,0.014374794287829387,-0.007541078905287371,0.0,0.0,0.0,0.0,0.0,0.0,0.0,0.0,0.0,0.6045921407299711,-0.5323749699057534,0.6128901484499316,0.0,0.0,0.0,0.0,0.0,0.0,0.0,0.0,0.0
425290000000,119,425289000000,base_link,-0.0008519516254891337,-0.0008062454108076538,0.7062706556066686,0.7079409475201248,0.0,0.0,0.0,0.0,0.0,0.0,0.0,0.0,0.0,-0.06504026872675006,-0.01180710078161101,0.0008541267875446405,0.0,0.0,0.0,0.0,0.0,0.0,0.0,0.0,0.0,-1.694845950219845,0.9833401642404538,18.08817170738849,0.0,0.0,0.0,0.0,0.0,0.0,0.0,0.0,0.0
425290000000,120,425290000000,base_link,-0.000870527850779369,-0.0008327753068417271,0.706270986883287,0.7079405637152437,0.0,0.0,0.0,0.0,0.0,0.0,0.0,0.0,0.0,-0.0637764350162904,-0.011324697194177048,0.0009959384334994922,0.0,0.0,0.0,0.0,0.0,0.0,0.0,0.0,0.0,-0.02425558928587369,0.07975566787464981,0.008705517458453826,0.0,0.0,0.0,0.0,0.0,0.0,0.0,0.0,0.0
425292000000,121,425291000000,base_link,-0.000887947159377914,-0.0008436344529924635,0.7062704607282677,0.7079410541375831,0.0,0.0,0.0,0.0,0.0,0.0,0.0,0.0,0.0,-0.0400008797229885,0.009227366282230233,-0.0014333359617444206,0.0,0.0,0.0,0.0,0.0,0.0,0.0,0.0,0.0,0.5549238406000159,-1.7180374728429677,20.582103360934262,0.0,0.0,0.0,0.0,0.0,0.0,0.0,0.0,0.0
425293000000,122,425292000000,base_link,-0.0008397193707613835,-0.0008453134223863768,0.706266802193271,0.7079447608650603,0.0,0.0,0.0,0.0,0.0,0.0,0.0,0.0,0.0,0.06589059027031564,-0.07046917289882673,-0.010497251123250177,0.0,0.0,0.0,0.0,0.0,0.0,0.0,0.0,0.0,-2.647930616146415,-3.8536592843419455,10.007780812711372,0.0,0.0,0.0,0.0,0.0,0.0,0.0,0.0,0.0
425294000000,123,425293000000,base_link,-0.0008723093557869769,-0.0008696092134527493,0.7062621880343177,0.7079492952247229,0.0,0.0,0.0,0.0,0.0,0.0,0.0,0.0,0.0,-0.07591697918763662,0.008701413935568919,-0.012601480555778758,0.0,0.0,0.0,0.0,0.0,0.0,0.0,0.0,0.0,1.4685671812891552,2.3871457370373483,8.446145121162413,0.0,0.0,0.0,0.0,0.0,0.0,0.0,0.0,0.0
425295000000,124,425294000000,base_link,-0.0008203432248056529,-0.0008628290504618609,0.7062705355913607,0.7079410378827573,0.0,0.0,0.0,0.0,0.0,0.0,0.0,0.0,0.0,0.06349380526753322,-0.02798859263809666,0.009006549402782647,0.0,0.0,0.0,0.0,0.0,0.0,0.0,0.0,0.0,-1.554608333793607,-7.999024625937617,17.403153404151528,0.0,0.0,0.0,0.0,0.0,0.0,0.0,0.0,0.0
425296000000,125,425295000000,base_link,-0.0008470868868114478,-0.0008676237845895256,0.7062732425760324,0.7079382999202062,0.0,0.0,0.0,0.0,0.0,0.0,0.0,0.0,0.0,-0.03319933827822455,0.023522975712273013,0.008567741933495118,0.0,0.0,0.0,0.0,0.0,0.0,0.0,0.0,0.0,1.4907357309924654,1.887899006723238,6.285725912505207,0.0,0.0,0.0,0.0,0.0,0.0,0.0,0.0,0.0
425297000000,126,425296000000,base_link,-0.000805281940673813,-0.0008448292408982,0.7062769998725908,0.7079346277980209,0.0,0.0,0.0,0.0,0.0,0.0,0.0,0.0,0.0,0.08292854973835018,-0.011688831512599314,0.0060268660137137095,0.0,0.0,0.0,0.0,0.0,0.0,0.0,0.0,0.0,-0.40559282687005094,-6.151440328327976,13.760327841685006,0.0,0.0,0.0,0.0,0.0,0.0,0.0,0.0,0.0
425298000000,127,425297000000,base_link,-0.0008254671822628388,-0.00083803898768872,0.7062798808419722,0.7079317383847371,0.0,0.0,0.0,0.0,0.0,0.0,0.0,0.0,0.0,-0.015799807547276938,0.036055343903140934,0.008423882955637861,0.0,0.0,0.0,0.0,0.0,0.0,0.0,0.0,0.0,1.869388193208567,1.995182663230347,6.431482981550785,0.0,0.0,0.0,0.0,0.0,0.0,0.0,0.0,0.0
425299000000,128,425298000000,base_link,-0.0007817699068558556,-0.0008190723781761289,0.7062848345273309,0.7079268680258951,0.0,0.0,0.0,0.0,0.0,0.0,0.0,0.0,0.0,0.08179037356831007,-0.02536866465558376,0.011990863428370307,0.0,0.0,0.0,0.0,0.0,0.0,0.0,0.0,0.0,-1.4714908336653425,-4.875479203585899,11.139229216247433,0.0,0.0,0.0,0.0,0.0,0.0,0.0,0.0,0.0
425300000000,129,425299000000,base_link,-0.0008088798092614379,-0.0008152702659506613,0.7062872129525714,0.7079244690413921,0.0,0.0,0.0,0.0,0.0,0.0,0.0,0.0,0.0,-0.020700509035187453,0.03552911124061178,0.007763914951856084,0.0,0.0,0.0,0.0,0.0,0.0,0.0,0.0,0.0,1.8835056511641877,2.7508606882874886,7.510121017746085,0.0,0.0,0.0,0.0,0.0,0.0,0.0,0.0,0.0
425301000000,130,425300000000,base_link,-0.0007598319380083321,-0.0007927171839954396,0.7062929537346657,0.7079188214475255,0.0,0.0,0.0,0.0,0.0,0.0,0.0,0.0,0.0,0.09065228798341474,-0.018513776989207475,0.010434372739114302,0.0,0.0,0.0,0.0,0.0,0.0,0.0,0.0,0.0,-1.30970917170004,-4.90431582120247,11.755733183294248,0.0,0.0,0.0,0.0,0.0,0.0,0.0,0.0,0.0
425302000000,131,425301000000,base_link,-0.0007896620373321222,-0.0007848095225620617,0.7062950742308353,0.7079166819796938,0.0,0.0,0.0,0.0,0.0,0.0,0.0,0.0,0.0,-0.013774853620066767,0.041924742950857616,0.007396790457839992,0.0,0.0,0.0,0.0,0.0,0.0,0.0,0.0,0.0,2.108380109939458,2.877068912768837,7.773439938527026,0.0,0.0,0.0,0.0,0.0,0.0,0.0,0.0,0.0
425303000000,132,425302000000,base_link,-0.0007319356306990783,-0.0007619242949391213,0.706294641069008,0.7079172011886719,0.0,0.0,0.0,0.0,0.0,0.0,0.0,0.0,0.0,0.09489574230803052,-0.027876168550810848,0.008606694543610518,0.0,0.0,0.0,0.0,0.0,0.0,0.0,0.0,0.0,-2.1177587281534596,-3.6949438912120174,9.894475680348819,0.0,0.0,0.0,0.0,0.0,0.0,0.0,0.0,0.0
425304000000,133,425303000000,base_link,-0.0007319356306990783,-0.0007619242949391213,0.706294641069008,0.7079172011886719,0.0,0.0,0.0,0.0,0.0,0.0,0.0,0.0,0.0,0.09489574230803052,-0.027876168550810848,0.008606694543610518,0.0,0.0,0.0,0.0,0.0,0.0,0.0,0.0,0.0,-2.1177587281534596,-3.6949438912120174,9.894475680348819,0.0,0.0,0.0,0.0,0.0,0.0,0.0,0.0,0.0
425306000000,134,425305000000,base_link,-0.0007432565783740771,-0.0007472297709251375,0.706302853996766,0.707909010857576,0.0,0.0,0.0,0.0,0.0,0.0,0.0,0.0,0.0,-0.0189254081536171,0.024604847894071094,-0.0013250751818603779,0.0,0.0,0.0,0.0,0.0,0.0,0.0,0.0,0.0,1.9257801269389463,2.6007127250315247,6.378410693666477,0.0,0.0,0.0,0.0,0.0,0.0,0.0,0.0,0.0
425307000000,135,425306000000,base_link,-0.0007028966411265352,-0.0007268201007007793,0.7063063625117629,0.7079055727597116,0.0,0.0,0.0,0.0,0.0,0.0,0.0,0.0,0.0,0.08290256895835196,-0.022553566205734656,0.008167258313653732,0.0,0.0,0.0,0.0,0.0,0.0,0.0,0.0,0.0,-1.7185916142483688,-4.036612689183064,10.068388319992971,0.0,0.0,0.0,0.0,0.0,0.0,0.0,0.0,0.0
425308000000,136,425307000000,base_link,-0.0007261758547915756,-0.0007209801621657581,0.7063084428717215,0.7079034795679127,0.0,0.0,0.0,0.0,0.0,0.0,0.0,0.0,0.0,-0.016494682571498095,0.030254122463439174,0.012151951796438305,0.0,0.0,0.0,0.0,0.0,0.0,0.0,0.0,0.0,2.3264161996372863,3.7961691836240194,8.798837824166426,0.0,0.0,0.0,0.0,0.0,0.0,0.0,0.0,0.0
425309000000,137,425308000000,base_link,-0.0007261758547915756,-0.0007209801621657581,0.7063084428717215,0.7079034795679127,0.0,0.0,0.0,0.0,0.0,0.0,0.0,0.0,0.0,-0.016494682571498095,0.030254122463439174,0.012151951796438305,0.0,0.0,0.0,0.0,0.0,0.0,0.0,0.0,0.0,2.3264161996372863,3.7961691836240194,8.798837824166426,0.0,0.0,0.0,0.0,0.0,0.0,0.0,0.0,0.0
425311000000,138,425310000000,base_link,-0.0006680163551274305,-0.0006867407832617566,0.7063154604168771,0.7078965690814872,0.0,0.0,0.0,0.0,0.0,0.0,0.0,0.0,0.0,0.054960328356010314,-0.02894896041819233,-0.003200373077063121,0.0,0.0,0.0,0.0,0.0,0.0,0.0,0.0,0.0,-2.2602856596303678,-1.7104449444686434,6.493969410693012,0.0,0.0,0.0,0.0,0.0,0.0,0.0,0.0,0.0
425312000000,139,425311000000,base_link,-0.0006780240837261566,-0.0006754100266511648,0.7063118453447117,0.7079001774476299,0.0,0.0,0.0,0.0,0.0,0.0,0.0,0.0,0.0,0.0018372247153054001,0.03018955981809142,-0.01018605453719839,0.0,0.0,0.0,0.0,0.0,0.0,0.0,0.0,0.0,3.2849157815021193,2.131509849556223,9.210284293242026,0.0,0.0,0.0,0.0,0.0,0.0,0.0,0.0,0.0
425313000000,140,425312000000,base_link,-0.0006515725939320475,-0.0006653499978368962,0.70631089472825,0.7079011602976182,0.0,0.0,0.0,0.0,0.0,0.0,0.0,0.0,0.0,0.05166120713980329,-0.023120552117383845,-0.0027570520943138643,0.0,0.0,0.0,0.0,0.0,0.0,0.0,0.0,0.0,-3.673649867115327,-2.9803789959929046,11.616514845516852,0.0,0.0,0.0,0.0,0.0,0.0,0.0,0.0,0.0
425314000000,141,425313000000,base_link,-0.0006611365287395344,-0.0006646805728318708,0.7063096536405492,0.7079023903564629,0.0,0.0,0.0,0.0,0.0,0.0,0.0,0.0,0.0,-0.012595189378800059,0.01446130259645746,-0.003481124551423671,0.0,0.0,0.0,0.0,0.0,0.0,0.0,0.0,0.0,1.6047810712628428,2.100541981452718,5.267226674220858,0.0,0.0,0.0,0.0,0.0,0.0,0.0,0.0,0.0
425315000000,142,425314000000,base_link,-0.0006201516328842763,-0.0006360110245599186,0.7063113977581864,0.707900713588287,0.0,0.0,0.0,0.0,0.0,0.0,0.0,0.0,0.0,0.09698289475632257,-0.014505032168419009,0.004015036850068602,0.0,0.0,0.0,0.0,0.0,0.0,0.0,0.0,0.0,-1.181468383273437,-4.802693268575764,11.403156652609695,0.0,0.0,0.0,0.0,0.0,0.0,0.0,0.0,0.0
425316000000,143,425315000000,base_link,-0.0006388836585506635,-0.0006375993274494133,0.7063159344655328,0.7078961689505388,0.0,0.0,0.0,0.0,0.0,0.0,0.0,0.0,0.0,-0.0216704407513583,0.011331706309398844,0.009112634733728692,0.0,0.0,0.0,0.0,0.0,0.0,0.0,0.0,0.0,1.25471462146313,5.121018574896968,11.346939722086754,0.0,0.0,0.0,0.0,0.0,0.0,0.0,0.0,0.0
425317000000,144,425316000000,base_link,-0.0006031130040843902,-0.0006198604467450176,0.706320868676667,0.70789129285475,0.0,0.0,0.0,0.0,0.0,0.0,0.0,0.0,0.0,0.07570789028571259,-0.025425580327445803,0.013826070707248932,0.0,0.0,0.0,0.0,0.0,0.0,0.0,0.0,0.0,-1.36537845036678,-3.59695609912632,9.259418159023959,0.0,0.0,0.0,0.0,0.0,0.0,0.0,0.0,0.0
425318000000,145,425317000000,base_link,-0.0006183882841904135,-0.0006173240664618533,0.706327310528509,0.7078848542725649,0.0,0.0,0.0,0.0,0.0,0.0,0.0,0.0,0.0,-0.016743037061794544,0.02278696123057021,0.017560361782082836,0.0,0.0,0.0,0.0,0.0,0.0,0.0,0.0,0.0,1.6913884879055434,4.321785395239883,9.287342363339576,0.0,0.0,0.0,0.0,0.0,0.0,0.0,0.0,0.0
425319000000,146,425318000000,base_link,-0.0005812242383917608,-0.0005979765383775544,0.7063337982634862,0.7078784288513963,0.0,0.0,0.0,0.0,0.0,0.0,0.0,0.0,0.0,0.07953478888778753,-0.0243708122977576,0.018028494998350963,0.0,0.0,0.0,0.0,0.0,0.0,0.0,0.0,0.0,-1.2479647214849072,-4.067697836335375,9.841786831870571,0.0,0.0,0.0,0.0,0.0,0.0,0.0,0.0,0.0
425320000000,147,425319000000,base_link,-0.0005977199257599494,-0.0005969427407378169,0.706340641653752,0.7078715874637295,0.0,0.0,0.0,0.0,0.0,0.0,0.0,0.0,0.0,-0.019149864100430614,0.019773818773279283,0.017958622498888674,0.0,0.0,0.0,0.0,0.0,0.0,0.0,0.0,0.0,1.337334062410579,4.439081380829836,9.703980875613794,0.0,0.0,0.0,0.0,0.0,0.0,0.0,0.0,0.0
425321000000,148,425320000000,base_link,-0.0005977199257599494,-0.0005969427407378169,0.706340641653752,0.7078715874637295,0.0,0.0,0.0,0.0,0.0,0.0,0.0,0.0,0.0,-0.019149864100430614,0.019773818773279283,0.017958622498888674,0.0,0.0,0.0,0.0,0.0,0.0,0.0,0.0,0.0,1.337334062410579,4.439081380829836,9.703980875613794,0.0,0.0,0.0,0.0,0.0,0.0,0.0,0.0,0.0
425322000000,149,425321000000,base_link,-0.0005766629716201173,-0.0005763502439276981,0.7063536233784913,0.7078586681112905,0.0,0.0,0.0,0.0,0.0,0.0,0.0,0.0,0.0,-0.018269797444078646,0.020512335859812634,0.017777678637677062,0.0,0.0,0.0,0.0,0.0,0.0,0.0,0.0,0.0,1.323375064437712,4.299547741190882,9.456510945961934,0.0,0.0,0.0,0.0,0.0,0.0,0.0,0.0,0.0
425323000000,150,425322000000,base_link,-0.0005412550099101629,-0.0005567629553812743,0.7063598497415757,0.7078524985695004,0.0,0.0,0.0,0.0,0.0,0.0,0.0,0.0,0.0,0.07779697782656846,-0.022304654115999807,0.017509966433503575,0.0,0.0,0.0,0.0,0.0,0.0,0.0,0.0,0.0,-1.151291702285645,-4.187603446929822,9.975888198533504,0.0,0.0,0.0,0.0,0.0,0.0,0.0,0.0,0.0
425324000000,151,425323000000,base_link,-0.0005558002972921369,-0.0005560759146696908,0.7063660399956507,0.7078463105833566,0.0,0.0,0.0,0.0,0.0,0.0,0.0,0.0,0.0,-0.01874472762625349,0.01991461017369721,0.017063342469969774,0.0,0.0,0.0,0.0,0.0,0.0,0.0,0.0,0.0,1.2377280787371898,4.291038607538988,9.456455132742771,0.0,0.0,0.0,0.0,0.0,0.0,0.0,0.0,0.0
425325000000,152,425324000000,base_link,-0.0005211566776594404,-0.0005358732218933367,0.7063719475429963,0.7078404572782782,0.0,0.0,0.0,0.0,0.0,0.0,0.0,0.0,0.0,0.07758613557455715,-0.020353938972097977,0.016613344462485878,0.0,0.0,0.0,0.0,0.0,0.0,0.0,0.0,0.0,-1.0722053815292554,-4.234708918911705,10.039586812350924,0.0,0.0,0.0,0.0,0.0,0.0,0.0,0.0,0.0
425325000000,153,425325000000,base_link,-0.0005347371825500407,-0.0005356943039236115,0.7063776228450506,0.7078347837112371,0.0,0.0,0.0,0.0,0.0,0.0,0.0,0.0,0.0,-0.01889190448647822,0.019279801940260674,0.01602282582799404,0.0,0.0,0.0,0.0,0.0,0.0,0.0,0.0,0.0,1.1561653202270405,4.271556224632351,9.4419201088345,0.0,0.0,0.0,0.0,0.0,0.0,0.0,0.0,0.0
425327000000,154,425326000000,base_link,-0.0005010261032403488,-0.00051494670007962,0.7063831287115516,0.7078293291990799,0.0,0.0,0.0,0.0,0.0,0.0,0.0,0.0,0.0,0.077035203239294,-0.018265584844017267,0.015487237722087342,0.0,0.0,0.0,0.0,0.0,0.0,0.0,0.0,0.0,-0.9906405907378922,-4.2308482414628745,10.003537004082393,0.0,0.0,0.0,0.0,0.0,0.0,0.0,0.0,0.0
425328000000,155,425327000000,base_link,-0.0005136805047326888,-0.0005153906671679441,0.7063882228344335,0.7078242360541283,0.0,0.0,0.0,0.0,0.0,0.0,0.0,0.0,0.0,-0.018541485857982678,0.017238987955729524,0.014420601552613793,0.0,0.0,0.0,0.0,0.0,0.0,0.0,0.0,0.0,1.0048247501565175,4.215452013138175,9.345443416255769,0.0,0.0,0.0,0.0,0.0,0.0,0.0,0.0,0.0
425329000000,156,425328000000,base_link,-0.00048058462427838673,-0.0004937428671682774,0.706393179083897,0.7078193285013807,0.0,0.0,0.0,0.0,0.0,0.0,0.0,0.0,0.0,0.077435956671041,-0.0161216393844708,0.01393826843076143,0.0,0.0,0.0,0.0,0.0,0.0,0.0,0.0,0.0,-0.8951143755368305,-4.264989000895951,10.039571335187478,0.0,0.0,0.0,0.0,0.0,0.0,0.0,0.0,0.0
425330000000,157,425329000000,base_link,-0.0004925120221501238,-0.000495042001151089,0.7063976500815784,0.7078148573776543,0.0,0.0,0.0,0.0,0.0,0.0,0.0,0.0,0.0,-0.01872059918966638,0.015003073333394186,0.012656683798844687,0.0,0.0,0.0,0.0,0.0,0.0,0.0,0.0,0.0,0.8670859750020179,4.225384777924413,9.394233732117984,0.0,0.0,0.0,0.0,0.0,0.0,0.0,0.0,0.0
425331000000,158,425330000000,base_link,-0.00046017817749935825,-0.000472652478168171,0.7064020174652608,0.7078105357768346,0.0,0.0,0.0,0.0,0.0,0.0,0.0,0.0,0.0,0.077404689155492,-0.01399454313578083,0.012279191346965621,0.0,0.0,0.0,0.0,0.0,0.0,0.0,0.0,0.0,-0.7924392153977552,-4.265927348995224,10.03449282277269,0.0,0.0,0.0,0.0,0.0,0.0,0.0,0.0,0.0
425332000000,159,425331000000,base_link,-0.00047120978619137724,-0.0004746222603931492,0.7064059003586202,0.7078066520128039,0.0,0.0,0.0,0.0,0.0,0.0,0.0,0.0,0.0,-0.018399854403104935,0.0127898140771366,0.010992408293589743,0.0,0.0,0.0,0.0,0.0,0.0,0.0,0.0,0.0,0.7422922020722488,4.207035133892397,9.368964518956025,0.0,0.0,0.0,0.0,0.0,0.0,0.0,0.0,0.0
425333000000,160,425332000000,base_link,-0.0004395781084558055,-0.00045146748962809,0.7064096938306443,0.7078029015271748,0.0,0.0,0.0,0.0,0.0,0.0,0.0,0.0,0.0,0.07749151156158121,-0.011918604709718908,0.01066137929075978,0.0,0.0,0.0,0.0,0.0,0.0,0.0,0.0,0.0,-0.6848920394755821,-4.2649870151827605,10.010066605375114,0.0,0.0,0.0,0.0,0.0,0.0,0.0,0.0,0.0
425334000000,161,425333000000,base_link,-0.00044998352013036694,-0.0004542736267675054,0.7064131695433441,0.7077994243046758,0.0,0.0,0.0,0.0,0.0,0.0,0.0,0.0,0.0,-0.018695134784561925,0.0107225397266269,0.00984013953403637,0.0,0.0,0.0,0.0,0.0,0.0,0.0,0.0,0.0,0.6452252762007493,4.177991728006422,9.357363598945179,0.0,0.0,0.0,0.0,0.0,0.0,0.0,0.0,0.0
425335000000,162,425334000000,base_link,-0.00041881903461791554,-0.00043022813287123973,0.7064165022592882,0.7077961322514579,0.0,0.0,0.0,0.0,0.0,0.0,0.0,0.0,0.0,0.07808817014733731,-0.009997311945900894,0.00936341164674081,0.0,0.0,0.0,0.0,0.0,0.0,0.0,0.0,0.0,-0.5803304043943309,-4.28953058947749,10.069725117050105,0.0,0.0,0.0,0.0,0.0,0.0,0.0,0.0,0.0
425336000000,163,425335000000,base_link,-0.00042746857210455884,-0.0004318413098111568,0.7064172083906989,0.70779542134235,0.0,0.0,0.0,0.0,0.0,0.0,0.0,0.0,0.0,-0.014524011625433689,0.00993585340239533,0.002010465174782033,0.0,0.0,0.0,0.0,0.0,0.0,0.0,0.0,0.0,0.8198813681941118,4.937051050044416,10.233883441539845,0.0,0.0,0.0,0.0,0.0,0.0,0.0,0.0,0.0
425337000000,164,425336000000,base_link,-0.00042746857210455884,-0.0004318413098111568,0.7064172083906989,0.70779542134235,0.0,0.0,0.0,0.0,0.0,0.0,0.0,0.0,0.0,-0.014524011625433689,0.00993585340239533,0.002010465174782033,0.0,0.0,0.0,0.0,0.0,0.0,0.0,0.0,0.0,0.8198813681941118,4.937051050044416,10.233883441539845,0.0,0.0,0.0,0.0,0.0,0.0,0.0,0.0,0.0
