%time,field.header.seq,field.header.stamp,field.header.frame_id,field.name0,field.name1,field.name2,field.name3,field.position0,field.position1,field.position2,field.position3,field.velocity0,field.velocity1,field.velocity2,field.velocity3,field.effort0,field.effort1,field.effort2,field.effort3
425145000000,13097,425139000000,,BL_TO_BASELINK,BR_TO_BASELINK,FL_TO_BASELINK,FR_TO_BASELINK,0.17298539001809132,0.17136564990498293,-0.17261060596740485,-0.1708966816253561,0.020372388377953275,0.020748377668829716,0.016896036860701034,0.017588712919315748,0.0,0.0,0.0,0.0
425145000000,13098,425140000000,,BL_TO_BASELINK,BR_TO_BASELINK,FL_TO_BASELINK,FR_TO_BASELINK,0.17300365641899162,0.17138264815855475,-0.17261079716250727,-0.17089681310078753,0.01826651493664125,0.01699829355140147,-0.0001912155745743896,-0.00013147609691169238,0.0,0.0,0.0,0.0
425145000000,13099,425141000000,,BL_TO_BASELINK,BR_TO_BASELINK,FL_TO_BASELINK,FR_TO_BASELINK,0.17298617000573735,0.1713633373196286,-0.17263195988193836,-0.170919574414361,-0.01748561044057292,-0.01931054026159463,-0.021161864666919716,-0.0227609963207717,0.0,0.0,0.0,0.0
425145000000,13100,425142000000,,BL_TO_BASELINK,BR_TO_BASELINK,FL_TO_BASELINK,FR_TO_BASELINK,0.17298614277351376,0.17136323884309856,-0.17265176437228824,-0.1709384724150791,-2.7185446425659343e-05,-9.833087013805947e-05,-0.019804565447736868,-0.018898789666898293,0.0,0.0,0.0,0.0
425145000000,13101,425143000000,,BL_TO_BASELINK,BR_TO_BASELINK,FL_TO_BASELINK,FR_TO_BASELINK,0.17300694259372307,0.17138360071069858,-0.17263445317533144,-0.1709211410657554,0.02080344330871999,0.020361678119216478,0.017316609633889025,0.017331073124739377,0.0,0.0,0.0,0.0
425146000000,13102,425144000000,,BL_TO_BASELINK,BR_TO_BASELINK,FL_TO_BASELINK,FR_TO_BASELINK,0.17302684025456028,0.1714030184679487,-0.17263466675172356,-0.17092128773585546,0.01990035778561602,0.01941839639625718,-0.0002136180253096108,-0.00014667241330108827,0.0,0.0,0.0,0.0
425146000000,13103,425145000000,,BL_TO_BASELINK,BR_TO_BASELINK,FL_TO_BASELINK,FR_TO_BASELINK,0.1730096030727859,0.17138449348547447,-0.17265557896462003,-0.17094330857458662,-0.01723721164646428,-0.018522131057057432,-0.020912212549344014,-0.022017983599303,0.0,0.0,0.0,0.0
425147000000,13104,425146000000,,BL_TO_BASELINK,BR_TO_BASELINK,FL_TO_BASELINK,FR_TO_BASELINK,0.1730095771482647,0.1713843994724229,-0.17267459665370044,-0.1709614463611162,-2.5897344426508567e-05,-9.392514305196428e-05,-0.019017764249513736,-0.018138502192354432,0.0,0.0,0.0,0.0
425147000000,13105,425147000000,,BL_TO_BASELINK,BR_TO_BASELINK,FL_TO_BASELINK,FR_TO_BASELINK,0.1730307274014793,0.1714052655344558,-0.1726568705829754,-0.1709435946604776,0.021153966512505052,0.020865779084324687,0.017731618066362524,0.017851318016448858,0.0,0.0,0.0,0.0
425148000000,13106,425148000000,,BL_TO_BASELINK,BR_TO_BASELINK,FL_TO_BASELINK,FR_TO_BASELINK,0.1730506858026608,0.171425015591117,-0.17265708656085632,-0.17094374275584645,0.01996114241934643,0.019750707004961936,-0.00021601881393155942,-0.00014810301993300676,0.0,0.0,0.0,0.0
425149000000,13107,425149000000,,BL_TO_BASELINK,BR_TO_BASELINK,FL_TO_BASELINK,FR_TO_BASELINK,0.17303356208024212,0.1714068596969316,-0.172677843291571,-0.17096541971162882,-0.017123700596335105,-0.018153096609938357,-0.020756686185040795,-0.021674143397772728,0.0,0.0,0.0,0.0
425150000000,13108,425150000000,,BL_TO_BASELINK,BR_TO_BASELINK,FL_TO_BASELINK,FR_TO_BASELINK,0.17303353623836948,0.17140676591045967,-0.17269695655745654,-0.1709835611077759,-2.582408953719778e-05,-9.372930815201158e-05,-0.019113337727250525,-0.01814208024635396,0.0,0.0,0.0,0.0
425151000000,13109,425151000000,,BL_TO_BASELINK,BR_TO_BASELINK,FL_TO_BASELINK,FR_TO_BASELINK,0.17305467268946906,0.17142779764228777,-0.17267921537294928,-0.17096555953749615,0.021140016526457747,0.02103153254977222,0.01774659875871172,0.018001288206569,0.0,0.0,0.0,0.0
425152000000,13110,425152000000,,BL_TO_BASELINK,BR_TO_BASELINK,FL_TO_BASELINK,FR_TO_BASELINK,0.17307450366419896,0.17144754837609533,-0.17267943052085766,-0.1709657071185653,0.01983351840568911,0.019751329875165292,-0.0002151838039043119,-0.00014758928430481932,0.0,0.0,0.0,0.0
425153000000,13111,425153000000,,BL_TO_BASELINK,BR_TO_BASELINK,FL_TO_BASELINK,FR_TO_BASELINK,0.17305731945990832,0.17142945932597264,-0.17270021970867067,-0.1709873315758248,-0.017184024664543305,-0.01808629200804125,-0.020788986189529922,-0.02162167792189028,0.0,0.0,0.0,0.0
425154000000,13112,425154000000,,BL_TO_BASELINK,BR_TO_BASELINK,FL_TO_BASELINK,FR_TO_BASELINK,0.17305729357703203,0.17142936539303832,-0.17271943327522887,-0.17100546683285067,-2.5868086251448763e-05,-9.388998720692016e-05,-0.019213637700562114,-0.01813593723841139,0.0,0.0,0.0,0.0
425155000000,13113,425155000000,,BL_TO_BASELINK,BR_TO_BASELINK,FL_TO_BASELINK,FR_TO_BASELINK,0.17307834013823253,0.1714504335581264,-0.17270176818802963,-0.17098743866579547,0.021050103666652366,0.021067970554602793,0.01767048520882743,0.018027893976301952,0.0,0.0,0.0,0.0
425156000000,13114,425156000000,,BL_TO_BASELINK,BR_TO_BASELINK,FL_TO_BASELINK,FR_TO_BASELINK,0.17309810890216237,0.1714702017068559,-0.17270198291505334,-0.17098758601975028,0.019771272282323803,0.0197687296118233,-0.00021475941882655517,-0.0001473643667849328,0.0,0.0,0.0,0.0
425157000000,13115,425157000000,,BL_TO_BASELINK,BR_TO_BASELINK,FL_TO_BASELINK,FR_TO_BASELINK,0.17308086824767255,0.17145212542975496,-0.17272281483965113,-0.17100920508859296,-0.017240481184208397,-0.018073529481511457,-0.02083172859387635,-0.02161629707066677,0.0,0.0,0.0,0.0
425157000000,13116,425158000000,,BL_TO_BASELINK,BR_TO_BASELINK,FL_TO_BASELINK,FR_TO_BASELINK,0.1730808513276214,0.17145207531661466,-0.17272291350554259,-0.17102773998134957,-1.6906799957017854e-05,-5.00790515757521e-05,-9.868897141491334e-05,-0.018535333390705185,0.0,0.0,0.0,0.0
425160000000,13117,425159000000,,BL_TO_BASELINK,BR_TO_BASELINK,FL_TO_BASELINK,FR_TO_BASELINK,0.17309785083479046,0.1714705414018196,-0.17270664777953915,-0.17101149063209586,0.017131403776380002,0.01855066717391352,0.016303627267463906,0.016290723672848395,0.0,0.0,0.0,0.0
425160000000,13118,425160000000,,BL_TO_BASELINK,BR_TO_BASELINK,FL_TO_BASELINK,FR_TO_BASELINK,0.1731016346891856,0.17148630992546376,-0.17270682591016584,-0.17101161281442945,0.003838395406118321,0.01576992879427879,-0.00017822095500321863,-0.00012218247921229677,0.0,0.0,0.0,0.0
425160000000,13119,425161000000,,BL_TO_BASELINK,BR_TO_BASELINK,FL_TO_BASELINK,FR_TO_BASELINK,0.1731016248573347,0.17147198701376087,-0.17273124127194794,-0.17102923150602667,-9.820319879224465e-06,-0.014327610847289734,-0.024419536506599046,-0.017622526639998526,0.0,0.0,0.0,0.0
425160000000,13120,425162000000,,BL_TO_BASELINK,BR_TO_BASELINK,FL_TO_BASELINK,FR_TO_BASELINK,0.17310159420780202,0.17147186931953673,-0.17275586779741747,-0.1710497451434252,-3.0612712895370514e-05,-0.00011750279827935431,-0.024627244489755874,-0.020513754110135955,0.0,0.0,0.0,0.0
425160000000,13121,425163000000,,BL_TO_BASELINK,BR_TO_BASELINK,FL_TO_BASELINK,FR_TO_BASELINK,0.1731223084732889,0.17149305261551895,-0.1727385921743867,-0.17103174638570628,0.020716782962286583,0.02118310784118289,0.01727835013757814,0.017998605734040947,0.0,0.0,0.0,0.0
425160000000,13122,425164000000,,BL_TO_BASELINK,BR_TO_BASELINK,FL_TO_BASELINK,FR_TO_BASELINK,0.1731407596804937,0.17150980580321562,-0.17273878655911368,-0.17103187996111657,0.018451198267713867,0.016753369263501718,-0.0001944101113227313,-0.00013358142403457202,0.0,0.0,0.0,0.0
425160000000,13123,425165000000,,BL_TO_BASELINK,BR_TO_BASELINK,FL_TO_BASELINK,FR_TO_BASELINK,0.17312344942175084,0.17149064691895521,-0.17275977656135133,-0.17105448980847981,-0.017309006616944213,-0.019158118934893883,-0.020988702392330843,-0.022609080423078545,0.0,0.0,0.0,0.0
425160000000,13124,425166000000,,BL_TO_BASELINK,BR_TO_BASELINK,FL_TO_BASELINK,FR_TO_BASELINK,0.1731234222374427,0.17149054847331247,-0.17277964411649727,-0.17107368124181832,-2.714491638249744e-05,-9.829117548014465e-05,-0.019867620551978653,-0.01919216007864396,0.0,0.0,0.0,0.0
425167000000,13125,425167000000,,BL_TO_BASELINK,BR_TO_BASELINK,FL_TO_BASELINK,FR_TO_BASELINK,0.17314419128670533,0.17151092805556178,-0.1727623575659072,-0.17105635019708743,0.020772219782405784,0.02037950769534127,0.017291518636113362,0.017330927244759525,0.0,0.0,0.0,0.0
425168000000,13126,425168000000,,BL_TO_BASELINK,BR_TO_BASELINK,FL_TO_BASELINK,FR_TO_BASELINK,0.17316398594663607,0.17153023408795232,-0.17276256958097758,-0.1710564962987391,0.019797182128611285,0.019306632895482758,-0.00021207080804156592,-0.00014611259053044431,0.0,0.0,0.0,0.0
425169000000,13127,425169000000,,BL_TO_BASELINK,BR_TO_BASELINK,FL_TO_BASELINK,FR_TO_BASELINK,0.1731466815206728,0.1715117126632526,-0.1727835479640616,-0.17107851599759805,-0.017304395078853525,-0.01851851250891954,-0.020978325139199047,-0.022016788637232738,0.0,0.0,0.0,0.0
425170000000,13128,425170000000,,BL_TO_BASELINK,BR_TO_BASELINK,FL_TO_BASELINK,FR_TO_BASELINK,0.17314665567711796,0.17151161881707022,-0.17280263104696036,-0.17109685765999316,-2.582011143106855e-05,-9.375153832944308e-05,-0.019083151060892686,-0.0183423199025046,0.0,0.0,0.0,0.0
425171000000,13129,425171000000,,BL_TO_BASELINK,BR_TO_BASELINK,FL_TO_BASELINK,FR_TO_BASELINK,0.1731676662678563,0.17153244951808322,-0.17278503276771584,-0.17107906091181935,0.02101413938515797,0.020830389849805113,0.01760372167593327,0.017796361899338305,0.0,0.0,0.0,0.0
425172000000,13130,425172000000,,BL_TO_BASELINK,BR_TO_BASELINK,FL_TO_BASELINK,FR_TO_BASELINK,0.17318755781270845,0.17155212838249234,-0.17278524770626458,-0.17107920859171433,0.01989421508057407,0.01967948546297096,-0.00021498879217643485,-0.00014769071899616015,0.0,0.0,0.0,0.0
425173000000,13131,425173000000,,BL_TO_BASELINK,BR_TO_BASELINK,FL_TO_BASELINK,FR_TO_BASELINK,0.17317037521121215,0.1715339716222033,-0.17280606143255905,-0.17110088974370985,-0.017182600994093425,-0.018153721178907595,-0.020813700729975324,-0.021678105898606224,0.0,0.0,0.0,0.0
425174000000,13132,425174000000,,BL_TO_BASELINK,BR_TO_BASELINK,FL_TO_BASELINK,FR_TO_BASELINK,0.17317034947558163,0.17153387811927345,-0.17282520258637124,-0.17111918598041864,-2.5719316922075824e-05,-9.34396449536537e-05,-0.019141219256169496,-0.018296868189864486,0.0,0.0,0.0,0.0
425175000000,13133,425175000000,,BL_TO_BASELINK,BR_TO_BASELINK,FL_TO_BASELINK,FR_TO_BASELINK,0.17319136425814818,0.1715548849396571,-0.1728075696741529,-0.17110122694752228,0.021018132708916438,0.021006586417981685,0.017638161625922504,0.017958745437577438,0.0,0.0,0.0,0.0
425176000000,13134,425176000000,,BL_TO_BASELINK,BR_TO_BASELINK,FL_TO_BASELINK,FR_TO_BASELINK,0.17321115250673902,0.17157458865134156,-0.1728077840559843,-0.17110137442502626,0.01979075894207387,0.019704303143118978,-0.00021442644221843915,-0.0001474888502588402,0.0,0.0,0.0,0.0
425176000000,13135,425177000000,,BL_TO_BASELINK,BR_TO_BASELINK,FL_TO_BASELINK,FR_TO_BASELINK,0.17319392104186182,0.17155650660957544,-0.1728286188103949,-0.1711229946944659,-0.017231267172177062,-0.018079356413810945,-0.020834537847651848,-0.02161756616655136,0.0,0.0,0.0,0.0
425178000000,13136,425178000000,,BL_TO_BASELINK,BR_TO_BASELINK,FL_TO_BASELINK,FR_TO_BASELINK,0.1731938952759906,0.17155641300464897,-0.17284785141117265,-0.17114127943544055,-2.5751552826362017e-05,-9.355666875791521e-05,-0.019232666478893073,-0.018285368357190974,0.0,0.0,0.0,0.0
425179000000,13137,425179000000,,BL_TO_BASELINK,BR_TO_BASELINK,FL_TO_BASELINK,FR_TO_BASELINK,0.17321483922989334,0.17157746706244037,-0.17283027435267773,-0.1711232824145954,0.02094713332725562,0.021053846467868478,0.0175821191261954,0.01799676843056016,0.0,0.0,0.0,0.0
425180000000,13138,425180000000,,BL_TO_BASELINK,BR_TO_BASELINK,FL_TO_BASELINK,FR_TO_BASELINK,0.1732345673250455,0.17159718847158345,-0.17283048824808578,-0.1711234298058928,0.01973058151073907,0.019721997199339394,-0.0002139343924735075,-0.0001474015831265385,0.0,0.0,0.0,0.0
425181000000,13139,425181000000,,BL_TO_BASELINK,BR_TO_BASELINK,FL_TO_BASELINK,FR_TO_BASELINK,0.17321728192542185,0.17157912138366882,-0.17285136307098714,-0.1711450421796501,-0.017285207468127114,-0.018064394734403084,-0.020874611794584184,-0.02160965985645314,0.0,0.0,0.0,0.0
425182000000,13140,425182000000,,BL_TO_BASELINK,BR_TO_BASELINK,FL_TO_BASELINK,FR_TO_BASELINK,0.17321725614762418,0.17157902775004175,-0.17287063916416923,-0.17116330006833547,-2.5763376483321776e-05,-9.359305722799263e-05,-0.019276158967121117,-0.018258515855000823,0.0,0.0,0.0,0.0
425183000000,13141,425183000000,,BL_TO_BASELINK,BR_TO_BASELINK,FL_TO_BASELINK,FR_TO_BASELINK,0.17323815524285902,0.17160010360385414,-0.17285310015078537,-0.17114528476666546,0.020902275849870294,0.02107563649784853,0.017544082498228773,0.018015043489675236,0.0,0.0,0.0,0.0
425184000000,13142,425184000000,,BL_TO_BASELINK,BR_TO_BASELINK,FL_TO_BASELINK,FR_TO_BASELINK,0.1732578573367487,0.17161984491618743,-0.1728533137116841,-0.17114543208147648,0.019704590147631155,0.019741904948128074,-0.00021360467666571223,-0.00014733072184031082,0.0,0.0,0.0,0.0
425185000000,13143,425185000000,,BL_TO_BASELINK,BR_TO_BASELINK,FL_TO_BASELINK,FR_TO_BASELINK,0.17324054349389506,0.17160178787977554,-0.1728742104443377,-0.17116703767246388,-0.017313656079068655,-0.018054357311831998,-0.020896527045103943,-0.021602889454986035,0.0,0.0,0.0,0.0
425186000000,13144,425186000000,,BL_TO_BASELINK,BR_TO_BASELINK,FL_TO_BASELINK,FR_TO_BASELINK,0.1732405177136851,0.1716016942495946,-0.172893507077287,-0.17118527405254813,-2.5765001696948647e-05,-9.359412434456135e-05,-0.019296698974552565,-0.01823700766096739,0.0,0.0,0.0,0.0
425187000000,13145,425187000000,,BL_TO_BASELINK,BR_TO_BASELINK,FL_TO_BASELINK,FR_TO_BASELINK,0.17326139738836055,0.17162278420649457,-0.17287598492209977,-0.17116724550937956,0.020882859355712158,0.021089735395307143,0.017527229935067123,0.018028280224405932,0.0,0.0,0.0,0.0
425188000000,13146,425188000000,,BL_TO_BASELINK,BR_TO_BASELINK,FL_TO_BASELINK,FR_TO_BASELINK,0.17328108768960782,0.1716425390933427,-0.17287619847802116,-0.17116739283151983,0.01969279918660792,0.019755477559491856,-0.00021359759381783805,-0.00014733898161119197,0.0,0.0,0.0,0.0
425189000000,13147,425189000000,,BL_TO_BASELINK,BR_TO_BASELINK,FL_TO_BASELINK,FR_TO_BASELINK,0.17326376036300495,0.17162448887361847,-0.17289710563269178,-0.17118899300115853,-0.01732714299101493,-0.018047547519986,-0.020906952441510456,-0.021597473924590268,0.0,0.0,0.0,0.0
425190000000,13148,425190000000,,BL_TO_BASELINK,BR_TO_BASELINK,FL_TO_BASELINK,FR_TO_BASELINK,0.1732637345790451,0.17162439524062023,-0.17291641382910594,-0.17120721465627664,-2.576786295870742e-05,-9.359997310207438e-05,-0.019308262681604627,-0.01822228388036389,0.0,0.0,0.0,0.0
425191000000,13149,425191000000,,BL_TO_BASELINK,BR_TO_BASELINK,FL_TO_BASELINK,FR_TO_BASELINK,0.1732846078918211,0.1716454943671062,-0.1728988977014243,-0.17118917671240652,0.020876499167738975,0.021098897459396117,0.0175212020487368,0.018037672442454408,0.0,0.0,0.0,0.0
425192000000,13150,425192000000,,BL_TO_BASELINK,BR_TO_BASELINK,FL_TO_BASELINK,FR_TO_BASELINK,0.17330429303569606,0.1716652578700808,-0.17289911148388448,-0.1711893241103173,0.019687634804845252,0.019764090290342675,-0.00021381614557210854,-0.0001474125226517027,0.0,0.0,0.0,0.0
425193000000,13151,425193000000,,BL_TO_BASELINK,BR_TO_BASELINK,FL_TO_BASELINK,FR_TO_BASELINK,0.1732869590654582,0.1716472111581746,-0.17292002394632,-0.17121092129061033,-0.017333788618432783,-0.0180440432378856,-0.020912262377562735,-0.02159448732765083,0.0,0.0,0.0,0.0
425194000000,13152,425194000000,,BL_TO_BASELINK,BR_TO_BASELINK,FL_TO_BASELINK,FR_TO_BASELINK,0.17328694224751917,0.1716471616067219,-0.17292012173584226,-0.17122949927389186,-1.680225729197224e-05,-4.952243826011546e-05,-9.780893861415299e-05,-0.018578407420077957,0.0,0.0,0.0,0.0
425195000000,13153,425195000000,,BL_TO_BASELINK,BR_TO_BASELINK,FL_TO_BASELINK,FR_TO_BASELINK,0.17330372252119108,0.1716653965810977,-0.17290429453208134,-0.17121405585927008,0.016857916424155107,0.018285588416133713,0.01585131321280967,0.01547715703187434,0.0,0.0,0.0,0.0
425196000000,13154,425196000000,,BL_TO_BASELINK,BR_TO_BASELINK,FL_TO_BASELINK,FR_TO_BASELINK,0.17330722465197024,0.17168174787220636,-0.1729044613360653,-0.17121417027444963,0.0035526710915010154,0.01635254803350826,-0.00016689352670500382,-0.0001144149257771565,0.0,0.0,0.0,0.0
425197000000,13155,425197000000,,BL_TO_BASELINK,BR_TO_BASELINK,FL_TO_BASELINK,FR_TO_BASELINK,0.17329056580120028,0.17166614526044377,-0.1729234594882172,-0.1712330818575225,-0.01666394285047969,-0.015598814197620364,-0.019002409031111105,-0.018907826568122742,0.0,0.0,0.0,0.0
425198000000,13156,425198000000,,BL_TO_BASELINK,BR_TO_BASELINK,FL_TO_BASELINK,FR_TO_BASELINK,0.1732905372976452,0.17166603869594432,-0.1729457961575882,-0.17125545532840647,-2.8466096626069554e-05,-0.00010650920081767268,-0.022336921804299668,-0.022373525717601934,0.0,0.0,0.0,0.0
425199000000,13157,425199000000,,BL_TO_BASELINK,BR_TO_BASELINK,FL_TO_BASELINK,FR_TO_BASELINK,0.17331120676553802,0.1716872039088866,-0.17292739068112173,-0.17123748123863347,0.020670689517371478,0.021164544990248522,0.0184068575732522,0.017973305429151838,0.0,0.0,0.0,0.0
425201000000,13158,425200000000,,BL_TO_BASELINK,BR_TO_BASELINK,FL_TO_BASELINK,FR_TO_BASELINK,0.17332889648626804,0.17170463932655888,-0.17292758116046603,-0.1712376122307786,0.017689747183888875,0.01743544900390468,-0.00019050490146632973,-0.0001309968549004746,0.0,0.0,0.0,0.0
425201000000,13159,425201000000,,BL_TO_BASELINK,BR_TO_BASELINK,FL_TO_BASELINK,FR_TO_BASELINK,0.173310922882969,0.17168604854407032,-0.17294836699292748,-0.17125971687290065,-0.01797405674452497,-0.01859004988132239,-0.02078624198774636,-0.022103885717858377,0.0,0.0,0.0,0.0
425202000000,13160,425202000000,,BL_TO_BASELINK,BR_TO_BASELINK,FL_TO_BASELINK,FR_TO_BASELINK,0.17331089631158036,0.1716859520245242,-0.1729681234147593,-0.1712791265488205,-2.6548251981426546e-05,-9.648548228333512e-05,-0.01975663985710991,-0.019410059110202205,0.0,0.0,0.0,0.0
425203000000,13161,425203000000,,BL_TO_BASELINK,BR_TO_BASELINK,FL_TO_BASELINK,FR_TO_BASELINK,0.17333124745871764,0.1717065563286555,-0.17295062186202514,-0.17126164515477793,0.0203542234429638,0.020604079071441777,0.017506556196375596,0.017481107697181808,0.0,0.0,0.0,0.0
425204000000,13162,425204000000,,BL_TO_BASELINK,BR_TO_BASELINK,FL_TO_BASELINK,FR_TO_BASELINK,0.17335061175275257,0.17172593730694796,-0.17295083046513327,-0.17126178903558031,0.019366484544862533,0.019381580354172097,-0.00020864284111235532,-0.00014388393578204997,0.0,0.0,0.0,0.0
425205000000,13163,425205000000,,BL_TO_BASELINK,BR_TO_BASELINK,FL_TO_BASELINK,FR_TO_BASELINK,0.17333295131157378,0.17170761060168171,-0.1729717008710221,-0.17128367725128246,-0.017660378318169044,-0.018323730936799922,-0.020870306503338595,-0.021885236464345745,0.0,0.0,0.0,0.0
425206000000,13164,425206000000,,BL_TO_BASELINK,BR_TO_BASELINK,FL_TO_BASELINK,FR_TO_BASELINK,0.17333292555969315,0.1717075171438216,-0.17299086064966396,-0.17130203859753212,-2.573013030420304e-05,-9.342725247105457e-05,-0.019159838723747862,-0.018361963606411076,0.0,0.0,0.0,0.0
425208000000,13165,425208000000,,BL_TO_BASELINK,BR_TO_BASELINK,FL_TO_BASELINK,FR_TO_BASELINK,0.17337333090356033,0.17174822018942137,-0.17297344548063265,-0.17128425050175977,0.01968799803728112,0.01968385407242884,-0.00021309035891416486,-0.00014707998156335625,0.0,0.0,0.0,0.0
425209000000,13166,425209000000,,BL_TO_BASELINK,BR_TO_BASELINK,FL_TO_BASELINK,FR_TO_BASELINK,0.1733559361675976,0.17173013332907772,-0.17299423999002528,-0.17130589494020754,-0.01739468811225126,-0.018083903546732998,-0.020794431321610792,-0.0216414707551584,0.0,0.0,0.0,0.0
425210000000,13167,425210000000,,BL_TO_BASELINK,BR_TO_BASELINK,FL_TO_BASELINK,FR_TO_BASELINK,0.17335591045484477,0.1717300399836006,-0.17301344911477656,-0.1713241851169407,-2.5691072114024383e-05,-9.3316280247311e-05,-0.019209187059661705,-0.018290788679050787,0.0,0.0,0.0,0.0
425211000000,13168,425211000000,,BL_TO_BASELINK,BR_TO_BASELINK,FL_TO_BASELINK,FR_TO_BASELINK,0.17337676214929143,0.17175116872710383,-0.17299582077718156,-0.17130612942188872,0.020854818877562374,0.021128551731074068,0.017633348870329222,0.01805546868115423,0.0,0.0,0.0,0.0
425212000000,13169,425212000000,,BL_TO_BASELINK,BR_TO_BASELINK,FL_TO_BASELINK,FR_TO_BASELINK,0.17339644314592917,0.17177083865797993,-0.17299603387708373,-0.1713062764956481,0.019683494946511094,0.019670653935873042,-0.00021313908210233296,-0.00014707948120902883,0.0,0.0,0.0,0.0
425213000000,13170,425213000000,,BL_TO_BASELINK,BR_TO_BASELINK,FL_TO_BASELINK,FR_TO_BASELINK,0.1733790882665467,0.1717527909191654,-0.17301687989790437,-0.1713278748410394,-0.017354651024859055,-0.018044999479548046,-0.020845769949775085,-0.02159558918737105,0.0,0.0,0.0,0.0
425214000000,13171,425214000000,,BL_TO_BASELINK,BR_TO_BASELINK,FL_TO_BASELINK,FR_TO_BASELINK,0.1733790625154672,0.17175269740801458,-0.17303617051510223,-0.17134618757059616,-2.5729937838541578e-05,-9.348357608091745e-05,-0.0192906808532668,-0.01831333704852027,0.0,0.0,0.0,0.0
425215000000,13172,425215000000,,BL_TO_BASELINK,BR_TO_BASELINK,FL_TO_BASELINK,FR_TO_BASELINK,0.17339991402457056,0.17177381938893888,-0.17301860746935738,-0.17132813488625676,0.020854603503334696,0.021121798700649695,0.017568038297619472,0.01805246769901499,0.0,0.0,0.0,0.0
425216000000,13173,425216000000,,BL_TO_BASELINK,BR_TO_BASELINK,FL_TO_BASELINK,FR_TO_BASELINK,0.17341957364441374,0.17179349090350637,-0.17301882032848503,-0.17132828177274906,0.019662085665011604,0.019672224245297097,-0.00021289494323432911,-0.00014689401351740058,0.0,0.0,0.0,0.0
425217000000,13174,425217000000,,BL_TO_BASELINK,BR_TO_BASELINK,FL_TO_BASELINK,FR_TO_BASELINK,0.17340220798746397,0.1717754390381918,-0.17303972132260803,-0.17134988164662612,-0.017365439430939943,-0.01804912702654611,-0.020900756095368966,-0.021597117029733985,0.0,0.0,0.0,0.0
425218000000,13175,425218000000,,BL_TO_BASELINK,BR_TO_BASELINK,FL_TO_BASELINK,FR_TO_BASELINK,0.17340218222319148,0.17177534546967532,-0.17305904807285444,-0.17136818965763378,-2.5743528988705217e-05,-9.354215418913223e-05,-0.019326814209100512,-0.018308617456726167,0.0,0.0,0.0,0.0
425219000000,13176,425219000000,,BL_TO_BASELINK,BR_TO_BASELINK,FL_TO_BASELINK,FR_TO_BASELINK,0.17342302352451,0.1717964578732607,-0.17304152683129015,-0.1713501447046326,0.020844397959819117,0.021112212984195654,0.017526237179959082,0.01804472537263222,0.0,0.0,0.0,0.0
425222000000,13177,425220000000,,BL_TO_BASELINK,BR_TO_BASELINK,FL_TO_BASELINK,FR_TO_BASELINK,0.17344267792504553,0.17181614630305386,-0.17304173962124647,-0.17135029153564396,0.01965687034223478,0.019689136005335717,-0.0002128228229203999,-0.00014684021975172254,0.0,0.0,0.0,0.0
425223000000,13178,425223000000,,BL_TO_BASELINK,BR_TO_BASELINK,FL_TO_BASELINK,FR_TO_BASELINK,0.17344612090534195,0.1718191109957239,-0.17306450408973628,-0.17137214162550052,0.020843629705457098,0.02111137043777887,0.017509529412481295,0.018045050993346523,0.0,0.0,0.0,0.0
425224000000,13179,425224000000,,BL_TO_BASELINK,BR_TO_BASELINK,FL_TO_BASELINK,FR_TO_BASELINK,0.1734657762354992,0.1718388161123725,-0.1730647168636752,-0.1713722884402049,0.019657805324328915,0.019705820520010426,-0.00021280438682774738,-0.00014682536395359616,0.0,0.0,0.0,0.0
425225000000,13180,425225000000,,BL_TO_BASELINK,BR_TO_BASELINK,FL_TO_BASELINK,FR_TO_BASELINK,0.17344840419454854,0.17182076455547612,-0.17308565601391468,-0.17139388799660793,-0.017371836670007582,-0.018048863401344872,-0.020938927040710122,-0.02159684151745088,0.0,0.0,0.0,0.0
425226000000,13181,425226000000,,BL_TO_BASELINK,BR_TO_BASELINK,FL_TO_BASELINK,FR_TO_BASELINK,0.1734483784269365,0.1718206709787422,-0.17310500230660697,-0.17141217018861177,-2.5747004275846613e-05,-9.355157405362483e-05,-0.01934635702833368,-0.01828280046442299,0.0,0.0,0.0,0.0
425227000000,13182,425227000000,,BL_TO_BASELINK,BR_TO_BASELINK,FL_TO_BASELINK,FR_TO_BASELINK,0.17346922289830324,0.17184178469059042,-0.17308750247826055,-0.17139412196297688,0.02084758161225979,0.02111349687735853,0.017504835990311517,0.0180479706308022,0.0,0.0,0.0,0.0
425228000000,13183,425228000000,,BL_TO_BASELINK,BR_TO_BASELINK,FL_TO_BASELINK,FR_TO_BASELINK,0.17348888037162968,0.17186150403314837,-0.17308771523449273,-0.17139426876039732,0.01965994961647441,0.019720044443162246,-0.0002127846804624023,-0.00014680927735641683,0.0,0.0,0.0,0.0
425229000000,13184,425229000000,,BL_TO_BASELINK,BR_TO_BASELINK,FL_TO_BASELINK,FR_TO_BASELINK,0.17347150992747107,0.17184345443560556,-0.17310865785583296,-0.17141586692287358,-0.0173702442509118,-0.0180469146388554,-0.02094240303425412,-0.021595457229356907,0.0,0.0,0.0,0.0
425230000000,13185,425230000000,,BL_TO_BASELINK,BR_TO_BASELINK,FL_TO_BASELINK,FR_TO_BASELINK,0.1734714841587488,0.17184336085996055,-0.1731280065040206,-0.17143413900226445,-2.5748027369786042e-05,-9.355075182025316e-05,-0.019348712629676246,-0.01827268922721833,0.0,0.0,0.0,0.0
425231000000,13186,425231000000,,BL_TO_BASELINK,BR_TO_BASELINK,FL_TO_BASELINK,FR_TO_BASELINK,0.1734923340486949,0.17186447683772865,-0.17311050626256197,-0.1714160879360831,0.02085301444342772,0.021115758851310458,0.017505269276745453,0.018050807478821866,0.0,0.0,0.0,0.0
425232000000,13187,425232000000,,BL_TO_BASELINK,BR_TO_BASELINK,FL_TO_BASELINK,FR_TO_BASELINK,0.17351199402848216,0.17188420912876445,-0.17311071899524144,-0.1714162347118764,0.019662457181441755,0.019732989933787526,-0.00021275961986210942,-0.00014678866205826424,0.0,0.0,0.0,0.0
425233000000,13188,425233000000,,BL_TO_BASELINK,BR_TO_BASELINK,FL_TO_BASELINK,FR_TO_BASELINK,0.17349462559027806,0.17186616097602858,-0.17313166210721498,-0.1714378320990475,-0.017368242358042532,-0.018045478844796695,-0.02094289811707991,-0.021594690165502323,0.0,0.0,0.0,0.0
425234000000,13189,425234000000,,BL_TO_BASELINK,BR_TO_BASELINK,FL_TO_BASELINK,FR_TO_BASELINK,0.17349459982052728,0.17186606740211374,-0.17315101109866937,-0.17145609533060036,-2.574893602502043e-05,-9.354917623221812e-05,-0.01934905600184879,-0.018263842814716765,0.0,0.0,0.0,0.0
425235000000,13190,425235000000,,BL_TO_BASELINK,BR_TO_BASELINK,FL_TO_BASELINK,FR_TO_BASELINK,0.17351545565735726,0.17188718531005254,-0.1731335080150176,-0.17143804189499878,0.02085896748629989,0.021117687348417034,0.01750811103232949,0.01805317477800775,0.0,0.0,0.0,0.0
425236000000,13191,425236000000,,BL_TO_BASELINK,BR_TO_BASELINK,FL_TO_BASELINK,FR_TO_BASELINK,0.1735351184041818,0.17190693006184965,-0.17313372072023636,-0.17143818864683613,0.019665225348002406,0.019745447587267907,-0.00021273097979515945,-0.00014676554037009598,0.0,0.0,0.0,0.0
425237000000,13192,425237000000,,BL_TO_BASELINK,BR_TO_BASELINK,FL_TO_BASELINK,FR_TO_BASELINK,0.1735177521066742,0.1718888829787435,-0.17315466292993964,-0.17145978570641507,-0.017366102726312175,-0.018044419226557112,-0.020941996998491925,-0.021594371907376855,0.0,0.0,0.0,0.0
425238000000,13193,425238000000,,BL_TO_BASELINK,BR_TO_BASELINK,FL_TO_BASELINK,FR_TO_BASELINK,0.17351772633608853,0.17188878940724628,-0.17317401102348828,-0.1714780408420511,-2.574963877743225e-05,-9.354684236648203e-05,-0.01934815821420037,-0.01825574837374702,0.0,0.0,0.0,0.0
425239000000,13194,425239000000,,BL_TO_BASELINK,BR_TO_BASELINK,FL_TO_BASELINK,FR_TO_BASELINK,0.17353858832525937,0.1719099090127587,-0.17315650396572924,-0.17145998537119667,0.02086512590015926,0.021119384581976867,0.017512084051277944,0.018055209335009665,0.0,0.0,0.0,0.0
425240000000,13195,425240000000,,BL_TO_BASELINK,BR_TO_BASELINK,FL_TO_BASELINK,FR_TO_BASELINK,0.1735582539975562,0.1719296659546199,-0.1731567166417216,-0.1714601320982574,0.019668156160959814,0.019757634006448744,-0.00021269991449148623,-0.00014674398995061927,0.0,0.0,0.0,0.0
425241000000,13196,425241000000,,BL_TO_BASELINK,BR_TO_BASELINK,FL_TO_BASELINK,FR_TO_BASELINK,0.17354088991060745,0.17191161971755875,-0.1731776572592496,-0.1714817291042614,-0.017363893163286487,-0.018043583349779763,-0.020940405804317466,-0.021594327920524813,0.0,0.0,0.0,0.0
425242000000,13197,425242000000,,BL_TO_BASELINK,BR_TO_BASELINK,FL_TO_BASELINK,FR_TO_BASELINK,0.17354086413931835,0.17191152614879712,-0.17319700371791047,-0.17149997667362626,-2.5750209331501517e-05,-9.354414229342453e-05,-0.01934652345281034,-0.01824818356772733,0.0,0.0,0.0,0.0
425243000000,13198,425243000000,,BL_TO_BASELINK,BR_TO_BASELINK,FL_TO_BASELINK,FR_TO_BASELINK,0.17370212014908226,0.17207229100161925,-0.1730396049264149,-0.17134300863811447,0.16125624740725553,0.16076386725893538,0.15739903746290204,0.15696708147454366,0.0,0.0,0.0,0.0
425246000000,13199,425244000000,,BL_TO_BASELINK,BR_TO_BASELINK,FL_TO_BASELINK,FR_TO_BASELINK,0.1741019731129061,0.17247174641281937,-0.17275782170139298,-0.1710596527780739,0.3998529841089991,0.39945543447065496,0.2817832440947807,0.2833558781196979,0.0,0.0,0.0,0.0
425246000000,13200,425245000000,,BL_TO_BASELINK,BR_TO_BASELINK,FL_TO_BASELINK,FR_TO_BASELINK,0.17470174710426356,0.17307090167668804,-0.1723097012555188,-0.17060806190376532,0.5997740150819315,0.5991552964523387,0.4481147667608413,0.45158384260040907,0.0,0.0,0.0,0.0
425246000000,13201,425246000000,,BL_TO_BASELINK,BR_TO_BASELINK,FL_TO_BASELINK,FR_TO_BASELINK,0.1755014911458419,0.17386994225127061,-0.17167389057645543,-0.16996981154136304,0.79974407633263,0.7990406162551704,0.6358023599810476,0.6382423447734118,0.0,0.0,0.0,0.0
425247000000,13202,425247000000,,BL_TO_BASELINK,BR_TO_BASELINK,FL_TO_BASELINK,FR_TO_BASELINK,0.17643493893232076,0.17480271952698256,-0.17088573611849078,-0.1691786609098065,0.9334478319207867,0.9327773251841731,0.7881449815312369,0.7911408519499983,0.0,0.0,0.0,0.0
425248000000,13203,425248000000,,BL_TO_BASELINK,BR_TO_BASELINK,FL_TO_BASELINK,FR_TO_BASELINK,0.17736845526520018,0.17573575293834232,-0.1700430093615406,-0.1683331839635871,0.9335163755462945,0.9330334541691252,0.842717635060291,0.8454677732156254,0.0,0.0,0.0,0.0
425249000000,13204,425249000000,,BL_TO_BASELINK,BR_TO_BASELINK,FL_TO_BASELINK,FR_TO_BASELINK,0.17830203199056083,0.17666901255995526,-0.16918002592954196,-0.16746766704137883,0.9335767696738682,0.9332596673627866,0.8629791174063889,0.8655125747668242,0.0,0.0,0.0,0.0
425250000000,13205,425250000000,,BL_TO_BASELINK,BR_TO_BASELINK,FL_TO_BASELINK,FR_TO_BASELINK,0.17923562399527349,0.17760232933308373,-0.1683069879121346,-0.16659243246017486,0.9335920533266002,0.9333168274285305,0.8730353827732471,0.8752337909533379,0.0,0.0,0.0,0.0
425251000000,13206,425251000000,,BL_TO_BASELINK,BR_TO_BASELINK,FL_TO_BASELINK,FR_TO_BASELINK,0.18016922593674511,0.17853568344048565,-0.16743035284016106,-0.1657139494465394,0.9336019958976872,0.9333541745092161,0.8766354860828605,0.8784862637865206,0.0,0.0,0.0,0.0
425252000000,13207,425252000000,,BL_TO_BASELINK,BR_TO_BASELINK,FL_TO_BASELINK,FR_TO_BASELINK,0.1811028300785411,0.17946904562354415,-0.1665524245758805,-0.16483422491685307,0.9336041980016674,0.9333622514591177,0.8779303297656544,0.8797234504461453,0.0,0.0,0.0,0.0
425253000000,13208,425253000000,,BL_TO_BASELINK,BR_TO_BASELINK,FL_TO_BASELINK,FR_TO_BASELINK,0.18203643517795953,0.18040241124393575,-0.16567414465276542,-0.16395420926283766,0.9336051602578926,0.9333656958074079,0.878283093772665,0.8800151677871932,0.0,0.0,0.0,0.0
425254000000,13209,425254000000,,BL_TO_BASELINK,BR_TO_BASELINK,FL_TO_BASELINK,FR_TO_BASELINK,0.1829700402323935,0.18133577657878686,-0.1647957926129946,-0.1630741798745774,0.9336051193592796,0.933365413826659,0.8783549341932531,0.8800287847397602,0.0,0.0,0.0,0.0
425256000000,13210,425255000000,,BL_TO_BASELINK,BR_TO_BASELINK,FL_TO_BASELINK,FR_TO_BASELINK,0.18390364510879564,0.18226914115695436,-0.16391743832038763,-0.16219422542780038,0.9336049422681857,0.9333646455340562,0.8783512297733201,0.8799514758037864,0.0,0.0,0.0,0.0
425256000000,13211,425256000000,,BL_TO_BASELINK,BR_TO_BASELINK,FL_TO_BASELINK,FR_TO_BASELINK,0.1848372497463382,0.1832025047544894,-0.16303908757273167,-0.16131434090727925,0.9336047082434092,0.9333636700203438,0.8783477935335888,0.8798815891033807,0.0,0.0,0.0,0.0
425257000000,13212,425257000000,,BL_TO_BASELINK,BR_TO_BASELINK,FL_TO_BASELINK,FR_TO_BASELINK,0.18577085418094796,0.1841358674983633,-0.1621607199765922,-0.16043449507037177,0.9336045102784648,0.9333628213098579,0.8783646095960255,0.8798428766640939,0.0,0.0,0.0,0.0
425257000000,13213,425258000000,,BL_TO_BASELINK,BR_TO_BASELINK,FL_TO_BASELINK,FR_TO_BASELINK,0.18670445846111772,0.18506922956283223,-0.16128230834589452,-0.15955464845488976,0.9336043610295526,0.9333621470801458,0.8784086159507297,0.8798436288691366,0.0,0.0,0.0,0.0
425259000000,13214,425259000000,,BL_TO_BASELINK,BR_TO_BASELINK,FL_TO_BASELINK,FR_TO_BASELINK,0.1876380626407732,0.18600259114132633,-0.16040382584091084,-0.15867476311612538,0.9336042659265453,0.9333616664990988,0.8784794645904342,0.8798823250491447,0.0,0.0,0.0,0.0
425260000000,13215,425260000000,,BL_TO_BASELINK,BR_TO_BASELINK,FL_TO_BASELINK,FR_TO_BASELINK,0.1885716667686923,0.18693595240817373,-0.1595252489210095,-0.15779480532653878,0.9336042198192246,0.9333613604552248,0.8785738529467,0.8799547538123088,0.0,0.0,0.0,0.0
425261000000,13216,425261000000,,BL_TO_BASELINK,BR_TO_BASELINK,FL_TO_BASELINK,FR_TO_BASELINK,0.18950527088691693,0.18786931351302982,-0.15864655788601834,-0.1569147470364909,0.9336042159735782,0.9333612042824629,0.8786879427497231,0.8800552339308374,0.0,0.0,0.0,0.0
425262000000,13217,425262000000,,BL_TO_BASELINK,BR_TO_BASELINK,FL_TO_BASELINK,FR_TO_BASELINK,0.1906158664213864,0.18903354383219284,-0.15754888318851634,-0.15606475169346457,1.0468221345285253,1.0503087944686094,1.033338119254731,1.0339419398819036,0.0,0.0,0.0,0.0
425263000000,13218,425263000000,,BL_TO_BASELINK,BR_TO_BASELINK,FL_TO_BASELINK,FR_TO_BASELINK,0.19164131072471235,0.19003975269059303,-0.15661183261784828,-0.1551284889051514,1.027304769081846,1.0016244711084097,0.9369983400681791,0.9362140229408374,0.0,0.0,0.0,0.0
425264000000,13219,425264000000,,BL_TO_BASELINK,BR_TO_BASELINK,FL_TO_BASELINK,FR_TO_BASELINK,0.19263509683290891,0.19097285004506492,-0.1556786738334477,-0.15419513811289942,0.9937886105663056,0.9330976876409635,0.9331580126867529,0.933349997199452,0.0,0.0,0.0,0.0
425265000000,13220,425265000000,,BL_TO_BASELINK,BR_TO_BASELINK,FL_TO_BASELINK,FR_TO_BASELINK,0.19359816290344067,0.1919409197873332,-0.15473064501457312,-0.15324982447822766,0.963052362580276,0.9680631541763812,0.9480178272186641,0.9453049047441643,0.0,0.0,0.0,0.0
425266000000,13221,425266000000,,BL_TO_BASELINK,BR_TO_BASELINK,FL_TO_BASELINK,FR_TO_BASELINK,0.19453188543071587,0.19290483492908095,-0.153797196832949,-0.15231630733440404,0.9337234634409342,0.9639158968128801,0.9334458635604281,0.9335148519430934,0.0,0.0,0.0,0.0
425269000000,13222,425267000000,,BL_TO_BASELINK,BR_TO_BASELINK,FL_TO_BASELINK,FR_TO_BASELINK,0.19548292067068918,0.19384642963999887,-0.15285469842620358,-0.15138269020748396,0.9510342640397461,0.9415966526351794,0.9424966854662055,0.9336155834205285,0.0,0.0,0.0,0.0
425269000000,13223,425268000000,,BL_TO_BASELINK,BR_TO_BASELINK,FL_TO_BASELINK,FR_TO_BASELINK,0.19641661111136255,0.19478012170660985,-0.15192100634361072,-0.15044899719586624,0.9336921743955442,0.9336921256628711,0.9336921199485008,0.9336920908410241,0.0,0.0,0.0,0.0
425269000000,13224,425269000000,,BL_TO_BASELINK,BR_TO_BASELINK,FL_TO_BASELINK,FR_TO_BASELINK,0.19736882088481345,0.19572406221488858,-0.15097446117890012,-0.14951420339539823,0.9522102299483916,0.9439412446420742,0.946544178161452,0.9347961257046741,0.0,0.0,0.0,0.0
425270000000,13225,425270000000,,BL_TO_BASELINK,BR_TO_BASELINK,FL_TO_BASELINK,FR_TO_BASELINK,0.19831084019724,0.19665771371656593,-0.15004080068146664,-0.14858118498052875,0.9420195869313701,0.933651672486919,0.933660433968538,0.9330181391868916,0.0,0.0,0.0,0.0
425271000000,13226,425271000000,,BL_TO_BASELINK,BR_TO_BASELINK,FL_TO_BASELINK,FR_TO_BASELINK,0.19924450266699179,0.19759128326155384,-0.14913445139487091,-0.14764738682051526,0.9336630399721674,0.9335696775656429,0.9063487205361189,0.9337973602200474,0.0,0.0,0.0,0.0
425272000000,13227,425272000000,,BL_TO_BASELINK,BR_TO_BASELINK,FL_TO_BASELINK,FR_TO_BASELINK,0.20020678141368098,0.19853713900822445,-0.14820072921389382,-0.1467044525461274,0.9580134620412886,0.9437851844313424,0.9337499556146659,0.9407062133302176,0.0,0.0,0.0,0.0
425273000000,13228,425273000000,,BL_TO_BASELINK,BR_TO_BASELINK,FL_TO_BASELINK,FR_TO_BASELINK,0.20113697357660243,0.19947107359863114,-0.14727401229347148,-0.14577080095462414,0.9301684512540547,0.9339357356943592,0.9266968836783241,0.9336513370209586,0.0,0.0,0.0,0.0
425274000000,13229,425274000000,,BL_TO_BASELINK,BR_TO_BASELINK,FL_TO_BASELINK,FR_TO_BASELINK,0.20207070769644364,0.2004417790872246,-0.14634063256711727,-0.1448373193774719,0.9337343782865625,0.970705614006628,0.933378042949891,0.9334808476711824,0.0,0.0,0.0,0.0
425276000000,13230,425275000000,,BL_TO_BASELINK,BR_TO_BASELINK,FL_TO_BASELINK,FR_TO_BASELINK,0.20297203244008521,0.2013410348116791,-0.14543999916337125,-0.14394210279470254,0.9080753684205686,0.9152130506057778,0.9054594768440932,0.9121030593297034,0.0,0.0,0.0,0.0
425277000000,13231,425277000000,,BL_TO_BASELINK,BR_TO_BASELINK,FL_TO_BASELINK,FR_TO_BASELINK,0.20483937968072308,0.20324132687787166,-0.14357267111200223,-0.14207298769336596,0.9337181838371549,0.9663636001888173,0.9334279456611564,0.933520888842793,0.0,0.0,0.0,0.0
425278000000,13232,425278000000,,BL_TO_BASELINK,BR_TO_BASELINK,FL_TO_BASELINK,FR_TO_BASELINK,0.2057465009676136,0.20416198229818683,-0.14266084479927343,-0.14117558836854904,0.9289470155693174,0.9341518862073301,0.9303085744532157,0.9193084502552572,0.0,0.0,0.0,0.0
425279000000,13233,425279000000,,BL_TO_BASELINK,BR_TO_BASELINK,FL_TO_BASELINK,FR_TO_BASELINK,0.20668009539434617,0.2051074889405191,-0.14172734473589266,-0.14023181779160598,0.9336179264344369,0.9456660287540636,0.93350520567821,0.9440038364731438,0.0,0.0,0.0,0.0
425280000000,13234,425280000000,,BL_TO_BASELINK,BR_TO_BASELINK,FL_TO_BASELINK,FR_TO_BASELINK,0.20761363684130707,0.20604090685009968,-0.1408334189669329,-0.1392974145699739,0.9335413328687607,0.933419037687833,0.893917991617328,0.9344070536808037,0.0,0.0,0.0,0.0
425281000000,13235,425281000000,,BL_TO_BASELINK,BR_TO_BASELINK,FL_TO_BASELINK,FR_TO_BASELINK,0.20857698468178487,0.2070077446067824,-0.13987065215674122,-0.13833107892323415,0.951032545922952,0.9532869321299864,0.9502579442534048,0.9538365230785597,0.0,0.0,0.0,0.0
425282000000,13236,425282000000,,BL_TO_BASELINK,BR_TO_BASELINK,FL_TO_BASELINK,FR_TO_BASELINK,0.20950835342420593,0.2079416396691487,-0.13893673969037756,-0.1373960872512665,0.9313806048140103,0.9338874673688465,0.9338953056374697,0.9345346878811188,0.0,0.0,0.0,0.0
425283000000,13237,425283000000,,BL_TO_BASELINK,BR_TO_BASELINK,FL_TO_BASELINK,FR_TO_BASELINK,0.2104420813247847,0.2088754166879463,-0.13803461017713925,-0.13646249804764032,0.9337302349866063,0.933785889838296,0.9021224735808574,0.9335822436506467,0.0,0.0,0.0,0.0
425284000000,13238,425284000000,,BL_TO_BASELINK,BR_TO_BASELINK,FL_TO_BASELINK,FR_TO_BASELINK,0.21139976685202022,0.20981878268474485,-0.13710073504904052,-0.13551606417994133,0.9523033235871323,0.940690877426478,0.9339071480156147,0.943596056311047,0.0,0.0,0.0,0.0
425285000000,13239,425285000000,,BL_TO_BASELINK,BR_TO_BASELINK,FL_TO_BASELINK,FR_TO_BASELINK,0.2123233928959367,0.21075275282918948,-0.13617766306401347,-0.13458222916527074,0.9236065265093415,0.9339641170289925,0.9230238444607792,0.9338565557383965,0.0,0.0,0.0,0.0
425286000000,13240,425286000000,,BL_TO_BASELINK,BR_TO_BASELINK,FL_TO_BASELINK,FR_TO_BASELINK,0.21325720155620775,0.21168962483701037,-0.13523867300844028,-0.13364890438726018,0.9338085933334965,0.9368777704772384,0.9390008459232646,0.9333255998777659,0.0,0.0,0.0,0.0
425287000000,13241,425287000000,,BL_TO_BASELINK,BR_TO_BASELINK,FL_TO_BASELINK,FR_TO_BASELINK,0.21419090086605674,0.21264230789635974,-0.13430505832519124,-0.13271525778579019,0.9336994101565133,0.952680459045264,0.9336078910199483,0.9336465918884307,0.0,0.0,0.0,0.0
425288000000,13242,425288000000,,BL_TO_BASELINK,BR_TO_BASELINK,FL_TO_BASELINK,FR_TO_BASELINK,0.21512462869368765,0.2135653524293888,-0.13339360204617545,-0.13177177395141992,0.9336740187740653,0.9249000828515078,0.9128374038482976,0.9263802457167273,0.0,0.0,0.0,0.0
425289000000,13243,425289000000,,BL_TO_BASELINK,BR_TO_BASELINK,FL_TO_BASELINK,FR_TO_BASELINK,0.21605831427755362,0.21449901659459236,-0.13247927930918912,-0.13083806196573633,0.9336856665859623,0.9336651750537847,0.9143215660585393,0.933711857648078,0.0,0.0,0.0,0.0
425290000000,13244,425290000000,,BL_TO_BASELINK,BR_TO_BASELINK,FL_TO_BASELINK,FR_TO_BASELINK,0.2169919950539212,0.21544914051433395,-0.13152670683752365,-0.12988376343324148,0.9336808493747742,0.9501222014840184,0.9525712973125173,0.9542980392516447,0.0,0.0,0.0,0.0
425290000000,13245,425291000000,,BL_TO_BASELINK,BR_TO_BASELINK,FL_TO_BASELINK,FR_TO_BASELINK,0.21792568711633376,0.2163828314476257,-0.13059300782736827,-0.1289500713617331,0.9336921250162398,0.9336921150055137,0.9336921464098116,0.933692123944548,0.0,0.0,0.0,0.0
425292000000,13246,425292000000,,BL_TO_BASELINK,BR_TO_BASELINK,FL_TO_BASELINK,FR_TO_BASELINK,0.2188593583197198,0.21731194180308222,-0.12966373532503628,-0.12801853920266293,0.9336726019380818,0.9291156350684295,0.9292678523723864,0.9318311432876092,0.0,0.0,0.0,0.0
425293000000,13247,425293000000,,BL_TO_BASELINK,BR_TO_BASELINK,FL_TO_BASELINK,FR_TO_BASELINK,0.21979296498583967,0.2182453576603578,-0.12873053248746835,-0.1271956661247211,0.93360674847083,0.9334160871260384,0.9331959816360575,0.8229216698624394,0.0,0.0,0.0,0.0
425294000000,13248,425294000000,,BL_TO_BASELINK,BR_TO_BASELINK,FL_TO_BASELINK,FR_TO_BASELINK,0.22077050973750012,0.21917881530920003,-0.12779705678648856,-0.12626211459881276,0.9728606556889376,0.9334853348537929,0.9334966185074153,0.9335587023076677,0.0,0.0,0.0,0.0
425295000000,13249,425295000000,,BL_TO_BASELINK,BR_TO_BASELINK,FL_TO_BASELINK,FR_TO_BASELINK,0.221704021063716,0.22011182666062457,-0.12694193579708557,-0.12545456235961439,0.9335375665327028,0.9331082149537285,0.8583566278961579,0.8385557517149117,0.0,0.0,0.0,0.0
425296000000,13250,425296000000,,BL_TO_BASELINK,BR_TO_BASELINK,FL_TO_BASELINK,FR_TO_BASELINK,0.2226928891088944,0.22104523205846505,-0.12600851526325219,-0.12452104299198741,0.9770968336301583,0.9334747948708546,0.9334842517829174,0.93354786820867,0.0,0.0,0.0,0.0
425297000000,13251,425297000000,,BL_TO_BASELINK,BR_TO_BASELINK,FL_TO_BASELINK,FR_TO_BASELINK,0.22362643542040228,0.22197843486790436,-0.12515725551913803,-0.1236945217120562,0.9335623642789499,0.933248256200384,0.8548920107835849,0.8388263959785831,0.0,0.0,0.0,0.0
425298000000,13252,425298000000,,BL_TO_BASELINK,BR_TO_BASELINK,FL_TO_BASELINK,FR_TO_BASELINK,0.2246119307154819,0.22291191065014537,-0.12422378013976054,-0.12276097602207603,0.9821847856369058,0.9334955814927522,0.9334935431612648,0.9335465054261336,0.0,0.0,0.0,0.0
425299000000,13253,425299000000,,BL_TO_BASELINK,BR_TO_BASELINK,FL_TO_BASELINK,FR_TO_BASELINK,0.22554554505464885,0.22384535636409097,-0.12329603923841592,-0.12191874795109747,0.9335906232745432,0.9333367118822904,0.8789336292680336,0.851667038520967,0.0,0.0,0.0,0.0
425300000000,13254,425300000000,,BL_TO_BASELINK,BR_TO_BASELINK,FL_TO_BASELINK,FR_TO_BASELINK,0.22656123341645706,0.22477857774323962,-0.12236278324595862,-0.12098533644861398,1.0031123283527321,0.9332939736400122,0.9333225715969906,0.9334441436384475,0.0,0.0,0.0,0.0
425301000000,13255,425301000000,,BL_TO_BASELINK,BR_TO_BASELINK,FL_TO_BASELINK,FR_TO_BASELINK,0.22749479941642914,0.22571187208344856,-0.12148622514552265,-0.12014643489722232,0.9335946866637449,0.9333513708151204,0.8812241093255077,0.8545277744530838,0.0,0.0,0.0,0.0
425302000000,13256,425302000000,,BL_TO_BASELINK,BR_TO_BASELINK,FL_TO_BASELINK,FR_TO_BASELINK,0.22852093160816356,0.22664505418545833,-0.12055300809911706,-0.11921305232712331,1.0084257516898867,0.9332850852915308,0.9333098980540004,0.9334322710568951,0.0,0.0,0.0,0.0
425303000000,13257,425303000000,,BL_TO_BASELINK,BR_TO_BASELINK,FL_TO_BASELINK,FR_TO_BASELINK,0.22945453207786226,0.22757851210331825,-0.11961973469254339,-0.11837504019795464,0.9336458266309744,0.9335409467346285,0.9369245085154136,0.855230258181769,0.0,0.0,0.0,0.0
425304000000,13258,425304000000,,BL_TO_BASELINK,BR_TO_BASELINK,FL_TO_BASELINK,FR_TO_BASELINK,0.23050976542544088,0.22850369078370658,-0.11868655377531567,-0.11744164927154443,1.0184093444060054,0.9893940153983045,0.932907080909722,0.9331488743219994,0.0,0.0,0.0,0.0
425305000000,13259,425305000000,,BL_TO_BASELINK,BR_TO_BASELINK,FL_TO_BASELINK,FR_TO_BASELINK,0.2314434993606298,0.22945750298520728,-0.11779911085157035,-0.1165809275361891,0.9336887595581606,0.9065158063839763,0.9094928063885049,0.8987607387854611,0.0,0.0,0.0,0.0
425306000000,13260,425306000000,,BL_TO_BASELINK,BR_TO_BASELINK,FL_TO_BASELINK,FR_TO_BASELINK,0.23245802026346762,0.23039075923240038,-0.1168658250454504,-0.11564748530667668,1.0062949723587902,0.9333042997205853,0.9333262768037146,0.9334421666946624,0.0,0.0,0.0,0.0
425307000000,13261,425307000000,,BL_TO_BASELINK,BR_TO_BASELINK,FL_TO_BASELINK,FR_TO_BASELINK,0.2333916048848348,0.23132415278533003,-0.11597549721788525,-0.11478263428842439,0.9336141011314322,0.9334095515449716,0.8915795333757349,0.8692683187613551,0.0,0.0,0.0,0.0
425308000000,13262,425308000000,,BL_TO_BASELINK,BR_TO_BASELINK,FL_TO_BASELINK,FR_TO_BASELINK,0.23441459238420848,0.23225552048309872,-0.11504226467012657,-0.11384922125313057,1.01709685298909,0.9253896275207718,0.9333900519398382,0.9335010828780682,0.0,0.0,0.0,0.0
425309000000,13263,425309000000,,BL_TO_BASELINK,BR_TO_BASELINK,FL_TO_BASELINK,FR_TO_BASELINK,0.23534820857947558,0.23318906384131477,-0.11410237283427715,-0.11300405417606108,0.9336139801841576,0.9334149954701041,0.8990493727179817,0.8612554951720127,0.0,0.0,0.0,0.0
425310000000,13264,425310000000,,BL_TO_BASELINK,BR_TO_BASELINK,FL_TO_BASELINK,FR_TO_BASELINK,0.23635461570580407,0.23417430314036736,-0.11317771904407348,-0.11207023677726546,0.978107567373545,0.9626125216885343,0.9695898401486078,0.9336523966400807,0.0,0.0,0.0,0.0
425311000000,13265,425311000000,,BL_TO_BASELINK,BR_TO_BASELINK,FL_TO_BASELINK,FR_TO_BASELINK,0.23728828308834427,0.23508337686368552,-0.11224372489084278,-0.11117085024907691,0.9336912444836357,0.9090546995400833,0.9339923290001347,0.8993986078874597,0.0,0.0,0.0,0.0
425312000000,13266,425312000000,,BL_TO_BASELINK,BR_TO_BASELINK,FL_TO_BASELINK,FR_TO_BASELINK,0.23824982205152523,0.23601790966601044,-0.11129044209469097,-0.1102372117194026,0.9615131241289365,0.9345329231319511,0.9532809692427884,0.9336109606623735,0.0,0.0,0.0,0.0
425313000000,13267,425313000000,,BL_TO_BASELINK,BR_TO_BASELINK,FL_TO_BASELINK,FR_TO_BASELINK,0.23918349170558084,0.23693464171916823,-0.11037774852805615,-0.10932630689448075,0.9336947382139539,0.9167311162526995,0.9126945011213206,0.9109264472518099,0.0,0.0,0.0,0.0
425314000000,13268,425314000000,,BL_TO_BASELINK,BR_TO_BASELINK,FL_TO_BASELINK,FR_TO_BASELINK,0.2401752699853219,0.23786804146015061,-0.10944433523210861,-0.1083927835159022,0.9917621851316397,0.9334000354630471,0.9334124313024533,0.9334976689478317,0.0,0.0,0.0,0.0
425315000000,13269,425315000000,,BL_TO_BASELINK,BR_TO_BASELINK,FL_TO_BASELINK,FR_TO_BASELINK,0.24110884259490728,0.23880138488379465,-0.1085702031421718,-0.10753271782555451,0.9335967840262823,0.9333516703884364,0.8747697388168936,0.8622675962569954,0.0,0.0,0.0,0.0
425316000000,13270,425316000000,,BL_TO_BASELINK,BR_TO_BASELINK,FL_TO_BASELINK,FR_TO_BASELINK,0.24213222687196545,0.23979262013832603,-0.10763734036687023,-0.10659958811447012,1.013496834448567,0.9882042735297716,0.9329355205619817,0.9331659275244734,0.0,0.0,0.0,0.0
425317000000,13271,425317000000,,BL_TO_BASELINK,BR_TO_BASELINK,FL_TO_BASELINK,FR_TO_BASELINK,0.24306583094631318,0.2407260642073421,-0.10673654268164245,-0.10572937951827477,0.9336222045500103,0.9334440923295905,0.900763026872496,0.8702294776835562,0.0,0.0,0.0,0.0
425318000000,13272,425318000000,,BL_TO_BASELINK,BR_TO_BASELINK,FL_TO_BASELINK,FR_TO_BASELINK,0.24407879092932205,0.2416977339643669,-0.10580351101064789,-0.10479613189020309,1.011160395264984,0.9711118295307186,0.9330433786623451,0.9332416908928379,0.0,0.0,0.0,0.0
425319000000,13273,425319000000,,BL_TO_BASELINK,BR_TO_BASELINK,FL_TO_BASELINK,FR_TO_BASELINK,0.24501238691032334,0.2426311430254744,-0.10490630705779758,-0.10393812138909286,0.9336111984707623,0.9334116894409221,0.8973780333102178,0.8585972324695128,0.0,0.0,0.0,0.0
425320000000,13274,425320000000,,BL_TO_BASELINK,BR_TO_BASELINK,FL_TO_BASELINK,FR_TO_BASELINK,0.24602878852876664,0.24360438417532304,-0.10397330356583456,-0.10300489264674884,1.0126133077905348,0.972038459522307,0.9330299819303971,0.9332373217018782,0.0,0.0,0.0,0.0
425321000000,13275,425321000000,,BL_TO_BASELINK,BR_TO_BASELINK,FL_TO_BASELINK,FR_TO_BASELINK,0.24696238600601816,0.24453778822096783,-0.10307723314355144,-0.10214803019336305,0.9336095693415807,0.9334069402149044,0.8962384024125223,0.8574357879504201,0.0,0.0,0.0,0.0
425322000000,13276,425322000000,,BL_TO_BASELINK,BR_TO_BASELINK,FL_TO_BASELINK,FR_TO_BASELINK,0.24797494336336712,0.2455088606882745,-0.10214419607712877,-0.10121477999617312,1.0103927516859446,0.970400054658918,0.933050951396313,0.9332517220294797,0.0,0.0,0.0,0.0
425323000000,13277,425323000000,,BL_TO_BASELINK,BR_TO_BASELINK,FL_TO_BASELINK,FR_TO_BASELINK,0.24890854282838593,0.24644226341014352,-0.1012488464137471,-0.10035787832951915,0.9336086012817676,0.9334038156459119,0.8953544829718787,0.856913899849326,0.0,0.0,0.0,0.0
425324000000,13278,425324000000,,BL_TO_BASELINK,BR_TO_BASELINK,FL_TO_BASELINK,FR_TO_BASELINK,0.24991929979331307,0.24741375516254038,-0.10031580187904954,-0.09942462399297902,1.0095394244102398,0.9711160223085623,0.9330511170008099,0.9332522595445236,0.0,0.0,0.0,0.0
425325000000,13279,425325000000,,BL_TO_BASELINK,BR_TO_BASELINK,FL_TO_BASELINK,FR_TO_BASELINK,0.2508529003326361,0.24834715498486482,-0.09942190687686914,-0.0985675615174344,0.933607696359582,0.9334010291070587,0.8938939315543971,0.8570693576606775,0.0,0.0,0.0,0.0
425326000000,13280,425326000000,,BL_TO_BASELINK,BR_TO_BASELINK,FL_TO_BASELINK,FR_TO_BASELINK,0.2518612743900812,0.24931926416767336,-0.09848885283873177,-0.09763430164427866,1.0082605476129844,0.9720732084886098,0.9330522779075741,0.9332530249964989,0.0,0.0,0.0,0.0
425327000000,13281,425327000000,,BL_TO_BASELINK,BR_TO_BASELINK,FL_TO_BASELINK,FR_TO_BASELINK,0.2527948765620476,0.250252664180338,-0.09759606151661337,-0.09677615013387086,0.933607743193738,0.9334012547943532,0.8927944296812674,0.8581545776608305,0.0,0.0,0.0,0.0
425328000000,13282,425328000000,,BL_TO_BASELINK,BR_TO_BASELINK,FL_TO_BASELINK,FR_TO_BASELINK,0.2538009187931296,0.2512258574589703,-0.09666300099687763,-0.09584288667581387,1.0060416803167804,0.9731915764427346,0.9330579869342437,0.9332572334844363,0.0,0.0,0.0,0.0
425329000000,13283,425329000000,,BL_TO_BASELINK,BR_TO_BASELINK,FL_TO_BASELINK,FR_TO_BASELINK,0.25473452139628083,0.2521592542634181,-0.09577239404848648,-0.09498381049862825,0.9336068943893339,0.9333979809928593,0.8906091538677303,0.8590783518200775,0.0,0.0,0.0,0.0
425330000000,13284,425330000000,,BL_TO_BASELINK,BR_TO_BASELINK,FL_TO_BASELINK,FR_TO_BASELINK,0.25573901742104255,0.25313460790910547,-0.0948393377017398,-0.09405055087633407,1.0044958302403275,0.9753538797662779,0.9330539657280182,0.9332544751352897,0.0,0.0,0.0,0.0
425331000000,13285,425331000000,,BL_TO_BASELINK,BR_TO_BASELINK,FL_TO_BASELINK,FR_TO_BASELINK,0.25667262100356414,0.25406800433511023,-0.09395051859183567,-0.09318983407905268,0.9336068651064107,0.9333974928350394,0.888821833544623,0.8607182630708634,0.0,0.0,0.0,0.0
425332000000,13286,425332000000,,BL_TO_BASELINK,BR_TO_BASELINK,FL_TO_BASELINK,FR_TO_BASELINK,0.25767512157159533,0.2550449274486901,-0.09301746062071636,-0.09225657414707467,1.002500835774515,0.976923596315921,0.9330558308468718,0.933255743725083,0.0,0.0,0.0,0.0
425333000000,13287,425333000000,,BL_TO_BASELINK,BR_TO_BASELINK,FL_TO_BASELINK,FR_TO_BASELINK,0.25860872592579565,0.255978323618705,-0.09213042748165456,-0.09139421652743085,0.9336068434577903,0.9333970984896736,0.8870355721455021,0.862359031357286,0.0,0.0,0.0,0.0
425334000000,13288,425334000000,,BL_TO_BASELINK,BR_TO_BASELINK,FL_TO_BASELINK,FR_TO_BASELINK,0.25961076093451574,0.2569573490246686,-0.09119737860073052,-0.0904609638706999,1.0020364756223026,0.9790264826725953,0.9330470419629279,0.933249322833949,0.0,0.0,0.0,0.0
425335000000,13289,425335000000,,BL_TO_BASELINK,BR_TO_BASELINK,FL_TO_BASELINK,FR_TO_BASELINK,0.26054436547402116,0.2578907437123794,-0.09031215802923853,-0.08959755832770266,0.9336063780389855,0.9333954535341208,0.8852237166458929,0.8634066302394718,0.0,0.0,0.0,0.0
425336000000,13290,425336000000,,BL_TO_BASELINK,BR_TO_BASELINK,FL_TO_BASELINK,FR_TO_BASELINK,0.2615293326121755,0.2588675069317432,-0.08937918129925482,-0.08866434295116932,0.9849679114495742,0.976763607562389,0.9329752217020234,0.9332128084731219,0.0,0.0,0.0,0.0
425337000000,13291,425337000000,,BL_TO_BASELINK,BR_TO_BASELINK,FL_TO_BASELINK,FR_TO_BASELINK,0.26246294498630895,0.25980092264986077,-0.08849274729887302,-0.08779179592305297,0.9336140737602621,0.9334165572623567,0.8864351726567012,0.8725525069774039,0.0,0.0,0.0,0.0
425338000000,13292,425338000000,,BL_TO_BASELINK,BR_TO_BASELINK,FL_TO_BASELINK,FR_TO_BASELINK,0.2634565048145632,0.2607794671386614,-0.08755964511588132,-0.08685850989232247,0.9935605428445783,0.9785455541777178,0.9331006535286026,0.9332836448489759,0.0,0.0,0.0,0.0
425339000000,13293,425339000000,,BL_TO_BASELINK,BR_TO_BASELINK,FL_TO_BASELINK,FR_TO_BASELINK,0.2643900969672579,0.26171281460567464,-0.0866864867731314,-0.08600141950347684,0.9335933956487397,0.9333481270255377,0.8731582245889636,0.8570903962464762,0.0,0.0,0.0,0.0
425340000000,13294,425340000000,,BL_TO_BASELINK,BR_TO_BASELINK,FL_TO_BASELINK,FR_TO_BASELINK,0.26539640750364946,0.2626919745049259,-0.08575361674516202,-0.08506830364268492,1.0043004586788706,0.9790017080456223,0.9328863252137135,0.9331273604574772,0.0,0.0,0.0,0.0
425341000000,13295,425341000000,,BL_TO_BASELINK,BR_TO_BASELINK,FL_TO_BASELINK,FR_TO_BASELINK,0.2663300231386785,0.2636254031716714,-0.0848587117208437,-0.08420093562339304,0.9336167940119104,0.933429388658011,0.8949100131224647,0.8673773722382696,0.0,0.0,0.0,0.0
425342000000,13296,425342000000,,BL_TO_BASELINK,BR_TO_BASELINK,FL_TO_BASELINK,FR_TO_BASELINK,0.2673332658393166,0.2646031861660427,-0.08392566070348906,-0.08326768198793388,1.0032434023037458,0.9777844687930695,0.9330491800169076,0.93325122519552,0.0,0.0,0.0,0.0
425343000000,13297,425343000000,,BL_TO_BASELINK,BR_TO_BASELINK,FL_TO_BASELINK,FR_TO_BASELINK,0.2682668677406417,0.2655365670177199,-0.08304100839745221,-0.08240930894636112,0.933603042483434,0.9333816418633938,0.8846576487646023,0.8583758713122849,0.0,0.0,0.0,0.0
425344000000,13298,425344000000,,BL_TO_BASELINK,BR_TO_BASELINK,FL_TO_BASELINK,FR_TO_BASELINK,0.26927220056452583,0.2665187457230074,-0.08210799432596527,-0.0814760805576098,1.0053341257012398,0.9821796283050395,0.9330119609641823,0.93322579709678,0.0,0.0,0.0,0.0
425345000000,13299,425345000000,,BL_TO_BASELINK,BR_TO_BASELINK,FL_TO_BASELINK,FR_TO_BASELINK,0.2702058112403112,0.2674521574259998,-0.08121874040477906,-0.08061033428869635,0.9336117133248785,0.9334124692458092,0.889256899618587,0.8657474792921656,0.0,0.0,0.0,0.0
425346000000,13300,425346000000,,BL_TO_BASELINK,BR_TO_BASELINK,FL_TO_BASELINK,FR_TO_BASELINK,0.2712051917448628,0.2684310196456563,-0.08028567459615843,-0.07967707054761775,0.9993821909472458,0.9788635426948593,0.9330637966414963,0.9332613565711853,0.0,0.0,0.0,0.0
425347000000,13301,425347000000,,BL_TO_BASELINK,BR_TO_BASELINK,FL_TO_BASELINK,FR_TO_BASELINK,0.2721387971160407,0.26936441232653063,-0.07940191951920816,-0.0788135490990527,0.933606269094513,0.9333933804999281,0.8837581426074724,0.8635225632107416,0.0,0.0,0.0,0.0
425348000000,13302,425348000000,,BL_TO_BASELINK,BR_TO_BASELINK,FL_TO_BASELINK,FR_TO_BASELINK,0.27314048208924113,0.27034857815359814,-0.07846889771165166,-0.07788031600839318,1.0016869115259082,0.9841677214880686,0.9330200845962692,0.933231098917631,0.0,0.0,0.0,0.0
425349000000,13303,425349000000,,BL_TO_BASELINK,BR_TO_BASELINK,FL_TO_BASELINK,FR_TO_BASELINK,0.27407408946684075,0.27128197732799375,-0.07758550112513252,-0.07701397960331136,0.9336081250181203,0.9333997832228543,0.8834000509344282,0.8663372187420129,0.0,0.0,0.0,0.0
425350000000,13304,425350000000,,BL_TO_BASELINK,BR_TO_BASELINK,FL_TO_BASELINK,FR_TO_BASELINK,0.27507120698194587,0.2722644766404674,-0.07665244495985313,-0.07608072326306647,0.9971191479336055,0.982501203512546,0.933054817957571,0.9332548054517348,0.0,0.0,0.0,0.0
425351000000,13305,425351000000,,BL_TO_BASELINK,BR_TO_BASELINK,FL_TO_BASELINK,FR_TO_BASELINK,0.27600481427279977,0.27319787493866343,-0.07577083072075741,-0.07521307443738934,0.9336078962318827,0.9333988213130999,0.8816191992003555,0.8676563628000806,0.0,0.0,0.0,0.0
425352000000,13306,425352000000,,BL_TO_BASELINK,BR_TO_BASELINK,FL_TO_BASELINK,FR_TO_BASELINK,0.27700259311972975,0.2741839486898492,-0.0748377995988978,-0.07427983563028118,0.9977802143070739,0.9860756349775677,0.9330301559575889,0.9332377170234938,0.0,0.0,0.0,0.0
425353000000,13307,425353000000,,BL_TO_BASELINK,BR_TO_BASELINK,FL_TO_BASELINK,FR_TO_BASELINK,0.27793619968226313,0.2751173438388843,-0.07395838836726032,-0.07341134621625578,0.9336070272201447,0.9333955562839419,0.8794155844905763,0.8684902505380226,0.0,0.0,0.0,0.0
425354000000,13308,425354000000,,BL_TO_BASELINK,BR_TO_BASELINK,FL_TO_BASELINK,FR_TO_BASELINK,0.27893129847363163,0.2761035996613792,-0.07302534401680116,-0.07247809861262855,0.9951003802143719,0.9862577716427913,0.9330437236878475,0.9332469017302465,0.0,0.0,0.0,0.0
425355000000,13309,425355000000,,BL_TO_BASELINK,BR_TO_BASELINK,FL_TO_BASELINK,FR_TO_BASELINK,0.27986490647089735,0.27703699925283853,-0.07214658141508234,-0.07160726621487257,0.9336083494612185,0.9333999200421245,0.8787682329544436,0.8708388496353532,0.0,0.0,0.0,0.0
425356000000,13310,425356000000,,BL_TO_BASELINK,BR_TO_BASELINK,FL_TO_BASELINK,FR_TO_BASELINK,0.2808592407829904,0.27802531955746357,-0.07121354537172131,-0.07067402458394323,0.9943360367996674,0.988322496998531,0.93303569401851,0.9332412406261252,0.0,0.0,0.0,0.0
425357000000,13311,425357000000,,BL_TO_BASELINK,BR_TO_BASELINK,FL_TO_BASELINK,FR_TO_BASELINK,0.28179284775184676,0.27895871500766223,-0.07033709794877918,-0.06980262040398788,0.9336072264284376,0.9333957038052243,0.8764538586842663,0.8714112610918296,0.0,0.0,0.0,0.0
425358000000,13312,425358000000,,BL_TO_BASELINK,BR_TO_BASELINK,FL_TO_BASELINK,FR_TO_BASELINK,0.2827857149346418,0.27994831958960553,-0.0694040617152396,-0.06886937885527455,0.9928692453396727,0.9896064310454903,0.9330360912320564,0.9332413901431362,0.0,0.0,0.0,0.0
425359000000,13313,425359000000,,BL_TO_BASELINK,BR_TO_BASELINK,FL_TO_BASELINK,FR_TO_BASELINK,0.28371932308014713,0.2808817186795798,-0.06852833255877044,-0.0679958681307582,0.9336083286433565,0.9333992790520049,0.8757353218017355,0.873516924510716,0.0,0.0,0.0,0.0
425360000000,13314,425360000000,,BL_TO_BASELINK,BR_TO_BASELINK,FL_TO_BASELINK,FR_TO_BASELINK,0.28471079935266896,0.2818726187745533,-0.06759529655950303,-0.06706262692492171,0.9914789005315351,0.9909020710120575,0.9330359829252246,0.9332411899405327,0.0,0.0,0.0,0.0
425361000000,13315,425361000000,,BL_TO_BASELINK,BR_TO_BASELINK,FL_TO_BASELINK,FR_TO_BASELINK,0.2856444070071378,0.2828060157226746,-0.06672139026070312,-0.06618822822451875,0.9336077810911164,0.9333970708184696,0.8739059549528361,0.8744033912310474,0.0,0.0,0.0,0.0
425362000000,13316,425362000000,,BL_TO_BASELINK,BR_TO_BASELINK,FL_TO_BASELINK,FR_TO_BASELINK,0.28663486480309075,0.2837985120233206,-0.0657883582708152,-0.06525498992157353,0.990460530644834,0.9924983895614939,0.9330320238338888,0.9332383449168058,0.0,0.0,0.0,0.0
