%time,field.header.seq,field.header.stamp,field.header.frame_id,field.wrench.force.x,field.wrench.force.y,field.wrench.force.z,field.wrench.torque.x,field.wrench.torque.y,field.wrench.torque.z
425145000000,0,425138000000,FR_wheel_link,-0.07422101356360566,-1.9507930123983024,2.073078664957597,-0.14839856894452635,0.010091946883577813,0.0019265220062475346
425145000000,1,425139000000,FR_wheel_link,-0.06779024352595309,1.076594458929946,5.822711450365224,0.280084550559273,0.008261357631571598,0.0011866026406847537
425145000000,2,425140000000,FR_wheel_link,0.006649608910949855,0.02095202703464561,-0.12914847239108873,0.006400578256191913,-0.00018440652682543768,-0.0003980218752948778
425145000000,3,425141000000,FR_wheel_link,-0.0409621789639778,-3.7101010451906324,11.041465084339936,-0.08081480842054456,0.003816994540728938,0.0009579284709410412
425145000000,4,425142000000,FR_wheel_link,0.02493636047378245,-1.807969759878044,1.604747216212575,-0.14960336137358238,-0.004234593417380292,-0.0005724077475848625
425145000000,5,425143000000,FR_wheel_link,-0.055888228361649084,0.9667638068204097,5.855764624929087,0.2684101750417084,0.006503758069904553,0.0013179104416050896
425145000000,6,425144000000,FR_wheel_link,0.00010654336398749006,0.0317164503397352,-0.11812195061201786,0.0070105738161206615,-0.000160369765465955,1.9721596782623586e-05
425145000000,7,425145000000,FR_wheel_link,-0.06306382902340646,-3.703343172870599,11.204022925218577,-0.07468227610784418,0.00678784369092815,0.0016517354499301653
425146000000,8,425146000000,FR_wheel_link,0.012310552033016897,-1.720901298245842,1.5477693269098363,-0.141806469647003,-0.002530136666952315,-0.00025183650173655776
425147000000,9,425147000000,FR_wheel_link,-0.05685476900918307,1.0064474947556645,5.832119896175067,0.2721611073224407,0.006739910322735715,0.0014113161015093054
425148000000,10,425148000000,FR_wheel_link,0.0004613193223290783,0.03267484565470275,-0.12073941403382266,0.007136201513643643,-0.00016622758724225755,4.169221462416189e-05
425149000000,11,425149000000,FR_wheel_link,-0.059699773367229314,-3.6775262399973276,11.181151266889097,-0.07246125467969358,0.006548810318112046,0.001582776405269798
425150000000,12,425150000000,FR_wheel_link,0.022503762905911828,-1.7085436628454103,1.5482208151580878,-0.14035958803809218,-0.0035342729351426627,-0.0005323433198488855
425151000000,13,425151000000,FR_wheel_link,-0.04469208576813721,1.0197415196614992,5.840063627869048,0.2737814932873588,0.005485997991593994,0.001094237686857364
425152000000,14,425152000000,FR_wheel_link,0.0012841195473616267,0.032497733660532054,-0.12125545410399607,0.007140121262900461,-0.0002062468552561426,2.1084664027626277e-05
425153000000,15,425153000000,FR_wheel_link,-0.05307310247415353,-3.6737632161410128,11.17668377903457,-0.07221388323706474,0.005865341524124483,0.0014049345999609135
425154000000,16,425154000000,FR_wheel_link,0.03283994212398922,-1.7070474588318703,1.5465266600700285,-0.14024898692416266,-0.004630644123912495,-0.0008105593422071938
425155000000,17,425155000000,FR_wheel_link,-0.0338631500852028,1.020729025282208,5.843432776529939,0.2739633562612242,0.004365594737956641,0.0008017780355984109
425156000000,18,425156000000,FR_wheel_link,0.0018398464325687317,0.03240881389604437,-0.12106178282584143,0.007147003160586158,-0.00023884909835817291,3.3638719053496655e-06
425157000000,19,425157000000,FR_wheel_link,-0.04808879165695146,-3.67462290634575,11.180063274335144,-0.07222284188817724,0.005350902703389365,0.0012692967855048917
425157000000,20,425158000000,FR_wheel_link,-0.544766220041436,-1.6382556422273489,1.7568900556516824,-0.12600097622330791,0.0515592230223428,0.014673347126040698
425160000000,21,425159000000,FR_wheel_link,0.2608017467656806,0.8628816498335357,5.78135113121189,0.255334339373234,-0.02348727352154495,-0.007212089638244179
425160000000,22,425160000000,FR_wheel_link,-0.01964940768870642,0.025181113002159205,-0.18291468731670402,0.006035727280223941,-2.732161073248484e-05,-0.00030983382090776264
425160000000,23,425161000000,FR_wheel_link,-0.5796694865388701,-2.877938292642178,5.167838341558488,-0.15365314317478768,0.05861542795842759,0.017082838405874556
425160000000,24,425162000000,FR_wheel_link,-0.0842422914059846,-1.9013957759938398,1.9936829815061783,-0.14550725704299763,0.011155405648944502,0.002214515789042637
425166000000,25,425163000000,FR_wheel_link,-0.0732869225078091,1.0874484713240609,5.897745743656174,0.28337242690451914,0.008767129015170405,0.0013288190806733918
425166000000,26,425164000000,FR_wheel_link,0.006823746200036446,0.01760958142363508,-0.1329887737199053,0.006452157107255688,-9.85173671650694e-05,-0.00047422312233913564
425166000000,27,425165000000,FR_wheel_link,-0.049099972715403783,-3.7048442077815533,11.051818616786598,-0.08022996604844472,0.004543729877638479,0.0012356064318843531
425166000000,28,425166000000,FR_wheel_link,0.01174580715791651,-1.8033346084370283,1.623139633110521,-0.1484103723569481,-0.0027713756940446616,-0.000234933625776511
425167000000,29,425167000000,FR_wheel_link,-0.06632224248578156,0.9593246308090367,5.918174442996898,0.2691939077797959,0.007469095658940633,0.0016199715603773396
425168000000,30,425168000000,FR_wheel_link,-0.0002153710471516166,0.031168538232876023,-0.11710703283863375,0.006969714002951644,-0.0001230736110383302,2.6501993029638075e-05
425169000000,31,425169000000,FR_wheel_link,-0.07498795900120125,-3.720081518590323,11.275888344515302,-0.07459533204546817,0.008014200963945034,0.0019760780603875466
425170000000,32,425170000000,FR_wheel_link,0.0024979287539137474,-1.7122001200200736,1.5500816269089692,-0.14071536767615694,-0.0013999350737190913,9.395391668545403e-07
425171000000,33,425171000000,FR_wheel_link,-0.06158971941020597,0.9926425955477249,5.890512745127279,0.2721750318670743,0.007102729563061433,0.0015476506438462205
425172000000,34,425172000000,FR_wheel_link,0.0002080460491877996,0.03210943807576227,-0.11942275318172305,0.0071122711886067854,-0.00013705328137094677,3.54482247535833e-05
425173000000,35,425173000000,FR_wheel_link,-0.06966650811830122,-3.6948441580062665,11.254318586905267,-0.07238692513087128,0.007569268927154142,0.0018516305148645138
425174000000,36,425174000000,FR_wheel_link,0.014447399627647406,-1.6986735468106775,1.5472689371552093,-0.13925869301379215,-0.002603479173246645,-0.0003251927731610397
425175000000,37,425175000000,FR_wheel_link,-0.04754197604994603,1.0061929274218349,5.895502684318883,0.2737551211283185,0.00566261875186011,0.0011790120162651734
425176000000,38,425176000000,FR_wheel_link,0.0010612148073439291,0.03201747723367809,-0.11994242778607622,0.007125267290711021,-0.0001851130863854064,1.4934222995493791e-05
425176000000,39,425177000000,FR_wheel_link,-0.062378563337599946,-3.690507247232019,11.249652434441616,-0.07206619028362812,0.0068200398027395415,0.0016556606353874022
425178000000,40,425178000000,FR_wheel_link,0.025935905841921958,-1.6964404646526572,1.5448434146669277,-0.13908973015946557,-0.003819129692041609,-0.0006337468369368229
425179000000,41,425179000000,FR_wheel_link,-0.0356830281885705,1.008244495669835,5.898217948313496,0.2740370515491977,0.004440999136908125,0.0008599363193321045
425180000000,42,425180000000,FR_wheel_link,0.001669722067145515,0.03195271833931346,-0.11977837358897292,0.007132499042969467,-0.0002243315486289833,-2.6247988750026157e-06
425181000000,43,425181000000,FR_wheel_link,-0.05704435662530183,-3.691139333774576,11.252870731138096,-0.0720500855997107,0.006269502040885264,0.0015105007218780457
425182000000,44,425182000000,FR_wheel_link,0.034161363511804765,-1.694788507672909,1.54129435907158,-0.1390318584811587,-0.004690579055315128,-0.0008533678798048052
425183000000,45,425183000000,FR_wheel_link,-0.027084429623591255,1.0088439796274393,5.898144574425915,0.2740965935000428,0.003561753050203148,0.0006289077720559276
425184000000,46,425184000000,FR_wheel_link,0.002061874019568366,0.03195119960439301,-0.1196604938335421,0.007140076455810636,-0.0002519039867301888,-1.3570428811906469e-05
425185000000,47,425185000000,FR_wheel_link,-0.053311158157690386,-3.6914478954414998,11.254645423660824,-0.0720337998180225,0.0058879163731904716,0.0014099362703505636
425186000000,48,425186000000,FR_wheel_link,0.03993908383118905,-1.6934995199058727,1.5388036849510713,-0.13897670608426904,-0.005299091211300677,-0.0010072485065585092
425187000000,49,425187000000,FR_wheel_link,-0.02103915732838657,1.0095069316248966,5.897129542045134,0.27414041945616896,0.002948847941559807,0.0004675690237148575
425187000000,50,425188000000,FR_wheel_link,0.0023128819024403197,0.031968630256529865,-0.11965868362073707,0.007145254748561232,-0.0002708525495577819,-2.023906505443896e-05
425189000000,51,425189000000,FR_wheel_link,-0.050474540532608136,-3.6911676857448024,11.253558982740206,-0.0720340647901051,0.005599588657042645,0.0013346695598800678
425190000000,52,425190000000,FR_wheel_link,0.04413147903013892,-1.6929030807529655,1.5375191046020686,-0.13895711491137896,-0.00573982625837452,-0.0011187396008001532
425191000000,53,425191000000,FR_wheel_link,-0.016678514220341722,1.0101139225200513,5.895769680113993,0.2741697152387857,0.0025106576199532826,0.00035173607516430366
425192000000,54,425192000000,FR_wheel_link,0.0024802826377731697,0.03199027939492105,-0.11971110747590824,0.007148543348916382,-0.00028438481891609633,-2.451836734901152e-05
425193000000,55,425193000000,FR_wheel_link,-0.04821237645140086,-3.6906773690583803,11.250935597707107,-0.07205505079367329,0.005369951002377089,0.0012752214546901054
425194000000,56,425194000000,FR_wheel_link,-0.5333996987780745,-1.6252548928567692,1.7464129010698428,-0.1249085347798083,0.05035982366808635,0.014363743803447841
425195000000,57,425195000000,FR_wheel_link,0.27109786889750076,0.8470768965002621,5.8369926888845995,0.2556825310180163,-0.02485616530981051,-0.007492066034249062
425196000000,58,425196000000,FR_wheel_link,-0.016356752386973712,0.03311094796170119,-0.17714890180022552,0.005944820926296665,9.068563035464442e-05,-0.00040155689991355894
425197000000,59,425197000000,FR_wheel_link,-0.2295141508852554,-3.539271946735714,11.414277252255832,-0.0538000472926734,0.024279336508916952,0.006653116067442347
425198000000,60,425198000000,FR_wheel_link,-0.06505875647431858,-1.8427395100614172,1.7961345316447856,-0.1451173712130897,0.007181553484545966,0.0018954127646737652
425199000000,61,425199000000,FR_wheel_link,-0.11985878148723383,1.040717407427955,6.147452010554508,0.2837477215495342,0.013211263527167227,0.003174159303537259
425200000000,62,425200000000,FR_wheel_link,0.0018010056341655782,0.025134996989054796,-0.1279018094706091,0.006376659996658462,6.544379124508951e-05,-5.563859934258294e-05
425201000000,63,425201000000,FR_wheel_link,-0.08297819880040014,-3.712937664221502,11.213764839487864,-0.0766118351511684,0.008784733849904539,0.002277301290585822
425202000000,64,425202000000,FR_wheel_link,-0.0017206839175255562,-1.754493041731617,1.6204562056431866,-0.14292948753730533,-0.0008921807139267712,0.00010487210021540173
425203000000,65,425203000000,FR_wheel_link,-0.0676676731047351,0.9721933605426498,5.96017984101767,0.2715666813737324,0.007653572947948578,0.0017194697397667266
425204000000,66,425204000000,FR_wheel_link,0.0012951404183832362,0.031196970275491426,-0.11642938406849321,0.006964041392123936,-0.00014728787327302406,4.8031939517612825e-06
425205000000,67,425205000000,FR_wheel_link,-0.07063643952910481,-3.7224449731330074,11.31241930337658,-0.07396719343085723,0.007571449130927062,0.0018734901433052837
425206000000,68,425206000000,FR_wheel_link,0.01518157319848723,-1.698599289979347,1.5359119887655943,-0.1396557476557657,-0.002750858872028597,-0.00034158913356112375
425207000000,69,425207000000,FR_wheel_link,-0.04516646338304464,0.998132857696372,5.9151839521580865,0.27335672200642364,0.005353362720152771,0.0010954150749119557
425208000000,70,425208000000,FR_wheel_link,0.0017517943902939058,0.031280960128861696,-0.1191242852598361,0.00713166407486239,-0.00019110372654111002,-2.5453070727277755e-05
425209000000,71,425209000000,FR_wheel_link,-0.06347352482854651,-3.6994719481927922,11.275167402113023,-0.07240039767714775,0.006854622514972382,0.0016831698339766724
425210000000,72,425210000000,FR_wheel_link,0.025103431649850183,-1.6913425124804577,1.535633823990221,-0.13883092551485965,-0.0037634363620290823,-0.0006113716300978744
425211000000,73,425211000000,FR_wheel_link,-0.035609171061268374,1.0074696275711192,5.915734133711933,0.2743906205209301,0.004386763572490987,0.0008481385262477121
425212000000,74,425212000000,FR_wheel_link,0.002103949109598416,0.031175293643904943,-0.1199121378180444,0.00713968611400677,-0.00021949863390759508,-3.2037838165858827e-05
425213000000,75,425213000000,FR_wheel_link,-0.059105204716601634,-3.6955205476261934,11.26816543804032,-0.07218371488739185,0.00642588816907641,0.001572181880268152
425214000000,76,425214000000,FR_wheel_link,0.03209891108374996,-1.6909133809241874,1.539039713162528,-0.13866383122959708,-0.004470392223958591,-0.0008008577205625656
425215000000,77,425215000000,FR_wheel_link,-0.028563499314764762,1.0071403330287134,5.917700207405122,0.27439941388461825,0.0036745000184737198,0.000667209952165973
425216000000,78,425216000000,FR_wheel_link,0.0023133341343041826,0.03127931737166129,-0.11977886172904718,0.007136418175608403,-0.0002425290125955275,-3.3067541861262633e-05
425217000000,79,425217000000,FR_wheel_link,-0.055874422643046096,-3.696648563572326,11.271304076745755,-0.07221886251210816,0.006115235635622024,0.0014870929852049456
425218000000,80,425218000000,FR_wheel_link,0.0375632889283658,-1.6902216854097987,1.5388547063817257,-0.1385979331664758,-0.005029509746340324,-0.000947329180876956
425219000000,81,425219000000,FR_wheel_link,-0.022611058590792932,1.0063175780511358,5.917002405588693,0.27429022170701134,0.003073902917941601,0.0005116978846033959
425220000000,82,425220000000,FR_wheel_link,0.0024725327946708755,0.03141323708608858,-0.11962872194833726,0.007138067090598084,-0.0002619633848946557,-3.4271719686561266e-05
425221000000,83,425221000000,FR_wheel_link,-0.05318829510569967,-3.69728983470012,11.272745658335396,-0.07224026997679442,0.005853350891795513,0.001414997965734242
425222000000,84,425222000000,FR_wheel_link,0.04194906964899725,-1.6895395324452378,1.5377530505261916,-0.13856345461084535,-0.005483603383275026,-0.0010641262653520167
425223000000,85,425223000000,FR_wheel_link,-0.01784900181279958,1.0062786871824851,5.915287724214748,0.2742416682809913,0.0025951028693023404,0.0003861129412965972
425224000000,86,425224000000,FR_wheel_link,0.002602233724587004,0.031527596089606896,-0.11956783882638461,0.007140777253001515,-0.00027808027783039237,-3.54880245882935e-05
425225000000,87,425225000000,FR_wheel_link,-0.05095366032352211,-3.697276196754396,11.272105581138106,-0.07224885671537237,0.005632347091824412,0.0013546494876521256
425226000000,88,425226000000,FR_wheel_link,0.04545320713137835,-1.6891323822336721,1.5367659112681722,-0.1385541322905003,-0.005848987111491261,-0.0011571091590216413
425227000000,89,425227000000,FR_wheel_link,-0.01413083581140695,1.006575801597346,5.913325325324847,0.27422334367754847,0.002222730009745294,0.00028762450651454406
425228000000,90,425228000000,FR_wheel_link,0.002702953792990072,0.03162923146730242,-0.1195441388630307,0.007143008382688807,-0.0002911865802855385,-3.617853036130852e-05
425229000000,91,425229000000,FR_wheel_link,-0.04913320732269666,-3.6970553167653777,11.270607149899107,-0.07225979654380713,0.005451320065730479,0.0013052228204512087
425230000000,92,425230000000,FR_wheel_link,0.04823835012896671,-1.6889340492139644,1.5359595846440224,-0.13856105867386792,-0.006140659242764801,-0.001230830155141964
425231000000,93,425231000000,FR_wheel_link,-0.011239168430743574,1.00693690792127,5.911276906227226,0.2742095626270209,0.001934410246358681,0.00021080477609658303
425232000000,94,425232000000,FR_wheel_link,0.0027767599664047116,0.031727027390228604,-0.11952860290205931,0.007144786799526711,-0.00030178154801246493,-3.621076055263802e-05
425233000000,95,425233000000,FR_wheel_link,-0.04766270808006423,-3.696803308492849,11.268833988840104,-0.07227531196442474,0.005305142527173477,0.001265011192008691
425234000000,96,425234000000,FR_wheel_link,0.05045270183341444,-1.688848975911049,1.535262899889794,-0.1385764362452865,-0.006373344557768418,-0.0012893212971802105
425235000000,97,425235000000,FR_wheel_link,-0.008989348002739872,1.007296671548233,5.909170029652086,0.27419390642995833,0.0017112118592512715,0.00015086638075005945
425236000000,98,425236000000,FR_wheel_link,0.0028282981432165375,0.031824199208148246,-0.11951381292426175,0.007146321498066585,-0.00031036739345897827,-3.565853994500168e-05
425237000000,99,425237000000,FR_wheel_link,-0.046475329816112465,-3.696553098075167,11.266969231006861,-0.07229359273277504,0.0051875149396434644,0.0012322412507633725
425237000000,100,425238000000,FR_wheel_link,0.05222035268239644,-1.6888226300102993,1.5346341652416928,-0.1385957735638599,-0.006559708748137175,-0.0013359244866927751
425239000000,101,425239000000,FR_wheel_link,-0.007238832368645753,1.007649928990264,5.9070199817198645,0.2741761875438064,0.0015385190652309755,0.00010408189845017082
425240000000,102,425240000000,FR_wheel_link,0.0028624523912419535,0.031920673837620976,-0.11949942627445209,0.00714772773614322,-0.0003173351427661797,-3.4664111889522284e-05
425241000000,103,425241000000,FR_wheel_link,-0.04551052060052685,-3.6963061011583,11.265054616902859,-0.07231363176776087,0.005092416078942945,0.0012053298854943603
425242000000,104,425242000000,FR_wheel_link,0.053637862874269304,-1.6888323305492714,1.5340584714702346,-0.13861714221599614,-0.006709709158130253,-0.0013732271593498392
425243000000,105,425243000000,FR_wheel_link,-0.07788021349986396,-4.3805522077522365,10.69914209677885,-0.27993921253211146,0.009013786103263532,0.0020457938443302383
425246000000,106,425244000000,FR_wheel_link,0.04993369996647523,-9.554528461879492,8.609795629626229,-0.8646390070488101,-0.006578552197567977,-0.0011770698002793803
425246000000,108,425246000000,FR_wheel_link,-0.10328459712100546,-15.578226177816859,13.311130452130477,-1.3926965863839378,0.011102960442738175,0.002263399094442682
425247000000,109,425247000000,FR_wheel_link,-0.10534520979292061,-15.017907130364655,12.845476158183072,-1.3212436970368866,0.01021264876295258,0.0023406853629935748
425248000000,110,425248000000,FR_wheel_link,-0.0665656616344874,-10.959191234781866,9.773633324164116,-0.9134766812846946,0.006919406050199806,0.0013483541170901253
425249000000,111,425249000000,FR_wheel_link,-0.03632520754003421,-7.357186328183015,7.026124396323437,-0.5965611691698102,0.003791925468497215,0.0007073317185606193
425250000000,112,425250000000,FR_wheel_link,0.018356008923640754,-6.312425023980451,6.23701068168939,-0.5044343823797739,-0.0019333146067631868,-0.0006477034413436
425251000000,113,425251000000,FR_wheel_link,0.012310712134464552,-5.6884213531395815,5.766248518239124,-0.44891166542991223,-0.0013355850714752149,-0.00046514987596722734
425252000000,114,425252000000,FR_wheel_link,-0.0018199229398234706,-5.545404733551086,5.646912238898626,-0.43614209094122436,1.448104555631935e-05,-2.902741534306988e-05
425253000000,115,425253000000,FR_wheel_link,-0.010277558319494062,-5.494726868066351,5.616066505564129,-0.43104399086905315,0.0009314265609574879,0.0002079809647212126
425254000000,116,425254000000,FR_wheel_link,-0.016033149336966535,-5.5014418435166785,5.628478970794433,-0.43110575764291303,0.001549333059748026,0.00036779869575761723
425256000000,117,425255000000,FR_wheel_link,-0.018863173017694024,-5.515746168479989,5.646748913475453,-0.43191132687573597,0.0018639688215518757,0.00044326772350339674
425256000000,118,425256000000,FR_wheel_link,-0.020728448182721237,-5.532869829519209,5.665477796917814,-0.4330723400844608,0.0020619722022723885,0.000493974785768847
425256000000,119,425257000000,FR_wheel_link,-0.0220766048074017,-5.546752976930448,5.681194318319194,-0.43400725109182803,0.0022031444097575237,0.0005308351569618293
425257000000,120,425258000000,FR_wheel_link,-0.023075666357973645,-5.557032686065202,5.693955179573912,-0.43466571938836074,0.0023059401612864627,0.0005583006794832313
425259000000,121,425259000000,FR_wheel_link,-0.02391938861166354,-5.5636030078792835,5.703814171714653,-0.4350268755550855,0.0023922825222393584,0.0005814380549280622
425260000000,122,425260000000,FR_wheel_link,-0.02462309368927995,-5.5668398491997255,5.711064187494118,-0.4351182449836377,0.0024634377652712203,0.0006006391255617832
425261000000,123,425261000000,FR_wheel_link,-0.02510739333209555,-5.567139592124437,5.716064312769755,-0.4349684559801087,0.0025119405738347478,0.0006137566751482429
425262000000,124,425262000000,FR_wheel_link,-0.10472226741906976,6.839335925683379,9.197708385832822,0.982853416529466,0.01083686080344054,0.002465395134649405
425262000000,125,425263000000,FR_wheel_link,0.05541081124966136,-0.03423694315843655,-0.6860740807858146,0.028318125955922358,0.002853941296383021,-0.001980123130900573
425264000000,126,425264000000,FR_wheel_link,-0.06310886482380214,-0.00886139255676104,-0.01096883454330786,-0.00031497260603092266,-0.0075126493586671825,0.004097747432433279
425265000000,127,425265000000,FR_wheel_link,-1.5410189721878478,-0.9060527605266081,9.28410548095481,0.19935820689853334,0.16307816569772807,0.04037118771299623
425266000000,128,425266000000,FR_wheel_link,-0.049802226756050394,0.042021625591753535,-0.1611459551541832,0.005222378765975884,0.011318417297501208,0.001696505159194155
425269000000,129,425267000000,FR_wheel_link,0.21014401320657217,-0.05772506023058127,-0.8556367578856092,-0.0015118190170850653,-0.014818879385996655,-0.006586783082462317
425269000000,130,425268000000,FR_wheel_link,-0.01284399429327731,0.008232171458690426,-0.01711472620868018,-0.0002579323558923862,-0.00012252627877306477,3.059081415885475e-05
425269000000,131,425269000000,FR_wheel_link,-0.848554543363581,-0.2810114010505653,4.964164995071967,0.1213122956092181,0.08146726338761295,0.02226745539651629
425270000000,132,425270000000,FR_wheel_link,-0.4397001738759351,-0.7657353224901035,5.098726869517928,0.06093881099277624,0.047698203053276024,0.012911980725895738
425271000000,133,425271000000,FR_wheel_link,0.0714987221892463,-0.07237252126269261,-0.4032082110989965,-0.011307112339389587,-0.006052499293673035,-0.0024542872759744185
425272000000,134,425272000000,FR_wheel_link,-1.385409146155461,-0.09339910643494242,15.858378806296898,0.42588558240174434,0.14580231334967472,0.035861243269136284
425273000000,135,425273000000,FR_wheel_link,-0.008951264098344772,-0.010103551142833523,-0.3144606445517486,-0.004875736554826787,-0.005471188632386366,-0.0002172708474102618
425274000000,136,425274000000,FR_wheel_link,-0.10688942679532833,0.21702292588034816,-0.014382676755715971,0.014245511376244722,0.008086649346877693,0.0010686066607663149
425275000000,137,425275000000,FR_wheel_link,0.34728046947621394,-4.215439644014973,15.060118419956957,-0.02111118145075637,-0.03901350042016439,-0.005967335488717949
425276000000,138,425276000000,FR_wheel_link,0.5374905848979346,-0.5748155793272487,3.3609770005262956,0.02571231747936365,-0.05889592635297573,-0.015804650950739702
425277000000,139,425277000000,FR_wheel_link,-0.02511536195273469,0.09572138200322963,-0.1350459462235371,0.011329696356938196,0.006860934888145313,-0.0002615535752364858
425278000000,140,425278000000,FR_wheel_link,1.279497970190988,-4.176208640909734,15.713816937758413,0.007622057846208528,-0.12974970976214056,-0.03413248341816684
425279000000,141,425279000000,FR_wheel_link,-0.4431834162575684,0.7477321746074395,1.4339224213534276,0.11580750855135574,0.04503572519928009,0.012043252124289987
425280000000,142,425280000000,FR_wheel_link,0.12749191985245403,-0.14823474279140558,-0.49684487627009605,-0.012562379095886601,-0.008110492797471868,-0.0020268645482359226
425281000000,143,425281000000,FR_wheel_link,-0.4220960636802433,2.116335997263146,7.757423039758846,0.43065634940685615,0.03247286846586228,0.010248034112643016
425282000000,144,425282000000,FR_wheel_link,-0.4634172119740474,-0.517365484994917,4.526684888328672,0.0757746517105882,0.05124441304225637,0.012976113300495754
425283000000,145,425283000000,FR_wheel_link,0.0678120701740156,-0.06700553066461716,-0.4236723634275216,-0.011387635496288444,-0.006077644944789426,-0.002775912213078628
425284000000,146,425284000000,FR_wheel_link,-1.9954696202727429,0.38562828829038565,14.81364734633501,0.44626444265384113,0.21071917541786378,0.0527482578218731
425285000000,147,425285000000,FR_wheel_link,0.11741744539379353,-0.0746051250850321,-0.32765556510730354,-0.006286723341536493,-0.0065186160346155765,-0.002598778511176406
425285000000,148,425286000000,FR_wheel_link,-0.19569167050692582,0.3047091718039766,-0.8940601372546033,0.0061758814069436474,0.00521303215817777,0.00427406777386448
425287000000,149,425287000000,FR_wheel_link,-0.015697100002381188,0.06796491518818457,0.001272718253704678,0.0044382096080030475,0.0017891104025074397,0.0010685805158744623
425288000000,150,425288000000,FR_wheel_link,0.20428045620721147,-1.3224605239112817,-0.05328680049941922,-0.12836371736555444,-0.022517108532050377,-0.0020427181687713803
425289000000,151,425289000000,FR_wheel_link,-0.01633625382274923,0.05249063625604526,-0.07784500117328119,-0.002079262971482032,-0.004559829718162404,-0.0007152123453609536
425290000000,152,425290000000,FR_wheel_link,-1.3067128071260687,0.8801655088251158,0.7533590573564499,0.13071022434703158,0.1439165023389644,0.03268909900858875
425290000000,153,425291000000,FR_wheel_link,-0.021149632688413477,0.07324351483611953,-0.05477251720781868,0.006000809180431209,0.002573374404749862,0.0006991814937494295
425292000000,154,425292000000,FR_wheel_link,0.07986161951819773,0.16517854657392758,-1.4453340474369678,-0.0067983462373518615,-0.006228957416050222,-9.524436878171851e-05
425293000000,155,425293000000,FR_wheel_link,-4.409522010944745,-8.693447949669086,19.16279283816641,-0.9267909766440467,0.4404197464376348,0.011657353221687046
425294000000,156,425294000000,FR_wheel_link,0.12566003411036042,0.2194155022580655,1.8009165888295988,0.009670744633259069,0.007137975362482962,-0.0034011536549836806
425295000000,157,425295000000,FR_wheel_link,-1.6532103294214808,-9.184990851010237,21.587000072409236,-0.9668437621240968,0.1934510985363163,-0.005510392893978849
425296000000,158,425296000000,FR_wheel_link,0.16896550169017743,0.04928312451047334,1.2361980086046316,0.0005277956371067985,-0.006743433968441712,-0.002991238918164678
425297000000,159,425297000000,FR_wheel_link,-0.755148927526232,-8.236453826828235,16.150622260436094,-0.8871762565352419,0.0645144573978923,0.0036937895238283204
425298000000,160,425298000000,FR_wheel_link,0.18722510942233206,0.06043713375098628,1.1464916818736712,0.0012436541630265613,-0.010106169611326423,-0.0038290434347206144
425299000000,161,425299000000,FR_wheel_link,-1.480118609263767,-7.239161888028603,17.431181259677352,-0.7719303090977735,0.14438531085709705,0.0029470287322173293
425300000000,162,425300000000,FR_wheel_link,0.16130382261374862,0.14074966671491385,1.2525424926002358,0.006426313916931211,-0.00923185883779185,-0.001570147228544685
425301000000,163,425301000000,FR_wheel_link,-1.3803792173502187,-7.141382554773475,17.118817541543912,-0.7582073829962371,0.13475598528577754,0.0028665550290990736
425302000000,164,425302000000,FR_wheel_link,0.1642515434753073,0.14393566844645497,1.2490915915838725,0.007918274070116992,-0.010032528206722508,-0.0020210848879076318
425303000000,165,425303000000,FR_wheel_link,-2.0592743520230514,-6.742801637511348,17.72535836734711,-0.7092698555699738,0.20404033380754227,0.004669413119904417
425304000000,166,425304000000,FR_wheel_link,0.0814665698841629,0.07189312059748178,0.9362758054458702,0.013314812662382209,0.002641780471609288,-0.003084923601405087
425305000000,167,425305000000,FR_wheel_link,-2.0552325114831227,-4.1584703295507035,14.660343750586211,-0.4554228609623607,0.2077449794566789,0.007584120177705237
425306000000,168,425306000000,FR_wheel_link,0.042186930451853163,0.15723504137920702,0.9599320361372803,0.013357301886656871,-0.001399310768413182,-0.001307883916671495
425307000000,169,425307000000,FR_wheel_link,-1.8466891644558783,-5.767365549911686,15.638383878093164,-0.6005534989243815,0.1973283039747926,-8.319148153004483e-05
425308000000,170,425308000000,FR_wheel_link,0.1453017831713342,0.06237595115493753,1.0337229181131886,0.010909886974176075,-0.005104227973965082,-0.0045014854835146445
425309000000,171,425309000000,FR_wheel_link,-1.7539873584181411,-6.273731420595458,16.25323092473639,-0.6593472405621841,0.1781139624760675,0.0023105914965439265
425310000000,172,425310000000,FR_wheel_link,-0.09791921164325022,0.09866462827953672,0.354559608512741,0.0031681357215819347,-0.001368196233025891,0.0037140614454666742
425311000000,173,425311000000,FR_wheel_link,-3.019031644823476,-2.9564168396581336,11.223637420451285,-0.31798571577603224,0.30953803544915526,0.0071974783587441995
425312000000,174,425312000000,FR_wheel_link,-0.055271671796568146,0.13120039501646216,0.584475258278739,0.005867039096750393,-0.0007434840223216172,0.00031398685106701074
425313000000,175,425313000000,FR_wheel_link,-2.839032972142408,-3.1269578375145106,15.905049598936682,-0.3327671759549367,0.31135619379491986,0.0017804667045028383
425314000000,176,425314000000,FR_wheel_link,0.00914844102351306,0.16006119472549646,0.8411673685708626,0.012932789629712012,0.0024748579530391593,-0.0014464293626262968
425315000000,177,425315000000,FR_wheel_link,-1.4918118651792835,-6.183766180404475,14.665771075205818,-0.646602961084074,0.16150707559679878,-0.0004724257603896283
425316000000,178,425316000000,FR_wheel_link,0.06587285808390524,0.09932162707876556,0.7847988285223375,0.014815958479611969,0.0006372692922140769,-0.003522801351334147
425317000000,179,425317000000,FR_wheel_link,-1.5379779902390607,-5.4021443470969785,13.457849609715442,-0.5618287135036353,0.1616545322568787,0.0009537347324398218
425318000000,180,425318000000,FR_wheel_link,0.16755782232158403,0.009772177456860952,0.8638325147575124,0.009133313198989879,-0.005370094770719744,-0.003880435628639707
425319000000,181,425319000000,FR_wheel_link,-1.3107479198850638,-6.208163874880999,14.714296598329089,-0.6552456912482543,0.12771083937552558,0.002978128974437484
425320000000,182,425320000000,FR_wheel_link,0.139083551393172,0.04350939609817793,0.8638760203570268,0.0074596494407988675,-0.005599120049300449,-0.0020654321582502812
425321000000,183,425321000000,FR_wheel_link,-1.2065686799955073,-6.244104456173387,14.413845746770857,-0.6596216311300165,0.11724214210036027,0.002970949840786599
425322000000,184,425322000000,FR_wheel_link,0.14374867810484548,0.03812696078233869,0.855386538327697,0.006450254799879203,-0.006116786340192899,-0.0020317588799246256
425323000000,185,425323000000,FR_wheel_link,-1.1406817335967063,-6.247344562281228,14.362567804735857,-0.6606004446474318,0.11004529426814258,0.0029354036524515126
425324000000,186,425324000000,FR_wheel_link,0.1391042256231453,0.04478953245835136,0.839631755392784,0.006267931589669103,-0.006082395917474382,-0.0017664902405565444
425325000000,187,425325000000,FR_wheel_link,-1.0399759002913926,-6.207559015788112,14.10954589865932,-0.6565366123370285,0.09971775729469051,0.002799793425079168
425325000000,188,425326000000,FR_wheel_link,0.1316773798168428,0.05241779545011191,0.8132643569990303,0.006296181461253674,-0.005950530639100367,-0.001567418059972024
425327000000,189,425327000000,FR_wheel_link,-0.9461883386031285,-6.098132891222402,13.745092727777253,-0.6448506037461464,0.09028854483860066,0.0026219516028098064
425328000000,190,425328000000,FR_wheel_link,0.11459546775710733,0.06478527017927933,0.7682513627326796,0.006351924479440798,-0.0053086360804990695,-0.0011632233787793565
425329000000,191,425329000000,FR_wheel_link,-0.8567783857416882,-6.004497787760986,13.309412789778321,-0.6347708576028059,0.08198586008574471,0.002343037412430799
425330000000,192,425330000000,FR_wheel_link,0.09739432114919981,0.07904549180328532,0.7265227988650694,0.006819288757146571,-0.004573786522228732,-0.0008688229981620078
425331000000,193,425331000000,FR_wheel_link,-0.7637091611767293,-5.863215689348824,12.806609123595024,-0.6193340965382389,0.0733831109244768,0.002035776019015112
425332000000,194,425332000000,FR_wheel_link,0.08184025603864063,0.08936502271066539,0.6796332561006134,0.007218472122517645,-0.0038645423281142544,-0.0006714330713572037
425333000000,195,425333000000,FR_wheel_link,-0.6668399996810161,-5.721346507107038,12.285990426386686,-0.6040146998479359,0.0642493480769814,0.001759113783898602
425334000000,196,425334000000,FR_wheel_link,0.07070338688162645,0.09972503168486763,0.6411842546413129,0.00784806500651232,-0.0032226847934386234,-0.0006948487491197581
425335000000,197,425335000000,FR_wheel_link,-0.5669654846262802,-5.6306321588127535,11.865874226934448,-0.5941033863786377,0.05447753514259479,0.001582543071230123
425336000000,198,425336000000,FR_wheel_link,-0.019232866225531775,0.10432196481698394,0.5157126232041342,0.007075401874087234,-0.0032106047426295713,0.002248426223729367
425337000000,199,425337000000,FR_wheel_link,-0.6889632489512207,-4.959168704703947,10.994198814650272,-0.5202533475132246,0.07338478719616703,-7.219506783737346e-05
425338000000,200,425338000000,FR_wheel_link,0.05351519035033456,0.09344094900534791,0.55201428116516,0.00837195212816378,-0.0012819826146600651,-0.0011844441039540875
425339000000,201,425339000000,FR_wheel_link,-0.5082361272609646,-6.118444455315718,12.391667961453873,-0.6456211362225766,0.05111207809779739,0.0009428149672604334
425340000000,202,425340000000,FR_wheel_link,0.12742660702578695,0.049386680645549456,0.6677439620473611,0.009923894050873756,-0.004324169549626824,-0.003265023823010224
425341000000,203,425341000000,FR_wheel_link,-0.8217997074323438,-5.28339997885049,12.553341354433197,-0.553576920050309,0.08058257089542348,0.001511677506781408
425342000000,204,425342000000,FR_wheel_link,0.12100170776473083,0.08103221843759509,0.7156262515603815,0.00781994538319112,-0.005379569139899925,-0.0008572782664238699
425343000000,205,425343000000,FR_wheel_link,-0.7703179838177876,-5.979023759545509,13.605235875120231,-0.6286996901283788,0.07407423607927177,0.001715070519013531
425344000000,206,425344000000,FR_wheel_link,0.09783642431389417,0.10998990559717417,0.7322445593243135,0.008437945587380572,-0.004486229546682896,-0.0004892895819324453
425345000000,207,425345000000,FR_wheel_link,-0.6322595114191332,-5.3859707372964465,12.219926473544884,-0.5648368959175585,0.060590741576922624,0.0014716385342645518
425346000000,208,425346000000,FR_wheel_link,0.0775727435431447,0.10195078808966423,0.628259676408866,0.007609251104957634,-0.0037390049859774774,-0.00032762885920389944
425347000000,209,425347000000,FR_wheel_link,-0.5312967691080579,-5.52817207483866,11.95386834557582,-0.5813293262323005,0.050757370761322695,0.0013525330119164083
425348000000,210,425348000000,FR_wheel_link,0.06040339155766854,0.12388766341353705,0.6084644455466854,0.009166166299666243,-0.003010418251280476,-0.0002382802360190551
425349000000,211,425349000000,FR_wheel_link,-0.43117005918408857,-5.319937408652372,11.36406068408077,-0.5580907338428578,0.04118140049531627,0.0011346332679647367
425350000000,212,425350000000,FR_wheel_link,0.0450482318041446,0.12287444401668848,0.5484276048862863,0.008610798914705281,-0.002350868167813908,-0.000145523093707205
425351000000,213,425351000000,FR_wheel_link,-0.33709094719291954,-5.198224946081395,10.782651267389074,-0.5458525408985664,0.0321248197091239,0.0009535795593149932
425352000000,214,425352000000,FR_wheel_link,0.03091605957198315,0.13672668006669844,0.5105474073779964,0.009791321045818178,-0.001739622170123722,-4.699979960481036e-05
425353000000,215,425353000000,FR_wheel_link,-0.2515950927820736,-5.1401585415968025,10.462638120411576,-0.5389754406424316,0.023960983641932332,0.0007783682530745385
425354000000,216,425354000000,FR_wheel_link,0.0176922897791163,0.141864916521354,0.4717105181534374,0.009744675248358502,-0.0011539817944102582,4.090879992885019e-05
425355000000,217,425355000000,FR_wheel_link,-0.16818531012932603,-4.969900716855589,9.872302764708726,-0.5211013989979062,0.015954027603510335,0.0006175961082164269
425356000000,218,425356000000,FR_wheel_link,0.005161273025135624,0.1502539772151598,0.4287384382779533,0.0104662692614212,-0.000591703631660152,0.00012637283490044763
425357000000,219,425357000000,FR_wheel_link,-0.0902276393600312,-4.9264649612174995,9.572162646509799,-0.5161262300200355,0.008525355245341038,0.00046035152859821675
425358000000,220,425358000000,FR_wheel_link,-0.006794078623215544,0.1580127221532514,0.39668915662449056,0.010792316238207228,-5.2983888802718426e-05,0.00020345418950585032
425359000000,221,425359000000,FR_wheel_link,-0.013694545975312167,-4.779265444263492,9.073260387565773,-0.5003813116214426,0.0011977762735292108,0.00031477053713429605
425360000000,222,425360000000,FR_wheel_link,-0.018273196049582816,0.16407021233576502,0.35633688380424255,0.011231496385447019,0.00046748067918801067,0.0002757376550264652
425361000000,223,425361000000,FR_wheel_link,0.059821489490127444,-4.714355546374619,8.734156775458153,-0.4933263330098664,-0.005822502215432984,0.00017495586311366135
425362000000,224,425362000000,FR_wheel_link,-0.02935419977235383,0.1718987222295136,0.3250144866218072,0.011692961746478952,0.000966782279885523,0.0003439265107323089
425363000000,225,425363000000,FR_wheel_link,0.1319974857034616,-4.601513967270424,8.323079319425672,-0.4811216492520487,-0.012725739929618368,3.96729852217715e-05
425364000000,226,425364000000,FR_wheel_link,-0.04002683318750701,0.17735830979013617,0.2889925217143879,0.012030940548296697,0.0014479238471935994,0.0004055176124932352
425365000000,227,425365000000,FR_wheel_link,0.20238262869428025,-4.51856020114052,7.961128060657235,-0.47221447076179346,-0.01946333492932703,-8.77552769746456e-05
425366000000,228,425366000000,FR_wheel_link,-0.0503920387639146,0.1842480478486917,0.2573354361331752,0.012488125156487728,0.0019099160311253282,0.000466024258312313
425366000000,229,425367000000,FR_wheel_link,0.27061239736921094,-4.428890543363188,7.602554099902916,-0.4624814914329559,-0.025999467384831804,-0.0002056454935123542
425368000000,230,425368000000,FR_wheel_link,-0.06040881402643643,0.18968658278117545,0.22491187168576743,0.012820350978078784,0.0023590135613171994,0.0005176593026649202
425368000000,231,425369000000,FR_wheel_link,0.3368054259712814,-4.3415396239311494,7.243921440992759,-0.45309874717937204,-0.03234268232571655,-0.0003144406532731127
425370000000,232,425370000000,FR_wheel_link,-0.07013860510099837,0.19559442550894782,0.19390646714783843,0.013232940291555265,0.0027940489771514044,0.0005650113810278115
425371000000,233,425371000000,FR_wheel_link,0.401125054782814,-4.262668730640437,6.912326005862541,-0.44454350369221485,-0.03850299127679893,-0.00041759976233636704
425372000000,234,425372000000,FR_wheel_link,-0.0795754784140238,0.20087519890668742,0.16390183327216973,0.013572147123176299,0.003215657946456189,0.0006062467226761194
425373000000,235,425373000000,FR_wheel_link,0.46357619114969517,-4.1796188930337825,6.572114571374016,-0.43560413718125424,-0.044490648759242496,-0.0005109433453017167
425374000000,236,425374000000,FR_wheel_link,-0.08874029773544143,0.20603180520360095,0.13424386242977782,0.01393869019549241,0.0036257715146332074,0.0006416794341093302
425375000000,237,425375000000,FR_wheel_link,0.5242745785259368,-4.106358381050649,6.256637004117364,-0.4276783838453972,-0.05030632007594982,-0.0005990540752810695
425376000000,238,425376000000,FR_wheel_link,-0.09764367825852358,0.2109751254663606,0.10594351561369848,0.014276837469120259,0.004023494569428287,0.0006718984407676602
425377000000,239,425377000000,FR_wheel_link,0.5831927141003563,-4.030374184101839,5.938513973947902,-0.4194836546173105,-0.05595456134832871,-0.0006788968428476797
425378000000,240,425378000000,FR_wheel_link,-0.1062899421876019,0.21558379850356243,0.07789842387737386,0.01461047504212425,0.004410423476339459,0.0006964213513573528
425379000000,241,425379000000,FR_wheel_link,0.6459456553686669,-3.9600733100352743,5.633705785422331,-0.41190844058855003,-0.062044933963969845,-0.0007531464801979167
425380000000,242,425380000000,FR_wheel_link,-0.11473594664904735,0.22008741287976213,0.05098893822629375,0.01493984946468553,0.00479418806967002,0.0007151733198695028
425381000000,243,425381000000,FR_wheel_link,0.7081008011429346,-3.8896413751873116,5.332882796913327,-0.4043183030403864,-0.06808360925890708,-0.0008230498183426803
425382000000,244,425382000000,FR_wheel_link,-0.12331293229701902,0.22427159929824161,0.024172046719684405,0.015250560578038747,0.005173928717759702,0.0007397008650424906
425383000000,245,425383000000,FR_wheel_link,0.7675533553663036,-3.8213365700502804,5.04027282346887,-0.3969551464166591,-0.07382189894701877,-0.0008938656396797222
425384000000,246,425384000000,FR_wheel_link,-0.13178736336630878,0.22844437571180584,-0.0020319861012206863,0.015557525834765539,0.005551666074745751,0.0007682539343705929
425385000000,247,425385000000,FR_wheel_link,0.8305750048861169,-3.754947587465142,4.754672771047199,-0.389799098777577,-0.07995400340289269,-0.0009648114919943666
425386000000,248,425386000000,FR_wheel_link,-0.14000196196450004,0.2323474046345731,-0.027473613123919875,0.015856392381985503,0.005930886559732472,0.0007846495893559198
425388000000,249,425387000000,FR_wheel_link,0.8956472974606426,-3.695056151603021,4.477031971789151,-0.38337803967441797,-0.08633890785491172,-0.0010242875938749705
425388000000,250,425388000000,FR_wheel_link,-0.14774169211891128,0.2357648752526508,-0.05214218558131418,0.016159682988400793,0.006313596817936114,0.0007726384042678765
425389000000,251,425389000000,FR_wheel_link,0.9487864172219191,-3.637115408610919,4.212953678644485,-0.3771135484270248,-0.09142465158615529,-0.0010814624453240936
425390000000,252,425390000000,FR_wheel_link,-0.15524516111367165,0.23916791700186069,-0.07593665786680484,0.016448705013833793,0.006666709127223834,0.0007677706662548162
425391000000,253,425391000000,FR_wheel_link,0.9974453612939023,-3.5785025672134676,3.955173005630814,-0.37075954243651155,-0.09605184605051173,-0.001132033791725496
425392000000,254,425392000000,FR_wheel_link,-0.16242888176298031,0.24233651327272188,-0.09901221770222605,0.016713919129163424,0.006993261714708732,0.0007631219990839141
425393000000,255,425393000000,FR_wheel_link,1.026817998877936,-3.513323374396647,3.742889421754596,-0.36356736816955126,-0.09858197970320406,-0.0012022312740624284
425394000000,256,425394000000,FR_wheel_link,-0.16586455788968082,0.24362948539038715,-0.11460647188846594,0.016933534024892827,0.0071778400260795435,0.0007152161158700402
425395000000,257,425395000000,FR_wheel_link,1.0487424040730478,-3.47718024196136,3.6262398597006498,-0.3594705499005658,-0.10055976807769235,-0.0012390433010742523
425396000000,258,425396000000,FR_wheel_link,-0.16700181335823822,0.24465588796844873,-0.12318857845855705,0.017103421705782718,0.007234318131624734,0.0006632837376870961
425397000000,259,425397000000,FR_wheel_link,1.0717972468239956,-3.4460812146070436,3.5322037998463927,-0.3559698399371342,-0.10286949462260592,-0.0012400574147450674
425398000000,260,425398000000,FR_wheel_link,-0.1682594631772698,0.24588871104627963,-0.13188422336765526,0.01723687301564321,0.00727621354889349,0.0006371440499479732
425399000000,261,425399000000,FR_wheel_link,1.095795176668696,-3.415344811161823,3.4334805466642964,-0.35254326983621387,-0.10529987353956319,-0.0012335214613238194
425400000000,262,425400000000,FR_wheel_link,-0.16953935794091707,0.24695416726684313,-0.14069546641021938,0.017367264031424252,0.007311764743439713,0.0006078698606218119
425401000000,263,425401000000,FR_wheel_link,1.119217611807011,-3.3853616684358023,3.336584941000842,-0.34920246399536103,-0.10767415653269474,-0.0012247198359467194
425402000000,264,425402000000,FR_wheel_link,-0.17094428078252819,0.24788477256723387,-0.14962387364420304,0.017488650279139033,0.007348493259383107,0.0005817911950237448
425403000000,265,425403000000,FR_wheel_link,1.1420001783756502,-3.3558889117576047,3.240265437553865,-0.34592378680511693,-0.10997372360278294,-0.0012162030817302696
425404000000,266,425404000000,FR_wheel_link,-0.17220315558328203,0.24861729738275493,-0.15832914422285344,0.017608114713731336,0.0073895722795730995,0.0005426177627420737
425405000000,267,425405000000,FR_wheel_link,1.1637148538140119,-3.3287794552318717,3.1489594622988797,-0.34289831254404984,-0.11216646065064316,-0.0012033698962272475
425406000000,268,425406000000,FR_wheel_link,-0.17332351961250575,0.24928178856293792,-0.1665192241494206,0.01772211761504283,0.007427569377675964,0.000500459258720145
425407000000,269,425407000000,FR_wheel_link,1.1847655379322093,-3.302744809973131,3.0602380257467336,-0.3399916423492382,-0.11430148154405573,-0.0011857403209973604
425408000000,270,425408000000,FR_wheel_link,-0.17461378805798963,0.250062723038387,-0.17475583916703263,0.017827968971859755,0.0074667384569757425,0.00047114002266818595
425409000000,271,425409000000,FR_wheel_link,1.2049715779850796,-3.2767557275955284,2.972869781448333,-0.3370858197931878,-0.11633458062529213,-0.0011704928671596368
425410000000,272,425410000000,FR_wheel_link,-0.17592175571356194,0.2507556688263725,-0.18297884479252685,0.017932065023471735,0.0075092110831307835,0.0004405152672060079
425411000000,273,425411000000,FR_wheel_link,1.2246351454006112,-3.2512137539486696,2.8866765527817275,-0.33422800213173776,-0.11830547087570445,-0.0011554600587560498
425412000000,274,425412000000,FR_wheel_link,-0.17706769663492042,0.2512975182652786,-0.19090719532377104,0.01803677113599548,0.007552034495460114,0.00039840434804027877
425413000000,275,425413000000,FR_wheel_link,1.2439839416691645,-3.227020028505791,2.802509769911671,-0.3315183361687517,-0.12025535123436153,-0.001135498694570812
425414000000,276,425414000000,FR_wheel_link,-0.17826022989062512,0.2518826928667688,-0.1987252330387511,0.018136816290285504,0.007591502041631325,0.000363171894128284
425415000000,277,425415000000,FR_wheel_link,1.2627270855388333,-3.203120128254821,2.7202110316177834,-0.32883786917147084,-0.12213982854139104,-0.0011157058546649914
425416000000,278,425416000000,FR_wheel_link,-0.17950738287819107,0.25245668351739275,-0.20649972551933515,0.01823411234501929,0.007632792988088972,0.00032940163610278465
425417000000,279,425417000000,FR_wheel_link,1.2809807912959725,-3.1796288530917773,2.6390524078864566,-0.32619992200001713,-0.1239675262385526,-0.001096278222419319
425418000000,280,425418000000,FR_wheel_link,-0.18060007809161177,0.25282943690402143,-0.21406028894881135,0.018331734182970266,0.0076739722395967385,0.0002844996023513606
425419000000,281,425419000000,FR_wheel_link,1.2988850084138976,-3.15739348842465,2.5599650456638177,-0.3237032707702124,-0.12576991124133863,-0.0010713280510865914
425420000000,282,425420000000,FR_wheel_link,-0.18163202840055176,0.2577230247001688,-0.2214842528068508,0.018423391598685144,0.007713617182127175,0.00024277586707203194
425421000000,283,425421000000,FR_wheel_link,1.3176656461474363,-3.1241904908983518,2.476833644931935,-0.31986465230520467,-0.12762469743805216,-0.0010645004269811695
425422000000,284,425422000000,FR_wheel_link,-0.18062541543664132,0.2728482716919149,-0.226573723590562,0.018641913182709694,0.007641467885319375,0.0001749939860583036
425423000000,285,425423000000,FR_wheel_link,1.3388338091315544,-3.057723693812777,2.401460397753551,-0.31193468817904807,-0.12976326467503504,-0.0011070040929632408
425424000000,286,425424000000,FR_wheel_link,-0.17941137949949984,0.2758919504754319,-0.22957507082536413,0.019079594331266457,0.0074777485665288084,0.00016162426366043747
425424000000,287,425425000000,FR_wheel_link,1.3596123057120637,-3.011474817219734,2.3468441957820807,-0.30641918235709054,-0.13200885631646017,-0.0011057174602421547
425426000000,288,425426000000,FR_wheel_link,-0.17878647955347382,0.2779451413546978,-0.2331489623295252,0.019352739027939707,0.007348608099055432,0.000162226098397489
425427000000,289,425427000000,FR_wheel_link,1.3804077794403828,-2.976722182129044,2.288360955664373,-0.3023225204691465,-0.13424141886946211,-0.0010906082239698382
425428000000,290,425428000000,FR_wheel_link,-0.17780130857294968,0.27939361877514146,-0.23637090198335545,0.01956438445383718,0.0072141974957783545,0.00014333674280870066
425429000000,291,425429000000,FR_wheel_link,1.3991912171311554,-2.948505221157956,2.2426413924348716,-0.29899255119332935,-0.13627896781533855,-0.001070748793706033
425430000000,292,425430000000,FR_wheel_link,-0.17735100013186506,0.28048075609579964,-0.24056672543721042,0.019704400658063254,0.0071228453627546874,0.00012851539134106917
425431000000,293,425431000000,FR_wheel_link,1.4178060483539077,-2.923747190170786,2.1889354983135845,-0.29611633824879163,-0.1382554191849022,-0.0010496982404356726
425432000000,294,425432000000,FR_wheel_link,-0.1765177708341841,0.2813051385587691,-0.2444690686938903,0.019836828594522217,0.007019665984224419,9.823248012619826e-05
425433000000,295,425433000000,FR_wheel_link,1.3504209933956615,-2.9864255219612748,3.541756628160962,-0.3100820870255896,-0.1265357320643366,-0.0018615320850935548
425434000000,296,425434000000,FR_wheel_link,-0.17917305461030325,0.2572636273102699,-0.24950249311898937,0.01774214233615983,0.0057545340249923966,0.00178041428279573
425435000000,297,425435000000,FR_wheel_link,1.3849244878256841,-2.8610920240516484,2.8327362572030355,-0.2993748354375835,-0.1332496597262755,-0.0007220047511957457
425436000000,298,425436000000,FR_wheel_link,-0.1847629859961728,0.25029726526732576,-0.28454340334254213,0.01678278886138486,0.0061746555303157724,0.0018319846611667152
425437000000,299,425437000000,FR_wheel_link,1.447200785912794,-2.896571595821942,1.5255044018538795,-0.2995165389576369,-0.14330122088352565,0.0025030708757104265
425438000000,300,425438000000,FR_wheel_link,-0.17516535958270435,0.36339444034096735,-0.17710930942446335,0.029370902096621264,0.006525580416310682,-7.268657681962112e-05
425439000000,301,425439000000,FR_wheel_link,1.2057568495460451,-2.9559788288621425,3.039362016770419,-0.304501310546379,-0.11665181640942184,0.0009744978870776054
425439000000,302,425440000000,FR_wheel_link,-0.19280974131519205,0.255064548629014,-0.23727692097988462,0.018206683973274525,0.008866224305303403,0.00044229417343124157
425441000000,303,425441000000,FR_wheel_link,1.2842519513016046,-2.9876375335939844,2.3227373047352113,-0.3089757957492183,-0.12233111404330309,0.0009255371397350137
425442000000,304,425442000000,FR_wheel_link,-0.1855440286838202,0.26904193607851196,-0.2445863405540962,0.0187807639764773,0.008126584085684306,3.217412095883825e-05
425443000000,305,425443000000,FR_wheel_link,1.2859147341802022,-2.985671945747947,2.544724111579253,-0.3079102214049756,-0.12307649390780094,0.0009245246730057091
425444000000,306,425444000000,FR_wheel_link,-0.1855420945339309,0.2520784946747571,-0.2465293869901368,0.01873971897275183,0.007969115237210871,6.329127560760365e-05
425445000000,307,425445000000,FR_wheel_link,1.3397406463881776,-2.9792657477028692,2.313312217254196,-0.30779553772685214,-0.1293459572527242,0.0012800617391402962
425446000000,308,425446000000,FR_wheel_link,-0.1813030482207757,0.26830226294918247,-0.25338537196642874,0.01881563118369673,0.0076021140170958925,-0.00014072933600201687
425447000000,309,425447000000,FR_wheel_link,1.3622342234278415,-2.921222928099226,2.28013310537975,-0.30080200698389115,-0.132039160642841,0.0013427477026012001
425448000000,310,425448000000,FR_wheel_link,-0.1820001459366077,0.2692614985232797,-0.25971049199490415,0.019041055885785113,0.007526881067043353,-0.00013736500657794579
425449000000,311,425449000000,FR_wheel_link,1.3909644093790234,-2.8855363523778146,2.1665299217397234,-0.29653651251688523,-0.13510491588996137,0.0014372076795269317
425450000000,312,425450000000,FR_wheel_link,-0.17880462497247565,0.2700555946563268,-0.25981729650950713,0.019364356022240417,0.007237302785458855,-0.00022086805218053988
425451000000,313,425451000000,FR_wheel_link,1.4055815498488706,-2.858106949257762,2.1642341715105555,-0.29316050882836675,-0.13688911900219675,0.0015020213593109576
425452000000,314,425452000000,FR_wheel_link,-0.1807436102960658,0.2710143451411737,-0.26691420052242976,0.019384254522405886,0.007269530463331985,-0.00018043650035841038
425453000000,315,425453000000,FR_wheel_link,1.4262008506958956,-2.836995171730197,2.0699106746561524,-0.2906075612876734,-0.13894196930476066,0.001564453649505977
425454000000,316,425454000000,FR_wheel_link,-0.1779558366044027,0.2715055076158492,-0.2671066138761563,0.01960606810173279,0.007058711681988009,-0.0002620466787149146
425455000000,317,425455000000,FR_wheel_link,1.4362849777777087,-2.8158708830967676,2.0751836580780614,-0.28798996733846827,-0.14014681587361202,0.0016070760625010643
425456000000,318,425456000000,FR_wheel_link,-0.18011880122256507,0.27213320848615746,-0.27483141466053673,0.01956858875235231,0.007130241732731427,-0.00022491294291909425
425457000000,319,425457000000,FR_wheel_link,1.4555331376161704,-2.797673476290276,1.9788254548217492,-0.28581721792794346,-0.1420232056175727,0.0016541285444971905
425457000000,320,425458000000,FR_wheel_link,-0.20043623508370073,0.27060842530377893,-0.27691799880528845,0.019719707382763938,0.009412904314337405,-0.0003107535006139648
425459000000,321,425459000000,FR_wheel_link,1.2500585887107751,-2.7954320442130016,2.02920328177495,-0.2848196181727034,-0.11916837931345058,0.0012194646744094306
425460000000,322,425460000000,FR_wheel_link,-0.21233264455748724,0.27162397729149285,-0.2859185268359834,0.01957046607628593,0.01028394031077054,-0.0002554897362451
425461000000,323,425461000000,FR_wheel_link,1.1645599019679413,-2.8027373225555547,2.006192971745776,-0.2853565191321358,-0.10991409108875089,0.0011551767824606457
425462000000,324,425462000000,FR_wheel_link,-0.22209470244270949,0.2702745009410581,-0.28914581947467266,0.019513361180503286,0.011130198988081772,-0.00024925582818398627
425463000000,325,425463000000,FR_wheel_link,1.0987588582233512,-2.7908221823378447,1.915295059847692,-0.28392689941778937,-0.10291551631151762,0.001148154583784275
425464000000,326,425464000000,FR_wheel_link,-0.22042758758989295,0.2670430672075173,-0.28382415817775,0.01970439270843049,0.011154330354897669,-0.0004231724924518342
425465000000,327,425465000000,FR_wheel_link,1.0377013448011552,-2.801089945553337,2.022547133563281,-0.2849604756475525,-0.097115628455564,0.0012122822637010578
425466000000,328,425466000000,FR_wheel_link,-0.22992907438112553,0.26753813260837317,-0.2966571483260469,0.019310413145083735,0.011859820640301423,-0.0003335075965094034
425467000000,329,425467000000,FR_wheel_link,0.9892768153257049,-2.820789079244479,1.9572671050314896,-0.28707397159452164,-0.09156650892479663,0.0011692123065647157
425468000000,330,425468000000,FR_wheel_link,-0.21692164007806486,0.2650749424124392,-0.2730209628212308,0.019693653432175228,0.011355719954574309,-0.0006278506105327614
425469000000,331,425469000000,FR_wheel_link,0.9790657660007829,-2.7786475505662853,1.9963006012822828,-0.28250063942225745,-0.09185023853403347,0.0014033791935014134
425470000000,332,425470000000,FR_wheel_link,-0.2368744441343525,0.2650371661931361,-0.3108505740513957,0.019115121235592447,0.012419361059347264,-0.0003753520386776304
425471000000,333,425471000000,FR_wheel_link,0.9189415604412652,-2.8339241219107922,1.941223939286186,-0.28831404979764275,-0.08404822153818145,0.0011879535047710698
425472000000,334,425472000000,FR_wheel_link,-0.07301269688132694,0.4805436132956309,0.3046512018036516,0.05169649834821169,0.004171359126027712,-0.0028356921628139788
425473000000,335,425473000000,FR_wheel_link,-0.25941618430815716,0.28827840883218725,7.122183010570062,0.09842738708633388,0.0417714216214979,-0.005329239468373029
425474000000,336,425474000000,FR_wheel_link,-0.00551541054103025,0.007984896616731114,-0.07092485056084707,0.0008483217068957943,0.0006957991595667712,-6.367496777099333e-05
425477000000,337,425475000000,FR_wheel_link,0.00038878196087707706,0.1578896307387944,0.08414846042806029,0.02658205690232668,0.0009012780727951884,8.169686386061008e-05
425477000000,338,425476000000,FR_wheel_link,0.04313379798394246,-1.1732405058333013,9.143326325403425,-0.10759600956669248,-0.001591814701603425,-0.0010736219475506869
425477000000,339,425477000000,FR_wheel_link,0.6181494248288553,0.3080048174474539,3.0218353757995438,0.023983283926888636,-0.07050639560006405,0.0019981623800092783
425478000000,340,425478000000,FR_wheel_link,-0.03197883891543168,0.10456482831422957,-0.16367554199368928,0.014748869456536761,0.0077627273108680445,-0.0024656295481138776
425479000000,341,425479000000,FR_wheel_link,1.158620351650318,-1.4078252631024992,14.325931215445156,-0.14953864603348,-0.11955615265324278,-6.403497759693844e-05
425480000000,342,425480000000,FR_wheel_link,-0.7754140448143971,1.0189986001130482,1.1092345125280683,0.10944285243130758,0.08504039613960254,-0.003367829313822671
425481000000,343,425481000000,FR_wheel_link,0.03252647919141583,-0.12840358941612268,-0.96774973358649,-0.005274881033726878,-0.00411708510706471,0.0019868168020980392
425482000000,344,425482000000,FR_wheel_link,-0.03931890236612191,0.1205729719585873,0.04674569850935331,0.0036377995798064127,-0.005372025146727208,0.0026782884411967697
425483000000,345,425483000000,FR_wheel_link,-2.638450330539076,2.125818278398285,10.36633117576189,0.22943613222526238,0.2846351478056069,-0.0037758542542891717
425484000000,346,425484000000,FR_wheel_link,0.1788495120382789,-0.18845336585635458,-0.35956877818721344,-0.007359068912886383,-0.008881779514350076,-0.00263908477509429
425485000000,347,425485000000,FR_wheel_link,-2.3411032149188755,0.9174234588354059,8.084734137499144,0.0826160495903254,0.23668810744897129,-0.0022272350782994834
425486000000,348,425486000000,FR_wheel_link,0.09853991406046247,-0.14048919689799655,-0.9271446676253741,-0.008188587080136771,-0.0019203768599647484,0.001705768330149269
425487000000,349,425487000000,FR_wheel_link,-0.008991305126135486,0.017288546287454118,0.0009410319121870845,0.0003077918593629364,-0.0003187113123622077,0.0001285026901166752
425488000000,350,425488000000,FR_wheel_link,-0.21284402512817105,0.09091431734291044,-1.238566713130321,0.00955827598894472,0.006840488332994185,0.002764992372195906
425489000000,351,425489000000,FR_wheel_link,0.036574700006131916,-0.0022931789504648872,-0.01722656830209813,0.0009159449761111495,-0.0005075029015951661,0.000608261559380112
425490000000,352,425490000000,FR_wheel_link,0.06946390757984136,-0.22976571440876584,-1.3986792895788138,-0.010835773718205717,-0.006888166798777686,0.0007039342704577953
425492000000,353,425491000000,FR_wheel_link,-0.0012352269463800167,0.020713078251664865,0.015285550493616216,0.0006400416056978563,-0.00016158957067847275,-3.961515043909027e-05
425492000000,354,425492000000,FR_wheel_link,-0.08055407266562882,0.017020601367979164,-1.320170129510848,0.008896250057754088,0.005757479937256678,-0.001593812394296856
425493000000,355,425493000000,FR_wheel_link,0.009782014097011595,-0.002669826259512134,-0.0015839984490499128,-0.0001440448746759301,-0.00040109046128729167,5.519430894759133e-05
425494000000,356,425494000000,FR_wheel_link,0.055763798974378415,-0.14672465806779644,-1.316854629210848,-0.006911857133915,-0.005514336184830971,0.0006815569579110283
425496000000,357,425495000000,FR_wheel_link,-3.7191502233171504e-05,0.01186930449153437,0.009012814565833898,0.0003258965185363647,-0.0001357375797163147,2.101490040891561e-06
