%time,field.name0,field.name1,field.name2,field.pose0.position.x,field.pose0.position.y,field.pose0.position.z,field.pose0.orientation.x,field.pose0.orientation.y,field.pose0.orientation.z,field.pose0.orientation.w,field.pose1.position.x,field.pose1.position.y,field.pose1.position.z,field.pose1.orientation.x,field.pose1.orientation.y,field.pose1.orientation.z,field.pose1.orientation.w,field.pose2.position.x,field.pose2.position.y,field.pose2.position.z,field.pose2.orientation.x,field.pose2.orientation.y,field.pose2.orientation.z,field.pose2.orientation.w,field.twist0.linear.x,field.twist0.linear.y,field.twist0.linear.z,field.twist0.angular.x,field.twist0.angular.y,field.twist0.angular.z,field.twist1.linear.x,field.twist1.linear.y,field.twist1.linear.z,field.twist1.angular.x,field.twist1.angular.y,field.twist1.angular.z,field.twist2.linear.x,field.twist2.linear.y,field.twist2.linear.z,field.twist2.angular.x,field.twist2.angular.y,field.twist2.angular.z
425145000000,ground_plane,Floor,khm2,0.252724,-0.228037,0.0,0.0,0.0,0.0,1.0,-0.010923,0.300375,-0.916015,0.0,0.0,0.0,1.0,-0.4995856840801641,-0.0014407763096755048,-0.21094125247765225,-2.0254747421343525e-05,1.3589259740325998e-05,0.7062701510675266,0.7079424221757942,0.0,0.0,0.0,0.0,0.0,0.0,0.0,0.0,0.0,0.0,0.0,0.0,-0.001477380783653234,-0.0002683824710159045,0.004297781802951378,0.0006978108634090274,-0.021975360112939095,-0.0004946795014825326
425145000000,ground_plane,Floor,khm2,0.252724,-0.228037,0.0,0.0,0.0,0.0,1.0,-0.010923,0.300375,-0.916015,0.0,0.0,0.0,1.0,-0.4995884239194221,-0.001440937150917618,-0.2109451583300822,-2.9025484031152474e-05,4.76424913788633e-06,0.7062703634086365,0.7079422101453309,0.0,0.0,0.0,0.0,0.0,0.0,0.0,0.0,0.0,0.0,0.0,0.0,-0.002739837304930329,-0.00016084343262795774,-0.0039058535572797145,4.729334794654524e-05,-0.02488424295077296,0.0006007328693739603
425145000000,ground_plane,Floor,khm2,0.252724,-0.228037,0.0,0.0,0.0,0.0,1.0,-0.010923,0.300375,-0.916015,0.0,0.0,0.0,1.0,-0.49958742445124266,-0.0014410160362402903,-0.2109410836935635,-2.1880704089356805e-05,1.2052026728906437e-05,0.7062706413595721,0.7079419330210085,0.0,0.0,0.0,0.0,0.0,0.0,0.0,0.0,0.0,0.0,0.0,0.0,0.0009995748564344729,-7.888607196896962e-05,0.0040746293583920805,-0.00017812476006213537,0.02041106256408498,0.0007847509662698686
425145000000,ground_plane,Floor,khm2,0.252724,-0.228037,0.0,0.0,0.0,0.0,1.0,-0.010923,0.300375,-0.916015,0.0,0.0,0.0,1.0,-0.49958498449563077,-0.0014410377767340003,-0.210944941317502,-1.3274390285560782e-05,2.0907739020125127e-05,0.7062704850949847,0.7079420889241946,0.0,0.0,0.0,0.0,0.0,0.0,0.0,0.0,0.0,0.0,0.0,0.0,0.0024399445357388616,-2.1737123644026633e-05,-0.003857634965788773,-0.000323501333365527,0.024695503853287858,-0.000441957965801861
425145000000,ground_plane,Floor,khm2,0.252724,-0.228037,0.0,0.0,0.0,0.0,1.0,-0.010923,0.300375,-0.916015,0.0,0.0,0.0,1.0,-0.49958606984026976,-0.0014411012572303702,-0.21094101706297577,-2.028486278224032e-05,1.3643287555668233e-05,0.706270489881851,0.7079420841597392,0.0,0.0,0.0,0.0,0.0,0.0,0.0,0.0,0.0,0.0,0.0,0.0,-0.0010850393089008147,-6.347177374425998e-05,0.0039242606512603475,0.0003354230544802657,-0.020187993757357924,1.5987429787501708e-05
425145000000,ground_plane,Floor,khm2,0.252724,-0.228037,0.0,0.0,0.0,0.0,1.0,-0.010923,0.300375,-0.916015,0.0,0.0,0.0,1.0,-0.4995885698682119,-0.0014411283076941437,-0.21094502303020737,-2.9220999270156728e-05,4.685652441577855e-06,0.7062705524534608,0.707942021539378,0.0,0.0,0.0,0.0,0.0,0.0,0.0,0.0,0.0,0.0,0.0,0.0,-0.0024999125530826014,-2.710318034587773e-05,-0.004006088631861669,4.1174594709156927e-07,-0.02530628539805473,0.00017868513130275877
425146000000,ground_plane,Floor,khm2,0.252724,-0.228037,0.0,0.0,0.0,0.0,1.0,-0.010923,0.300375,-0.916015,0.0,0.0,0.0,1.0,-0.4995873826740878,-0.0014411499725976457,-0.2109408592862924,-2.1892795917529586e-05,1.2173008576187137e-05,0.706270739464917,0.7079418351448108,0.0,0.0,0.0,0.0,0.0,0.0,0.0,0.0,0.0,0.0,0.0,0.0,0.0011874488834864789,-2.1622510288020038e-05,0.004163738761823255,-0.00020028364476261086,0.02095282570352898,0.0005261257624757262
425146000000,ground_plane,Floor,khm2,0.252724,-0.228037,0.0,0.0,0.0,0.0,1.0,-0.010923,0.300375,-0.916015,0.0,0.0,0.0,1.0,-0.49958482118463576,-0.0014411330308635823,-0.210944726427521,-1.3269657739837782e-05,2.103791591659383e-05,0.7062705876073081,0.7079419866501422,0.0,0.0,0.0,0.0,0.0,0.0,0.0,0.0,0.0,0.0,0.0,0.0,0.002561479520388204,1.694462688621826e-05,-0.0038671510738998416,-0.0003126725935194593,0.02473228116946583,-0.0004295182871545593
425147000000,ground_plane,Floor,khm2,0.252724,-0.228037,0.0,0.0,0.0,0.0,1.0,-0.010923,0.300375,-0.916015,0.0,0.0,0.0,1.0,-0.4995858494874245,-0.0014411885499932033,-0.2109408010759854,-2.0282643679821974e-05,1.3764083171808463e-05,0.70627057109381,0.7079420031372541,0.0,0.0,0.0,0.0,0.0,0.0,0.0,0.0,0.0,0.0,0.0,0.0,-0.0010279974228408558,-5.5527019613292366e-05,0.00392535817525116,0.00034513864537660956,-0.02020482852199746,-4.4086906667491415e-05
425148000000,ground_plane,Floor,khm2,0.252724,-0.228037,0.0,0.0,0.0,0.0,1.0,-0.010923,0.300375,-0.916015,0.0,0.0,0.0,1.0,-0.4995883072746671,-0.001441219315154568,-0.2109447929073773,-2.9180820488046908e-05,4.839155639367104e-06,0.7062705951963687,0.7079419788980094,0.0,0.0,0.0,0.0,0.0,0.0,0.0,0.0,0.0,0.0,0.0,0.0,-0.0024576711487870485,-3.0818435708650124e-05,-0.003991953182013492,7.954945507764946e-06,-0.02520637095435896,7.000846499866671e-05
425149000000,ground_plane,Floor,khm2,0.252724,-0.228037,0.0,0.0,0.0,0.0,1.0,-0.010923,0.300375,-0.916015,0.0,0.0,0.0,1.0,-0.4995871190992533,-0.0014412584939186483,-0.21094065418624514,-2.188881959971366e-05,1.226853108072773e-05,0.7062707488072321,0.7079418258230225,0.0,0.0,0.0,0.0,0.0,0.0,0.0,0.0,0.0,0.0,0.0,0.0,0.0011884307110522085,-3.912165683571641e-05,0.00413871639300192,-0.00016965763461927212,0.02081959336780363,0.00043181948919466384
425150000000,ground_plane,Floor,khm2,0.252724,-0.228037,0.0,0.0,0.0,0.0,1.0,-0.010923,0.300375,-0.916015,0.0,0.0,0.0,1.0,-0.4995845594410529,-0.0014412565138619505,-0.21094454153421335,-1.3229691824600632e-05,2.115135016880699e-05,0.7062705806292109,0.7079419936091323,0.0,0.0,0.0,0.0,0.0,0.0,0.0,0.0,0.0,0.0,0.0,0.0,0.002559648723400559,1.982660744077703e-06,-0.003887357341194419,-0.00028701686253407755,0.024808475009683178,-0.0004756307195909338
425151000000,ground_plane,Floor,khm2,0.252724,-0.228037,0.0,0.0,0.0,0.0,1.0,-0.010923,0.300375,-0.916015,0.0,0.0,0.0,1.0,-0.4995856087467195,-0.001441327208690778,-0.2109405982946172,-2.028210305098555e-05,1.382754400623067e-05,0.706270541643099,0.7079420325172104,0.0,0.0,0.0,0.0,0.0,0.0,0.0,0.0,0.0,0.0,0.0,0.0,-0.0010490048951451952,-7.069980126179398e-05,0.0039432459644082075,0.0003598969327724366,-0.020331279362040138,-0.00010769590353602465
425152000000,ground_plane,Floor,khm2,0.252724,-0.228037,0.0,0.0,0.0,0.0,1.0,-0.010923,0.300375,-0.916015,0.0,0.0,0.0,1.0,-0.49958808055458287,-0.001441375179776574,-0.21094458607115335,-2.9174056314667484e-05,4.903713245477744e-06,0.7062705519221376,0.7079420220699059,0.0,0.0,0.0,0.0,0.0,0.0,0.0,0.0,0.0,0.0,0.0,0.0,-0.002471700062550503,-4.8020380674832786e-05,-0.003987889623243442,1.5222631092632862e-05,-0.02519598046932712,3.088340132598998e-05
425153000000,ground_plane,Floor,khm2,0.252724,-0.228037,0.0,0.0,0.0,0.0,1.0,-0.010923,0.300375,-0.916015,0.0,0.0,0.0,1.0,-0.4995869079730928,-0.0014414310894439216,-0.21094045496773584,-2.1894475931300583e-05,1.2305697157530493e-05,0.7062706923525749,0.7079418821435953,0.0,0.0,0.0,0.0,0.0,0.0,0.0,0.0,0.0,0.0,0.0,0.0,0.0011728485544592955,-5.585067564276751e-05,0.004131098094498393,-0.00014855726471964695,0.020763277186658612,0.0003946826344624319
425154000000,ground_plane,Floor,khm2,0.252724,-0.228037,0.0,0.0,0.0,0.0,1.0,-0.010923,0.300375,-0.916015,0.0,0.0,0.0,1.0,-0.49958436135446305,-0.0014414416369398454,-0.21094434506443357,-1.323144358898425e-05,2.1179997050221694e-05,0.7062705066712084,0.7079420673916271,0.0,0.0,0.0,0.0,0.0,0.0,0.0,0.0,0.0,0.0,0.0,0.0,0.0025466092081717936,-1.054492507130452e-05,-0.003890106014441187,-0.0002694524785760132,0.02480192662662025,-0.0005250801216918094
425155000000,ground_plane,Floor,khm2,0.252724,-0.228037,0.0,0.0,0.0,0.0,1.0,-0.010923,0.300375,-0.916015,0.0,0.0,0.0,1.0,-0.4995854218638701,-0.0014415210139964393,-0.21094040099490893,-2.028993146657091e-05,1.384754646739089e-05,0.706270452387017,0.7079421215619274,0.0,0.0,0.0,0.0,0.0,0.0,0.0,0.0,0.0,0.0,0.0,0.0,-0.0010602097983040991,-7.938208022690625e-05,0.0039440758666287115,0.00036350055275291294,-0.020352104244025882,-0.00015092900416285995
425156000000,ground_plane,Floor,khm2,0.252724,-0.228037,0.0,0.0,0.0,0.0,1.0,-0.010923,0.300375,-0.916015,0.0,0.0,0.0,1.0,-0.49958790273675396,-0.0014415777340580848,-0.21094439060658682,-2.918687652414691e-05,4.916949909737867e-06,0.7062704546471342,0.7079421191146068,0.0,0.0,0.0,0.0,0.0,0.0,0.0,0.0,0.0,0.0,0.0,0.0,-0.002480766152428986,-5.6768640053854924e-05,-0.003989723726775972,1.7711802593835884e-05,-0.025212602950393112,8.223546441030946e-06
425157000000,ground_plane,Floor,khm2,0.252724,-0.228037,0.0,0.0,0.0,0.0,1.0,-0.010923,0.300375,-0.916015,0.0,0.0,0.0,1.0,-0.49958673544624527,-0.0014416411405717886,-0.210940258722144,-2.1904917452379075e-05,1.2314773835535494e-05,0.7062705891053341,0.7079419851466117,0.0,0.0,0.0,0.0,0.0,0.0,0.0,0.0,0.0,0.0,0.0,0.0,0.0011675561609053912,-6.334775980424921e-05,0.0041318791374295874,-0.00013930989483986576,0.02076074554563861,0.00037781250036014296
425157000000,ground_plane,Floor,khm2,0.252724,-0.228037,0.0,0.0,0.0,0.0,1.0,-0.010923,0.300375,-0.916015,0.0,0.0,0.0,1.0,-0.4995848303805893,-0.0014419970535726973,-0.21094498615523746,-1.1198461031563461e-05,1.8329969647835996e-05,0.7062695873664332,0.7079429846391975,0.0,0.0,0.0,0.0,0.0,0.0,0.0,0.0,0.0,0.0,0.0,0.0,0.0019050541334647078,-0.0003559014437497684,-0.004727445441402851,0.006662444610940531,0.023640121291006552,-0.002830701709204319
425160000000,ground_plane,Floor,khm2,0.252724,-0.228037,0.0,0.0,0.0,0.0,1.0,-0.010923,0.300375,-0.916015,0.0,0.0,0.0,1.0,-0.4995861511168664,-0.0014415717645242954,-0.2109400916413621,-2.047264217804691e-05,1.3962542893571924e-05,0.7062693580096154,0.7079432133459602,0.0,0.0,0.0,0.0,0.0,0.0,0.0,0.0,0.0,0.0,0.0,0.0,-0.0013212338705724923,0.0004249234610611266,0.004894760795429937,-0.006977984499364084,-0.01932627723177965,-0.0006410731159112869
425160000000,ground_plane,Floor,khm2,0.252724,-0.228037,0.0,0.0,0.0,0.0,1.0,-0.010923,0.300375,-0.916015,0.0,0.0,0.0,1.0,-0.4995885468150094,-0.001441193838103199,-0.21094356848248025,-2.849626530155885e-05,6.1588705213849914e-06,0.7062695590212038,0.707943012642985,0.0,0.0,0.0,0.0,0.0,0.0,0.0,0.0,0.0,0.0,0.0,0.0,-0.0023955637031176725,0.00037787582612676754,-0.0034769776894344262,-0.00033773329968199027,-0.02238368630604998,0.0005698520775945835
425160000000,ground_plane,Floor,khm2,0.252724,-0.228037,0.0,0.0,0.0,0.0,1.0,-0.010923,0.300375,-0.916015,0.0,0.0,0.0,1.0,-0.4995879147641033,-0.0014414911296282802,-0.21094026825093057,-2.1620599306418456e-05,1.2070408458058536e-05,0.706268230195476,0.7079443384923739,0.0,0.0,0.0,0.0,0.0,0.0,0.0,0.0,0.0,0.0,0.0,0.0,0.0006318305052812196,-0.0002972127908421819,0.0032997321500059336,0.001387184433407698,0.018084110482470606,-0.0037552836936303523
425160000000,ground_plane,Floor,khm2,0.252724,-0.228037,0.0,0.0,0.0,0.0,1.0,-0.010923,0.300375,-0.916015,0.0,0.0,0.0,1.0,-0.49958563603132683,-0.0014418069302755735,-0.2109444429166414,-1.2497579423289902e-05,2.1663766672103626e-05,0.7062674562351063,0.7079451106107619,0.0,0.0,0.0,0.0,0.0,0.0,0.0,0.0,0.0,0.0,0.0,0.0,0.0022787203808425104,-0.00031580277148242987,-0.004174677882446473,-0.000633788146984827,0.026469767912966676,-0.0021872320443895223
425160000000,ground_plane,Floor,khm2,0.252724,-0.228037,0.0,0.0,0.0,0.0,1.0,-0.010923,0.300375,-0.916015,0.0,0.0,0.0,1.0,-0.499587084607618,-0.0014420631375682085,-0.21094013143295237,-2.0126516071123505e-05,1.365259053059745e-05,0.70626728969845,0.7079452767767689,0.0,0.0,0.0,0.0,0.0,0.0,0.0,0.0,0.0,0.0,0.0,0.0,-0.0014483513532141175,-0.0002561824553138703,0.004311490069448286,0.0005143838488712576,-0.02211892515612983,-0.0004685990244437721
425160000000,ground_plane,Floor,khm2,0.252724,-0.228037,0.0,0.0,0.0,0.0,1.0,-0.010923,0.300375,-0.916015,0.0,0.0,0.0,1.0,-0.49958981391248003,-0.0014422032781063274,-0.2109440098588632,-2.8860401198847424e-05,4.862665417260898e-06,0.7062675886243032,0.7079449783720794,0.0,0.0,0.0,0.0,0.0,0.0,0.0,0.0,0.0,0.0,0.0,0.0,-0.002729302039882903,-0.00014014368320576054,-0.003878428842192741,4.9816068969219e-05,-0.024782485495139946,0.0008452755418780713
425160000000,ground_plane,Floor,khm2,0.252724,-0.228037,0.0,0.0,0.0,0.0,1.0,-0.010923,0.300375,-0.916015,0.0,0.0,0.0,1.0,-0.49958883124195397,-0.0014422749003767366,-0.21093996246868318,-2.1788466110723066e-05,1.2092781357884206e-05,0.7062678764819293,0.707944691362774,0.0,0.0,0.0,0.0,0.0,0.0,0.0,0.0,0.0,0.0,0.0,0.0,0.0009828604874179449,-7.162052443329808e-05,0.004047381871945297,-0.0001997410520718199,0.020226598820092628,0.000812737242038287
425160000000,ground_plane,Floor,khm2,0.252724,-0.228037,0.0,0.0,0.0,0.0,1.0,-0.010923,0.300375,-0.916015,0.0,0.0,0.0,1.0,-0.4995864088384818,-0.0014422937720842272,-0.21094383880127177,-1.3149711803711404e-05,2.0964610891503095e-05,0.7062677616114007,0.7079448059672391,0.0,0.0,0.0,0.0,0.0,0.0,0.0,0.0,0.0,0.0,0.0,0.0,0.002422393423452764,-1.886907568529265e-05,-0.0038763425397905795,-0.00030023985997797414,0.02476414555018603,-0.0003250208610602497
425184000000,ground_plane,Floor,khm2,0.252724,-0.228037,0.0,0.0,0.0,0.0,1.0,-0.010923,0.300375,-0.916015,0.0,0.0,0.0,1.0,-0.4995875256700618,-0.0014423528493451205,-0.21093989196841406,-2.0228469268260728e-05,1.3672363648826579e-05,0.7062677637274204,0.7079448038677479,0.0,0.0,0.0,0.0,0.0,0.0,0.0,0.0,0.0,0.0,0.0,0.0,-0.001116554603359056,-5.9015888571632686e-05,0.003946837703167753,0.0002778588470093765,-0.020323819685928123,8.130055091986816e-06
425184000000,ground_plane,Floor,khm2,0.252724,-0.228037,0.0,0.0,0.0,0.0,1.0,-0.010923,0.300375,-0.916015,0.0,0.0,0.0,1.0,-0.499590046487122,-0.0014423747143091131,-0.2109438934447702,-2.9188736113859598e-05,4.735370588495002e-06,0.7062678258295819,0.7079447417161524,0.0,0.0,0.0,0.0,0.0,0.0,0.0,0.0,0.0,0.0,0.0,0.0,-0.0025207084212161834,-2.1914464297545917e-05,-0.0040015907883683205,-6.300568540189776e-05,-0.025311098556958324,0.0001772974157151858
425184000000,ground_plane,Floor,khm2,0.252724,-0.228037,0.0,0.0,0.0,0.0,1.0,-0.010923,0.300375,-0.916015,0.0,0.0,0.0,1.0,-0.49958887583294687,-0.0014424020923089578,-0.21093973524031437,-2.1854392932045162e-05,1.2180021278644027e-05,0.706268004751239,0.7079445633937282,0.0,0.0,0.0,0.0,0.0,0.0,0.0,0.0,0.0,0.0,0.0,0.0,0.0011709197803471162,-2.7334160914259954e-05,0.004158199110571113,-0.00013118785893826665,0.02090104205350035,0.0005032714961204113
425184000000,ground_plane,Floor,khm2,0.252724,-0.228037,0.0,0.0,0.0,0.0,1.0,-0.010923,0.300375,-0.916015,0.0,0.0,0.0,1.0,-0.49958633302684924,-0.0014423934415182815,-0.21094360852411423,-1.3214345071503365e-05,2.103702247346683e-05,0.7062678754704289,0.7079446923745607,0.0,0.0,0.0,0.0,0.0,0.0,0.0,0.0,0.0,0.0,0.0,0.0,0.0025427970064752056,8.6532364986711e-06,-0.0038732927689732336,-0.0002774679708639643,0.024744970234092823,-0.0003657421663830506
425184000000,ground_plane,Floor,khm2,0.252724,-0.228037,0.0,0.0,0.0,0.0,1.0,-0.010923,0.300375,-0.916015,0.0,0.0,0.0,1.0,-0.4995873813925109,-0.0014424486399411936,-0.21093967474648978,-2.0260925983952926e-05,1.377238581126673e-05,0.7062678469068077,0.7079447208825267,0.0,0.0,0.0,0.0,0.0,0.0,0.0,0.0,0.0,0.0,0.0,0.0,-0.0010480695703904436,-5.520796422416038e-05,0.003933784449151332,0.00028450446325507204,-0.020239251561465242,-7.819899176645982e-05
425184000000,ground_plane,Floor,khm2,0.252724,-0.228037,0.0,0.0,0.0,0.0,1.0,-0.010923,0.300375,-0.916015,0.0,0.0,0.0,1.0,-0.49958985280513074,-0.0014424758641152274,-0.21094366682094007,-2.918083199271392e-05,4.860163649674706e-06,0.7062678702230534,0.7079446974273133,0.0,0.0,0.0,0.0,0.0,0.0,0.0,0.0,0.0,0.0,0.0,0.0,-0.0024712976165976387,-2.7276328168857792e-05,-0.003992195594946112,-4.084689121990279e-05,-0.025219052935315,6.778291298501908e-05
425184000000,ground_plane,Floor,khm2,0.252724,-0.228037,0.0,0.0,0.0,0.0,1.0,-0.010923,0.300375,-0.916015,0.0,0.0,0.0,1.0,-0.4995886714635776,-0.00144251990568882,-0.21093952793627424,-2.1870804564102342e-05,1.2259889505301168e-05,0.7062680180091219,0.7079445501653573,0.0,0.0,0.0,0.0,0.0,0.0,0.0,0.0,0.0,0.0,0.0,0.0,0.001181616344262441,-4.399109903787457e-05,0.004138879612831005,-0.00010216004998693588,0.02080309089399573,0.00041523288787058686
425184000000,ground_plane,Floor,khm2,0.252724,-0.228037,0.0,0.0,0.0,0.0,1.0,-0.010923,0.300375,-0.916015,0.0,0.0,0.0,1.0,-0.49958612249942075,-0.0014425250328523632,-0.21094341908730324,-1.3194166969458792e-05,2.1133080237988656e-05,0.7062678703006425,0.7079446975296174,0.0,0.0,0.0,0.0,0.0,0.0,0.0,0.0,0.0,0.0,0.0,0.0,0.002548955463856036,-5.124964983873294e-06,-0.0038911595853524453,-0.0002485295670724235,0.02481957341043387,-0.00041780755471487865
425184000000,ground_plane,Floor,khm2,0.252724,-0.228037,0.0,0.0,0.0,0.0,1.0,-0.010923,0.300375,-0.916015,0.0,0.0,0.0,1.0,-0.49958718351860826,-0.0014425939394596648,-0.21093947103426158,-2.027124674111343e-05,1.382674401065784e-05,0.7062678205885691,0.7079447471370705,0.0,0.0,0.0,0.0,0.0,0.0,0.0,0.0,0.0,0.0,0.0,0.0,-0.001060733816213118,-6.889564728356743e-05,0.003948059255358649,0.0003001958710122369,-0.020341384130245378,-0.00013809574584373906
425184000000,ground_plane,Floor,khm2,0.252724,-0.228037,0.0,0.0,0.0,0.0,1.0,-0.010923,0.300375,-0.916015,0.0,0.0,0.0,1.0,-0.499589662636057,-0.0014426368173258818,-0.21094345955672364,-2.9182677651335273e-05,4.918883628997818e-06,0.7062678297611797,0.7079447377928657,0.0,0.0,0.0,0.0,0.0,0.0,0.0,0.0,0.0,0.0,0.0,0.0,-0.0024790086457559535,-4.292710715882623e-05,-0.003988637233912014,-3.502006398089704e-05,-0.025200868898097823,2.7759781884809058e-05
425184000000,ground_plane,Floor,khm2,0.252724,-0.228037,0.0,0.0,0.0,0.0,1.0,-0.010923,0.300375,-0.916015,0.0,0.0,0.0,1.0,-0.49958849267218836,-0.0014426961962779453,-0.21093932857942735,-2.1880994545068605e-05,1.2294492619752876e-05,0.7062679651060431,0.7079446029422337,0.0,0.0,0.0,0.0,0.0,0.0,0.0,0.0,0.0,0.0,0.0,0.0,0.0011702258731295645,-5.9319331688197245e-05,0.0041309719851173625,-7.992949306337512e-05,0.020757150771729124,0.0003803584699220595
425184000000,ground_plane,Floor,khm2,0.252724,-0.228037,0.0,0.0,0.0,0.0,1.0,-0.010923,0.300375,-0.916015,0.0,0.0,0.0,1.0,-0.4995859531732319,-0.001442712427222882,-0.210943223470745,-1.3196620889562143e-05,2.1162650256353403e-05,0.7062678005307896,0.7079447671332788,0.0,0.0,0.0,0.0,0.0,0.0,0.0,0.0,0.0,0.0,0.0,0.0,0.0025394902814277844,-1.6228740661420638e-05,-0.0038948998577535195,-0.000230464688587865,0.02482337324814734,-0.00046545897096497723
425184000000,ground_plane,Floor,khm2,0.252724,-0.228037,0.0,0.0,0.0,0.0,1.0,-0.010923,0.300375,-0.916015,0.0,0.0,0.0,1.0,-0.4995870236666933,-0.001442789127060538,-0.21093927356114922,-2.0280644710463203e-05,1.3845929365323879e-05,0.7062677368150811,0.707944830711468,0.0,0.0,0.0,0.0,0.0,0.0,0.0,0.0,0.0,0.0,0.0,0.0,-0.0010702207667235729,-7.666081926230206e-05,0.003949915399045595,0.0003049988485022977,-0.020365902391713504,-0.00017776835460324225
425184000000,ground_plane,Floor,khm2,0.252724,-0.228037,0.0,0.0,0.0,0.0,1.0,-0.010923,0.300375,-0.916015,0.0,0.0,0.0,1.0,-0.49958951011247993,-0.0014428399543998736,-0.21094326331989913,-2.9195909868120734e-05,4.934915764643726e-06,0.7062677378840747,0.7079448294516724,0.0,0.0,0.0,0.0,0.0,0.0,0.0,0.0,0.0,0.0,0.0,0.0,-0.002486338227849286,-5.087593660711945e-05,-0.003989872122338016,-3.599540813521803e-05,-0.02521074665398031,4.856467056034591e-06
425184000000,ground_plane,Floor,khm2,0.252724,-0.228037,0.0,0.0,0.0,0.0,1.0,-0.010923,0.300375,-0.916015,0.0,0.0,0.0,1.0,-0.4995883449110308,-0.0014429064700876646,-0.21093913275312345,-2.1890455725311646e-05,1.230525271223184e-05,0.706267867310848,0.7079447005053259,0.0,0.0,0.0,0.0,0.0,0.0,0.0,0.0,0.0,0.0,0.0,0.0,0.0011654637407172324,-6.645567504503953e-05,0.004130561513695686,-6.714022601687302e-05,0.020755012594093937,0.0003636324895075421
425184000000,ground_plane,Floor,khm2,0.252724,-0.228037,0.0,0.0,0.0,0.0,1.0,-0.010923,0.300375,-0.916015,0.0,0.0,0.0,1.0,-0.49958580951413095,-0.0014429271257204738,-0.21094302750431004,-1.3205611645056833e-05,2.1167874618438697e-05,0.7062676921926633,0.7079448752144354,0.0,0.0,0.0,0.0,0.0,0.0,0.0,0.0,0.0,0.0,0.0,0.0,0.00253538823999784,-2.0653429281536252e-05,-0.00389475971239553,-0.00022197560272402812,0.02481619893468857,-0.0004952440097996512
425184000000,ground_plane,Floor,khm2,0.252724,-0.228037,0.0,0.0,0.0,0.0,1.0,-0.010923,0.300375,-0.916015,0.0,0.0,0.0,1.0,-0.49958688261964374,-0.0014430063655840066,-0.2109390786469623,-2.0289443881929e-05,1.3850843375226994e-05,0.7062676210976774,0.7079449461543744,0.0,0.0,0.0,0.0,0.0,0.0,0.0,0.0,0.0,0.0,0.0,0.0,-0.0010728331037777117,-7.920150743531767e-05,0.00394886317136861,0.00030570605308391215,-0.020366071884944003,-0.00019861121446666457
425184000000,ground_plane,Floor,khm2,0.252724,-0.228037,0.0,0.0,0.0,0.0,1.0,-0.010923,0.300375,-0.916015,0.0,0.0,0.0,1.0,-0.499589371388444,-0.0014430598993631374,-0.21094306950295819,-2.920768728362821e-05,4.9382975196296595e-06,0.7062676176712654,0.7079449493791728,0.0,0.0,0.0,0.0,0.0,0.0,0.0,0.0,0.0,0.0,0.0,0.0,-0.0024886614705062747,-5.358227515278861e-05,-0.0039909687993533605,-3.8030998404054947e-05,-0.025217128940814928,-7.83477410829202e-06
425185000000,ground_plane,Floor,khm2,0.252724,-0.228037,0.0,0.0,0.0,0.0,1.0,-0.010923,0.300375,-0.916015,0.0,0.0,0.0,1.0,-0.4995882072155716,-0.0014431289532360208,-0.2109389385048514,-2.189903885471278e-05,1.2307912513448383e-05,0.7062677441770057,0.7079448233471809,0.0,0.0,0.0,0.0,0.0,0.0,0.0,0.0,0.0,0.0,0.0,0.0,0.0011644334323427656,-6.899407820440574e-05,0.004130992859355685,-6.159403122400323e-05,0.020758500814765598,0.00035538461727662113
425186000000,ground_plane,Floor,khm2,0.252724,-0.228037,0.0,0.0,0.0,0.0,1.0,-0.010923,0.300375,-0.916015,0.0,0.0,0.0,1.0,-0.499585672785121,-0.0014431505934950995,-0.21094283300085795,-1.321411886720532e-05,2.1168273581178302e-05,0.7062675633322801,0.707945003769343,0.0,0.0,0.0,0.0,0.0,0.0,0.0,0.0,0.0,0.0,0.0,0.0,0.0025344217910987362,-2.1638046960421312e-05,-0.003894504533096866,-0.00021867020748552842,0.024813104673820606,-0.0005114221937776223
425187000000,ground_plane,Floor,khm2,0.252724,-0.228037,0.0,0.0,0.0,0.0,1.0,-0.010923,0.300375,-0.916015,0.0,0.0,0.0,1.0,-0.49958674630856353,-0.0014432303031353744,-0.21093888480927772,-2.029740539313778e-05,1.3851429257926781e-05,0.7062674889256436,0.7079450780129907,0.0,0.0,0.0,0.0,0.0,0.0,0.0,0.0,0.0,0.0,0.0,0.0,-0.0010732509938270465,-7.96719901131162e-05,0.0039481974254338345,0.00030621182242064756,-0.0203650365795865,-0.0002079619975613498
425187000000,ground_plane,Floor,khm2,0.252724,-0.228037,0.0,0.0,0.0,0.0,1.0,-0.010923,0.300375,-0.916015,0.0,0.0,0.0,1.0,-0.49958923557765045,-0.0014432845829845276,-0.21094287605586265,-2.9216122145154403e-05,4.937652519277573e-06,0.7062674834612871,0.707945083270799,0.0,0.0,0.0,0.0,0.0,0.0,0.0,0.0,0.0,0.0,0.0,0.0,-0.0024891617544642885,-5.432824897070185e-05,-0.003991359388620211,-3.696661840263479e-05,-0.025219540674892054,-1.3589993934735746e-05
425189000000,ground_plane,Floor,khm2,0.252724,-0.228037,0.0,0.0,0.0,0.0,1.0,-0.010923,0.300375,-0.916015,0.0,0.0,0.0,1.0,-0.49958807154596063,-0.0014433543278220618,-0.2109387449265417,-2.1906595637115548e-05,1.2307952188293413e-05,0.7062676085646419,0.7079449586380265,0.0,0.0,0.0,0.0,0.0,0.0,0.0,0.0,0.0,0.0,0.0,0.0,0.0011642913458669681,-6.968517646222429e-05,0.004131124080895896,-6.131387105380843e-05,0.02076070972490016,0.00035142469869359
425190000000,ground_plane,Floor,khm2,0.252724,-0.228037,0.0,0.0,0.0,0.0,1.0,-0.010923,0.300375,-0.916015,0.0,0.0,0.0,1.0,-0.4995855371841377,-0.0014433757462723597,-0.21094263929201407,-1.3221678179584404e-05,2.116771881359582e-05,0.7062674243237664,0.7079451424483311,0.0,0.0,0.0,0.0,0.0,0.0,0.0,0.0,0.0,0.0,0.0,0.0,0.002534353151530144,-2.141622857631572e-05,-0.003894374011950097,-0.00021782930248441371,0.02481225930004728,-0.0005210166606790361
425191000000,ground_plane,Floor,khm2,0.252724,-0.228037,0.0,0.0,0.0,0.0,1.0,-0.010923,0.300375,-0.916015,0.0,0.0,0.0,1.0,-0.4995866105827419,-0.001443455385599987,-0.2109386914543468,-2.0304653660522107e-05,1.3850547954862871e-05,0.706267348606628,0.7079452179992793,0.0,0.0,0.0,0.0,0.0,0.0,0.0,0.0,0.0,0.0,0.0,0.0,-0.0010731266562997003,-7.960246826439662e-05,0.003947843523351935,0.00030711044365355056,-0.020365059973473196,-0.00021165880712916893
425191000000,ground_plane,Floor,khm2,0.252724,-0.228037,0.0,0.0,0.0,0.0,1.0,-0.010923,0.300375,-0.916015,0.0,0.0,0.0,1.0,-0.4995890998869977,-0.0014435098905295257,-0.2109426827801501,-2.9222675989689585e-05,4.935254699140609e-06,0.7062673423517107,0.7079452240457095,0.0,0.0,0.0,0.0,0.0,0.0,0.0,0.0,0.0,0.0,0.0,0.0,-0.0024891967543781233,-5.455334170230335e-05,-0.003991439025218147,-3.3861519442240184e-05,-0.0252207033755551,-1.5828402141730626e-05
425193000000,ground_plane,Floor,khm2,0.252724,-0.228037,0.0,0.0,0.0,0.0,1.0,-0.010923,0.300375,-0.916015,0.0,0.0,0.0,1.0,-0.4995879358195329,-0.001443579728259137,-0.21093855164046413,-2.1913474371249792e-05,1.2306976431320285e-05,0.7062674667747326,0.7079451000917656,0.0,0.0,0.0,0.0,0.0,0.0,0.0,0.0,0.0,0.0,0.0,0.0,0.0011643266247766007,-6.977816091797375e-05,0.004131134450868307,-6.377838757558217e-05,0.020762263845626447,0.0003495035552361338
425194000000,ground_plane,Floor,khm2,0.252724,-0.228037,0.0,0.0,0.0,0.0,1.0,-0.010923,0.300375,-0.916015,0.0,0.0,0.0,1.0,-0.49958603900317095,-0.0014439372697798317,-0.21094328588009834,-1.1174155127059366e-05,1.8296975237762368e-05,0.7062664544298867,0.707946110157684,0.0,0.0,0.0,0.0,0.0,0.0,0.0,0.0,0.0,0.0,0.0,0.0,0.0018968056163576558,-0.00035753075881359204,-0.004734251114718435,0.006744668568848018,0.02365083187137832,-0.002860652863315053
425195000000,ground_plane,Floor,khm2,0.252724,-0.228037,0.0,0.0,0.0,0.0,1.0,-0.010923,0.300375,-0.916015,0.0,0.0,0.0,1.0,-0.49958736196101783,-0.001443503684383559,-0.21093837566276114,-2.038334275037446e-05,1.4070960215498402e-05,0.7062661952024782,0.7079463686613149,0.0,0.0,0.0,0.0,0.0,0.0,0.0,0.0,0.0,0.0,0.0,0.0,-0.0013233264241989274,0.00043346478484373687,0.004910324760754762,-0.007079846050286092,-0.01901953767666068,-0.0007274469293685073
425196000000,ground_plane,Floor,khm2,0.252724,-0.228037,0.0,0.0,0.0,0.0,1.0,-0.010923,0.300375,-0.916015,0.0,0.0,0.0,1.0,-0.4995897045427452,-0.0014431205609968648,-0.21094189498565177,-2.8487615599563408e-05,6.191022386159056e-06,0.7062664150243833,0.7079461491940843,0.0,0.0,0.0,0.0,0.0,0.0,0.0,0.0,0.0,0.0,0.0,0.0,-0.002342451013130539,0.000383080720038451,-0.0035194561614731094,-0.0003442842059008226,-0.02260554828873854,0.0006228983811501923
425197000000,ground_plane,Floor,khm2,0.252724,-0.228037,0.0,0.0,0.0,0.0,1.0,-0.010923,0.300375,-0.916015,0.0,0.0,0.0,1.0,-0.4995888556305357,-0.0014430771157552494,-0.2109384870261301,-2.1782411206735033e-05,1.1922720364289058e-05,0.7062663596527722,0.7079462045990474,0.0,0.0,0.0,0.0,0.0,0.0,0.0,0.0,0.0,0.0,0.0,0.0,0.0008488696062530734,4.3522727710437876e-05,0.003407949803140906,0.0013978030085028035,0.017586744024821684,-0.0001610479776385984
425198000000,ground_plane,Floor,khm2,0.252724,-0.228037,0.0,0.0,0.0,0.0,1.0,-0.010923,0.300375,-0.916015,0.0,0.0,0.0,1.0,-0.4995864865411913,-0.00144302340967102,-0.2109427204000615,-1.2461071783604051e-05,2.1581606253745585e-05,0.7062662763450529,0.7079462877059598,0.0,0.0,0.0,0.0,0.0,0.0,0.0,0.0,0.0,0.0,0.0,0.0,0.0023690848522407875,5.370443497286891e-05,-0.004233377846194348,-0.0004454915521983862,0.026842682317856935,-0.00023603052898496486
425199000000,ground_plane,Floor,khm2,0.252724,-0.228037,0.0,0.0,0.0,0.0,1.0,-0.010923,0.300375,-0.916015,0.0,0.0,0.0,1.0,-0.4995878961853903,-0.001443080671818225,-0.21093838831821562,-2.0232939039687435e-05,1.3615048545644026e-05,0.7062662457063057,0.7079463182905741,0.0,0.0,0.0,0.0,0.0,0.0,0.0,0.0,0.0,0.0,0.0,0.0,-0.0014095915646563097,-5.736879898503143e-05,0.004332089937606487,0.00024904306454006617,-0.022257754186667363,-8.502347090912477e-05
425200000000,ground_plane,Floor,khm2,0.252724,-0.228037,0.0,0.0,0.0,0.0,1.0,-0.010923,0.300375,-0.916015,0.0,0.0,0.0,1.0,-0.4995905617927941,-0.0014431156235036452,-0.2109422861855933,-2.8960022093046743e-05,4.872083921993872e-06,0.7062663845840057,0.7079461795533734,0.0,0.0,0.0,0.0,0.0,0.0,0.0,0.0,0.0,0.0,0.0,0.0,-0.002665607873541708,-3.4951301196661726e-05,-0.003897866511001691,-6.890303248442588e-06,-0.024706387623975368,0.0003932009216080397
425201000000,ground_plane,Floor,khm2,0.252724,-0.228037,0.0,0.0,0.0,0.0,1.0,-0.010923,0.300375,-0.916015,0.0,0.0,0.0,1.0,-0.4995895305970646,-0.0014431859468506507,-0.2109382548124584,-2.1818475779267573e-05,1.2065519724533825e-05,0.7062665580377739,0.7079460066811967,0.0,0.0,0.0,0.0,0.0,0.0,0.0,0.0,0.0,0.0,0.0,0.0,0.0010312228707548277,-7.029525408200066e-05,0.004031367341254959,-4.929690103090365e-05,0.02027282367666235,0.0004886947605774459
425202000000,ground_plane,Floor,khm2,0.252724,-0.228037,0.0,0.0,0.0,0.0,1.0,-0.010923,0.300375,-0.916015,0.0,0.0,0.0,1.0,-0.4995870858640574,-0.001443219645885025,-0.21094217211697774,-1.3075718557822284e-05,2.099128692103648e-05,0.7062664462399945,0.7079461182208154,0.0,0.0,0.0,0.0,0.0,0.0,0.0,0.0,0.0,0.0,0.0,0.0,0.0024447251635841315,-3.366899001947739e-05,-0.003917312658429141,-0.00022917757386745917,0.02498739934957058,-0.00031653569651955287
425203000000,ground_plane,Floor,khm2,0.252724,-0.228037,0.0,0.0,0.0,0.0,1.0,-0.010923,0.300375,-0.916015,0.0,0.0,0.0,1.0,-0.49958820986518077,-0.001443318049292271,-0.21093820067345537,-2.0169842003140015e-05,1.3638735205275066e-05,0.7062664101124593,0.7079461542758898,0.0,0.0,0.0,0.0,0.0,0.0,0.0,0.0,0.0,0.0,0.0,0.0,-0.001123738648867564,-9.840662580977643e-05,0.003971450270263048,0.0003413098073789629,-0.020430906576510973,-9.986425720579474e-05
425204000000,ground_plane,Floor,khm2,0.252724,-0.228037,0.0,0.0,0.0,0.0,1.0,-0.010923,0.300375,-0.916015,0.0,0.0,0.0,1.0,-0.4995907227021367,-0.0014433894323936005,-0.21094220291790117,-2.9104184417616037e-05,4.717698229815741e-06,0.7062664482536306,0.7079461160299501,0.0,0.0,0.0,0.0,0.0,0.0,0.0,0.0,0.0,0.0,0.0,0.0,-0.002512738868210712,-7.142777131387936e-05,-0.004002347969281975,-4.8932660196938986e-05,-0.025251828432207146,0.00010941151728589944
425205000000,ground_plane,Floor,khm2,0.252724,-0.228037,0.0,0.0,0.0,0.0,1.0,-0.010923,0.300375,-0.916015,0.0,0.0,0.0,1.0,-0.49958954697153,-0.0014434768161833175,-0.21093806018627417,-2.1734496294665018e-05,1.2113974229154207e-05,0.7062665934198977,0.7079459713847632,0.0,0.0,0.0,0.0,0.0,0.0,0.0,0.0,0.0,0.0,0.0,0.0,0.0011760062515707684,-8.733839751079502e-05,0.004142726130158812,-1.277092686390741e-05,0.02088248109547087,0.0004078961601758602
425206000000,ground_plane,Floor,khm2,0.252724,-0.228037,0.0,0.0,0.0,0.0,1.0,-0.010923,0.300375,-0.916015,0.0,0.0,0.0,1.0,-0.49958700230844705,-0.0014435202413392303,-0.21094194886937248,-1.3037078827392104e-05,2.0975187894708508e-05,0.7062664248541239,0.7079461395571347,0.0,0.0,0.0,0.0,0.0,0.0,0.0,0.0,0.0,0.0,0.0,0.0,0.0025446546002996628,-4.342299645354397e-05,-0.0038886914413255205,-0.0002021394151340107,0.024831965220493427,-0.0004767284283325984
425207000000,ground_plane,Floor,khm2,0.252724,-0.228037,0.0,0.0,0.0,0.0,1.0,-0.010923,0.300375,-0.916015,0.0,0.0,0.0,1.0,-0.4995880559723393,-0.0014436138551476383,-0.21093800721752715,-2.009666841387137e-05,1.3684321176669244e-05,0.7062663575604623,0.7079462067043941,0.0,0.0,0.0,0.0,0.0,0.0,0.0,0.0,0.0,0.0,0.0,0.0,-0.0010533732036314444,-9.361411197270128e-05,0.003941658564450231,0.00030308024852183354,-0.020294769080013333,-0.00018773769534157874
425208000000,ground_plane,Floor,khm2,0.252724,-0.228037,0.0,0.0,0.0,0.0,1.0,-0.010923,0.300375,-0.916015,0.0,0.0,0.0,1.0,-0.49959052789345654,-0.0014436766125065796,-0.2109420000059022,-2.901049544874247e-05,4.780111628895551e-06,0.7062663806418726,0.7079461834847129,0.0,0.0,0.0,0.0,0.0,0.0,0.0,0.0,0.0,0.0,0.0,0.0,-0.0024718044758437166,-6.281058858640384e-05,-0.00399291152662037,-4.3675065670606713e-05,-0.02519912764374773,6.700119359873026e-05
425209000000,ground_plane,Floor,khm2,0.252724,-0.228037,0.0,0.0,0.0,0.0,1.0,-0.010923,0.300375,-0.916015,0.0,0.0,0.0,1.0,-0.499589345678121,-0.0014437548268595815,-0.21093786845622567,-2.167232587305867e-05,1.2156584522050118e-05,0.7062665141692401,0.7079460504485906,0.0,0.0,0.0,0.0,0.0,0.0,0.0,0.0,0.0,0.0,0.0,0.0,0.001182487753767,-7.816096439815131e-05,0.004131544582518206,-2.9429892023086485e-05,0.020809917311368376,0.0003750203792298967
425210000000,ground_plane,Floor,khm2,0.252724,-0.228037,0.0,0.0,0.0,0.0,1.0,-0.010923,0.300375,-0.916015,0.0,0.0,0.0,1.0,-0.49958679672597767,-0.001443787167738504,-0.21094176662925393,-1.2964800567448022e-05,2.1029498549206714e-05,0.7062663410262167,0.7079462231858532,0.0,0.0,0.0,0.0,0.0,0.0,0.0,0.0,0.0,0.0,0.0,0.0,0.0025489437359329367,-3.233879237401134e-05,-0.0038981812935181357,-0.00020435214262242292,0.024862808577100246,-0.0004896584890084231
425211000000,ground_plane,Floor,khm2,0.252724,-0.228037,0.0,0.0,0.0,0.0,1.0,-0.010923,0.300375,-0.916015,0.0,0.0,0.0,1.0,-0.4995878609636734,-0.0014438716435377882,-0.21093781442104753,-2.0056438210640967e-05,1.3713770966641318e-05,0.7062662671937479,0.7079462968572415,0.0,0.0,0.0,0.0,0.0,0.0,0.0,0.0,0.0,0.0,0.0,0.0,-0.0010639680760119194,-8.443084076005697e-05,0.003952213811422892,0.000292765493741113,-0.020375254668716227,-0.00020639506470121268
425212000000,ground_plane,Floor,khm2,0.252724,-0.228037,0.0,0.0,0.0,0.0,1.0,-0.010923,0.300375,-0.916015,0.0,0.0,0.0,1.0,-0.4995903422521035,-0.001443926773878945,-0.21094180169129237,-2.8966536246119903e-05,4.815885021050083e-06,0.7062662832588686,0.7079462806381926,0.0,0.0,0.0,0.0,0.0,0.0,0.0,0.0,0.0,0.0,0.0,0.0,-0.0024811761165760694,-5.518154119214917e-05,-0.003987388794324496,-4.732318957040526e-05,-0.025184883940849532,4.714272518588542e-05
425213000000,ground_plane,Floor,khm2,0.252724,-0.228037,0.0,0.0,0.0,0.0,1.0,-0.010923,0.300375,-0.916015,0.0,0.0,0.0,1.0,-0.49958917350650756,-0.0014439996221095994,-0.21093767616285336,-2.1649787091172707e-05,1.2177027859706863e-05,0.7062664099975843,0.7079461543734317,0.0,0.0,0.0,0.0,0.0,0.0,0.0,0.0,0.0,0.0,0.0,0.0,0.0011690154420927062,-7.278857507252253e-05,0.0041255229602188154,-3.811766702292152e-05,0.020757955803550113,0.00035604165026058163
425214000000,ground_plane,Floor,khm2,0.252724,-0.228037,0.0,0.0,0.0,0.0,1.0,-0.010923,0.300375,-0.916015,0.0,0.0,0.0,1.0,-0.49958663590715185,-0.0014440257454779622,-0.2109415761255519,-1.2945514715032888e-05,2.1047797061409574e-05,0.7062662357115729,0.7079463282503898,0.0,0.0,0.0,0.0,0.0,0.0,0.0,0.0,0.0,0.0,0.0,0.0,0.0025375909831656797,-2.6121312037249063e-05,-0.00389997092683436,-0.00020592468259266586,0.024855176629888058,-0.0004928871014203876
425215000000,ground_plane,Floor,khm2,0.252724,-0.228037,0.0,0.0,0.0,0.0,1.0,-0.010923,0.300375,-0.916015,0.0,0.0,0.0,1.0,-0.4995877106881526,-0.001444106127454951,-0.21093762198440896,-2.0045404755119163e-05,1.3726317847962956e-05,0.7062661582620687,0.707946405530467,0.0,0.0,0.0,0.0,0.0,0.0,0.0,0.0,0.0,0.0,0.0,0.0,-0.0010745131031061554,-8.03372886675303e-05,0.003954146900236261,0.0002892018813397064,-0.02039505623089403,-0.00021663353914747266
425216000000,ground_plane,Floor,khm2,0.252724,-0.228037,0.0,0.0,0.0,0.0,1.0,-0.010923,0.300375,-0.916015,0.0,0.0,0.0,1.0,-0.4995902006497546,-0.001444158574599046,-0.21094160976585627,-2.89608331101811e-05,4.824945716820764e-06,0.706266166476792,0.707946397143291,0.0,0.0,0.0,0.0,0.0,0.0,0.0,0.0,0.0,0.0,0.0,0.0,-0.0024898508164334743,-5.249762493391522e-05,-0.003987898381280353,-4.994825006556779e-05,-0.02519734135719235,2.4954254110953405e-05
425217000000,ground_plane,Floor,khm2,0.252724,-0.228037,0.0,0.0,0.0,0.0,1.0,-0.010923,0.300375,-0.916015,0.0,0.0,0.0,1.0,-0.4995890378637093,-0.0014442299470654103,-0.21093748361637277,-2.164678413979312e-05,1.2184613687202027e-05,0.7062662894216095,0.7079462746632567,0.0,0.0,0.0,0.0,0.0,0.0,0.0,0.0,0.0,0.0,0.0,0.0,0.001163054720712281,-7.131192637295572e-05,0.004126144119705281,-3.9854454567998255e-05,0.020752052052268585,0.00034531897642847134
425218000000,ground_plane,Floor,khm2,0.252724,-0.228037,0.0,0.0,0.0,0.0,1.0,-0.010923,0.300375,-0.916015,0.0,0.0,0.0,1.0,-0.49958650552789324,-0.0014442538960563313,-0.2109413824418513,-1.2947267525792402e-05,2.1050602711190896e-05,0.7062661128591586,0.7079464508111153,0.0,0.0,0.0,0.0,0.0,0.0,0.0,0.0,0.0,0.0,0.0,0.0,0.002532327466922716,-2.3946951595173493e-05,-0.003898833682348281,-0.00020590190740836918,0.02484169048859479,-0.000499317973032575
425219000000,ground_plane,Floor,khm2,0.252724,-0.228037,0.0,0.0,0.0,0.0,1.0,-0.010923,0.300375,-0.916015,0.0,0.0,0.0,1.0,-0.49958758339257286,-0.001444333035760383,-0.2109374295369051,-2.004621244454297e-05,1.3730817082113333e-05,0.7062660334421538,0.7079465300540011,0.0,0.0,0.0,0.0,0.0,0.0,0.0,0.0,0.0,0.0,0.0,0.0,-0.0010775972601225355,-7.909703119876862e-05,0.0039529109314108204,0.00028814680496024286,-0.02039132318479274,-0.00022218543467366708
425220000000,ground_plane,Floor,khm2,0.252724,-0.228037,0.0,0.0,0.0,0.0,1.0,-0.010923,0.300375,-0.916015,0.0,0.0,0.0,1.0,-0.49959007608685724,-0.0014443850344245464,-0.21094141841024483,-2.896519343708285e-05,4.826365573121688e-06,0.7062660363544637,0.707946526956577,0.0,0.0,0.0,0.0,0.0,0.0,0.0,0.0,0.0,0.0,0.0,0.0,-0.00249258337848946,-5.204918358200931e-05,-0.003988990405126009,-5.063363085224935e-05,-0.025206720608583873,9.977468917975863e-06
425221000000,ground_plane,Floor,khm2,0.252724,-0.228037,0.0,0.0,0.0,0.0,1.0,-0.010923,0.300375,-0.916015,0.0,0.0,0.0,1.0,-0.4995889145246628,-0.0014444562648021323,-0.21093729101231612,-2.16500225999745e-05,1.2187522749567505e-05,0.7062661576616127,0.707946406110408,0.0,0.0,0.0,0.0,0.0,0.0,0.0,0.0,0.0,0.0,0.0,0.0,0.0011618276836856938,-7.117015733053856e-05,0.004127392589488845,-4.0365829303628614e-05,0.02075574257388976,0.0003407023076489559
425222000000,ground_plane,Floor,khm2,0.252724,-0.228037,0.0,0.0,0.0,0.0,1.0,-0.010923,0.300375,-0.916015,0.0,0.0,0.0,1.0,-0.4995863833578325,-0.0014444794357529895,-0.2109411889169558,-1.2952985373653826e-05,2.105100489496331e-05,0.7062659789436305,0.7079465844086479,0.0,0.0,0.0,0.0,0.0,0.0,0.0,0.0,0.0,0.0,0.0,0.0,0.002531158471182884,-2.316890016550169e-05,-0.003897912854364597,-0.0002058667535335972,0.024834638744313284,-0.000505407355600556
425223000000,ground_plane,Floor,khm2,0.252724,-0.228037,0.0,0.0,0.0,0.0,1.0,-0.010923,0.300375,-0.916015,0.0,0.0,0.0,1.0,-0.4995874614495832,-0.0014445582892120459,-0.2109372370250913,-2.00503483740067e-05,1.3732485299961587e-05,0.7062658988868282,0.7079466642897493,0.0,0.0,0.0,0.0,0.0,0.0,0.0,0.0,0.0,0.0,0.0,0.0,-0.001077825091219621,-7.881264603401028e-05,0.003951897898916885,0.00028859684850626423,-0.020387296497082413,-0.0002239796893895827
425224000000,ground_plane,Floor,khm2,0.252724,-0.228037,0.0,0.0,0.0,0.0,1.0,-0.010923,0.300375,-0.916015,0.0,0.0,0.0,1.0,-0.4995899543926646,-0.0014446105087428615,-0.2109412265291537,-2.8970821853493096e-05,4.826417656495191e-06,0.7062658986038866,0.7079466643799105,0.0,0.0,0.0,0.0,0.0,0.0,0.0,0.0,0.0,0.0,0.0,0.0,-0.002492831983453937,-5.227012703705428e-05,-0.003989621335059372,-5.046936789849479e-05,-0.025211118292259638,9.537838290679888e-07
425225000000,ground_plane,Floor,khm2,0.252724,-0.228037,0.0,0.0,0.0,0.0,1.0,-0.010923,0.300375,-0.916015,0.0,0.0,0.0,1.0,-0.4995887927137021,-0.0014446818573891713,-0.21093709838781036,-2.1654845806036222e-05,1.218892297081007e-05,0.7062660193931712,0.7079465440504832,0.0,0.0,0.0,0.0,0.0,0.0,0.0,0.0,0.0,0.0,0.0,0.0,0.0011619424020052871,-7.128863650980581e-05,0.004128136023238979,-4.1126020019517964e-05,0.020758787060288313,0.00033924473274362613
425226000000,ground_plane,Floor,khm2,0.252724,-0.228037,0.0,0.0,0.0,0.0,1.0,-0.010923,0.300375,-0.916015,0.0,0.0,0.0,1.0,-0.4995862614687021,-0.0014447046077951183,-0.21094099578940803,-1.2959019558088063e-05,2.105148237161666e-05,0.7062658389437034,0.7079467240760745,0.0,0.0,0.0,0.0,0.0,0.0,0.0,0.0,0.0,0.0,0.0,0.0,0.0025312366246530845,-2.2748342194200015e-05,-0.003897409829699341,-0.00020627308256502405,0.02483162169996669,-0.0005102988233843821
425227000000,ground_plane,Floor,khm2,0.252724,-0.228037,0.0,0.0,0.0,0.0,1.0,-0.010923,0.300375,-0.916015,0.0,0.0,0.0,1.0,-0.49958733917305126,-0.001444783432143761,-0.21093704448310743,-2.0055286622811013e-05,1.3733145447690273e-05,0.7062657589714318,0.7079468038727865,0.0,0.0,0.0,0.0,0.0,0.0,0.0,0.0,0.0,0.0,0.0,0.0,-0.001077437798085481,-7.878454349530961e-05,0.00395131236331935,0.00028988786770344486,-0.020385489805131097,-0.00022373299408591483
425228000000,ground_plane,Floor,khm2,0.252724,-0.228037,0.0,0.0,0.0,0.0,1.0,-0.010923,0.300375,-0.916015,0.0,0.0,0.0,1.0,-0.4995898317296484,-0.0014448360251856024,-0.21094103438763495,-2.8976490889611036e-05,4.826055945561667e-06,0.7062657564704556,0.7079468061756387,0.0,0.0,0.0,0.0,0.0,0.0,0.0,0.0,0.0,0.0,0.0,0.0,-0.0024924454292115017,-5.264372811733643e-05,-0.003990021887843923,-5.006726158110349e-05,-0.025213597644653685,-5.3118055329786854e-06
425229000000,ground_plane,Floor,khm2,0.252724,-0.228037,0.0,0.0,0.0,0.0,1.0,-0.010923,0.300375,-0.916015,0.0,0.0,0.0,1.0,-0.4995886696714353,-0.0014449074815312878,-0.2109369057572859,-2.1660097514576142e-05,1.2189706271013617e-05,0.7062658772295516,0.7079466858764317,0.0,0.0,0.0,0.0,0.0,0.0,0.0,0.0,0.0,0.0,0.0,0.0,0.001162320301978829,-7.139647791624466e-05,0.004128625043935614,-4.214832728096074e-05,0.0207609966421958,0.0003391623148926092
425230000000,ground_plane,Floor,khm2,0.252724,-0.228037,0.0,0.0,0.0,0.0,1.0,-0.010923,0.300375,-0.916015,0.0,0.0,0.0,1.0,-0.49958613808419144,-0.001444929902639239,-0.21094080281921054,-1.2965133627294958e-05,2.105196516572635e-05,0.7062656953766786,0.7079468673020716,0.0,0.0,0.0,0.0,0.0,0.0,0.0,0.0,0.0,0.0,0.0,0.0,0.0025315788504327954,-2.241903139891112e-05,-0.0038970701759231913,-0.00020706460416869654,0.024829978148623696,-0.0005142634438823157
425231000000,ground_plane,Floor,khm2,0.252724,-0.228037,0.0,0.0,0.0,0.0,1.0,-0.010923,0.300375,-0.916015,0.0,0.0,0.0,1.0,-0.4995872152988749,-0.0014450087642828065,-0.21093685194315465,-2.0060481532945846e-05,1.3733315708209162e-05,0.7062656158450166,0.7079469466591639,0.0,0.0,0.0,0.0,0.0,0.0,0.0,0.0,0.0,0.0,0.0,0.0,-0.001076947229270936,-7.882234079963352e-05,0.003950881971436528,0.00029162725607975276,-0.020384633773701498,-0.00022247854420381203
425232000000,ground_plane,Floor,khm2,0.252724,-0.228037,0.0,0.0,0.0,0.0,1.0,-0.010923,0.300375,-0.916015,0.0,0.0,0.0,1.0,-0.4995897073260955,-0.001445061756431565,-0.2109408421978542,-2.8982245482268544e-05,4.825331740149507e-06,0.706265611505434,0.7079469507961744,0.0,0.0,0.0,0.0,0.0,0.0,0.0,0.0,0.0,0.0,0.0,0.0,-0.0024919160396849175,-5.3042833749565066e-05,-0.003990372077277964,-4.960171852168586e-05,-0.025215654832284055,-1.0504691842381915e-05
425233000000,ground_plane,Floor,khm2,0.252724,-0.228037,0.0,0.0,0.0,0.0,1.0,-0.010923,0.300375,-0.916015,0.0,0.0,0.0,1.0,-0.4995885448272487,-0.0014451332733684816,-0.2109367131373038,-2.1665546206602656e-05,1.219011146467157e-05,0.7062657324395926,0.707946830322427,0.0,0.0,0.0,0.0,0.0,0.0,0.0,0.0,0.0,0.0,0.0,0.0,0.0011627597553867,-7.14571973980187e-05,0.004129055259413783,-4.3306260304055554e-05,0.020763026876736403,0.00033965910740152005
425234000000,ground_plane,Floor,khm2,0.252724,-0.228037,0.0,0.0,0.0,0.0,1.0,-0.010923,0.300375,-0.916015,0.0,0.0,0.0,1.0,-0.4995860128409052,-0.0014451554020632803,-0.2109406099023857,-1.2971406826014976e-05,2.105229181641331e-05,0.7062655494065798,0.7079470129253783,0.0,0.0,0.0,0.0,0.0,0.0,0.0,0.0,0.0,0.0,0.0,0.0,0.0025319779308747483,-2.2126605226871083e-05,-0.0038967733535813986,-0.00020811596935654657,0.02482870236739293,-0.0005175973158375671
425235000000,ground_plane,Floor,khm2,0.252724,-0.228037,0.0,0.0,0.0,0.0,1.0,-0.010923,0.300375,-0.916015,0.0,0.0,0.0,1.0,-0.4995870895340801,-0.0014452343214131805,-0.21093665942376638,-2.0065837339584258e-05,1.3733147250739275e-05,0.7062654704925334,0.7079470916662652,0.0,0.0,0.0,0.0,0.0,0.0,0.0,0.0,0.0,0.0,0.0,0.0,-0.0010764253033486166,-7.888045402721279e-05,0.003950484549124886,0.0002936219735329802,-0.020384038606424314,-0.00022072935166585553
425236000000,ground_plane,Floor,khm2,0.252724,-0.228037,0.0,0.0,0.0,0.0,1.0,-0.010923,0.300375,-0.916015,0.0,0.0,0.0,1.0,-0.49958958098620704,-0.0014452877140218121,-0.2109406500261008,-2.8988142225403344e-05,4.824287715825648e-06,0.7062654644586015,0.7079470974935131,0.0,0.0,0.0,0.0,0.0,0.0,0.0,0.0,0.0,0.0,0.0,0.0,-0.002491340934972867,-5.344329196517925e-05,-0.003990719727736453,-4.913642664498741e-05,-0.02521765875813994,-1.5289988278076846e-05
425237000000,ground_plane,Floor,khm2,0.252724,-0.228037,0.0,0.0,0.0,0.0,1.0,-0.010923,0.300375,-0.916015,0.0,0.0,0.0,1.0,-0.4995884180201189,-0.0014453592545385576,-0.21093652054104,-2.1671153610497104e-05,1.2190217685350923e-05,0.706265585655685,0.7079469767575762,0.0,0.0,0.0,0.0,0.0,0.0,0.0,0.0,0.0,0.0,0.0,0.0,0.0011632260265552568,-7.148128415748983e-05,0.004129479738223876,-4.451678661583064e-05,0.02076506347369999,0.0003404061547923553
425237000000,ground_plane,Floor,khm2,0.252724,-0.228037,0.0,0.0,0.0,0.0,1.0,-0.010923,0.300375,-0.916015,0.0,0.0,0.0,1.0,-0.49958588561673706,-0.001445381116882521,-0.210940417021911,-1.2977859390738404e-05,2.1052417367503447e-05,0.706265401602588,0.7079471603781641,0.0,0.0,0.0,0.0,0.0,0.0,0.0,0.0,0.0,0.0,0.0,0.0,0.002532394947249993,-2.1860238437324288e-05,-0.0038964891659102703,-0.0002093347614460703,0.024827536018844153,-0.0005204790005737045
425239000000,ground_plane,Floor,khm2,0.252724,-0.228037,0.0,0.0,0.0,0.0,1.0,-0.010923,0.300375,-0.916015,0.0,0.0,0.0,1.0,-0.4995869617766622,-0.001445460102743468,-0.21093646693300053,-2.0071342398307262e-05,1.3732692742808656e-05,0.7062653233814684,0.7079472384277123,0.0,0.0,0.0,0.0,0.0,0.0,0.0,0.0,0.0,0.0,0.0,0.0,-0.001075891528330192,-7.894730861346261e-05,0.0039500948533288905,0.00029577917809239877,-0.02038352111921721,-0.00021876816715691078
425240000000,ground_plane,Floor,khm2,0.252724,-0.228037,0.0,0.0,0.0,0.0,1.0,-0.010923,0.300375,-0.916015,0.0,0.0,0.0,1.0,-0.49958945263819954,-0.001445513890997734,-0.21094045788315904,-2.899418468612872e-05,4.822959923360271e-06,0.7062653157230515,0.7079472458754923,0.0,0.0,0.0,0.0,0.0,0.0,0.0,0.0,0.0,0.0,0.0,0.0,-0.0024907506265345945,-5.3838775694918354e-05,-0.0039910671166130535,-4.866299432035797e-05,-0.025219657098596637,-1.9872629630066792e-05
425241000000,ground_plane,Floor,khm2,0.252724,-0.228037,0.0,0.0,0.0,0.0,1.0,-0.010923,0.300375,-0.916015,0.0,0.0,0.0,1.0,-0.4995882891961912,-0.0014455854271961555,-0.21093632797536102,-2.1676915519841115e-05,1.2190054537376228e-05,0.7062654372226925,0.7079471248378321,0.0,0.0,0.0,0.0,0.0,0.0,0.0,0.0,0.0,0.0,0.0,0.0,0.001163700970485881,-7.147749683954462e-05,0.004129902441119163,-4.576002969293965e-05,0.020767108046330827,0.00034126527257274724
425242000000,ground_plane,Floor,khm2,0.252724,-0.228037,0.0,0.0,0.0,0.0,1.0,-0.010923,0.300375,-0.916015,0.0,0.0,0.0,1.0,-0.4995857563723637,-0.0014456070419805063,-0.21094022417886718,-1.298448951482263e-05,2.105232931501382e-05,0.7062652522710529,0.7079473093548053,0.0,0.0,0.0,0.0,0.0,0.0,0.0,0.0,0.0,0.0,0.0,0.0,0.0025328153705800618,-2.1612662611465258e-05,-0.0038962118247061243,-0.0002106649097753314,0.02482641607558287,-0.0005230173211099857
425243000000,ground_plane,Floor,khm2,0.252724,-0.228037,0.0,0.0,0.0,0.0,1.0,-0.010923,0.300375,-0.916015,0.0,0.0,0.0,1.0,-0.49957864882861747,-0.0014457173773597166,-0.2109364985968795,-2.6419727699912816e-05,7.532611598476699e-06,0.7062653305075925,0.7079472312031871,0.0,0.0,0.0,0.0,0.0,0.0,0.0,0.0,0.0,0.0,0.0,0.0,0.007107489066216055,-0.00011029633345514047,0.0037255824977282964,7.411718194182548e-05,-0.038120175206699976,0.00022270230291557543
425246000000,ground_plane,Floor,khm2,0.252724,-0.228037,0.0,0.0,0.0,0.0,1.0,-0.010923,0.300375,-0.916015,0.0,0.0,0.0,1.0,-0.4995640686271754,-0.0014457563351287345,-0.2109330528516503,-4.4669841289839614e-05,-9.849554308429759e-06,0.7062650877719078,0.7079474724173618,0.0,0.0,0.0,0.0,0.0,0.0,0.0,0.0,0.0,0.0,0.0,0.0,0.014580201830487357,-3.895764606234995e-05,0.003445745655933382,-0.001287383360855238,-0.05039017564223784,-0.0006832161598473879
425246000000,ground_plane,Floor,khm2,0.252724,-0.228037,0.0,0.0,0.0,0.0,1.0,-0.010923,0.300375,-0.916015,0.0,0.0,0.0,1.0,-0.49953884922839087,-0.0014458542925613303,-0.2109264706840383,-7.371753740933775e-05,-3.806056516855783e-05,0.7062645207456001,0.7079480347123693,0.0,0.0,0.0,0.0,0.0,0.0,0.0,0.0,0.0,0.0,0.0,0.0,0.025219223674932588,-9.797738638649401e-05,0.006581995877357721,-0.0012794168530133453,-0.08097327150819454,-0.0015948966099016092
425246000000,ground_plane,Floor,khm2,0.252724,-0.228037,0.0,0.0,0.0,0.0,1.0,-0.010923,0.300375,-0.916015,0.0,0.0,0.0,1.0,-0.4995015804907203,-0.0014459869657299452,-0.21091529516153495,-0.00011676437889300114,-7.996202989790287e-05,0.7062641688548102,0.7079483764823375,0.0,0.0,0.0,0.0,0.0,0.0,0.0,0.0,0.0,0.0,0.0,0.0,0.0372685164634534,-0.0001326743945630859,0.011175303259119241,-0.0017627369095783965,-0.12013142413458197,-0.0009781503546063973
425247000000,ground_plane,Floor,khm2,0.252724,-0.228037,0.0,0.0,0.0,0.0,1.0,-0.010923,0.300375,-0.916015,0.0,0.0,0.0,1.0,-0.499452720705895,-0.0014461528597894443,-0.2109000262355872,-0.00017047251824289818,-0.00013275321338364858,0.7062637184870185,0.7079488069518829,0.0,0.0,0.0,0.0,0.0,0.0,0.0,0.0,0.0,0.0,0.0,0.0,0.04885952531890648,-0.00016589005186643457,0.015268666060656261,-0.0014759516464272237,-0.15060932908758173,-0.001241952990284181
425248000000,ground_plane,Floor,khm2,0.252724,-0.228037,0.0,0.0,0.0,0.0,1.0,-0.010923,0.300375,-0.916015,0.0,0.0,0.0,1.0,-0.49939527082335483,-0.0014463325277327742,-0.21088384904917296,-0.00022449707207682253,-0.00018610794977483617,0.7062633123960108,0.7079491849902154,0.0,0.0,0.0,0.0,0.0,0.0,0.0,0.0,0.0,0.0,0.0,0.0,0.05744963660727389,-0.00017966652100835837,0.016176937308344505,-0.0011279675695253031,-0.15185438181007296,-0.0011051247804146943
425249000000,ground_plane,Floor,khm2,0.252724,-0.228037,0.0,0.0,0.0,0.0,1.0,-0.010923,0.300375,-0.916015,0.0,0.0,0.0,1.0,-0.4993320171431905,-0.0014465127773954098,-0.21086971774578078,-0.0002736961126400388,-0.000234856076470549,0.7062629447515717,0.7079495199545655,0.0,0.0,0.0,0.0,0.0,0.0,0.0,0.0,0.0,0.0,0.0,0.0,0.06325356214219102,-0.00018024832438983676,0.014131185438996096,-0.0008025247277282439,-0.1385165459663771,-0.000990125408368996
425250000000,ground_plane,Floor,khm2,0.252724,-0.228037,0.0,0.0,0.0,0.0,1.0,-0.010923,0.300375,-0.916015,0.0,0.0,0.0,1.0,-0.4992637421108083,-0.0014466742300440689,-0.210858438209579,-0.0003164526089195242,-0.0002771960029534325,0.7062626434985142,0.7079497873568528,0.0,0.0,0.0,0.0,0.0,0.0,0.0,0.0,0.0,0.0,0.0,0.0,0.06827507445789013,-0.00016151936422056806,0.011279584587286789,-0.000732462014849677,-0.1203438838075876,-0.0008020918108970395
425251000000,ground_plane,Floor,khm2,0.252724,-0.228037,0.0,0.0,0.0,0.0,1.0,-0.010923,0.300375,-0.916015,0.0,0.0,0.0,1.0,-0.49919092595359377,-0.0014468150278278888,-0.2108505185428877,-0.0003518283290178163,-0.0003121831631130959,0.7062624084275348,0.7079499906071317,0.0,0.0,0.0,0.0,0.0,0.0,0.0,0.0,0.0,0.0,0.0,0.0,0.0728164115365181,-0.0001409259823743942,0.007919936860537538,-0.0006680915006403596,-0.09950880923146412,-0.0006188430400860801
425252000000,ground_plane,Floor,khm2,0.252724,-0.228037,0.0,0.0,0.0,0.0,1.0,-0.010923,0.300375,-0.916015,0.0,0.0,0.0,1.0,-0.49911370065941435,-0.0014469459252796568,-0.21084609654919387,-0.00037953226183894,-0.00033948368087378483,0.7062621857043838,0.7079501859242352,0.0,0.0,0.0,0.0,0.0,0.0,0.0,0.0,0.0,0.0,0.0,0.0,0.07722545778517603,-0.00013076976862764824,0.00442217094498945,-0.0006628614606258979,-0.07778810467411014,-0.000587768027887949
425253000000,ground_plane,Floor,khm2,0.252724,-0.228037,0.0,0.0,0.0,0.0,1.0,-0.010923,0.300375,-0.916015,0.0,0.0,0.0,1.0,-0.4990321102112049,-0.001447074401762466,-0.2108452207045375,-0.00039945161838806324,-0.0003589889881120952,0.7062619769745132,0.7079503735752692,0.0,0.0,0.0,0.0,0.0,0.0,0.0,0.0,0.0,0.0,0.0,0.0,0.08159066839543154,-0.0001283347232139741,0.0008760813649786804,-0.000651573801869743,-0.05575527148143931,-0.0005575000215646171
425254000000,ground_plane,Floor,khm2,0.252724,-0.228037,0.0,0.0,0.0,0.0,1.0,-0.010923,0.300375,-0.916015,0.0,0.0,0.0,1.0,-0.4989461509515706,-0.0014472056419340344,-0.2108478895414192,-0.00041156642161971894,-0.00037068480080955395,0.7062617817229794,0.7079505553944722,0.0,0.0,0.0,0.0,0.0,0.0,0.0,0.0,0.0,0.0,0.0,0.0,0.0859594666489899,-0.00013110487414666442,-0.002668614111737569,-0.0006322230729603822,-0.033673602372394515,-0.0005308930414409701
425256000000,ground_plane,Floor,khm2,0.252724,-0.228037,0.0,0.0,0.0,0.0,1.0,-0.010923,0.300375,-0.916015,0.0,0.0,0.0,1.0,-0.49885580927956913,-0.0014473421821484928,-0.21085409198765173,-0.0004158843336485791,-0.00037458445697684766,0.706261603070045,0.7079507290452042,0.0,0.0,0.0,0.0,0.0,0.0,0.0,0.0,0.0,0.0,0.0,0.0,0.09034158609212334,-0.00013654545841107772,-0.0062025317848730865,-0.0006051046554366017,-0.011620083256662722,-0.0004982852000979588
425256000000,ground_plane,Floor,khm2,0.252724,-0.228037,0.0,0.0,0.0,0.0,1.0,-0.010923,0.300375,-0.916015,0.0,0.0,0.0,1.0,-0.498761069800761,-0.001447485906830303,-0.210863815519417,-0.000412421571517973,-0.0003707073829691151,0.7062614386567884,0.7079508971326525,0.0,0.0,0.0,0.0,0.0,0.0,0.0,0.0,0.0,0.0,0.0,0.0,0.09473939915204292,-0.00014372336653906657,-0.009723610727818067,-0.0005732650627859557,0.01038135516387364,-0.0004708697179303842
425256000000,ground_plane,Floor,khm2,0.252724,-0.228037,0.0,0.0,0.0,0.0,1.0,-0.010923,0.300375,-0.916015,0.0,0.0,0.0,1.0,-0.49866191877972355,-0.001447638050994245,-0.21087704980133037,-0.0004011955190199885,-0.0003590726368689363,0.7062612861265275,0.7079510617464321,0.0,0.0,0.0,0.0,0.0,0.0,0.0,0.0,0.0,0.0,0.0,0.0,0.09915094028429307,-0.00015214286757806104,-0.013234361979595672,-0.0005391098635494131,0.032331295484655374,-0.0004497835876075781
425257000000,ground_plane,Floor,khm2,0.252724,-0.228037,0.0,0.0,0.0,0.0,1.0,-0.010923,0.300375,-0.916015,0.0,0.0,0.0,1.0,-0.49855834484839984,-0.0014477995364995818,-0.21089378736048023,-0.00038222172501433267,-0.0003396970659261985,0.706261142795806,0.7079512247953376,0.0,0.0,0.0,0.0,0.0,0.0,0.0,0.0,0.0,0.0,0.0,0.0,0.10357384966769462,-0.00016148396271514396,-0.016737640115816695,-0.000503164626005994,0.05423541663422718,-0.0004351963181613653
425259000000,ground_plane,Floor,khm2,0.252724,-0.228037,0.0,0.0,0.0,0.0,1.0,-0.010923,0.300375,-0.916015,0.0,0.0,0.0,1.0,-0.4984503390832506,-0.00144797106222802,-0.21091402364733117,-0.00035551330352712933,-0.0003125946081260638,0.7062610060928891,0.7079513875737248,0.0,0.0,0.0,0.0,0.0,0.0,0.0,0.0,0.0,0.0,0.0,0.0,0.10800568258452149,-0.0001715241596995612,-0.020236368717221124,-0.00046609126429506247,0.07610127806492846,-0.0004260816256038405
425260000000,ground_plane,Floor,khm2,0.252724,-0.228037,0.0,0.0,0.0,0.0,1.0,-0.010923,0.300375,-0.916015,0.0,0.0,0.0,1.0,-0.49833789473597484,-0.0014481531094908582,-0.2109377567295477,-0.0003210808802366086,-0.0002777764321596806,0.7062608734730187,0.7079515508482562,0.0,0.0,0.0,0.0,0.0,0.0,0.0,0.0,0.0,0.0,0.0,0.0,0.11244426386129452,-0.00018204539248141004,-0.023733164926249134,-0.000428280649178661,0.09793631487628905,-0.0004216608224059677
425261000000,ground_plane,Floor,khm2,0.252724,-0.228037,0.0,0.0,0.0,0.0,1.0,-0.010923,0.300375,-0.916015,0.0,0.0,0.0,1.0,-0.4982210069211659,-0.0014483459700011011,-0.2109649869483745,-0.0002789328149691641,-0.0002352512247730374,0.7062607425492315,0.7079517147285924,0.0,0.0,0.0,0.0,0.0,0.0,0.0,0.0,0.0,0.0,0.0,0.0,0.11688773057985541,-0.0001928583485579493,-0.02723030234137528,-0.00039003029606360764,0.11974724207587188,-0.000420780225169991
425261000000,ground_plane,Floor,khm2,0.252724,-0.228037,0.0,0.0,0.0,0.0,1.0,-0.010923,0.300375,-0.916015,0.0,0.0,0.0,1.0,-0.49812630309916706,-0.0014500209497121158,-0.21094424165531672,-0.0003335068607748977,-0.0002978789907544433,0.7062504665919299,0.7079619188063453,0.0,0.0,0.0,0.0,0.0,0.0,0.0,0.0,0.0,0.0,0.0,0.0,0.10155635114438714,-0.00046735774279657843,0.005426881764546108,0.002974687862518973,-0.06795738890432122,-0.0008484900184657536
425262000000,ground_plane,Floor,khm2,0.252724,-0.228037,0.0,0.0,0.0,0.0,1.0,-0.010923,0.300375,-0.916015,0.0,0.0,0.0,1.0,-0.49802912483385087,-0.0014504505832558952,-0.2109438365627612,-0.0003547363569119952,-0.0003197273003365299,0.7062526987657038,0.7079596721725965,0.0,0.0,0.0,0.0,0.0,0.0,0.0,0.0,0.0,0.0,0.0,0.0,0.09726173032531144,-0.0003997403333471367,0.00032057312620420626,0.0004474646728332751,-0.061499162866318305,0.006131880344758731
425264000000,ground_plane,Floor,khm2,0.252724,-0.228037,0.0,0.0,0.0,0.0,1.0,-0.010923,0.300375,-0.916015,0.0,0.0,0.0,1.0,-0.4979344592257352,-0.0014496531897502467,-0.21095013334002857,-0.0003822173677582426,-0.00033297126496471433,0.7062502101628974,0.7079621343581054,0.0,0.0,0.0,0.0,0.0,0.0,0.0,0.0,0.0,0.0,0.0,0.0,0.09466578863856943,0.0007972815070473253,-0.006296955922789969,-0.02020001639811272,-0.05757106044111203,-0.007008897573955133
425264000000,ground_plane,Floor,khm2,0.252724,-0.228037,0.0,0.0,0.0,0.0,1.0,-0.010923,0.300375,-0.916015,0.0,0.0,0.0,1.0,-0.497842965204953,-0.0014517177594087797,-0.21094731524644317,-0.0003904672529755651,-0.00035736349195612517,0.7062486762868165,0.7079636481273444,0.0,0.0,0.0,0.0,0.0,0.0,0.0,0.0,0.0,0.0,0.0,0.0,0.09149344579854021,-0.002064653128023684,0.002818319590543763,0.022778138807708154,-0.046184678008519525,-0.004301834281396451
425266000000,ground_plane,Floor,khm2,0.252724,-0.228037,0.0,0.0,0.0,0.0,1.0,-0.010923,0.300375,-0.916015,0.0,0.0,0.0,1.0,-0.49775249827944,-0.001454564475011054,-0.21095285776234832,-0.00039878118730662785,-0.0003852570602364384,0.7062481405475121,0.7079641633047141,0.0,0.0,0.0,0.0,0.0,0.0,0.0,0.0,0.0,0.0,0.0,0.0,0.09046695650933083,-0.002846696972179282,-0.005542535789908951,0.02762849250571326,-0.051239224760662165,-0.0014705527787783077
425269000000,ground_plane,Floor,khm2,0.252724,-0.228037,0.0,0.0,0.0,0.0,1.0,-0.010923,0.300375,-0.916015,0.0,0.0,0.0,1.0,-0.4976633715166258,-0.0014544379771485876,-0.2109498809095422,-0.00042223667217426545,-0.00039459353359825195,0.706250321243455,0.7079619691449905,0.0,0.0,0.0,0.0,0.0,0.0,0.0,0.0,0.0,0.0,0.0,0.0,0.0891268678307042,0.00012640339460660412,0.002976607485136719,-0.02002813478522482,-0.046351183866673765,0.006176723910091127
425269000000,ground_plane,Floor,khm2,0.252724,-0.228037,0.0,0.0,0.0,0.0,1.0,-0.010923,0.300375,-0.916015,0.0,0.0,0.0,1.0,-0.49757427965161427,-0.001454221403182207,-0.21095670290574342,-0.00044507681944917966,-0.0004040129489737743,0.7062524497933991,0.7079598264315458,0.0,0.0,0.0,0.0,0.0,0.0,0.0,0.0,0.0,0.0,0.0,0.0,0.08909186501153032,0.00021657396638068344,-0.0068219962012133,-0.01903847030521705,-0.045598791927384946,0.006030378235332177
425269000000,ground_plane,Floor,khm2,0.252724,-0.228037,0.0,0.0,0.0,0.0,1.0,-0.010923,0.300375,-0.916015,0.0,0.0,0.0,1.0,-0.49748711385256844,-0.0014557075213051773,-0.21095437245686033,-0.00046142941399592637,-0.0004295152507404012,0.7062531896798693,0.7079590628465434,0.0,0.0,0.0,0.0,0.0,0.0,0.0,0.0,0.0,0.0,0.0,0.0,0.08716577239966664,-0.0014859900419096803,0.002330459810785229,0.012866781944061498,-0.05920730859772534,0.0021345229878399143
