%time,field.header.seq,field.header.stamp,field.header.frame_id,field.wrench.force.x,field.wrench.force.y,field.wrench.force.z,field.wrench.torque.x,field.wrench.torque.y,field.wrench.torque.z
425145000000,0,425137000000,BR_wheel_link,-0.415776426767398,0.30253226595715466,12.113558393643626,-0.3063471560883523,0.05141148963759948,-0.01120167145161448
425145000000,1,425138000000,BR_wheel_link,0.018518406041631543,-0.034930375878309966,-0.08490207463458847,-0.0071969120337183595,-0.002712264774411166,-4.5388358363173276e-05
425145000000,2,425139000000,BR_wheel_link,0.06430753175305348,3.8653735155989395,12.300448906397385,0.06386178474184608,-0.009173050356480684,0.0015821937391162734
425145000000,3,425140000000,BR_wheel_link,0.1250356907688659,1.5021357100232149,1.283995244793177,0.12571232036225255,-0.014520414581855774,0.003278038451614066
425145000000,4,425141000000,BR_wheel_link,0.1465425607649551,-0.9755616107138203,6.369576828636542,-0.2833196258591064,-0.015334872381875198,0.004035706082779141
425145000000,5,425142000000,BR_wheel_link,0.014296131927295858,-0.01680434551086374,-0.12433443182326342,-0.007289646608044658,-0.0007850048413627938,0.0006163983241002727
425145000000,6,425143000000,BR_wheel_link,-0.024280787287918937,3.680082567278366,11.652087304154584,0.06180811066197198,0.0020344165933502793,-0.0007670504015964614
425146000000,7,425144000000,BR_wheel_link,0.04384390883290634,1.692103240315285,1.652728990549909,0.13423963692261154,-0.004800766792079081,0.0011787183663916328
425146000000,8,425145000000,BR_wheel_link,0.09017486130895569,-0.8984077631574574,6.506464438287518,-0.2783166584796164,-0.009227473912533257,0.002386354440253041
425146000000,9,425146000000,BR_wheel_link,0.0109150595638464,-0.017114169686657806,-0.1210216789974023,-0.006889764739924816,-0.0006014465419478072,0.0004546539110462557
425147000000,10,425147000000,BR_wheel_link,-0.048257163268922154,3.727486089303114,11.73256015444314,0.06490961804484555,0.004775281437981432,-0.0014465363265920577
425148000000,11,425148000000,BR_wheel_link,0.027581535389236467,1.7201860597298682,1.681639796101944,0.13641693245520273,-0.003007117648254884,0.0007373726099450181
425149000000,12,425149000000,BR_wheel_link,0.07120822154083206,-0.8645812232969566,6.511250429876313,-0.2747714446433265,-0.007224579803857739,0.0018609895942775494
425150000000,13,425150000000,BR_wheel_link,0.00979243452449842,-0.017653439063806987,-0.1186544129352356,-0.006840303583152118,-0.0005511467545611585,0.00042156751404700095
425151000000,14,425151000000,BR_wheel_link,-0.055318032152696706,3.7442105526301734,11.762326366736875,0.06585531280865005,0.0055196172354614464,-0.0016318508598297111
425152000000,15,425152000000,BR_wheel_link,0.02178805595925415,1.7170079100605045,1.6711555043384592,0.13642412406372634,-0.002424685221143044,0.0005758656035249731
425153000000,16,425153000000,BR_wheel_link,0.06379587301866563,-0.8613919267199284,6.504255027533365,-0.27425929416353056,-0.006481007547118722,0.0016674127903729963
425154000000,17,425154000000,BR_wheel_link,0.009429497776390246,-0.01755732364270717,-0.11854118977664463,-0.006834965849221079,-0.0005300563234794096,0.00042111176176588095
425155000000,18,425155000000,BR_wheel_link,-0.0579402188029412,3.7447645377110295,11.755740237093438,0.06608531173833446,0.005758608852182906,-0.0016963782479811436
425156000000,19,425156000000,BR_wheel_link,0.018883838353730087,1.7169628941009325,1.6682461051218413,0.13651350821040403,-0.0021495658446143706,0.0004952886881477367
425157000000,20,425157000000,BR_wheel_link,0.05910503164017866,-0.8619114899110538,6.502025028522411,-0.2742623196044224,-0.0060203903398072245,0.0015457127916118606
425157000000,21,425158000000,BR_wheel_link,0.008098776176949082,-0.03474209377489602,-0.13835337095024253,-0.006490045117385011,0.0017278005497708363,0.0008887655056023163
425160000000,22,425159000000,BR_wheel_link,0.426501577079061,3.4799768507131144,11.307642781340668,0.051227311826828034,-0.04513367089673639,0.010884875873475242
425160000000,23,425160000000,BR_wheel_link,-0.03617173929000872,1.5601429462817005,1.9205346116859627,0.1132482356946912,-0.0009804677712708168,-0.000595563601754048
425160000000,24,425161000000,BR_wheel_link,-0.4193978092430083,0.3219264244356148,12.249366986134017,-0.3075315932366982,0.05161122242878782,-0.011351680968042356
425160000000,25,425162000000,BR_wheel_link,0.019580808650640418,-0.033036464800064044,-0.0825275435052643,-0.0070087320999093015,-0.002713944819524103,-2.1062767845512348e-05
425160000000,26,425163000000,BR_wheel_link,0.0775106681401847,3.869527507660403,12.194578138608433,0.06738009468633571,-0.010548007558536285,0.001953070897444688
425160000000,27,425164000000,BR_wheel_link,0.1571055585327129,1.537648196289903,1.295452046261857,0.1294940239522621,-0.018147540059091243,0.004122002856942201
425160000000,28,425165000000,BR_wheel_link,0.1405806917070873,-0.9712102739567238,6.32300805294116,-0.2817502955936138,-0.014388022598317396,0.0038879964043903852
425160000000,29,425166000000,BR_wheel_link,0.013554468305785574,-0.018937616732778145,-0.12303387480437875,-0.00732092700170643,-0.0007782528653447109,0.0005783719678960338
425167000000,30,425167000000,BR_wheel_link,-0.020681403879037052,3.677136712439543,11.622684092474147,0.06216094846042756,0.0018164338096314583,-0.0006545327355376466
425168000000,31,425168000000,BR_wheel_link,0.04829379933230449,1.6785000023612824,1.6339138278903058,0.13336279407601775,-0.005255202586887497,0.001293965301893468
425169000000,32,425169000000,BR_wheel_link,0.09132221342667934,-0.9137898380576763,6.45048851536413,-0.2784749694969781,-0.00930872812561448,0.002417512109940432
425170000000,33,425170000000,BR_wheel_link,0.010641935718995521,-0.018737129972263823,-0.12080630529316425,-0.006908671871837535,-0.0006247998730284344,0.00042288901256226283
425171000000,34,425171000000,BR_wheel_link,-0.04103296259737599,3.7134532781174108,11.668893668140873,0.0650602970598604,0.004115124666301633,-0.0012315348318665022
425172000000,35,425172000000,BR_wheel_link,0.03401324992763488,1.7113765863785444,1.668709093879436,0.1358715214298999,-0.003718716712820924,0.0009068295343847097
425173000000,36,425173000000,BR_wheel_link,0.07280162748955032,-0.8815778278346165,6.459731847404509,-0.27521241685674824,-0.007368034981157817,0.0019047949672504044
425174000000,37,425174000000,BR_wheel_link,0.00957347985053961,-0.019026079994744302,-0.11860099578408087,-0.006849127527441479,-0.0005724640088031726,0.00039432807598121627
425175000000,38,425175000000,BR_wheel_link,-0.04831227434951679,3.729805844103516,11.695028461219131,0.06608471019954952,0.004869342924828626,-0.001424087867040008
425176000000,39,425176000000,BR_wheel_link,0.027628193881907515,1.7100957114382902,1.6608072949225603,0.13600304632581878,-0.0030695073376971332,0.0007301078503993402
425176000000,40,425177000000,BR_wheel_link,0.06450323577150174,-0.8766888697491139,6.453372778234574,-0.2745270105555354,-0.006538087196444525,0.0016873984528343374
425178000000,41,425178000000,BR_wheel_link,0.00917848149716856,-0.018922969694676155,-0.11842683568115855,-0.006841448709687586,-0.0005474943463254882,0.00039299784769194297
425179000000,42,425179000000,BR_wheel_link,-0.051519352715512,3.731757837187292,11.69192010057536,0.0663717104710437,0.005169241142544259,-0.001505327870936673
425180000000,43,425180000000,BR_wheel_link,0.02402331049281392,1.7097387062631402,1.6573979523550997,0.13607511665589667,-0.0027150511194791865,0.0006307344566075929
425181000000,44,425181000000,BR_wheel_link,0.058958722303111166,-0.876527194889716,6.450586443436215,-0.27444011053245665,-0.00599159903713542,0.0015432924478757729
425182000000,45,425182000000,BR_wheel_link,0.008952813127159221,-0.018745134437912224,-0.11858453817899513,-0.006835230286475178,-0.0005289540001275172,0.0003935119858260144
425183000000,46,425183000000,BR_wheel_link,-0.05393017483894047,3.7319894230980455,11.68738343818183,0.06652706414436962,0.00539552880147684,-0.0015678062162776023
425184000000,47,425184000000,BR_wheel_link,0.02121485665671452,1.710674001082838,1.6571116308814478,0.1361857944850099,-0.0024344822761106777,0.0005544146928142544
425185000000,48,425185000000,BR_wheel_link,0.054591590973776305,-0.8759699624303714,6.450494667796064,-0.27437874511383087,-0.005555433978430585,0.0014285594674051261
425186000000,49,425186000000,BR_wheel_link,0.008775934996815176,-0.018620478996468938,-0.11865917765257286,-0.006830072213404684,-0.0005132618163839367,0.0003927228797191079
425187000000,50,425187000000,BR_wheel_link,-0.05607315622822351,3.7327073956554875,11.686465493729393,0.06663715080811722,0.005604694082801044,-0.0016249111685006073
425187000000,51,425188000000,BR_wheel_link,0.01890037961264668,1.71165607706225,1.657663340855166,0.13627555396088842,-0.0022004876702932247,0.0004922760503428287
425189000000,52,425189000000,BR_wheel_link,0.05118370396808358,-0.8750503385840186,6.451858066762755,-0.274316607359554,-0.005209335676447935,0.0013382837263737866
425190000000,53,425190000000,BR_wheel_link,0.00863364569271728,-0.018528774309097388,-0.11868787337673872,-0.006827010632973942,-0.000500139105337246,0.00039169942072427976
425191000000,54,425191000000,BR_wheel_link,-0.057925536664991784,3.733642825453884,11.687523877680478,0.06671578546811066,0.005788827359771105,-0.0016751411852053387
425192000000,55,425192000000,BR_wheel_link,0.01701983970488008,1.7124948546905427,1.6584384255507585,0.13634298869507294,-0.0020092956218688007,0.00044220252504930703
425193000000,56,425193000000,BR_wheel_link,0.048565263771986,-0.874090067724111,6.453888148947055,-0.27426772125514676,-0.004940391201966099,0.001268611976238728
425194000000,57,425194000000,BR_wheel_link,0.007439136410078978,-0.0353096067123278,-0.13879393473672835,-0.006483945580146079,0.0017673864661040544,0.000878533961295957
425195000000,58,425195000000,BR_wheel_link,0.4253418894296843,3.469275199994656,11.243248002249857,0.051803140529336905,-0.045359029029509834,0.01083205021604588
425196000000,59,425196000000,BR_wheel_link,-0.04651697246530018,1.5051387190959251,1.8805012329764057,0.10835811110942069,0.0004058860172325013,-0.0008476784376358331
425197000000,60,425197000000,BR_wheel_link,-0.15360710826847845,-0.7852912827486513,5.718157878406982,-0.2458522235637287,0.01839378382826584,-0.004275768701762838
425198000000,61,425198000000,BR_wheel_link,0.01014699047108742,-0.035850980273955876,-0.07551489562762825,-0.007676677570875626,-0.0004046420818692772,3.90158874309145e-05
425199000000,62,425199000000,BR_wheel_link,-0.06904781483562883,3.8783771395245967,12.24535299931862,0.06545169548987269,0.007434384762079263,-0.0020204036926236096
425200000000,63,425200000000,BR_wheel_link,0.011939409389761457,1.5436184122734633,1.4087855837493384,0.12613086556306774,-0.0018168503976750336,0.00027433219660193825
425201000000,64,425201000000,BR_wheel_link,0.03371150735671835,-0.9314527914843307,6.330943256814702,-0.2777278458693009,-0.002986047297795058,0.0008820063336791861
425202000000,65,425202000000,BR_wheel_link,0.008456436933838324,-0.022296318536190213,-0.11783508977096374,-0.007200106845415029,-0.00046336622560940247,0.00035043901441343146
425203000000,66,425203000000,BR_wheel_link,-0.0608218259957467,3.705494786679903,11.682082938203152,0.06342652733807086,0.006216917728738194,-0.0017409492781834878
425204000000,67,425204000000,BR_wheel_link,0.015870010965425063,1.6780484486049003,1.6192087599872202,0.1337266138890188,-0.0018964582869007013,0.00040724675365151185
425205000000,68,425205000000,BR_wheel_link,0.04654697941191166,-0.9069657367655788,6.42113151224479,-0.2770326855655435,-0.004683231016303024,0.001233992412539223
425206000000,69,425206000000,BR_wheel_link,0.009106967216017253,-0.018798006242157907,-0.11982850352102675,-0.006881059426650832,-0.0004925585702379655,0.00039341822223446605
425207000000,70,425207000000,BR_wheel_link,-0.055734056838804724,3.7198948533056324,11.642679025680906,0.06642450569139202,0.005538463198360707,-0.001599667812435355
425208000000,71,425208000000,BR_wheel_link,0.021583531528982847,1.7140987156334875,1.6528567552419606,0.1366964939236664,-0.0025729811457771007,0.0005616861288264691
425209000000,72,425209000000,BR_wheel_link,0.04416929838529016,-0.8821723249692365,6.434830827230821,-0.274654824941455,-0.004447151336226668,0.0011676359424953736
425210000000,73,425210000000,BR_wheel_link,0.00861006403149596,-0.018879386741690443,-0.11849142118200645,-0.006838780305407495,-0.000480745004843291,0.0003827998663111766
425211000000,74,425211000000,BR_wheel_link,-0.058389092121726716,3.7315781764614986,11.664463338699866,0.06709642646974207,0.005830652768313613,-0.0016736974111673875
425212000000,75,425212000000,BR_wheel_link,0.020113900927668293,1.7145174028892676,1.651275392593556,0.13682450899437382,-0.002413026198930357,0.0005210769491479309
425213000000,76,425213000000,BR_wheel_link,0.04104020284478793,-0.8784363360549181,6.433269909360353,-0.2742147583820627,-0.004112260554516356,0.0010800246188272748
425214000000,77,425214000000,BR_wheel_link,0.008251118005115228,-0.0191099710783375,-0.11832142379652213,-0.0068404166420797845,-0.0004694100693878661,0.0003730875685633
425215000000,78,425215000000,BR_wheel_link,-0.06040013889237472,3.732406892587483,11.6691982471343,0.0670459689408512,0.006058944973041724,-0.0017299743315969847
425216000000,79,425216000000,BR_wheel_link,0.017825420184942486,1.7129400793352505,1.651159710106897,0.13665216341340372,-0.002157132902600778,0.0004601995869353047
425217000000,80,425217000000,BR_wheel_link,0.03945174547531227,-0.8788671987267911,6.4330611506639075,-0.27425249415812103,-0.003955050344056216,0.0010340873285226322
425218000000,81,425218000000,BR_wheel_link,0.008091470523181935,-0.01913099975721108,-0.1184705433490077,-0.006839327865499579,-0.0004635497861132064,0.00036959923401420046
425219000000,82,425219000000,BR_wheel_link,-0.06141156016063043,3.7318766066284894,11.668790411301583,0.06700462690115327,0.0061683274453061265,-0.00175878668800237
425220000000,83,425220000000,BR_wheel_link,0.01618313687356021,1.7126681703313604,1.6524479917170916,0.13657477592077152,-0.0019741492028024776,0.0004170254289631182
425221000000,84,425221000000,BR_wheel_link,0.03874416231385347,-0.8787444428225377,6.434336791515765,-0.27426616934962866,-0.0038921084796231242,0.001013155744549436
425222000000,85,425222000000,BR_wheel_link,0.008027909148374604,-0.019074027507617698,-0.11856486372652457,-0.0068364488544395904,-0.0004604716912209824,0.00036940817483548745
425223000000,86,425223000000,BR_wheel_link,-0.06199231535918148,3.732108798383709,11.669287553180565,0.0670248903003574,0.0062264837628106424,-0.0017758033841349468
425224000000,87,425224000000,BR_wheel_link,0.014975684050626215,1.7126734248093354,1.653526589853609,0.13653641741453293,-0.0018396545371642814,0.00038544401831655355
425225000000,88,425225000000,BR_wheel_link,0.03843850468110388,-0.8781386631237545,6.436041562158065,-0.2742394430182667,-0.003869390234883946,0.0010039032182758648
425226000000,89,425226000000,BR_wheel_link,0.008004970221665736,-0.01900549628912926,-0.1185994940555451,-0.006834030572853949,-0.0004586719309846829,0.00037044565541902174
425227000000,90,425227000000,BR_wheel_link,-0.06240065155259744,3.7327751609130093,11.670815365820356,0.06706356492697979,0.00626495581756888,-0.0017880779311062792
425228000000,91,425228000000,BR_wheel_link,0.013956728049270395,1.7125723550001148,1.6542531840690748,0.13649858716438437,-0.0017256446664142278,0.00035885951822612217
425229000000,92,425229000000,BR_wheel_link,0.03834483455211091,-0.8774320740998462,6.437846536729302,-0.27420498344648886,-0.003867670460317524,0.0010007091266113228
425230000000,93,425230000000,BR_wheel_link,0.008001173611148287,-0.018939603740284063,-0.11861077988283639,-0.006832231025058024,-0.00045758413361586406,0.0003718731762822928
425231000000,94,425231000000,BR_wheel_link,-0.06272168133677125,3.733554936659859,11.67276721477579,0.0671022852359291,0.0062939481637295895,-0.0017979218271710032
425232000000,95,425232000000,BR_wheel_link,0.013019786472053041,1.7123662769185555,1.6548075252399967,0.13645490384472453,-0.001620210655511517,0.00033446779625842613
425233000000,96,425233000000,BR_wheel_link,0.03838274092811034,-0.8767365321524976,6.439697671485111,-0.27417305390327906,-0.003879233649484115,0.0010011768961749636
425234000000,97,425234000000,BR_wheel_link,0.008007630626860962,-0.018877480736287998,-0.11861429061883313,-0.006830760503343046,-0.00045696426874788096,0.00037339905906121453
425235000000,98,425235000000,BR_wheel_link,-0.06298830187561388,3.7343499445603126,11.674864217045432,0.06713828281767689,0.006317228177457137,-0.0018062192071339462
425236000000,99,425236000000,BR_wheel_link,0.012128808593578122,1.7121032985029503,1.6552927500623829,0.13640714762214015,-0.001519411214820493,0.00031131227111606905
425237000000,100,425237000000,BR_wheel_link,0.038509604681734144,-0.8760622790232657,6.44157368614065,-0.27414402896570544,-0.0038999342745429932,0.001004081704666291
425238000000,101,425238000000,BR_wheel_link,0.008019979274853345,-0.01881882585920904,-0.11861415851972817,-0.006829438811944392,-0.0004566773495557957,0.0003749210472306604
425239000000,102,425239000000,BR_wheel_link,-0.06321738193688531,3.735143555832826,11.677021885650944,0.06717214525853124,0.006336687233123989,-0.0018134174298907462
425240000000,103,425240000000,BR_wheel_link,0.011275747311193851,1.7118139983190945,1.6557422059143658,0.13635763340603108,-0.00142250803166033,0.0002891683007438103
425241000000,104,425241000000,BR_wheel_link,0.03869664353295443,-0.8754002222381434,6.443461214093867,-0.2741166088182605,-0.003926814780710247,0.0010086261885753154
425242000000,105,425242000000,BR_wheel_link,0.00803573803826769,-0.01876324647767575,-0.1186117894471217,-0.006828198509347103,-0.0004566270080561506,0.00037640146819038073
425243000000,106,425243000000,BR_wheel_link,-0.0011851312922358526,-0.9768953575657264,6.5471773144145455,-0.40924709231386747,-5.850650737718177e-05,-0.0001952279935573259
425246000000,107,425244000000,BR_wheel_link,0.012546978921139484,0.3203327924185244,-0.8938295649944588,-0.07024540406130125,-0.0007609619471213858,0.000427064194987687
425246000000,109,425246000000,BR_wheel_link,-0.0034572183032714476,0.8457045309254589,-1.5545950070637873,-0.04986462831355734,-0.00010901983010021613,-0.0002430694793341512
425247000000,110,425247000000,BR_wheel_link,0.0007234007312608148,0.7804350015507895,-1.4258253077121654,-0.03203587402968135,0.0001675394190585877,9.268066053174794e-05
425248000000,111,425248000000,BR_wheel_link,-0.003961238515824417,0.45857266699461174,-0.8446664688289236,0.00030655346420758604,0.00014651817552084826,-7.316829280152451e-05
425249000000,112,425249000000,BR_wheel_link,-0.0038756348326321743,0.23114592949980495,-0.4489825235060104,-0.004208419046728034,0.0001191093661583706,-6.287892170120434e-05
425250000000,113,425250000000,BR_wheel_link,-0.0042545279840671,0.16477813284114506,-0.33188019900065735,-0.005655762058036008,1.697357169539327e-05,-8.362694987801083e-05
425251000000,114,425251000000,BR_wheel_link,-0.004179423166859111,0.12480713810109435,-0.26224723934722927,-0.006475611438578157,8.565692489448905e-06,-8.117101766393e-05
425252000000,115,425252000000,BR_wheel_link,-0.0015224326068282723,0.1146398470964385,-0.24165071846830846,-0.0067412516639805495,-6.259202835090516e-06,-1.299536364690704e-05
425253000000,116,425253000000,BR_wheel_link,-0.0009926531930551097,0.11038990624667804,-0.23450256624766805,-0.0068366552819252215,-6.802123252191636e-06,-1.2621346227595625e-05
425254000000,117,425254000000,BR_wheel_link,-0.0006347212009424064,0.11010480108978989,-0.23427481060938188,-0.00685065632776106,-5.891849281162379e-06,-1.1237687732661714e-05
425256000000,118,425255000000,BR_wheel_link,-0.0005497355779368746,0.11062193397236937,-0.2356000789091891,-0.006841777688636639,-5.032153929662286e-06,-1.3933883873622124e-05
425256000000,119,425256000000,BR_wheel_link,-0.0004002800912645127,0.11150824437471038,-0.23736867634845044,-0.00682555919810772,-4.206560546924504e-06,-1.1735636519938722e-05
425256000000,120,425257000000,BR_wheel_link,-0.00025965595622477744,0.11229778338995727,-0.23892751735022139,-0.006809623326349063,-3.841842266504025e-06,-8.946520049490849e-06
425257000000,121,425258000000,BR_wheel_link,-0.00013723690448308457,0.1129308731729682,-0.2402120157544869,-0.006795463723183751,-3.479878413051741e-06,-6.096733610324646e-06
425259000000,122,425259000000,BR_wheel_link,-3.709868324115739e-05,0.11337931054222161,-0.2411904191480892,-0.006783654843233588,-3.2630290638358504e-06,-3.678130406846794e-06
425260000000,123,425260000000,BR_wheel_link,4.200644109542129e-05,0.1136586151845079,-0.24189045018276867,-0.006774146435311759,-3.1207128556648076e-06,-1.5961081638231431e-06
425261000000,124,425261000000,BR_wheel_link,9.784245893243448e-05,0.11378382608326516,-0.24234628018829163,-0.006766713432544582,-3.06489132208829e-06,-1.030197809513949e-08
425262000000,125,425262000000,BR_wheel_link,-0.18058996304658148,13.559814291529824,33.235209325694306,0.5012643994322498,0.01819351158301788,-0.004885393664904338
425263000000,126,425263000000,BR_wheel_link,-0.029901611056592614,5.920234793938575,4.063286322687754,0.5243946923462548,-0.002163301667624351,-0.001784334990182622
425264000000,127,425264000000,BR_wheel_link,0.18114566083286698,0.1323516324132437,-0.11834301554737559,0.02005672676657694,-0.004946000359722933,0.006647666203072575
425265000000,128,425265000000,BR_wheel_link,-1.0020276006549438,5.010573568265972,16.37517316547492,0.1000312422132405,0.10183009941049231,-0.02791763084185217
425266000000,129,425266000000,BR_wheel_link,-1.4298945555186697,2.5110387656600186,2.710807575977133,0.1931038042839559,0.14722766512808672,-0.039248766676243454
425269000000,130,425267000000,BR_wheel_link,1.8689637853760193,3.291334167133154,10.810835705416224,0.06440643980027615,-0.20092125167835057,0.04906587537360899
425269000000,131,425268000000,BR_wheel_link,0.044716667399325546,-0.016075368045798545,-0.04322956308343867,0.0022181361373869043,-0.005374348517818351,0.0013854306434121532
425269000000,132,425269000000,BR_wheel_link,-0.9151590797540741,4.573706294069372,18.346168494138652,-0.023264493152626853,0.09775676448433972,-0.02386824767001467
425270000000,133,425270000000,BR_wheel_link,0.02101530611206162,-0.01641484755918614,-0.11547385873927146,0.002518301552055247,0.001677890845308055,0.0001294719115033296
425271000000,134,425271000000,BR_wheel_link,0.02158109098529888,-0.08002818103712223,0.3302114082303676,-0.011039943271393524,-0.007110323173929324,0.0007400735398719426
425272000000,135,425272000000,BR_wheel_link,-1.2655572512382378,3.5648055475984277,9.47131304182268,0.10686698137938233,0.12746022889677744,-0.034662163197869106
425273000000,136,425273000000,BR_wheel_link,-0.012922817391294479,-0.012656290025130737,0.2036466939581464,-0.00400872382459855,-0.0006495496245122205,0.0012989891377820006
425274000000,137,425274000000,BR_wheel_link,-1.6448742597451425,3.4448926396700434,6.31847296002832,0.17209167711346818,0.16213428625521212,-0.04301412454316293
425275000000,138,425275000000,BR_wheel_link,-0.22998052782019696,-1.3816848981761707,4.7082452457071735,-0.28171994579658843,0.037953360331375946,-0.005655044608587199
425276000000,139,425276000000,BR_wheel_link,-0.05839949958169213,-0.0790636092047999,-0.5224652920747334,0.00025532881208594935,-0.0011685505694926882,-0.0005628932493447011
425277000000,140,425277000000,BR_wheel_link,-2.724289972539347,5.18438012594346,6.9690470821180615,0.34484625053673257,0.27439142304610936,-0.07315777211429289
425278000000,141,425278000000,BR_wheel_link,-0.05435255224528955,-0.15799432789837597,-0.5929601009818277,-0.004209291109008439,0.0002091784319762204,-0.0008480849909017897
425279000000,142,425279000000,BR_wheel_link,-2.3242920565093015,2.1925411985772003,5.580514346474327,0.07119726529783373,0.2408632707377311,-0.06202855067631656
425280000000,143,425280000000,BR_wheel_link,0.032027049554161656,-0.09392786790684901,0.577309454310108,-0.011740174666094411,-0.0008989515749785746,9.053401230386916e-05
425281000000,144,425281000000,BR_wheel_link,-1.0277528717003397,5.19450351532906,16.556067639389447,0.07911043951607871,0.10631354881889152,-0.025440908444745433
425282000000,145,425282000000,BR_wheel_link,-0.029558248137174684,-0.036426157466399836,-0.01710265582071109,0.0009664795127984288,0.0049916849694252915,-0.0016256697097007196
425283000000,146,425283000000,BR_wheel_link,0.008908158349029562,-0.0615171185572649,0.319493382165839,-0.011651613042296519,-0.008220826203633265,0.000768176888914067
425284000000,147,425284000000,BR_wheel_link,-1.9062736724541354,3.853015010517347,11.223858774464553,0.08907446640721176,0.19749296529602356,-0.052692044718685056
425285000000,148,425285000000,BR_wheel_link,-0.019970174014345286,-0.04398118439934898,0.37828918358918706,-0.007221360648383655,-2.9475851951617487e-05,-0.0010321519281949246
425285000000,149,425286000000,BR_wheel_link,-0.8745299307833645,3.8207018205726433,15.606066496010001,-0.04245365493610342,0.09066849464699257,-0.02045414595536364
425287000000,150,425287000000,BR_wheel_link,-1.350138303034878,1.7333459861025555,2.5372755725387846,0.10642539518916559,0.1417129578627919,-0.03625990021130564
425288000000,151,425288000000,BR_wheel_link,-0.023791544981047463,2.0114109997660705,16.844839219735846,-0.25673190296978954,0.016452344086928583,-0.0006371712049869881
425289000000,152,425289000000,BR_wheel_link,0.019168320484125007,-0.002686078851536258,-0.08191976351310941,-0.0025239919987449407,-0.0058915160324965864,0.0019528271978508781
425290000000,153,425290000000,BR_wheel_link,-1.5515372413498214,5.327160664964425,21.252739266885264,-0.02079777329908529,0.15084373512835136,-0.04324765788540972
425290000000,154,425291000000,BR_wheel_link,-0.052490090096758465,0.06528509122511231,0.06008197654397302,0.004705266180178242,0.005211534659624775,-0.0014081357817812123
425292000000,155,425292000000,BR_wheel_link,0.08851968263462628,2.759491503310465,19.589271744271485,-0.24511765101674932,-0.0021679433664332642,0.0018865882628045557
425293000000,156,425293000000,BR_wheel_link,-0.23504765175633463,-0.45342705293707614,-0.2923327649353062,-0.034186691161133285,0.020196121764670713,-0.002458393313287051
425294000000,157,425294000000,BR_wheel_link,0.46865410850128786,0.5476533108459894,-1.368608061811178,0.04397409597852556,-0.02397624391971396,0.008335856919232425
425295000000,158,425295000000,BR_wheel_link,-0.36542453541238307,-0.6515723277961479,-0.04207008246482339,-0.04313499745982094,0.00950365794205895,-0.012657404703468725
425296000000,159,425296000000,BR_wheel_link,0.2624302981668038,0.32979690797578487,-0.9797229139701704,0.029884771404058156,-0.015638055102621975,0.00516224841369735
425297000000,160,425297000000,BR_wheel_link,-0.19148997017147723,-0.37453643189929975,-0.06661677903252261,-0.03595781201585596,0.01075085182471129,-0.0022706462151074226
425298000000,161,425298000000,BR_wheel_link,0.18062170659986473,0.29319719230780444,-1.0435694439251588,0.030553213990966412,-0.014681570849739076,0.0036058471327385993
425299000000,162,425299000000,BR_wheel_link,-0.3620416076028179,-0.45598404931531944,-0.3215245233532549,-0.030227494052302836,0.01830185163975311,-0.007448032201291187
425300000000,163,425300000000,BR_wheel_link,0.3357399988572619,0.33740520413553216,-1.038059734020405,0.031810374378346766,-0.018165707585984372,0.007670767943929641
425301000000,164,425301000000,BR_wheel_link,-0.3117632226718473,-0.5009879804047636,-0.1326246072084077,-0.03456435549778743,0.0161224252385324,-0.0063432004611971
425302000000,165,425302000000,BR_wheel_link,0.30560009699083435,0.31969106662530417,-1.077493989176699,0.032418372776817084,-0.018092205321958526,0.007178754425096582
425303000000,166,425303000000,BR_wheel_link,-0.3496884094521906,-0.5642985174846437,-0.1722350158553813,-0.03379398789671964,0.021012031193095186,-0.007288688445584036
425304000000,167,425304000000,BR_wheel_link,0.4554527913135429,5.597738217449493,4.6689874929309045,0.4345641099681085,-0.04090349572652527,0.010304944494009885
425305000000,168,425305000000,BR_wheel_link,-1.4750290258964143,-1.9065775154269438,4.4406700204319804,-0.31422924408117275,0.16253120665878168,-0.038559522986815434
425306000000,169,425306000000,BR_wheel_link,0.16900317306388293,0.11511257531324619,-0.8735824225744786,0.01580587523827807,-0.008658210678431885,0.004300587483341588
425307000000,170,425307000000,BR_wheel_link,-0.3058593554703169,-0.5428016638488146,-0.023782349008166448,-0.031624352422094805,0.013585460111808365,-0.008712807715757238
425308000000,171,425308000000,BR_wheel_link,1.4542656574930457,1.97889443948416,0.011125158209468494,0.18917687288939125,-0.14774100139220947,0.037760112339589785
425309000000,172,425309000000,BR_wheel_link,-0.23790524849511893,-0.5412915898414736,-0.14985187814238415,-0.033714217472723455,0.008436386334730428,-0.005436356955574616
425310000000,173,425310000000,BR_wheel_link,0.831652303520634,4.003956803347832,7.295920363367351,0.19779368476462814,-0.06786076872214299,0.02448303458041123
425311000000,174,425311000000,BR_wheel_link,-1.401682021451176,-0.9773981655093649,1.7967768060057572,-0.14722794667896574,0.14899065969522995,-0.03683340363567575
425312000000,175,425312000000,BR_wheel_link,0.17962383072281998,0.05755836849155645,-0.6070952265221318,0.00857668254768958,-0.009445908900299761,0.007039710496666227
425313000000,176,425313000000,BR_wheel_link,-2.2221517649968616,-1.0729143362884332,5.2474125191035705,-0.2430901107208996,0.2219113242436846,-0.06240835208078277
425314000000,177,425314000000,BR_wheel_link,0.10489017978648958,0.07961735419928755,-0.7185895731789127,0.014763819010786543,-0.005345213235022195,0.002705511612777675
425315000000,178,425315000000,BR_wheel_link,-0.1950307948544763,-0.4807449124057609,0.13918562335730927,-0.03398115184821053,0.007977419305227962,-0.006109473556474293
425316000000,179,425316000000,BR_wheel_link,0.3965655689862517,5.775820092500065,5.610130359372121,0.43124332971732326,-0.04452884265726706,0.009861448872048432
425317000000,180,425317000000,BR_wheel_link,-0.1752212670682126,-0.2648351329466037,0.07638425542223033,-0.013222070722835613,0.007579523857883087,-0.0048427410392042685
425318000000,181,425318000000,BR_wheel_link,0.9138561971221488,3.685245583024334,1.5700992721048483,0.33037482512560556,-0.08986598896990743,0.022843624059336
425319000000,182,425319000000,BR_wheel_link,-0.18839156938350535,-0.2929203890784299,-0.09837372312692996,-0.01817336202188424,0.008524552727362005,-0.003549124343547172
425320000000,183,425320000000,BR_wheel_link,0.7098997231848065,4.050317114444397,2.7597055370536863,0.3308073256208789,-0.06408540754634559,0.017725304853145035
425321000000,184,425321000000,BR_wheel_link,-0.16851641020342628,-0.27429359674764225,-0.048681457603080305,-0.018259542877485983,0.008369439033608969,-0.0031425661368894744
425322000000,185,425322000000,BR_wheel_link,0.7942030272094787,3.900562282416906,2.5935139429455645,0.32025744566624353,-0.07276929856948525,0.019998519848760325
425323000000,186,425323000000,BR_wheel_link,-0.16337157805626998,-0.2712007840866261,-0.062476149471491715,-0.018326265614842248,0.00791171723443814,-0.0029985523238670935
425324000000,187,425324000000,BR_wheel_link,0.7902444922279992,3.9955473167307787,2.8282940025057846,0.32360994146453215,-0.07196196389156234,0.019951253406639894
425325000000,188,425325000000,BR_wheel_link,-0.14960834716150406,-0.25992158624475575,-0.038509153550941665,-0.018185219519114844,0.007194497291630755,-0.002690031408393115
425326000000,189,425326000000,BR_wheel_link,0.7702579197200283,4.1084798720645,3.1248843870766336,0.3273178322493834,-0.07024252308288076,0.019524628241897234
425327000000,190,425327000000,BR_wheel_link,-0.13617216965206871,-0.24715989684350195,-0.013256838100326563,-0.017763078615976043,0.006452159359940239,-0.002410588469640375
425328000000,191,425328000000,BR_wheel_link,0.6721996684988276,4.245343154745502,3.573723118994951,0.32917411854931977,-0.060322334196175526,0.017063537833995158
425329000000,192,425329000000,BR_wheel_link,-0.11866030564040783,-0.2313475191293224,0.026979996192276465,-0.01743072969125678,0.005632553021360282,-0.002122864572137535
425330000000,193,425330000000,BR_wheel_link,0.5854769994479494,4.488512055453593,4.139077025972579,0.33893590034281584,-0.05204367446270275,0.014898163729498752
425331000000,194,425331000000,BR_wheel_link,-0.10098803091884946,-0.21358774501744124,0.07336189674223087,-0.016805620461263188,0.004764475041659982,-0.0018307163944625126
425332000000,195,425332000000,BR_wheel_link,0.5098329658566123,4.6952355618923995,4.6187502239424525,0.3476806986286398,-0.045199299750840916,0.013008322476660932
425333000000,196,425333000000,BR_wheel_link,-0.08378538146323063,-0.19581408059729616,0.11560250875609425,-0.016245942469179344,0.003940894375741017,-0.0015214791655383132
425334000000,197,425334000000,BR_wheel_link,0.45117110331830523,4.899570998145915,5.046177335402588,0.35771214992224554,-0.040728493480173655,0.011521160965350746
425335000000,198,425335000000,BR_wheel_link,-0.06814258788320064,-0.1785405531635588,0.16322198986646066,-0.01586974951533016,0.0033940424476938645,-0.0011951105313799616
425336000000,199,425336000000,BR_wheel_link,0.5039866093769532,5.016934022722825,5.970442485829783,0.3455756535711153,-0.0412123512754938,0.01445258179823138
425337000000,200,425337000000,BR_wheel_link,-0.06965374973255435,-0.17587431272063925,0.11465025194581385,-0.012482054370611409,0.0008944988042092015,-0.002250769888466275
425338000000,201,425338000000,BR_wheel_link,0.41575749331027323,4.727315103259837,4.86014535840706,0.34838210870565434,-0.04070735011694382,0.010597634364255218
425339000000,202,425339000000,BR_wheel_link,-0.048652831656980366,-0.1814618241373708,0.2096225104196818,-0.01807150679343863,0.002081818728070289,-0.0011348087840008386
425340000000,203,425340000000,BR_wheel_link,0.8341897472970943,6.356492896619454,5.683080607028078,0.48400207458801403,-0.08795294730900752,0.02198437673909988
425341000000,204,425341000000,BR_wheel_link,-0.13330199608819981,-0.20863477795278224,0.05341516598335204,-0.013876167833717581,0.0064434532456086975,-0.0029891045046582213
425342000000,205,425342000000,BR_wheel_link,0.6468620840182393,4.524697115624286,3.7061573152452203,0.34688478147117063,-0.056700332790551145,0.017171366912657842
425343000000,206,425343000000,BR_wheel_link,-0.12155453875613625,-0.225958583387488,0.05800070840383731,-0.017161411214561044,0.005361061427304596,-0.0024690609923377436
425344000000,207,425344000000,BR_wheel_link,0.522424361173544,5.174253989200887,4.917152314711034,0.37582608895736325,-0.04455573798653742,0.013872715566571346
425345000000,208,425345000000,BR_wheel_link,-0.09541388808378487,-0.1884099067869754,0.1228968023981857,-0.014513235757591971,0.0041820361234067415,-0.0018782501611742837
425346000000,209,425346000000,BR_wheel_link,0.4550796334456726,4.823031142673682,4.7308221711760625,0.34729318903889095,-0.03929269897373694,0.012209060889399635
425347000000,210,425347000000,BR_wheel_link,-0.07192961503814531,-0.17646007187168808,0.15007616774592134,-0.015683973903209546,0.0031920095171623043,-0.0013469303222183307
425348000000,211,425348000000,BR_wheel_link,0.38202390676029374,5.503659527410209,5.784989301927144,0.38630090963308533,-0.03329469226215692,0.010316422587831883
425349000000,212,425349000000,BR_wheel_link,-0.05310768218672102,-0.1535400981466014,0.2162252388705524,-0.014500455651721342,0.0023229411515331465,-0.0009388263463956058
425350000000,213,425350000000,BR_wheel_link,0.3106015587982478,5.364451555693808,5.835426367776584,0.3714070152137703,-0.027252058434093646,0.008446262501606103
425351000000,214,425351000000,BR_wheel_link,-0.03640695213427453,-0.1368004523362012,0.23760998536184158,-0.014317894742547058,0.0015759605017734313,-0.0005836603429884059
425352000000,215,425352000000,BR_wheel_link,0.23368761972061325,5.799206491752422,6.516590829627312,0.3968656020761775,-0.020473129635371373,0.006386405089262779
425353000000,216,425353000000,BR_wheel_link,-0.02120630256722901,-0.12061228831290119,0.291027144241895,-0.013912365659437138,0.0009158104182137531,-0.0002538061055892048
425354000000,217,425354000000,BR_wheel_link,0.15836696308547404,5.874470988182776,6.800667031528961,0.39669925288559305,-0.013753953487923076,0.004359336209497518
425355000000,218,425355000000,BR_wheel_link,-0.00710556286852472,-0.1021716407440636,0.316934483481022,-0.013257226996320197,0.0003120005661492956,5.351984807474056e-05
425356000000,219,425356000000,BR_wheel_link,0.08283608408141951,6.127294275248085,7.238510542642276,0.4107709019870629,-0.006951335233528977,0.0023070943780031453
425357000000,220,425357000000,BR_wheel_link,0.005994681219278139,-0.08806556695093024,0.3578506483245166,-0.013034222412305889,-0.0002499603166205792,0.00033940725775475765
425358000000,221,425358000000,BR_wheel_link,0.008283393532518168,6.320097157662952,7.630681503643385,0.41952128614764467,-0.00018050824743501281,0.0002731995490765776
425359000000,222,425359000000,BR_wheel_link,0.018470327564766853,-0.0707468182912245,0.38863349799876795,-0.012365236588060439,-0.0007748232363795913,0.0006192614976865306
425360000000,223,425360000000,BR_wheel_link,-0.06449669345758346,6.491453919881527,7.964031093192723,0.4281874376977425,0.006441224202960255,-0.0017213582029560436
425361000000,224,425361000000,BR_wheel_link,0.030237024361269807,-0.05671470513703164,0.4213813460439534,-0.012087256329609414,-0.0012743677188678032,0.0008845207552188369
425362000000,225,425362000000,BR_wheel_link,-0.13649295129079375,6.7113836632337,8.36181077815927,0.4396801196201001,0.013036202746284475,-0.00370216437083579
425363000000,226,425363000000,BR_wheel_link,0.041438215589450995,-0.04103220479393279,0.4530510574056048,-0.011537922813718036,-0.0017502368575394896,0.0011434654102894194
425364000000,227,425364000000,BR_wheel_link,-0.20620741204984494,6.865739246543624,8.667848149197367,0.4472872298161989,0.019420934793811656,-0.005625635049928964
425365000000,228,425365000000,BR_wheel_link,0.052096317288335046,-0.026847556366531702,0.48161010236216495,-0.011172943723353387,-0.002203767773976388,0.0013934989722907598
425366000000,229,425366000000,BR_wheel_link,-0.2750560952270096,7.071967800866204,9.030204933420062,0.4584985052540731,0.025763601432653188,-0.007532128951831689
425366000000,230,425367000000,BR_wheel_link,0.062419784099012415,-0.012342976204968721,0.5117334649334706,-0.010726275943454426,-0.0026384713430885635,0.001642523939435007
425368000000,231,425368000000,BR_wheel_link,-0.34154171696864655,7.232655436135442,9.333624136155144,0.4667753073716653,0.031878336970359133,-0.00937780485474143
425368000000,232,425369000000,BR_wheel_link,0.0724016388980481,0.00170953371181011,0.5386932683908563,-0.010320558725361757,-0.003056338565086429,0.0018876277157086928
425370000000,233,425370000000,BR_wheel_link,-0.4065476109599424,7.418855888462884,9.658179583383468,0.47707222977830605,0.03786792947231138,-0.011188215966112032
425371000000,234,425371000000,BR_wheel_link,0.08202224134220577,0.015403589860218017,0.5666326418815835,-0.009928103875902856,-0.0034607134339570437,0.0021286483028648035
425372000000,235,425372000000,BR_wheel_link,-0.4696496553598992,7.584771335765767,9.956149830173782,0.4860328855045959,0.043682783136225284,-0.012950132112713265
425373000000,236,425373000000,BR_wheel_link,0.0913923688861488,0.029048805929464627,0.5924443084659333,-0.009524286996391703,-0.0038505822381246736,0.002368801572547958
425374000000,237,425374000000,BR_wheel_link,-0.5309574319380346,7.75522898710547,10.251171646091805,0.4955798934055931,0.04933064401537032,-0.014666998754097431
425375000000,238,425375000000,BR_wheel_link,0.10043390153342814,0.042217068613937536,0.6182382860642144,-0.009156616884120746,-0.0042287943539676045,0.002604769314845028
425376000000,239,425376000000,BR_wheel_link,-0.5905372007874203,7.920468694012891,10.536710767725195,0.5048414377863222,0.05482112670162678,-0.01633999605690087
425377000000,240,425377000000,BR_wheel_link,0.1092337889373858,0.05534508673566706,0.6428589133155012,-0.00877320860984265,-0.004593984281567071,0.002839531528581519
425378000000,241,425378000000,BR_wheel_link,-0.648321822576718,8.081127076668533,10.810317390741499,0.5140025621720538,0.0601425929114264,-0.017967248459678786
425379000000,242,425379000000,BR_wheel_link,0.1177355009019975,0.06818991462095773,0.6668346204719635,-0.008418542383045962,-0.0049472631439866945,0.0030753938955142782
425380000000,243,425380000000,BR_wheel_link,-0.704723859560592,8.242299418805393,11.079989645774932,0.523322752203595,0.06533839226490756,-0.019560807018860413
425381000000,244,425381000000,BR_wheel_link,0.12596064485406552,0.08090837101524327,0.6901434509552073,-0.008056574633805038,-0.005288221680091054,0.0033076839383189456
425382000000,245,425382000000,BR_wheel_link,-0.7584935484452253,8.396962121832315,11.339767519228626,0.5322708726074655,0.07030211142680542,-0.021079708492641236
425383000000,246,425383000000,BR_wheel_link,0.1338956464567656,0.09328471159539681,0.7124377199796659,-0.007701054317718155,-0.005624651320053131,0.0035312070658886753
425384000000,247,425384000000,BR_wheel_link,-0.8076805576992716,8.552713005758761,11.597687318668097,0.5413719978260055,0.07485140838482543,-0.02247540591155532
425385000000,248,425385000000,BR_wheel_link,0.14163264812392978,0.10547882481628217,0.7341216504020984,-0.007350928858399538,-0.0059654165664187655,0.003755318038304512
425386000000,249,425386000000,BR_wheel_link,-0.8546252713890308,8.704721427150869,11.845815720487433,0.5503809716183554,0.07916260949453083,-0.023813575372898056
425386000000,250,425387000000,BR_wheel_link,0.14939142685310958,0.11782129946185689,0.7547780609274342,-0.007004613325986904,-0.006298589468182088,0.003987486125321239
425386000000,251,425388000000,BR_wheel_link,-0.9036950753041633,8.852334687423866,12.07918403337263,0.5594097467738147,0.08362211146235887,-0.025218251068238294
425389000000,252,425389000000,BR_wheel_link,0.1566948016206941,0.12951808000433057,0.7753124230894022,-0.006677127106247662,-0.00660678217901263,0.004200600392562769
425390000000,253,425390000000,BR_wheel_link,-0.9521712405168667,9.000608205417318,12.310896935461452,0.5685303820236003,0.0880751101344576,-0.02660901774331597
425391000000,254,425391000000,BR_wheel_link,0.16361352729976986,0.14083463085863765,0.7954546004951628,-0.006358154619987296,-0.00689592447310624,0.0044066485563833396
425392000000,255,425392000000,BR_wheel_link,-0.9990892820507353,9.142560558959538,12.53154106255331,0.5773117050920136,0.09240005607836735,-0.0279587058753192
425393000000,256,425393000000,BR_wheel_link,0.16758183435828605,0.1498731040887342,0.8106060045589079,-0.005983818914541027,-0.007052706353694548,0.004506218103492687
425394000000,257,425394000000,BR_wheel_link,-1.0283624716989226,9.236617613481517,12.64553815624463,0.5843030280093494,0.09503847149681388,-0.02882723199197426
425395000000,258,425395000000,BR_wheel_link,0.16934439078893365,0.15624923755807857,0.8200431988800687,-0.005762834238817955,-0.007118842164725761,0.00456938496230551
425396000000,259,425396000000,BR_wheel_link,-1.0477474824797763,9.314939065449284,12.718770689442724,0.5907622772763768,0.0968129635231417,-0.02942272790001227
425397000000,260,425397000000,BR_wheel_link,0.17046529444687913,0.16206795116909045,0.8266603714747545,-0.005577789980676272,-0.007158573165050464,0.004644997299579455
425398000000,261,425398000000,BR_wheel_link,-1.0666711538984965,9.392366308529343,12.795626870412022,0.5969695685191194,0.09864756747635559,-0.030008292928014657
425399000000,262,425399000000,BR_wheel_link,0.17175603051264976,0.16807326380814058,0.8331928790442972,-0.005394943350445179,-0.007198382488272634,0.004730118440786412
425400000000,263,425400000000,BR_wheel_link,-1.08332924936065,9.468984787910394,12.870161517649747,0.603179293687313,0.10023350408875373,-0.0305273610438314
425401000000,264,425401000000,BR_wheel_link,0.1730214246142101,0.17403525891058078,0.8395078164277202,-0.005213063640032952,-0.00723691644547956,0.004815592495037209
425402000000,265,425402000000,BR_wheel_link,-1.1017873555409081,9.545084081602877,12.943847054856242,0.6093662650755459,0.10201191365437709,-0.03109609693114509
425403000000,266,425403000000,BR_wheel_link,0.17427383486565395,0.17996220398993268,0.8455767365728216,-0.005031231765793459,-0.007276742012908378,0.0049001383461545
425404000000,267,425404000000,BR_wheel_link,-1.120929814746058,9.619000547760901,13.012085599356883,0.6155034114003155,0.10381920039866274,-0.03168587998714576
425405000000,268,425405000000,BR_wheel_link,0.17540979541605103,0.18579778019721882,0.8515733613956942,-0.004860293940456682,-0.007299334789431232,0.004982075910027077
425406000000,269,425406000000,BR_wheel_link,-1.1393602325153496,9.69161007697646,13.076688198515772,0.6216079378832802,0.10555721156910991,-0.03225716934072063
425407000000,270,425407000000,BR_wheel_link,0.17645921680337362,0.19158722129704597,0.8574262109382748,-0.004694424164195986,-0.007309254462006438,0.005063437475788752
425408000000,271,425408000000,BR_wheel_link,-1.1594358460124128,9.764879800231714,13.143916480114433,0.627683773387243,0.10751442607015538,-0.032875872702318544
425409000000,272,425409000000,BR_wheel_link,0.17746390561784858,0.19730179376268514,0.8631077304861007,-0.004525436990068696,-0.00732284299271939,0.005141983698441661
425410000000,273,425410000000,BR_wheel_link,-1.1791412109102812,9.838001187891706,13.209882702906599,0.6337866531336465,0.10943356551976102,-0.03348483908255549
425411000000,274,425411000000,BR_wheel_link,0.17845431072934625,0.20296005158432023,0.8686375518830027,-0.004357287722909271,-0.007338271051801763,0.005219828067100175
425412000000,275,425412000000,BR_wheel_link,-1.1972244413544595,9.909088934309494,13.270750862454136,0.6398415104058661,0.11115283167668538,-0.034049115610500856
425413000000,276,425413000000,BR_wheel_link,0.17942368580102042,0.20859828176765527,0.8741413069816182,-0.004196510051336026,-0.00734456855076389,0.005299189950137104
425414000000,277,425414000000,BR_wheel_link,-1.2157897232130153,9.980644968610076,13.332439219290318,0.6459095974438598,0.11295192096098833,-0.034627497182704255
425415000000,278,425415000000,BR_wheel_link,0.18034900071335264,0.21416025492543023,0.8794476283180006,-0.004035335470064463,-0.007352919631418656,0.005377333048866256
425416000000,279,425416000000,BR_wheel_link,-1.2341614972329427,10.051185283819844,13.39300450957526,0.6519028156917711,0.1147389112731187,-0.035200623408163156
425417000000,280,425417000000,BR_wheel_link,0.18126824482611326,0.2196643252000236,0.8846289566025165,-0.0038745668281056516,-0.007363852684610573,0.005454965943904669
425418000000,281,425418000000,BR_wheel_link,-1.2508156167951219,10.12050622271161,13.449078685452474,0.6579187403599931,0.11631643337973574,-0.035725962197269485
425419000000,282,425419000000,BR_wheel_link,0.18215524066366215,0.22513216448678272,0.8897156332871381,-0.0037214939793779015,-0.007365589425545169,0.005533548607190071
425420000000,283,425420000000,BR_wheel_link,-1.2686898517850822,10.188526761444091,13.507187877634179,0.6637510852803492,0.11804306163640732,-0.036288364995221034
425421000000,284,425421000000,BR_wheel_link,0.18240777676466677,0.22971805953291125,0.8955611461461367,-0.00358604271394654,-0.007369589115069481,0.005590747659738924
425422000000,285,425422000000,BR_wheel_link,-1.2774774075207773,10.252581697379885,13.546757410520541,0.6697710769345588,0.11882634553239935,-0.036594811142843714
425423000000,286,425423000000,BR_wheel_link,0.17991859892667406,0.23111756101622852,0.901461346602545,-0.003493314734852286,-0.0073529636858954105,0.005575383010099985
425424000000,287,425424000000,BR_wheel_link,-1.2875450324550202,10.307193867371186,13.575587471303898,0.6749265739463447,0.1199511948829885,-0.03692985024428658
425424000000,288,425425000000,BR_wheel_link,0.17771543097925274,0.23315112532281068,0.9050467850931707,-0.003435739419478598,-0.007290343504469164,0.005585777189424338
425426000000,289,425426000000,BR_wheel_link,-1.303121251716219,10.355034328980668,13.604291452781965,0.6793553480623296,0.12168213149506774,-0.03742415634070135
425427000000,290,425427000000,BR_wheel_link,0.17629991881475432,0.23615145255127454,0.9082937221917297,-0.0033806051872513013,-0.007227873356123392,0.005617665247642147
425428000000,291,425428000000,BR_wheel_link,-1.315811986632757,10.405175503589879,13.62819122480378,0.6842069042164605,0.12305751084672789,-0.037837282446872254
425429000000,292,425429000000,BR_wheel_link,0.17487153063755506,0.23932478042337868,0.9104751458616689,-0.003309708351821871,-0.007165618545609371,0.0056489613838701155
425430000000,293,425430000000,BR_wheel_link,-1.3323308894826593,10.454040420527223,13.654988980074318,0.6888388668238326,0.12482949387159875,-0.038362442662217965
425431000000,294,425431000000,BR_wheel_link,0.17392181492272063,0.24311512118136236,0.9129112659912523,-0.0032260082332936316,-0.007109322510630902,0.005689484123627865
425432000000,295,425432000000,BR_wheel_link,-1.3459217990467764,10.50740692437638,13.67940977945889,0.6940488150506905,0.12625677463427903,-0.03880466392208397
425433000000,296,425433000000,BR_wheel_link,0.07552526751525289,0.20742203529898426,0.8060651664573153,-0.0033377669391740214,-0.007182605552355423,0.002676546146138125
425434000000,297,425434000000,BR_wheel_link,-1.522728955125165,10.160887442323254,13.454566918099811,0.6625867640560665,0.15062895316703406,-0.04385312516681607
425435000000,298,425435000000,BR_wheel_link,0.08627575546646674,0.2295092970984747,0.7732295882725166,-0.0026558360331226313,-0.0060801451097079705,0.0034393577536477767
425436000000,299,425436000000,BR_wheel_link,-1.5457635295341556,9.842516361771054,13.093953360617064,0.6407143595238267,0.1532379304783349,-0.04456694979165149
425437000000,300,425437000000,BR_wheel_link,0.20760814280388293,0.2532212159426082,0.9549029556767404,-0.0049750145810907725,-0.006592039051631751,0.0071546809527180625
425438000000,301,425438000000,BR_wheel_link,-1.2514652936499138,10.921704096568089,13.989207943876885,0.7293580075926858,0.11554126637630341,-0.036169613878037056
425439000000,302,425439000000,BR_wheel_link,0.1540727621457279,0.22374248199249758,0.8750092542285048,-0.002831259540700978,-0.006164150915332973,0.005097445703628597
425440000000,303,425440000000,BR_wheel_link,-1.4419128112498534,10.45041057607057,13.534923510486824,0.6927101663431544,0.1379485587576777,-0.04183214499255508
425441000000,304,425441000000,BR_wheel_link,0.1778376608144559,0.2485620317472817,0.9031260738636693,-0.0030463957830194673,-0.006771915339036231,0.005661057233100092
425442000000,305,425442000000,BR_wheel_link,-1.34162712002047,10.607383744880842,13.591662688831683,0.7088703458626382,0.12588518717239022,-0.0389184716110539
425443000000,306,425443000000,BR_wheel_link,0.17195118278283386,0.2439476667344469,0.8977456683991637,-0.0030784574794271435,-0.006919223267738027,0.005588221666940055
425444000000,307,425444000000,BR_wheel_link,-1.3401674673665562,10.583413969297162,13.54274635085617,0.7078984493774958,0.12594148475496425,-0.03891015990099521
425445000000,308,425445000000,BR_wheel_link,0.18030745286342015,0.25539960722416527,0.9015715745377235,-0.003038581492035712,-0.007101627068017607,0.00601382461691806
425446000000,309,425446000000,BR_wheel_link,-1.3045677596219272,10.644219733341085,13.530092153590346,0.715581791115431,0.12155994629710454,-0.03790621164758619
425447000000,310,425447000000,BR_wheel_link,0.17805672206143006,0.25595542936102106,0.9023154605257857,-0.0029536003082693946,-0.007189783170461586,0.006050883257050261
425448000000,311,425448000000,BR_wheel_link,-1.3159141932099434,10.67379078630211,13.551756185524447,0.7183287904657047,0.1227904871304788,-0.038275653116482025
425449000000,312,425449000000,BR_wheel_link,0.179022470305311,0.26035557131660875,0.9079398698294501,-0.002938276473604939,-0.0072145030937669375,0.006165633796373364
425450000000,313,425450000000,BR_wheel_link,-1.306282445682427,10.727379248972893,13.547441239425764,0.7245387126100978,0.12163349196176798,-0.03803076379714315
425451000000,314,425451000000,BR_wheel_link,0.17658399279771503,0.261929518435248,0.9074177520657334,-0.0028848982166593574,-0.007162378848255229,0.006180621826393954
425452000000,315,425452000000,BR_wheel_link,-1.3343590463955621,10.761001373783929,13.586904503170306,0.7270846191703463,0.12473814286297591,-0.03889235420717745
425453000000,316,425453000000,BR_wheel_link,0.17726889032295928,0.26680747821081774,0.9124722089364997,-0.0028423683686280205,-0.007128048065479858,0.0062619986438306775
425454000000,317,425454000000,BR_wheel_link,-1.3315039788036094,10.821544670228182,13.590554490039693,0.7337649622625195,0.12432050332318234,-0.03885415284245896
425455000000,318,425455000000,BR_wheel_link,0.1747110518325345,0.26884157057955527,0.9116836361886986,-0.0027506200467588638,-0.00705028539467057,0.006257286930227266
425456000000,319,425456000000,BR_wheel_link,-1.364799242439585,10.861556602658467,13.635078234103045,0.7368431860873759,0.12796256402313194,-0.03987143788721459
425457000000,320,425457000000,BR_wheel_link,0.1754847500850562,0.27432734872048165,0.9165535741412961,-0.002670836926234858,-0.007005814444234657,0.006337311072805669
425457000000,321,425458000000,BR_wheel_link,-1.3740265948633428,10.93024397156551,13.679342408412143,0.7432086157227205,0.1288249452509066,-0.040211558275526395
425459000000,322,425459000000,BR_wheel_link,0.1751114600568367,0.2740976553972815,0.9219679899719273,-0.0025290262087117425,-0.00705094163839022,0.0061754776015679105
425460000000,323,425460000000,BR_wheel_link,-1.3934129299430644,10.975498814556644,13.748542854916181,0.746162612257252,0.13100465244346837,-0.040806465867050196
425461000000,324,425461000000,BR_wheel_link,0.1764870589109664,0.2773516188048538,0.9261436996713575,-0.002565527442112686,-0.007035192663791979,0.006237988566368142
425462000000,325,425462000000,BR_wheel_link,-1.3990095043820765,11.0156620255298,13.781449932319084,0.7497193434991088,0.1316014401576871,-0.04100431993019393
425463000000,326,425463000000,BR_wheel_link,0.17869768438808337,0.28288019265945896,0.9302109220968435,-0.0025042420072556807,-0.0071014829906955014,0.006368419031209699
425464000000,327,425464000000,BR_wheel_link,-1.375165159428311,11.070396035774081,13.73890754703546,0.7573266111431418,0.1287496075543632,-0.040359578172597235
425465000000,328,425465000000,BR_wheel_link,0.17542475088509601,0.2830869160258667,0.922946864682522,-0.0024988791041295417,-0.006941288671674121,0.006379310618130412
425466000000,329,425466000000,BR_wheel_link,-1.4233677950658294,11.071371748202651,13.782974783567887,0.7561751895553879,0.1340622715166097,-0.04181925264085491
425467000000,330,425467000000,BR_wheel_link,0.17611841209184634,0.28833463958281297,0.9251761805370381,-0.002574681608340149,-0.006786567128822722,0.006415578524989741
425468000000,331,425468000000,BR_wheel_link,-1.3578098943681534,11.118617204389533,13.614726427657107,0.7668666848886955,0.1268784156030529,-0.03997242248951177
425469000000,332,425469000000,BR_wheel_link,0.1735573893429725,0.2893192827467609,0.9155579328781123,-0.0023326188325579907,-0.006799976415341132,0.006548399113334654
425470000000,333,425470000000,BR_wheel_link,-1.4634496057325364,11.132521751903731,13.805260321004301,0.7625960533433208,0.13823350454185201,-0.04308997260360428
425471000000,334,425471000000,BR_wheel_link,0.17456120853561108,0.2951416883918477,0.9248345852292625,-0.0025363710823632936,-0.006515278607725508,0.006468934122644157
425472000000,335,425472000000,BR_wheel_link,-0.4337776342893118,19.293155113421957,16.778282208642267,0.8557599266251807,0.02576266475488681,-0.0181048501094207
425473000000,336,425473000000,BR_wheel_link,-0.55457137275986,7.999687835327004,9.394145754033927,0.29885267698522233,0.04196169837342001,-0.028952113446953975
425474000000,337,425474000000,BR_wheel_link,-0.016320760142741118,0.08154437364809831,0.032127779263781124,0.008601291043666269,0.0013315118633272505,-0.0008376694713143019
425477000000,338,425475000000,BR_wheel_link,-0.36201195573188816,10.514552896409313,8.024915943383155,0.5410539609877633,0.03405158669787098,-0.019728204276502306
425477000000,339,425476000000,BR_wheel_link,-0.15988311417358125,2.686049027170293,7.335844004492769,-0.12510507107794,0.012507163315386607,-0.008189015213092184
425477000000,340,425477000000,BR_wheel_link,0.01992848597629611,-0.06924339010157775,-0.38161987387848617,0.005840925672309778,-0.001250654562271412,0.0020491557982473276
425478000000,341,425478000000,BR_wheel_link,-2.924546267335179,7.6498722197688345,6.989995303734345,0.3297118649070257,0.2632859154517586,-0.15077868734853073
425479000000,342,425479000000,BR_wheel_link,-0.04796718813462915,-0.23843163309871734,-0.37473738998953704,0.00015021676191565383,-0.0013299988465436947,-0.0020144557885637708
425480000000,343,425480000000,BR_wheel_link,-1.7902105600497267,3.877775789745426,5.663998341899632,0.05421327257155603,0.15797009529971007,-0.09216076234740994
425481000000,344,425481000000,BR_wheel_link,-0.38923619140570564,4.976380978253828,10.916973030866146,-0.11242207523182374,0.04214552707308878,-0.021943393781369523
425482000000,345,425482000000,BR_wheel_link,0.021189553555746,0.01357788636808007,-0.16857357917348254,0.001615067811516976,-0.0003141854727644444,0.002847043531339132
425483000000,346,425483000000,BR_wheel_link,-2.2993794267942436,5.996849635002252,9.67309936476508,0.041982216239204215,0.2160455907240793,-0.12336551492925063
425484000000,347,425484000000,BR_wheel_link,-0.03704164211875225,0.026668693840714203,0.41104772111643295,-0.005027739795417881,-0.005169540488038825,-0.00032592327917812863
425485000000,348,425485000000,BR_wheel_link,-4.06191553169225,6.023781070023659,11.000270721810004,-0.05011394882884013,0.3710609154457298,-0.20996306596693187
425486000000,349,425486000000,BR_wheel_link,-0.055900235523289876,2.863669767178779,9.056435240615784,-0.20710324517217107,0.014529128565520813,-0.006603670456920476
425487000000,350,425487000000,BR_wheel_link,-0.030000961598200104,-0.06643857667834287,0.005787396612667685,-0.005876093797536488,0.0018231040800989833,-0.001069603098321402
425488000000,351,425488000000,BR_wheel_link,-0.9758162017169405,10.580050760160983,19.72328566480079,-0.08211607171412723,0.09126109194091406,-0.04849647911331216
425489000000,352,425489000000,BR_wheel_link,-1.3415986748974134,1.7226706303104278,1.1070894402480174,0.09944951782534743,0.12843174825598502,-0.07219295213767217
425490000000,353,425490000000,BR_wheel_link,0.41250285804133435,6.166350901575895,15.430304408489743,-0.24035202855269155,-0.036756849267909925,0.021372279301711646
425492000000,354,425491000000,BR_wheel_link,0.00812698134966169,-0.05376453056961891,0.014252615999464962,-0.005469179219430376,-0.0011581219849532707,0.0006233235727358431
425492000000,355,425492000000,BR_wheel_link,-0.638409674594381,11.02507903216082,21.054263791649753,-0.10412682548062854,0.05164150442721911,-0.030808739632456134
425493000000,356,425493000000,BR_wheel_link,-0.06110880455292038,0.06098529009872565,0.03303334485221519,0.0028279043728320213,0.005964976842495469,-0.0032611322762133104
425494000000,357,425494000000,BR_wheel_link,0.5000616640110713,6.142961657980002,16.05258905991012,-0.27987965451396296,-0.044509472072476214,0.025762374659235806
425496000000,358,425495000000,BR_wheel_link,0.0074775514305073666,-0.03833578110732106,0.0010422614231511188,-0.003519612384655564,-0.0009455139944251675,0.00047778057364904767
425496000000,359,425496000000,BR_wheel_link,-0.47659827192188375,10.511883684827161,20.944791295965985,-0.14319903895591335,0.039519335799061424,-0.02355209051751802
