%time,field.header.seq,field.header.stamp,field.header.frame_id,field.wrench.force.x,field.wrench.force.y,field.wrench.force.z,field.wrench.torque.x,field.wrench.torque.y,field.wrench.torque.z
425145000000,0,425137000000,BL_wheel_link,0.078228273320497,-0.2151217776148538,-0.6803415917802079,-0.010792103280387544,0.0010562897181417789,0.0017452183739343435
425145000000,1,425138000000,BL_wheel_link,-0.003300357657572254,0.05067215964036544,-0.1062691750600643,-0.002743168840105516,-0.0005546010789077571,-0.0005819163785220068
425145000000,2,425139000000,BL_wheel_link,0.024774774660764942,3.88199836493055,11.258841863107435,0.08976523481388232,-0.005377229087893155,0.0006306659605339257
425145000000,3,425140000000,BL_wheel_link,0.06666531505559725,1.5629902377738976,1.6719685571965255,0.11970116960747026,-0.008382582499665912,0.0016814527326152046
425145000000,4,425141000000,BL_wheel_link,0.03857876137477134,-0.7379913567925754,5.609304838645835,-0.23945552440462486,-0.004336510393519066,0.001036519676795869
425145000000,5,425142000000,BL_wheel_link,0.011614698189239513,-0.037704556424981175,-0.1279788961441413,-0.00674554358725232,-0.0004692174669999479,0.0006595557722823182
425145000000,6,425143000000,BL_wheel_link,-0.05009381829420878,3.8125009441013153,10.946507197543509,0.093241973730166,0.004494771700006582,-0.0013610678351088958
425145000000,7,425144000000,BL_wheel_link,0.018630825888973468,1.7542046234330173,1.7803533514397087,0.13710935924610068,-0.002088089644693758,0.00046697603754943147
425145000000,8,425145000000,BL_wheel_link,-0.0022786356211963454,-0.7156031779534797,5.701698057135278,-0.23914869153644172,0.00019479006454052594,-0.00020668704006607773
425146000000,9,425146000000,BL_wheel_link,0.008767776444523048,-0.034744302806513847,-0.12571223416315605,-0.006512230012442732,-0.0003469625329578646,0.0005097701007898318
425147000000,10,425147000000,BL_wheel_link,-0.06596010980992117,3.8385769038197237,10.958296995265162,0.09610208882081586,0.006411472232830159,-0.0018246733650785895
425148000000,11,425148000000,BL_wheel_link,0.011477575032736276,1.7610425292850553,1.777263244231706,0.1380827659220682,-0.001220988364565398,0.0002648204192783575
425149000000,12,425149000000,BL_wheel_link,-0.008302039482243728,-0.6987443120820599,5.713120652507864,-0.2375298695672399,0.000879766485415448,-0.00039051567820468265
425150000000,13,425150000000,BL_wheel_link,0.00810064979148334,-0.035068669139250844,-0.12340706357378214,-0.006542005701800032,-0.0003438285339911855,0.00048783795535775967
425151000000,14,425151000000,BL_wheel_link,-0.06668084371083438,3.8485313855924765,10.99485142435687,0.09620063502432531,0.006509171323218148,-0.0018421936918519163
425152000000,15,425152000000,BL_wheel_link,0.012129513025989413,1.7464582243343978,1.7638384358473855,0.13694807447441198,-0.0012946612570066962,0.00027289185947020934
425153000000,16,425153000000,BL_wheel_link,-0.005777296060941017,-0.7019778338200404,5.712049138573061,-0.2378315242160316,0.0006101500481744265,-0.0003214694493869595
425154000000,17,425154000000,BL_wheel_link,0.008105406139124013,-0.03552822482614412,-0.1231825558040208,-0.006576145192728817,-0.00035972558406807296,0.0004972866168787918
425155000000,18,425155000000,BL_wheel_link,-0.06434331686282269,3.8459169644991755,11.003239304717376,0.09568975264114203,0.006242122740017397,-0.001775891092231507
425156000000,19,425156000000,BL_wheel_link,0.014222755128183273,1.7414032287800014,1.7617791840987156,0.13645531692518886,-0.0015289988245643649,0.00032420382041024876
425157000000,20,425157000000,BL_wheel_link,-0.002658084853080722,-0.7063664279063765,5.712062205567081,-0.23830054014507357,0.0002739704826819761,-0.00023686314387579878
425157000000,21,425158000000,BL_wheel_link,0.006886030936582854,-0.07432079802718122,0.0017776025341117133,-0.006241887683979482,0.001867049804939321,0.0009635229406087354
425160000000,22,425159000000,BL_wheel_link,0.41523271290854313,3.827168916391712,12.714263080020423,0.0432481982021156,-0.04468455029393012,0.010595712527478245
425160000000,23,425160000000,BL_wheel_link,-0.04033584311429739,1.064635762182378,0.6772443486844084,0.09370617687626223,0.0002725142571130684,-0.0006613891373017052
425160000000,24,425161000000,BL_wheel_link,0.07593182564257356,-0.2224654084477245,-0.6816997368120461,-0.011362370630383123,0.0011122996398832373,0.0016369414028797238
425160000000,25,425162000000,BL_wheel_link,-0.0017066010762137353,0.050282101280891736,-0.10841313668929008,-0.002593650834129766,-0.0006098874878013882,-0.0005450552462374402
425160000000,26,425163000000,BL_wheel_link,0.03039546906742241,3.939949818982111,11.436410939382254,0.09136457326999597,-0.00597545205098729,0.0008009720449232947
425160000000,27,425164000000,BL_wheel_link,0.05020004961192526,1.5731560873363648,1.6875772985940043,0.1202872410059255,-0.007061996691687673,0.0012433809214247
425160000000,28,425165000000,BL_wheel_link,0.02115141820948674,-0.7141957591612792,5.640944662795376,-0.23753448760785847,-0.002217610807180345,0.0005873266968036504
425160000000,29,425166000000,BL_wheel_link,0.01030080482335176,-0.03726245096407723,-0.12471066235471207,-0.006769321832176069,-0.0004105470656919053,0.0006063612061907949
425167000000,30,425167000000,BL_wheel_link,-0.053040398725966664,3.8349408390172766,11.03944570948768,0.09322928410336527,0.00494490626901295,-0.001421892716589619
425168000000,31,425168000000,BL_wheel_link,0.015530467834311668,1.7413559543297508,1.7669348419888933,0.13612466152252495,-0.0017740086731928423,0.0003830263647080943
425169000000,32,425169000000,BL_wheel_link,-0.011434952770475681,-0.7052482856805812,5.743142351902974,-0.2391619821057671,0.0011693107075286258,-0.0004483757440295194
425170000000,33,425170000000,BL_wheel_link,0.008039591653095833,-0.03436397937301147,-0.12476152458986536,-0.006553073329425119,-0.0003286585410574865,0.0004672953088672447
425171000000,34,425171000000,BL_wheel_link,-0.06388074540598176,3.8515129264692654,11.040399818552556,0.09537633688845729,0.006276432781103493,-0.0017463803228343804
425172000000,35,425172000000,BL_wheel_link,0.01135049920033182,1.7544836100989012,1.7740764625877483,0.13741631578890914,-0.0012633561637339225,0.00026112568218549827
425173000000,36,425173000000,BL_wheel_link,-0.014709067785667718,-0.6902441432592124,5.756653082461942,-0.23780633382045213,0.0015560373562319846,-0.000558130255856968
425174000000,37,425174000000,BL_wheel_link,0.007517250086568722,-0.0346319732705015,-0.12252885570236817,-0.0065688521754822225,-0.0003319310825201922,0.00045212776601204105
425175000000,38,425175000000,BL_wheel_link,-0.06366717055466609,3.861191447679243,11.073547075035835,0.09553673600289112,0.006267182924421036,-0.0017407372039320158
425176000000,39,425176000000,BL_wheel_link,0.012780325597580688,1.7429735322440703,1.7636104552055598,0.13652480947047138,-0.0014108249937077877,0.0002903105230021765
425176000000,40,425177000000,BL_wheel_link,-0.011186376272957821,-0.6916994230093213,5.757566213019608,-0.23796753057622078,0.0011810825344831521,-0.00046338611661366803
425178000000,41,425178000000,BL_wheel_link,0.007558157543225542,-0.03506448696988629,-0.12220827144649926,-0.006599369376853621,-0.0003508568802907475,0.00046243197967456415
425179000000,42,425179000000,BL_wheel_link,-0.06099653992661369,3.8598411947025832,11.083008744399507,0.0951288786469188,0.005967629197213005,-0.0016668874429811953
425180000000,43,425180000000,BL_wheel_link,0.015334285908963907,1.7380882647588787,1.7613826599766989,0.13606179933538187,-0.0016852590747463703,0.00035373682819924215
425181000000,44,425181000000,BL_wheel_link,-0.007400254448274968,-0.6949088937618336,5.75787439715607,-0.23831669883894158,0.0007765971310630532,-0.00036138750999251297
425182000000,45,425182000000,BL_wheel_link,0.007678012463039632,-0.03530284318114291,-0.12232241130435732,-0.006614535027294522,-0.0003672423358452386,0.0004722526039179208
425183000000,46,425183000000,BL_wheel_link,-0.058756878987522354,3.8578292626774777,11.084416187408722,0.0948730205481419,0.0057193892954392825,-0.0016066623196085714
425184000000,47,425184000000,BL_wheel_link,0.017449872118189158,1.7365770562794207,1.7614263678466746,0.1358927328462401,-0.0019073629777716233,0.000407535596435615
425185000000,48,425185000000,BL_wheel_link,-0.004374637911926826,-0.6967541460724831,5.757653542971543,-0.23850551040024173,0.00045871378467240986,-0.0002810760387519252
425186000000,49,425186000000,BL_wheel_link,0.0077753171481589785,-0.03542826155938179,-0.12239974874854784,-0.006621316831214643,-0.00037937311645482377,0.00047875863431820037
425187000000,50,425187000000,BL_wheel_link,-0.05721158737935794,3.8567598740509967,11.083624763004972,0.09477853122541022,0.005552106882754496,-0.0015664032827228049
425187000000,51,425188000000,BL_wheel_link,0.01904937546323815,1.7358986815883672,1.7612676057411285,0.13582303469096801,-0.00207279475947085,0.00044872605711128097
425189000000,52,425189000000,BL_wheel_link,-0.0019366121171732198,-0.6978786143133616,5.756216211994085,-0.23858366947514886,0.00020817242645335132,-0.0002170305098060949
425190000000,53,425190000000,BL_wheel_link,0.007851375611400495,-0.035507269811571616,-0.12244396827192597,-0.006624553078683139,-0.00038837759567562045,0.00048347870571710896
425191000000,54,425191000000,BL_wheel_link,-0.05613790847340017,3.856174708851799,11.081751832821396,0.09476401201825449,0.005437555764105956,-0.0015393590143149695
425192000000,55,425192000000,BL_wheel_link,0.02027584713364805,1.7355382848924568,1.7609126404721676,0.13579551877960191,-0.0021986016190867763,0.00048062160734737083
425193000000,56,425193000000,BL_wheel_link,6.74356501541018e-05,-0.6987288702086811,5.754071101136854,-0.23861326380113895,5.122255060982517e-06,-0.00016462162370139283
425194000000,57,425194000000,BL_wheel_link,0.0066495351432376,-0.07458802708515161,0.0031040102829642383,-0.006273743522278014,0.0018598909132965004,0.0009654444901179833
425195000000,58,425195000000,BL_wheel_link,0.42337403894747405,3.840743781423929,12.785876070519695,0.04258594910092086,-0.04552317627031961,0.010824027456913745
425196000000,59,425196000000,BL_wheel_link,-0.038325729962355004,0.9750781640874965,0.6150547941233977,0.08584392039791797,-8.45243507006238e-06,-0.0006331478762232161
425197000000,60,425197000000,BL_wheel_link,-0.14512198336818538,-0.3705219167048911,5.998507165365774,-0.2079411908712268,0.01757423556004295,-0.004188420888022314
425198000000,61,425198000000,BL_wheel_link,0.009199725404688034,-0.042607094890903814,-0.10067562594805933,-0.008031342305826892,-0.0003557371736924754,0.00012121074175616171
425199000000,62,425199000000,BL_wheel_link,-0.0626148673188347,3.9826652497759527,11.5421046625104,0.09442733789652705,0.006582106026661677,-0.0017610769699506782
425200000000,63,425200000000,BL_wheel_link,0.018505090411070513,1.4996376160330074,1.5030592372029024,0.11829268367237107,-0.0023264815089648755,0.00038947663417152056
425201000000,64,425201000000,BL_wheel_link,-0.007050746030942356,-0.7520756935455489,5.658384630253815,-0.24192706066149494,0.0011647957305749718,-0.0003439094233533852
425202000000,65,425202000000,BL_wheel_link,0.008100780885830057,-0.03737749334790959,-0.12150727910193128,-0.007030695481817664,-0.00039641753381848034,0.0004560854740690451
425203000000,66,425203000000,BL_wheel_link,-0.05324059955938587,3.8323913377165915,11.091924772597212,0.09165327626356107,0.00527180016258897,-0.0014547157916516141
425204000000,67,425204000000,BL_wheel_link,0.024952337516568,1.7030034067802204,1.736669924337436,0.13288061176574462,-0.0026820702956658615,0.0005997684156782033
425205000000,68,425205000000,BL_wheel_link,0.007545993172912158,-0.7180497211852167,5.764151275810713,-0.24100628957764117,-0.0007085027341370981,5.014807748756657e-05
425206000000,69,425206000000,BL_wheel_link,0.008844075950258521,-0.03570641435341183,-0.12342353071435319,-0.0066962599576194356,-0.00043368878275558756,0.000500246240673656
425207000000,70,425207000000,BL_wheel_link,-0.046792907431729924,3.852539348859974,11.102672650657386,0.09379393975955778,0.004456251705716889,-0.0012761724399255963
425208000000,71,425208000000,BL_wheel_link,0.02660157783857864,1.7399831218348858,1.7743675323803771,0.13577724280388298,-0.0029436359020615505,0.0006470454051990971
425209000000,72,425209000000,BL_wheel_link,0.007345114785720197,-0.6939744263960689,5.7736276710335845,-0.23859750895848802,-0.0006920390164102119,4.163647926589027e-05
425210000000,73,425210000000,BL_wheel_link,0.008412211832091631,-0.035485073709562,-0.12203929959048351,-0.0066459346627871,-0.00042894398305589297,0.0004901329646061284
425211000000,74,425211000000,BL_wheel_link,-0.0484499924300279,3.8648418246321077,11.121165296216278,0.09464093980538738,0.004647220979224334,-0.001323193483723349
425212000000,75,425212000000,BL_wheel_link,0.024893570137197285,1.7364724909369884,1.7676562359693264,0.13565513799377427,-0.0027592634149766204,0.0005999044351226567
425213000000,76,425213000000,BL_wheel_link,0.005763730153361291,-0.6916467152503939,5.769838416139095,-0.2382352003046242,-0.0005144236721845025,-4.784219671739864e-06
425214000000,77,425214000000,BL_wheel_link,0.00810196297965794,-0.03546756857689369,-0.12181237260748659,-0.006647259308361581,-0.00042318886811765384,0.0004816953477518824
425215000000,78,425215000000,BL_wheel_link,-0.04974468769481,3.8647253690566097,11.119297579400442,0.09468760865202377,0.004802873070265251,-0.0013604375710562218
425216000000,79,425216000000,BL_wheel_link,0.02445714913170427,1.7336593729600132,1.763240872285146,0.13550167647090272,-0.002692573054011063,0.0005879898169018618
425217000000,80,425217000000,BL_wheel_link,0.005279678398391829,-0.6935268609644161,5.767545957127242,-0.2383839266628664,-0.00046967429600093535,-2.14992211793677e-05
425218000000,81,425218000000,BL_wheel_link,0.007982441299812515,-0.0354636080523892,-0.12196768832655791,-0.006648250977999412,-0.00042165098286913805,0.0004794089381116842
425219000000,82,425219000000,BL_wheel_link,-0.05020581839599769,3.8630997464615486,11.114212260409367,0.09465702171558604,0.0048563281460653265,-0.0013746977095554277
425220000000,83,425220000000,BL_wheel_link,0.024600985043865875,1.7332543125189797,1.7619854850740424,0.13550077569787727,-0.0026919509949653447,0.0005920340320280677
425221000000,84,425221000000,BL_wheel_link,0.005413604796478455,-0.6946572953399717,5.766346690330407,-0.2384792465383961,-0.0004925512459127701,-2.020577448055144e-05
425222000000,85,425222000000,BL_wheel_link,0.007952013745388412,-0.035475541923934484,-0.12208611215164777,-0.006646819507016014,-0.0004219594794014473,0.0004801382500341053
425223000000,86,425223000000,BL_wheel_link,-0.05035425857176379,3.862282206797888,11.110293471734487,0.09467730275582986,0.004870430736085014,-0.001380266326509031
425224000000,87,425224000000,BL_wheel_link,0.02485851156132257,1.733410808038581,1.761452354910232,0.13553708420341848,-0.0027069316923010733,0.000599133376211299
425225000000,88,425225000000,BL_wheel_link,0.005760504641259545,-0.695153613288594,5.7653058462423274,-0.23850752067303177,-0.0005364891522349063,-1.2215595789673989e-05
425226000000,89,425226000000,BL_wheel_link,0.007956111226090728,-0.03550019699679079,-0.12214896959713423,-0.006645022015819406,-0.00042283290062594637,0.0004818762895790025
425227000000,90,425227000000,BL_wheel_link,-0.05042326603193503,3.8619257764041977,11.107087327783677,0.09472501505903164,0.004874260283739988,-0.0013835373086257914
425228000000,91,425228000000,BL_wheel_link,0.025127800220364094,1.7335856862013386,1.7609633597886214,0.13557399361877243,-0.002724316801758983,0.0006065335477693362
425229000000,92,425229000000,BL_wheel_link,0.006170155556857848,-0.6954650511868463,5.764217918852429,-0.23851338937183464,-0.0005862635306952274,-2.0993506368114506e-06
425230000000,93,425230000000,BL_wheel_link,0.007974255855767722,-0.03552946830381729,-0.12219241488459594,-0.0066433324430358355,-0.0004238608878778874,0.0004838513459128354
425231000000,94,425231000000,BL_wheel_link,-0.0504790821052421,3.861697059933465,11.104018912365282,0.0947815848652695,0.004876133395774751,-0.0013863307785525157
425232000000,95,425232000000,BL_wheel_link,0.02539795225934549,1.7337548579367184,1.7604720015859339,0.13561029812008768,-0.002741973031247791,0.0006139735043243621
425233000000,96,425233000000,BL_wheel_link,0.006592535190049431,-0.6957421399451739,5.763099219915917,-0.2385143355516321,-0.0006372282863702367,8.54434124556401e-06
425234000000,97,425234000000,BL_wheel_link,0.007998517311329466,-0.035558593895995534,-0.12223224723029309,-0.0066416855156601565,-0.0004249171762021964,0.000485810921421112
425235000000,98,425235000000,BL_wheel_link,-0.05053915943433962,3.861495466544713,11.100924659706923,0.09484149782586668,0.004878259659688529,-0.0013891255486230209
425236000000,99,425236000000,BL_wheel_link,0.025663234701108317,1.7339414509066446,1.7599982683495026,0.13564789366707264,-0.00275906239684634,0.0006213043659077013
425237000000,100,425237000000,BL_wheel_link,0.007010115247086723,-0.6960080246208662,5.761977471770422,-0.23851387247186706,-0.0006877795263442038,1.9150865608309753e-05
425237000000,101,425238000000,BL_wheel_link,0.008025346377934695,-0.03558594661451016,-0.12227195356758763,-0.006640027808430675,-0.0004259587013677301,0.00048767769181551205
425239000000,102,425239000000,BL_wheel_link,-0.05060803064295283,3.861302697303783,11.097801729424749,0.09490325047316156,0.004881284749410901,-0.0013920442425659168
425240000000,103,425240000000,BL_wheel_link,0.025919808558583557,1.7341454312242666,1.7595479439407486,0.13568660606473296,-0.002775282232501161,0.000628414041953039
425241000000,104,425241000000,BL_wheel_link,0.0074140866070190325,-0.6962692542395412,5.760852995540562,-0.23851276186681392,-0.0007369920295088594,2.9450618753510543e-05
425242000000,105,425242000000,BL_wheel_link,0.008052928606511045,-0.03561127302679997,-0.12231212234094589,-0.0066383603075109345,-0.00042696111076821535,0.000489432533527731
425243000000,106,425243000000,BL_wheel_link,-0.0198328263794344,-0.9760425578904304,5.337623067011201,-0.37843385754144865,0.0018781815915610844,-0.0008119613192030077
425246000000,107,425244000000,BL_wheel_link,0.013074223584675276,0.293825829285717,-0.9243004279840071,-0.07021598350441202,-0.0007346086523436976,0.0005837462805469381
425246000000,109,425246000000,BL_wheel_link,-0.0034543812854220257,0.8543041274738952,-1.5656122154093535,-0.049890918964823144,-0.0001132374515949719,-0.00024567301319451153
425247000000,110,425247000000,BL_wheel_link,0.0002380704925408761,0.7746151783873221,-1.4200601729433653,-0.03202565027720358,0.00015613237824952525,8.003833997096343e-05
425248000000,111,425248000000,BL_wheel_link,-0.004836233672372514,0.46235291276132073,-0.8413117749344647,0.00036475108251783124,0.00012490324721953114,-9.173304539894742e-05
425249000000,112,425249000000,BL_wheel_link,-0.004514586996253289,0.23457111523951496,-0.44563085824381493,-0.00415697436379181,0.00010359424894447727,-7.673505112817863e-05
425250000000,113,425250000000,BL_wheel_link,-0.004342960872217777,0.16818789219400904,-0.3323808626003764,-0.005642770091078274,1.4112252684698404e-05,-8.677283900088639e-05
425251000000,114,425251000000,BL_wheel_link,-0.0042048672206513454,0.128092638498373,-0.2627448377469434,-0.006467109321234902,7.412990061885817e-06,-8.289510758087957e-05
425252000000,115,425252000000,BL_wheel_link,-0.0014634540449223743,0.11465772281289636,-0.24259371734153473,-0.006739429019389433,-5.504645605371172e-06,-1.2819045476963192e-05
425253000000,116,425253000000,BL_wheel_link,-0.0009343716867854512,0.1104168835159546,-0.23535436276176785,-0.006835885225660166,-5.933641480615655e-06,-1.2281125255443658e-05
425254000000,117,425254000000,BL_wheel_link,-0.0005797880039808689,0.11008503484232153,-0.23498156305431145,-0.0068507311251917846,-4.978549654124833e-06,-1.0826743971388314e-05
425256000000,118,425255000000,BL_wheel_link,-0.0005052869652491659,0.11075548330600757,-0.23621936436468707,-0.006841961109735865,-4.273960280241993e-06,-1.3605289295053166e-05
425256000000,119,425256000000,BL_wheel_link,-0.0003644867202461377,0.11156340268647041,-0.23791225270532063,-0.006825789244682698,-3.586367492836376e-06,-1.1472276351279643e-05
425256000000,120,425257000000,BL_wheel_link,-0.00023128777040393178,0.11224418428767693,-0.23943341639672194,-0.00680982521938261,-3.3526455283303114e-06,-8.739260441436604e-06
425257000000,121,425258000000,BL_wheel_link,-0.00011493181953160791,0.11276194015340515,-0.24068376878041786,-0.0067956265974865905,-3.0975135144337487e-06,-5.936509395195193e-06
425259000000,122,425259000000,BL_wheel_link,-1.9659775359337495e-05,0.11311195214774168,-0.2416397441011386,-0.006783774436757435,-2.967341851368814e-06,-3.5550632946098715e-06
425260000000,123,425260000000,BL_wheel_link,5.5595307140124395e-05,0.11330582427141594,-0.24232358048853148,-0.006774227079581932,-2.893110494333207e-06,-1.5017989279662077e-06
425261000000,124,425261000000,BL_wheel_link,0.00010840270338392799,0.11336649700055185,-0.2427698719395865,-0.00676676069102717,-2.890399887787564e-06,6.205143702510407e-08
425261000000,125,425262000000,BL_wheel_link,-0.13393420977776493,13.552543921987773,31.497521119768244,0.5504281371080726,0.014122433197794493,-0.0036133924471842237
425262000000,126,425263000000,BL_wheel_link,0.04460767323941717,4.559536945486101,4.791775304429569,0.35257417550322445,-0.010741388509526911,-0.0003086203680250192
425264000000,127,425264000000,BL_wheel_link,2.321436477145067,6.558414569111763,5.747918680950009,0.5449872535018518,-0.22291367787384028,0.06401290034721882
425265000000,128,425265000000,BL_wheel_link,-0.9106644282913767,3.8337889417070246,5.779809969420099,0.2553135147746084,0.09302581546728696,-0.02568654046178031
425266000000,129,425266000000,BL_wheel_link,-0.03387795500930124,0.028749145808653634,-0.1203594210943718,0.010663642826832704,0.0040623398445168,-0.0022838214195617552
425269000000,130,425267000000,BL_wheel_link,2.0782384983146707,3.1226480632596716,8.728410994551428,0.08404343945505367,-0.2224663731527659,0.05463675024051827
425269000000,131,425268000000,BL_wheel_link,0.07124591050662918,0.060710665058581095,0.07225257190827054,0.005146094384503472,-0.007843399750928914,0.00205824434217098
425269000000,132,425269000000,BL_wheel_link,-0.6308138662492276,1.8312599323351306,3.0863269134054647,0.11083943870528308,0.06843719544084503,-0.016211238330187245
425270000000,133,425270000000,BL_wheel_link,0.2232920983313943,2.1441847358472703,5.978374853563638,0.06599560080472154,-0.018657729738715066,0.005381872049944736
425271000000,134,425271000000,BL_wheel_link,0.036574004574230476,-0.07568431729381513,-0.09753516691056836,-0.008472817045426257,-0.008573101579769744,0.0011205072995019156
425272000000,135,425272000000,BL_wheel_link,-0.9194445272608209,5.817860753682491,16.285847558497217,0.15301483924446113,0.09211772172651495,-0.025428538620276043
425273000000,136,425273000000,BL_wheel_link,0.8908419536673725,0.009852187035255366,1.90796639763796,-0.04470941071385287,-0.09308111595102384,0.025170234106239867
425274000000,137,425274000000,BL_wheel_link,-0.11331631947736373,0.1240792274327134,-0.46096924956880736,0.013086269778693716,0.006025026130539429,-0.0024260364768035293
425275000000,138,425275000000,BL_wheel_link,0.5404986319517975,0.9162654205548242,11.789341013622607,-0.21537024579651104,-0.04007624780095055,0.014571126012556668
425276000000,139,425276000000,BL_wheel_link,0.8413690696637569,0.7566127986068014,4.595763993498966,-0.0542293282936389,-0.09368784953960389,0.02346748942040451
425277000000,140,425277000000,BL_wheel_link,-0.08007995962864876,0.06274747574973752,-0.3763645148036684,0.010686319953346898,0.004760145703638576,-0.0031081481723001583
425278000000,141,425278000000,BL_wheel_link,1.790533945565578,1.7241006281672941,17.535449508492704,-0.2990245664156001,-0.1884026862708074,0.047950064942114484
425279000000,142,425279000000,BL_wheel_link,-0.009168926959871935,-0.004606831254566072,-0.253565593010468,0.005940467138641813,0.003040013159379933,-0.0006780658977701034
425280000000,143,425280000000,BL_wheel_link,0.10224466714854334,-0.2305631564110957,0.03871170256957623,-0.01551598362207043,-0.007694736521165803,0.001917526341902889
425281000000,144,425281000000,BL_wheel_link,-0.42012445481341576,4.610332488258318,12.452640492103647,0.1413216357209289,0.04435904837900149,-0.009249131453532369
425282000000,145,425282000000,BL_wheel_link,-0.4992752306703878,0.6261657437653283,3.4733821995291945,-0.0247073129324235,0.053338705200834724,-0.01420946401325222
425283000000,146,425283000000,BL_wheel_link,-0.008231638715301727,-0.08831606932542772,-0.14988739425315978,-0.012412100007021008,-0.006303442739661094,0.00034917932420888676
425284000000,147,425284000000,BL_wheel_link,-1.4799758249408326,4.932950878094328,13.308469895738941,0.14144251856583795,0.15427747490343496,-0.04134518658501815
425285000000,148,425285000000,BL_wheel_link,0.7134162561022336,-0.8493100176578057,1.6563006326045746,-0.1329172133248161,-0.0750399589060159,0.018303627708973508
425285000000,149,425286000000,BL_wheel_link,-0.02306422554386576,-0.21556944455743374,-0.9422517343288321,0.0028459913284181403,0.004235526798320613,0.002071744656208554
425287000000,150,425287000000,BL_wheel_link,0.018550114600799427,0.002728113050124485,-0.18278646799967052,0.004571664859053089,0.001911373798168217,7.521693155414938e-05
425288000000,151,425288000000,BL_wheel_link,0.21167418389720355,-0.414519314975267,-1.1806710246344765,-0.012384835029724442,-0.007652108447843352,0.0055627187661107975
425289000000,152,425289000000,BL_wheel_link,-0.04233995024069118,0.022001212373170494,-0.032968900596820054,0.00019169433728854669,0.0005877896394855329,0.00034136280288934843
425290000000,153,425290000000,BL_wheel_link,-0.14705157825740403,-0.07327600564766142,-1.2764942338429695,0.008437100499481851,0.007305262304168741,-0.005979802227371777
425290000000,154,425291000000,BL_wheel_link,0.003474259586595133,-0.010200775043523133,0.01159860662740583,-0.00039559351460631385,-0.00019963170956070997,-1.9650801936816672e-05
425292000000,155,425292000000,BL_wheel_link,0.1280745823096639,-0.3697758216433809,-1.3446586702374346,-0.00737021583614926,-0.00609931891336317,0.0029483884419864745
425293000000,156,425293000000,BL_wheel_link,-0.27471863936901814,-0.28830615031575335,1.2651654168521116,-0.03283210773840505,0.02471740006444276,-0.003646685591453598
425294000000,157,425294000000,BL_wheel_link,1.9248573872088244,6.206900484445263,15.322561351678143,0.17838986667997278,-0.17263177241601113,0.047062381180396934
425295000000,158,425295000000,BL_wheel_link,-0.2373756189649834,0.09226367047315409,0.6017542395609625,-0.031052651066414277,-0.0032703671565154514,-0.009422913413498688
425296000000,159,425296000000,BL_wheel_link,2.3175664783298817,5.367686768479187,11.208418086442633,0.21975973089973694,-0.2256953104482154,0.05977757337999554
425297000000,160,425297000000,BL_wheel_link,-0.04276231749472815,-0.09473388815916728,0.6542342440901492,-0.022521761789465165,-0.0041765827821504415,0.0014921836809464683
425298000000,161,425298000000,BL_wheel_link,3.131911522919194,5.690188271360134,11.56319959934864,0.24092401919703518,-0.31614140866048845,0.08200010215992673
425299000000,162,425299000000,BL_wheel_link,-0.1719464956990489,0.07453086713749124,0.8882563250886906,-0.015200939129283096,-0.0007882511613011792,-0.0026258254788273216
425300000000,163,425300000000,BL_wheel_link,3.068608857553681,7.5321863325951615,13.446615920295672,0.3897470303961388,-0.29722972445961165,0.08032715945554364
425301000000,164,425301000000,BL_wheel_link,-0.11417947618678503,0.06130024249705025,0.9329153650118615,-0.012979308976535056,-0.0038259878762585625,-0.001365306853533142
425302000000,165,425302000000,BL_wheel_link,3.5515268783804887,7.947745858914516,13.917328375413547,0.41952638842990897,-0.34956123188978117,0.09346130883820059
425303000000,166,425303000000,BL_wheel_link,-0.12275968067420472,0.06265940181033705,1.208858069208311,-0.010514555947873662,-0.0019748322141278606,-0.0015706231134790692
425304000000,167,425304000000,BL_wheel_link,1.8034338184971892,9.385360916767617,14.828467656977114,0.5482344589234037,-0.1786115047585773,0.04633660941041996
425305000000,168,425305000000,BL_wheel_link,0.13361412157338595,-0.0161411217809157,0.4471035842896074,-8.265537503620202e-06,-0.0010363089616028769,0.0036984578157748483
425306000000,169,425306000000,BL_wheel_link,3.5493280985305766,7.210746745243091,11.468532260281071,0.4207635191080645,-0.35416174640680825,0.09421440193369708
425307000000,170,425307000000,BL_wheel_link,-0.08703336111108609,0.1241607864271824,0.871335307722217,-0.009043356743535205,-0.008491393774154126,-0.0031861915947390233
425308000000,171,425308000000,BL_wheel_link,2.869832996322776,8.78663817215429,14.586510343232142,0.4912011372276851,-0.2923844078181607,0.0755046597925789
425309000000,172,425309000000,BL_wheel_link,-0.12270599095420676,0.14269707343306431,0.9615508774338665,-0.0053244577351269935,-0.0031553511884438636,-0.0026442814944919353
425310000000,173,425310000000,BL_wheel_link,2.3451221456562865,6.827979325487586,13.622494044839566,0.3506590086584691,-0.22262535914103754,0.0647916050372349
425311000000,174,425311000000,BL_wheel_link,0.0693480237131943,0.008548798007705749,0.6555155696493138,-0.002793403889648715,-0.000790397816715524,0.001960787051211967
425312000000,175,425312000000,BL_wheel_link,4.157531166182209,5.040705540755108,13.136785984076607,0.1682510882813353,-0.41599779206180826,0.11266708035636011
425313000000,176,425313000000,BL_wheel_link,0.039153589312539955,0.1011694595010473,0.29028446149466064,-0.0068277041276280535,-0.007760752057727595,-0.0027595910708959497
425314000000,177,425314000000,BL_wheel_link,3.031125653240428,5.884732436881762,9.41548691148779,0.3410020707244266,-0.30463859518542125,0.08050981369847846
425315000000,178,425315000000,BL_wheel_link,-0.015157769866685294,0.00945742943666996,0.6789948196734757,-0.015951005583337716,-0.010092898740623066,-0.001562594270992351
425316000000,179,425316000000,BL_wheel_link,1.9356776818972712,8.873583548239024,13.156387616182183,0.5393705439293612,-0.20187461321396655,0.05093468708854096
425317000000,180,425317000000,BL_wheel_link,-0.08603254964826293,0.10045554575582252,0.8029851338654013,-0.005430633684968284,-0.0012694280691124826,-0.002792073129808965
425318000000,181,425318000000,BL_wheel_link,2.097823397974949,8.654829779263155,13.796918768282477,0.5075794801024921,-0.21093295412722865,0.05450890368485633
425319000000,182,425319000000,BL_wheel_link,-0.11687715452793035,0.09560520665807674,0.8532365419176617,-0.005810433855020406,0.0014696506649982633,-0.0019454437793052434
425320000000,183,425320000000,BL_wheel_link,1.657592704780333,8.71054597038001,13.260683182833773,0.5300911322501356,-0.1609946550983785,0.043127919503600676
425321000000,184,425321000000,BL_wheel_link,-0.11142584946484152,0.08143288955761821,0.8103591053471492,-0.005734274853990121,0.0027275960700177235,-0.001919838539159871
425322000000,185,425322000000,BL_wheel_link,1.541913664990854,8.516699353207942,12.99277218191955,0.5177836814719406,-0.14926656467455585,0.040094326518119
425323000000,186,425323000000,BL_wheel_link,-0.11753160370674157,0.07969303285820917,0.7923549982882149,-0.0059822677811073146,0.0034108529896859597,-0.0020631953885841474
425324000000,187,425324000000,BL_wheel_link,1.3885498647257108,8.437591627496175,12.738052724846609,0.5172612622840694,-0.13320167855788548,0.03608348017533726
425325000000,188,425325000000,BL_wheel_link,-0.11278471673659235,0.06941016297174148,0.7647135980107213,-0.006328663239445926,0.0036021058907007085,-0.00198747233352223
425325000000,189,425326000000,BL_wheel_link,1.2639506761577013,8.310392439547135,12.39728098689211,0.5137394930756258,-0.12079881294110809,0.03287853449591389
425327000000,190,425327000000,BL_wheel_link,-0.10653422279309954,0.05941897596197142,0.7355283093440992,-0.006600189966906891,0.003585705914339978,-0.0018915927710905413
425328000000,191,425328000000,BL_wheel_link,1.096405477017909,8.050612189817565,11.7702536688262,0.5046552503033851,-0.1037730938941899,0.028565982086241837
425329000000,192,425329000000,BL_wheel_link,-0.09479023664719576,0.04344037972537339,0.6908087352033396,-0.0073039521558900455,0.0033446020380198402,-0.00174708002014192
425330000000,193,425330000000,BL_wheel_link,0.9443757165287043,7.875257424714773,11.265887608728058,0.5004964899994546,-0.08882036171831525,0.024662273324796334
425331000000,194,425331000000,BL_wheel_link,-0.08172025184593121,0.02827434478638746,0.649158315440481,-0.007829421039203676,0.002938597029339935,-0.0015700726146623079
425332000000,195,425332000000,BL_wheel_link,0.803375107856855,7.651909246900183,10.726233667062843,0.49231661382465397,-0.07529731450962981,0.021031707371897204
425333000000,196,425333000000,BL_wheel_link,-0.0682023561973802,0.012731812672321223,0.6053509083484678,-0.00837579223733776,0.0024841395893595033,-0.0013501254468936464
425334000000,197,425334000000,BL_wheel_link,0.6915740766602427,7.4025394122764965,10.261143968792403,0.4785823517466666,-0.06539145629027807,0.018132305184412875
425335000000,198,425335000000,BL_wheel_link,-0.05554039405688717,-0.0033496861629123305,0.5707135481145003,-0.00879643927867368,0.0022295733701501058,-0.0010997221788252014
425336000000,199,425336000000,BL_wheel_link,1.169075308772047,9.431456643609152,10.758158084037737,0.6809059652968563,-0.10904174004910044,0.03312161218628981
425337000000,200,425337000000,BL_wheel_link,-0.05811468987750046,0.02746923276853104,0.5146023046034187,-0.009998003851887035,-9.56072040270645e-05,-0.0022029234415682744
425338000000,201,425338000000,BL_wheel_link,0.5758218336689391,6.539648257840774,8.98306240799047,0.4015757559946312,-0.05693077503699631,0.01597044091511534
425339000000,202,425339000000,BL_wheel_link,-0.040240535812581205,-0.0403880519502107,0.5070391962780436,-0.013489268318281473,0.001382044261514179,-0.0010590081970552727
425340000000,203,425340000000,BL_wheel_link,0.6865113528007427,8.300232770281653,11.858113419093296,0.4947042009067618,-0.07301982495515089,0.01873496737890011
425341000000,204,425341000000,BL_wheel_link,-0.1262972365325505,0.07650564097816319,0.6917906525975068,-0.006085487279343482,0.005952055388194618,-0.003030070199419752
425342000000,205,425342000000,BL_wheel_link,0.7196937369235497,7.856544141287628,11.095958885886633,0.47985794904278023,-0.06422862158823053,0.019485804513906378
425343000000,206,425343000000,BL_wheel_link,-0.11568256342171536,0.04278616903161876,0.6860331278284026,-0.009331581174544712,0.004897048849527364,-0.0025550039850833787
425344000000,207,425344000000,BL_wheel_link,0.6364849888927697,8.147805469471917,11.193928900067341,0.5050977502592591,-0.05627876425768663,0.017356758316424033
425345000000,208,425345000000,BL_wheel_link,-0.09057639950460152,0.03715818906289649,0.6394231314745651,-0.0073914709073131715,0.0038085661658169762,-0.0019962998054758175
425346000000,209,425346000000,BL_wheel_link,0.5501433611161386,7.371773861939162,9.917228611840102,0.4640134604012136,-0.04906745751317437,0.015133424545311885
425347000000,210,425347000000,BL_wheel_link,-0.06784359157496078,0.006939789539230591,0.5702474952869855,-0.00938420110596361,0.002896750446050535,-0.0014628659450936058
425348000000,211,425348000000,BL_wheel_link,0.46569945209997865,7.63844866671635,9.978631222301235,0.4887337297020604,-0.04191564769547748,0.01292306656178309
425349000000,212,425349000000,BL_wheel_link,-0.04963779112917848,-0.005816985199525171,0.5489658448349701,-0.009129840271432273,0.002086338128839896,-0.0010790182444709862
425350000000,213,425350000000,BL_wheel_link,0.3814382282089652,7.10295287748236,9.117314058562446,0.45899446711802694,-0.034562073729709736,0.01067375803302037
425351000000,214,425351000000,BL_wheel_link,-0.03345604436546277,-0.02313107263321438,0.48996231607075946,-0.009847604892672144,0.0013891912797838963,-0.0007208821229859217
425352000000,215,425352000000,BL_wheel_link,0.29630533483098365,7.153638693803293,8.929223466492282,0.469757042158378,-0.026944678622848106,0.008381214110394032
425353000000,216,425353000000,BL_wheel_link,-0.018650446982302768,-0.03895396988332492,0.4681378711006978,-0.010346677547994468,0.0007670902067155394,-0.0004040456805516901
425354000000,217,425354000000,BL_wheel_link,0.2124853363053809,6.8557098333016135,8.38801721821294,0.4547229936829719,-0.019359620741519173,0.0061042871702392115
425355000000,218,425355000000,BL_wheel_link,-0.004903865444604638,-0.051665206046725184,0.4228001715156906,-0.01057850888789574,0.000194825632668226,-9.628170360067006e-05
425356000000,219,425356000000,BL_wheel_link,0.1305349052929512,6.744084113755656,8.035272348966915,0.45382672295620524,-0.011900010343385725,0.0038664995538227054
425357000000,220,425357000000,BL_wheel_link,0.007932169025373428,-0.06716135925977942,0.39564159992369685,-0.011234170004240006,-0.0003420644995977178,0.00018511708608385613
425358000000,221,425358000000,BL_wheel_link,0.050164700654153016,6.581668294266863,7.665065186008631,0.44775489143189745,-0.004536638813387089,0.0016626325610612572
425359000000,222,425359000000,BL_wheel_link,0.020169292924790236,-0.07885450040958564,0.3611244345018111,-0.01141781738595634,-0.0008467898453576239,0.0004639793680238497
425360000000,223,425360000000,BL_wheel_link,-0.027719789357233182,6.405979930458205,7.2654991474340385,0.44156440150494136,0.002607779768559887,-0.00048163453643474546
425361000000,224,425361000000,BL_wheel_link,0.03175039934769925,-0.09276423315159077,0.3309699750954106,-0.011973667331047894,-0.0013297952683707622,0.0007291750645998988
425362000000,225,425362000000,BL_wheel_link,-0.10399884515676439,6.2874629965939075,6.952389939280264,0.43847125466247283,0.009639633634037914,-0.0025873938088647012
425363000000,226,425363000000,BL_wheel_link,0.04278946545054378,-0.1042460281271311,0.30193098669187685,-0.012235160805032327,-0.0017925724741573775,0.0009874236900099579
425364000000,227,425364000000,BL_wheel_link,-0.1777702055438488,6.111161392750578,6.5733328174738395,0.4315234179344244,0.016439663844353247,-0.00463067292042877
425365000000,228,425365000000,BL_wheel_link,0.053312332922285745,-0.116452987676819,0.2718273373218839,-0.0126538743267275,-0.0022352337191780753,0.0012389694155282255
425366000000,229,425366000000,BL_wheel_link,-0.250011161932679,5.9949087297004215,6.270211631038713,0.42847703257505354,0.023129166816459906,-0.006636464758470777
425366000000,230,425367000000,BL_wheel_link,0.0635216190064853,-0.12780607348945702,0.2452617316463686,-0.01296956071041244,-0.002661298075297849,0.0014882281723094045
425368000000,231,425368000000,BL_wheel_link,-0.3197523727646292,5.840184177429084,5.931140385326721,0.4225325269232535,0.029577001337019626,-0.008578393097264731
425368000000,232,425369000000,BL_wheel_link,0.07340417869458017,-0.1390751741600536,0.2173637749737713,-0.013303640556699147,-0.0030719717557774638,0.0017351243341302736
425370000000,233,425370000000,BL_wheel_link,-0.3875998827655973,5.71804176829086,5.632642519084227,0.41877319912357763,0.03585735358586267,-0.01047231494326551
425371000000,234,425371000000,BL_wheel_link,0.08294170982139207,-0.15008034866266787,0.192169376031497,-0.013632410054197065,-0.0034705157581629946,0.0019772218791056237
425372000000,235,425372000000,BL_wheel_link,-0.4533939601253465,5.582503014017016,5.3273025912521,0.41380494303113885,0.04194747629852358,-0.012313715525864414
425373000000,236,425373000000,BL_wheel_link,0.0922380702476013,-0.16072047430252287,0.16654158452493245,-0.013928607092399629,-0.0038555419791816157,0.0022191433358926833
425374000000,237,425374000000,BL_wheel_link,-0.5171604198582727,5.458041331423111,5.038019785501486,0.40953471055968166,0.047846842694955066,-0.014102988714443647
425375000000,238,425375000000,BL_wheel_link,0.10121699575392183,-0.17125543369836696,0.14248268334258513,-0.014243258114518991,-0.004229746200426126,0.002456672892597481
425376000000,239,425376000000,BL_wheel_link,-0.5790452970960493,5.33492901559366,4.757305059666296,0.40512624254742696,0.0535728908872444,-0.01584387005394927
425377000000,240,425377000000,BL_wheel_link,0.10996086833651278,-0.1814046457313723,0.11881757970399803,-0.014522586964158498,-0.0045916159300341125,0.002693118170200002
425378000000,241,425378000000,BL_wheel_link,-0.6389974098936242,5.213455263537886,4.482656152925869,0.4007250679696139,0.05911591013174172,-0.017534899094723076
425379000000,242,425379000000,BL_wheel_link,0.11841416019422572,-0.19152937119424365,0.09603002948669656,-0.01481281125319408,-0.004942100230393813,0.0029306877235715915
425380000000,243,425380000000,BL_wheel_link,-0.6974351147079878,5.097546546347668,4.220027020472559,0.3965310297324064,0.06451956898954717,-0.01918821277887687
425381000000,244,425381000000,BL_wheel_link,0.12659611448033378,-0.20133677717279963,0.07396052823219829,-0.01508217453453066,-0.005280730087880566,0.003164594063794753
425382000000,245,425382000000,BL_wheel_link,-0.7531494568069128,4.988277272840961,3.9631158011508805,0.39289897245175054,0.06968158315322903,-0.020764296749079852
425383000000,246,425383000000,BL_wheel_link,0.13449418536931046,-0.21088587831321404,0.052149002926802905,-0.015358040416909875,-0.005615076141497846,0.003389988438073047
425384000000,247,425384000000,BL_wheel_link,-0.8152094018955065,4.8821432110839424,3.711748127183305,0.3894498495499654,0.07553838769288576,-0.022525921297806818
425385000000,248,425385000000,BL_wheel_link,0.1422022225137781,-0.2203302096522312,0.03100362539797258,-0.015641070712674437,-0.0059538677053247386,0.003616046755772765
425386000000,249,425386000000,BL_wheel_link,-0.8765242294405879,4.7739729844875125,3.465368371596621,0.3856147000001886,0.08130876820427518,-0.02427216935749143
425386000000,250,425387000000,BL_wheel_link,0.14993641523674042,-0.22970717017174802,0.010104368355318655,-0.015917219393576883,-0.006285263292668731,0.0038501646819610225
425386000000,251,425388000000,BL_wheel_link,-0.9284909904541467,4.662367806360303,3.227308839757992,0.38111471882406756,0.086062558742793,-0.0257602791550778
425389000000,252,425389000000,BL_wheel_link,0.1572130697422821,-0.2386006348305475,-0.009866654822645714,-0.016180386095654378,-0.0065921354783314845,0.004064857125296272
425390000000,253,425390000000,BL_wheel_link,-0.979654283940971,4.559760446871831,3.001198798183295,0.3772176436348371,0.09078888741265626,-0.027228199347742024
425391000000,254,425391000000,BL_wheel_link,0.16410494364602424,-0.247111311826401,-0.02875364312893806,-0.01641866219946859,-0.006880295927916536,0.004272117640763549
425392000000,255,425392000000,BL_wheel_link,-1.0291211943321763,4.459132708416892,2.7815248728263056,0.3733456131459731,0.09537336178539074,-0.028650934002605908
425393000000,256,425393000000,BL_wheel_link,0.168046052910511,-0.2525273015697248,-0.04357154621325471,-0.01657189827329563,-0.007036585022431465,0.0043723732901711455
425394000000,257,425394000000,BL_wheel_link,-1.059953572001161,4.3856383938006545,2.6418964482256264,0.3699596929709199,0.09817010531725442,-0.029563639119082233
425395000000,258,425395000000,BL_wheel_link,0.16979329144004798,-0.25618506167733485,-0.05207497815030634,-0.01674772434775769,-0.007102161408932628,0.0044355940226994675
425396000000,259,425396000000,BL_wheel_link,-1.0801967964068584,4.350527858886911,2.5740954193008143,0.3684384838483344,0.10003080319731075,-0.030182528616412616
425397000000,260,425397000000,BL_wheel_link,0.1709060618968389,-0.2589218618945354,-0.057149979392493395,-0.016859267879785568,-0.0071413225246600084,0.004510540371405515
425398000000,261,425398000000,BL_wheel_link,-1.1101487686340594,4.312426148854986,2.4976658833417,0.3669303994066958,0.10298505980923148,-0.031078895669102907
425399000000,262,425399000000,BL_wheel_link,0.17218809598072238,-0.26176765204189323,-0.062497698376892355,-0.016954329307536133,-0.007180769257256757,0.004594970391453513
425400000000,263,425400000000,BL_wheel_link,-1.1376039589246323,4.279249876357803,2.42624433726328,0.36579073934852097,0.1056672641632081,-0.03190211747857419
425401000000,264,425401000000,BL_wheel_link,0.1734460846501012,-0.2645281646795996,-0.06765493163259234,-0.0170406895892983,-0.007219060454054977,0.004679705976288915
425402000000,265,425402000000,BL_wheel_link,-1.1614431112349113,4.249957541383079,2.3570203135156214,0.3650094688320856,0.10799183062211308,-0.03262188808476001
425403000000,266,425403000000,BL_wheel_link,0.17469261796409286,-0.26723568928299296,-0.07294846649531642,-0.01712577049118613,-0.007258710489916836,0.004763581049127984
425404000000,267,425404000000,BL_wheel_link,-1.1815933617458876,4.2174419128084075,2.289144330116396,0.3638193544108351,0.10990162907350134,-0.03323895877072437
425405000000,268,425405000000,BL_wheel_link,0.17582017857125132,-0.2698646686056608,-0.07796802548451637,-0.01720190427019216,-0.0072814093281252604,0.004844642821408503
425406000000,269,425406000000,BL_wheel_link,-1.200899181424948,4.186260821228763,2.2258332081974697,0.36262634055712817,0.11172910070454929,-0.03383364899721444
425407000000,270,425407000000,BL_wheel_link,0.1768594970944892,-0.27239256438389226,-0.0826771390086119,-0.017264356295024694,-0.007291655538119126,0.004924935590766745
425408000000,271,425408000000,BL_wheel_link,-1.2217319087822693,4.157096789603223,2.161127254000699,0.36172168506216734,0.11376358141319642,-0.03447238183774523
425409000000,272,425409000000,BL_wheel_link,0.17785662768584073,-0.2748325551767179,-0.08739820684070809,-0.017328730651232072,-0.0073055581417030705,0.00500246593429463
425410000000,273,425410000000,BL_wheel_link,-1.2421880209160336,4.128669978268922,2.0975366280603045,0.36086335909102285,0.11575926448267304,-0.03510116180173242
425411000000,274,425411000000,BL_wheel_link,0.17884073994191835,-0.27722853654973456,-0.09208851815682348,-0.017393202885824105,-0.0073213319699377746,0.005079315432091517
425412000000,275,425412000000,BL_wheel_link,-1.2610378053336484,4.098493790640308,2.0366332423768982,0.35971276642889394,0.11755702106687588,-0.035685572160548476
425413000000,276,425413000000,BL_wheel_link,0.17980211784105327,-0.2796112145516811,-0.09653182096564511,-0.01744800140990179,-0.007328155293118974,0.005157518943132296
425414000000,277,425414000000,BL_wheel_link,-1.2802850405385846,4.071246978108955,1.9774415020414697,0.3588373652466711,0.11942583678587552,-0.03628163722100988
425415000000,278,425415000000,BL_wheel_link,0.1807214691154605,-0.2819023264975614,-0.10083147941413914,-0.017501770813904145,-0.007337021487121694,0.005234497258730499
425416000000,279,425416000000,BL_wheel_link,-1.2993268146229122,4.044477719121556,1.9184803848957115,0.35800978622705276,0.12128126394326226,-0.03687208316031929
425417000000,280,425417000000,BL_wheel_link,0.18163582796781594,-0.2841504762720487,-0.10508515903206524,-0.017556394526642337,-0.007348489908881534,0.005310977491346478
425418000000,281,425418000000,BL_wheel_link,-1.316666647725044,4.017233675892563,1.8629769991311984,0.3570045188173003,0.12292916206790797,-0.03741510443676295
425419000000,282,425419000000,BL_wheel_link,0.18251594783833577,-0.28636594466802245,-0.10911932094625493,-0.017602801008616532,-0.0073509343847141225,0.005388263336738686
425420000000,283,425420000000,BL_wheel_link,-1.3350918200206738,3.9919272784000146,1.8079990454044303,0.35620616401805594,0.124712402512048,-0.03799136654907505
425421000000,284,425421000000,BL_wheel_link,0.18276357961262074,-0.2883482710655505,-0.11229868019569658,-0.017661248572718526,-0.007355714144865694,0.005444227008768544
425422000000,285,425422000000,BL_wheel_link,-1.3441062238642123,4.00204179985953,1.8085860990281637,0.3574337038880575,0.12551794827411428,-0.03830243497826451
425423000000,286,425423000000,BL_wheel_link,0.1802713656009106,-0.2884251588389286,-0.10948910520247562,-0.017694556367836834,-0.007338858177939819,0.005426993162120245
425424000000,287,425424000000,BL_wheel_link,-1.3538136069935012,4.017922557106836,1.8158098534858969,0.3591439538195832,0.1266058938459968,-0.03862530792078027
425424000000,288,425425000000,BL_wheel_link,0.17805698324610578,-0.28862846731817104,-0.10679651642761179,-0.017708073520408422,-0.007275897254652885,0.005435211599442005
425426000000,289,425426000000,BL_wheel_link,-1.3689811813619543,4.012904485276876,1.7939861059146724,0.3595645450716658,0.12829635196988792,-0.03910625674724495
425427000000,290,425427000000,BL_wheel_link,0.17662615003142487,-0.2896572440105387,-0.10671954754811568,-0.01774822133183193,-0.007213216954910772,0.005465380341416895
425428000000,291,425428000000,BL_wheel_link,-1.3813842486549235,4.011360376466096,1.781265083858445,0.3600479298823253,0.12964298140538377,-0.03950931163576797
425429000000,292,425429000000,BL_wheel_link,0.17518835002402927,-0.2904356778058549,-0.10631836575473375,-0.01779116877435849,-0.007150620473803928,0.005494935023049252
425430000000,293,425430000000,BL_wheel_link,-1.3976880922742794,3.994972643454994,1.7479639667777516,0.3596001872986694,0.1313939824983297,-0.04002670765466561
425431000000,294,425431000000,BL_wheel_link,0.17422746934404987,-0.29172180807057746,-0.107725141739551,-0.017851880383684494,-0.007094178722412163,0.0055340204926876396
425432000000,295,425432000000,BL_wheel_link,-1.4111190403224305,3.9869014796106477,1.728063566326414,0.3596045420849584,0.1328052214887803,-0.04046251598969021
425433000000,296,425433000000,BL_wheel_link,0.07624130218907263,-0.19149787182472,-0.22436952219077638,-0.018142893780866844,-0.007164925726227897,0.0025284071158361426
425434000000,297,425434000000,BL_wheel_link,-1.565564477574349,3.886583165007869,1.2860686083328152,0.36707811509159866,0.1549034302377203,-0.04487967804011864
425435000000,298,425435000000,BL_wheel_link,0.08660731950716895,-0.19620195497135098,-0.2443270183513168,-0.015751933681454017,-0.0060777812552042796,0.003284750599769349
425436000000,299,425436000000,BL_wheel_link,-1.594600960491154,3.477347285586686,0.791820454088141,0.33992448142381915,0.15815087378124046,-0.04577129977485402
425437000000,300,425437000000,BL_wheel_link,0.209068373730732,-0.3437941185451805,-0.10769715101443306,-0.017827512042214274,-0.006596063499118192,0.007050788961543946
425438000000,301,425438000000,BL_wheel_link,-1.2914211742745687,4.645662437310698,2.5457086147880763,0.4037375378655589,0.11936444047232628,-0.03710857785651295
425439000000,302,425439000000,BL_wheel_link,0.154589967833268,-0.26480350999859964,-0.01990237558322055,-0.017083909983142322,-0.006144118565221929,0.004922804644859037
425440000000,303,425440000000,BL_wheel_link,-1.5124024018952371,3.739310639529263,1.4028029616172226,0.3450800561976559,0.1450543957088312,-0.04364112600601385
425441000000,304,425441000000,BL_wheel_link,0.17805617964130305,-0.2945643436951462,-0.13443275564107487,-0.017890370711068616,-0.006761385990180692,0.0055049778979781175
425442000000,305,425442000000,BL_wheel_link,-1.4060948801659843,4.009731697317539,1.7286559081368014,0.36308985303457164,0.13236527913006052,-0.0405495084694607
425443000000,306,425443000000,BL_wheel_link,0.17229927217136234,-0.2844591083250769,-0.10474724790410772,-0.017770216270760197,-0.006906842555602718,0.005425301489479823
425444000000,307,425444000000,BL_wheel_link,-1.4201699148538636,3.9565436847909257,1.6638749151923773,0.35969000605012663,0.13400075944104375,-0.0409798601104515
425445000000,308,425445000000,BL_wheel_link,0.18064022411651764,-0.29224394781877566,-0.1173859514194888,-0.017615585830981356,-0.007091619766229673,0.0058508189330941365
425446000000,309,425446000000,BL_wheel_link,-1.3740856393411924,4.059080994728577,1.7841594089077004,0.36683071720744487,0.12854685508304384,-0.03967652896480825
425447000000,310,425447000000,BL_wheel_link,0.17843602328620323,-0.28977852352177863,-0.10627323911259048,-0.01751268892023169,-0.007178360966252208,0.005885063440317241
425448000000,311,425448000000,BL_wheel_link,-1.393805980054901,4.023254151661343,1.718897154557467,0.36530087891784613,0.13062942684976536,-0.04028161142422426
425449000000,312,425449000000,BL_wheel_link,0.17938642036363103,-0.29281281050047864,-0.11012326887383303,-0.017541188792001533,-0.00720398971105214,0.005998933755037329
425450000000,313,425450000000,BL_wheel_link,-1.3736174833752621,4.0907515113107875,1.8022534103637686,0.3700412379655278,0.12839748942664916,-0.0397352822613163
425451000000,314,425451000000,BL_wheel_link,0.17696547794588027,-0.2912363534852478,-0.10305106764924918,-0.017496970767780586,-0.007151525334909281,0.006011219468484681
425452000000,315,425452000000,BL_wheel_link,-1.4082125523127202,4.023869738718083,1.692600368790535,0.36665621493184,0.13216729665174637,-0.04078048511428073
425453000000,316,425453000000,BL_wheel_link,0.17762706833744168,-0.294655703270516,-0.10966260987494457,-0.017596200394619527,-0.007118369985637799,0.0060921645515199935
425454000000,317,425454000000,BL_wheel_link,-1.3984457426659227,4.072963817999408,1.756107596090366,0.37007452116862516,0.13104553897548918,-0.040544014740427486
425455000000,318,425455000000,BL_wheel_link,0.17508345698264854,-0.2931358799154124,-0.10424414876695784,-0.01758516216383746,-0.007040442628950968,0.006084900280673453
425456000000,319,425456000000,BL_wheel_link,-1.4350405187252893,3.999118164521705,1.637999653267174,0.36621773441517874,0.13502603410699918,-0.04165387996092497
425457000000,320,425457000000,BL_wheel_link,0.17583392934603628,-0.29673635214513205,-0.11199379105674764,-0.017694331903284316,-0.006997232687734309,0.006164503750165636
425457000000,321,425458000000,BL_wheel_link,-1.4411347654584663,4.006419796113192,1.6267588386235028,0.3674433532166007,0.13556672188910324,-0.04190276172670862
425459000000,322,425459000000,BL_wheel_link,0.1754669172086173,-0.2924030056469999,-0.11564532284468071,-0.017680523951957804,-0.007042751824482915,0.006000762282165488
425460000000,323,425460000000,BL_wheel_link,-1.4636154096718583,3.9818451406173243,1.5316055493441856,0.3680727934117597,0.13806632316434878,-0.04258334469180643
425461000000,324,425461000000,BL_wheel_link,0.1768217949982697,-0.29320841809393905,-0.11953527449471034,-0.01766178038389485,-0.007028700036328433,0.006061145924844931
425462000000,325,425462000000,BL_wheel_link,-1.472342297310553,3.978405202673141,1.4958632241826475,0.36903494508109536,0.13898184634214583,-0.042864019029173764
425463000000,326,425463000000,BL_wheel_link,0.17909599352135624,-0.3091898614129254,-0.11846176915355322,-0.017577257012070798,-0.007103377876786687,0.006191311067017148
425464000000,327,425464000000,BL_wheel_link,-1.442800294499723,4.0518684572664245,1.626792219467765,0.3724987553674741,0.1355440537807,-0.04205642766529996
425465000000,328,425465000000,BL_wheel_link,0.17588362358484205,-0.2967816963756454,-0.10666371063435628,-0.01776522804389579,-0.0069423185847020934,0.006200289405500517
425466000000,329,425466000000,BL_wheel_link,-1.50473047443753,3.880763718210269,1.384793014399551,0.36216144811972123,0.14226079174297002,-0.04390075590815161
425467000000,330,425467000000,BL_wheel_link,0.1767488055876298,-0.3178725807507877,-0.11666216464052652,-0.017987889157589004,-0.0067887981634837885,0.006254953731054431
425468000000,331,425468000000,BL_wheel_link,-1.42215884120044,4.121858684773262,1.800409149168243,0.3745800841635073,0.13332931765352668,-0.041574843370562505
425469000000,332,425469000000,BL_wheel_link,0.17409107993617706,-0.29134860015720526,-0.09712550822085948,-0.01787174001476931,-0.006806840800828154,0.006364934890208806
425470000000,333,425470000000,BL_wheel_link,-1.5466876856103626,3.756425548982858,1.2155340876252825,0.3545570381132667,0.1466271669466535,-0.045223291251767134
425471000000,334,425471000000,BL_wheel_link,0.1751983551832463,-0.32139677445668996,-0.12170462952729146,-0.018260411749428752,-0.006526268960889572,0.0063089603336914536
425472000000,335,425472000000,BL_wheel_link,-0.37579358122146456,15.409266929380154,11.685175814112256,0.7584866586247353,0.020348450049905487,-0.014612357514307658
425473000000,336,425473000000,BL_wheel_link,-0.533880969959216,4.103199332654258,5.848788541513677,0.10068088477217016,0.04013679056613641,-0.028325248233265897
425474000000,337,425474000000,BL_wheel_link,-0.017097232373645126,0.0029868841828160665,-0.019719456901855545,0.0036659046779128814,0.0012988730394796332,-0.000930253181170289
425477000000,338,425475000000,BL_wheel_link,-0.3171589600392193,9.273665793527755,6.907370386340737,0.48469532518352965,0.03000185742406014,-0.01713788725734966
425477000000,339,425476000000,BL_wheel_link,-0.1468557440362271,0.28978067651411793,3.639598583119109,-0.15846678817714346,0.012274119610476378,-0.007694409968977627
425477000000,340,425477000000,BL_wheel_link,0.5981701986594015,2.785164519728909,4.789352793667787,0.001791091592808252,-0.0554664653687677,0.032117932094664695
425478000000,341,425478000000,BL_wheel_link,-0.13917113633045033,0.035036998915004725,-0.5179620335600311,0.016915641074232164,0.006070538110188545,-0.006118102274012577
425479000000,342,425479000000,BL_wheel_link,1.4538446043314284,3.581568276184531,13.269274268416162,-0.3716811769031646,-0.13692785114858905,0.07613899937871683
425480000000,343,425480000000,BL_wheel_link,-0.12468648191285966,-0.006098896504735191,-0.380091101454145,0.008128379971403291,0.0055506714302645446,-0.005587540483335005
425481000000,344,425481000000,BL_wheel_link,0.3810958675667635,0.11705816202280758,0.2764211357146858,-0.0024568919779596396,-0.02867265233263266,0.018134871259974185
425482000000,345,425482000000,BL_wheel_link,1.2225416185624802,2.1951013501157304,3.808939598179986,0.001060127701591848,-0.11078511962360468,0.06541537342728021
425483000000,346,425483000000,BL_wheel_link,-1.6385950471983308,3.958897386001266,4.889534243836751,0.1092850281896459,0.15572923583221915,-0.08905745650875144
425484000000,347,425484000000,BL_wheel_link,2.1444871738667204,0.45751299838338966,4.165107155421721,-0.18830200319194018,-0.2057487087494682,0.11317633170541323
425485000000,348,425485000000,BL_wheel_link,-0.1648212074277954,-0.03281287098181994,-0.3458432552095124,0.007473985850342119,0.014389245324071234,-0.007496660608493243
425486000000,349,425486000000,BL_wheel_link,1.5047750712592642,0.6090582811395906,3.012236249101944,-0.1096108909599681,-0.12916203839873655,0.07463228145216355
425487000000,350,425487000000,BL_wheel_link,0.04601055598186757,-0.05845387416428531,-0.01452195825121533,-0.004109894517376889,-0.005090691792309374,0.0028397569261771833
425488000000,351,425488000000,BL_wheel_link,-0.033395230608706805,0.6611638983011929,-0.7978038405724655,0.09509765441112959,0.00470488032973615,0.0005619107486722168
425489000000,352,425489000000,BL_wheel_link,0.036393420540058,-0.1167116609220277,-0.09085350054434828,-0.0021262809081007013,0.0022652851180020605,-0.0005423256186467941
425490000000,353,425490000000,BL_wheel_link,0.073914557915782,-0.5957595751923053,-0.9855277813442955,-0.010628880183595067,-0.005859227382167608,0.003777950412202039
425492000000,354,425491000000,BL_wheel_link,-0.005505607579430033,0.008938427800594133,-0.01560899115029699,0.0004457784763739327,0.00015811591149428558,-0.00012791174395202374
425492000000,355,425492000000,BL_wheel_link,-0.1328096444087624,-0.47018398500734304,-1.442018087660991,0.008797654591713625,0.005239973261263476,-0.004441906556899792
425493000000,356,425493000000,BL_wheel_link,0.005592066427970004,-0.0039870987798788235,-0.000276298493149669,-4.54704742361272e-05,-0.00013285917096407152,0.00013017169267405488
425494000000,357,425494000000,BL_wheel_link,0.06768013807717946,-0.5667155732588847,-1.096846515861853,-0.006811307146111566,-0.004861984341991947,0.0032900558459889374
425496000000,358,425495000000,BL_wheel_link,-0.0031768937308473684,0.0051356856078630265,-0.009510917205873104,0.0002253454370567769,4.068762378917411e-05,-7.073550249811627e-05
