%time,field.header.seq,field.header.stamp,field.header.frame_id,field.wrench.force.x,field.wrench.force.y,field.wrench.force.z,field.wrench.torque.x,field.wrench.torque.y,field.wrench.torque.z
504476000000,0,504476000000,FL_wheel_link,0.049718058333558184,0.2402092425904112,-0.31577774927496705,-0.00678493484793398,-0.0025287727517246585,-0.0005988641775744136
504477000000,1,504477000000,FL_wheel_link,2.2329835929884156,-7.981431672486417,8.406642715063274,-0.6188513458721748,-0.22868078629525293,-0.05998013162968473
504478000000,2,504478000000,FL_wheel_link,-0.12152495401689888,-0.1623850787467957,-0.08583417232429037,-0.016150137434129685,-6.162308190359178e-07,0.0053623606973344125
504479000000,3,504479000000,FL_wheel_link,1.9318923315403425,-3.29973782375386,6.504744406170489,-0.1995797473212394,-0.19219081703504326,-0.051961251841444955
504480000000,4,504480000000,FL_wheel_link,-0.023295232193314756,-0.009356076912928338,-0.12296087320060725,-0.010644704705381933,-0.0015095200059778487,0.0008596357814564118
504481000000,5,504481000000,FL_wheel_link,1.5546414880714896,-8.696976478382657,7.760202631371228,-0.7226782541736556,-0.1491061191131659,-0.042358024126861404
504482000000,6,504482000000,FL_wheel_link,0.04971985583065906,0.24013619763394858,-0.3154366324482591,-0.006789045144918758,-0.0025268330106891067,-0.0005974345965611834
504483000000,7,504483000000,FL_wheel_link,2.2342355241368077,-7.985575680830533,8.410460734176098,-0.6191939602821683,-0.22880659972208345,-0.06001390971728167
504484000000,8,504484000000,FL_wheel_link,-0.12151800053083493,-0.1623922913829337,-0.08577045449342305,-0.016150348132471452,-3.4564846654837333e-06,0.005363358683187911
504485000000,9,504485000000,FL_wheel_link,1.931555706884626,-3.2998241860987996,6.504206546683288,-0.19960423011058478,-0.19216536896737976,-0.051956892147465406
504486000000,10,504486000000,FL_wheel_link,-0.02327482594115852,-0.00941467667327022,-0.12298610122152609,-0.010648469304096672,-0.0015077409765217598,0.0008625343859841495
504487000000,11,504487000000,FL_wheel_link,1.5554840514069843,-8.700151583067306,7.762255614979975,-0.7229668244874101,-0.14918894460394494,-0.04238125973653585
504488000000,12,504488000000,FL_wheel_link,0.04972130197748972,0.24006285419984735,-0.3150938672406567,-0.006793044500390093,-0.002524961835299315,-0.0005960556637517355
504489000000,13,504489000000,FL_wheel_link,2.2354563789028807,-7.989657490925118,8.41420380140227,-0.6195319632724046,-0.22892927221113984,-0.06004686530465138
504490000000,14,504490000000,FL_wheel_link,-0.12151161551669917,-0.16239958996930587,-0.08570797635132771,-0.016150575692951037,-6.217335286945111e-06,0.0053643623436987605
504491000000,15,504491000000,FL_wheel_link,1.9312424651439954,-3.299861263180591,6.503567860640103,-0.1996284131212054,-0.19214073868492612,-0.05195273993849178
504492000000,16,504492000000,FL_wheel_link,-0.02325295386361348,-0.009472800827424972,-0.12299925031395449,-0.010651441289776152,-0.001506301893605612,0.0008652710679008708
504493000000,17,504493000000,FL_wheel_link,1.556455490469844,-8.703398930591963,7.764507575302609,-0.7232564922838874,-0.14928596196665173,-0.04240796301052287
504494000000,18,504494000000,FL_wheel_link,0.04972173854954775,0.23998784855711847,-0.3147420185983054,-0.00679691431487643,-0.002523204579875561,-0.0005947954372400658
504495000000,19,504495000000,FL_wheel_link,2.2366673875320897,-7.993712664904418,8.417927908086092,-0.619867455531544,-0.2290510846290963,-0.060079574412554376
504496000000,20,504496000000,FL_wheel_link,-0.12150608699526219,-0.16240817333203983,-0.08564580867479786,-0.01615084647272883,-8.941966870372117e-06,0.005365370327248415
504497000000,21,504497000000,FL_wheel_link,1.9309416519435383,-3.2998581102754274,6.502849095625862,-0.19965176473373764,-0.19211654922100255,-0.051948721679771034
504498000000,22,504498000000,FL_wheel_link,-0.023229548995683517,-0.00952747811147139,-0.12300456506610785,-0.010653872272187594,-0.001505025270428939,0.0008678544395218115
504499000000,23,504499000000,FL_wheel_link,1.5574960143423855,-8.706672076663502,7.766869860441795,-0.7235450786579376,-0.14939067272768491,-0.042436536753810525
504500000000,24,504500000000,FL_wheel_link,0.04972079844206978,0.2399114340630616,-0.3143858304171466,-0.006800670477422211,-0.0025215071191134345,-0.0005935773192494894
504501000000,25,504501000000,FL_wheel_link,2.2378505111130735,-7.997731567909398,8.421608747804015,-0.6202001924738689,-0.2291700696170122,-0.06011155324058766
504502000000,26,504502000000,FL_wheel_link,-0.12150190015180376,-0.16241761857596757,-0.08558414572203142,-0.016151144661527804,-1.1577761221385e-05,0.005366398295887991
504503000000,27,504503000000,FL_wheel_link,1.9306509102392972,-3.2998127276903526,6.50203840144826,-0.19967468241761296,-0.19209227965237943,-0.05194468827429055
504504000000,28,504504000000,FL_wheel_link,-0.023205453119111794,-0.009580989057235085,-0.12300253069299333,-0.010655700731654815,-0.0015039512320262965,0.0008703226026072085
504505000000,29,504505000000,FL_wheel_link,1.5585973807931826,-8.709975903057053,7.769343603914776,-0.7238331311769253,-0.1495021389983784,-0.042466783794512075
504506000000,30,504506000000,FL_wheel_link,0.04971818985712553,0.2398336772160094,-0.31402521716722176,-0.006804301840239054,-0.00251990569754571,-0.0005923833122041225
504507000000,31,504507000000,FL_wheel_link,2.2390062902735357,-8.001711765292807,8.425246346064867,-0.6205298877854113,-0.2292863213037258,-0.060142816988150716
504507000000,32,504508000000,FL_wheel_link,-0.12149914877949547,-0.16242804853831855,-0.08552284652082003,-0.016151472223314214,-1.4125919095699102e-05,0.00536744684701239
504508000000,33,504509000000,FL_wheel_link,1.9303739332496996,-3.2997212613422486,6.50112461020831,-0.1996974322117982,-0.1920680247864576,-0.051940663663752
504508000000,34,504510000000,FL_wheel_link,-0.02318107467340871,-0.009633922335127353,-0.1229926226814278,-0.010656803930061718,-0.0015031590931762423,0.0008726543843654917
504511000000,35,504511000000,FL_wheel_link,1.5597959193331024,-8.713334248190836,7.771970003848388,-0.7241218479178559,-0.14962434087970272,-0.04249966259848589
504511000000,36,504512000000,FL_wheel_link,0.04971402798762603,0.2397542176013108,-0.3136573209120022,-0.0068078129902734395,-0.0025183614609934875,-0.0005912711867034837
504511000000,37,504513000000,FL_wheel_link,2.24013820889087,-8.005663217451467,8.428854373089845,-0.6208572019964596,-0.2294001859522467,-0.06017346136367911
504511000000,38,504514000000,FL_wheel_link,-0.12149794899524945,-0.16243979238194858,-0.08546173433522236,-0.016151837561475358,-1.659276072320942e-05,0.005368516750977938
504515000000,39,504515000000,FL_wheel_link,1.930109806236313,-3.299574071468386,6.500073848115887,-0.19971989713556243,-0.19204358149882367,-0.05193662689065166
504516000000,40,504516000000,FL_wheel_link,-0.023155474116258505,-0.009684052452524206,-0.12297647183750823,-0.010657164247910115,-0.0015026759279522768,0.0008748796585415124
504517000000,41,504517000000,FL_wheel_link,1.561115057452088,-8.716770476466149,7.774783245146018,-0.7244126416607259,-0.1497598021604421,-0.04253581579075523
504518000000,42,504518000000,FL_wheel_link,0.049708207182040505,0.23967297931032103,-0.3132805326748597,-0.0068111770983088574,-0.0025168915661528085,-0.0005902679837968023
504519000000,43,504519000000,FL_wheel_link,2.2412374885294524,-8.009567511421874,8.432412555202232,-0.6211807073674501,-0.22951078373814798,-0.06020325396177126
504520000000,44,504520000000,FL_wheel_link,-0.12149849551594154,-0.1624529782208334,-0.08540108204449183,-0.016152250328040435,-1.895713112652457e-05,0.005369609522154054
504521000000,45,504521000000,FL_wheel_link,1.929864021239544,-3.2993807685627177,6.498925593444527,-0.1997424863575289,-0.1920191142068965,-0.051932579255890565
504522000000,46,504522000000,FL_wheel_link,-0.023134111751767304,-0.009737358241808434,-0.12295968119937133,-0.010656674162305015,-0.0015026719843849613,0.0008769401131807648
504523000000,47,504523000000,FL_wheel_link,1.5625452825233084,-8.720298859656651,7.777765620177568,-0.7247077298505487,-0.14990738376815843,-0.04257500425602666
504524000000,48,504524000000,FL_wheel_link,0.04970100238501409,0.23959090791821203,-0.312897576379793,-0.006814363382429356,-0.002515492889238603,-0.0005893681572583348
504525000000,49,504525000000,FL_wheel_link,2.2422668596002184,-8.013355415444199,8.435830018337457,-0.621495623622702,-0.22961423367497538,-0.06023119222712214
504526000000,50,504526000000,FL_wheel_link,-0.12150090208930786,-0.16246678885392118,-0.08534223467232878,-0.016152712495245514,-2.113450999600454e-05,0.005370730956946212
504527000000,51,504527000000,FL_wheel_link,1.929634212144802,-3.2992040404001886,6.497762834167109,-0.19976704296203976,-0.19199530759025743,-0.05192870300070665
504528000000,52,504528000000,FL_wheel_link,-0.023910876712849544,-0.01262231370710008,-0.12468865113704436,-0.010717432912930463,-0.0015277664424785961,0.0009326393972825067
504529000000,53,504529000000,FL_wheel_link,1.9732472864160036,-6.15300069745301,7.49528874386585,-0.47997767910587347,-0.18806856535584393,-0.054870252528867305
504529000000,54,504530000000,FL_wheel_link,-0.10563875118897552,-0.13197500428932907,-0.0739168268842054,-0.012376911011635749,-9.913992086110247e-05,0.005083906181418841
504531000000,55,504531000000,FL_wheel_link,2.102461614090082,-4.013464818809587,8.25373878744102,-0.2234498729567602,-0.21045645161643206,-0.05606034492205393
504532000000,56,504532000000,FL_wheel_link,-0.022414732252928525,-0.0022135122103989113,-0.07185163370586306,-0.01067382109677291,-0.0026775170651957545,0.0009995056113013163
504533000000,57,504533000000,FL_wheel_link,1.6621883889060416,-8.695881672252865,7.903244638480703,-0.7176808899941483,-0.16192474118904915,-0.045081591413205904
504534000000,58,504534000000,FL_wheel_link,0.05111031257798801,0.23730272747764264,-0.306313064601287,-0.006859030429670135,-0.002684547703934894,-0.00043662332659611725
504535000000,59,504535000000,FL_wheel_link,2.317631162944424,-8.119897872331718,8.581424295789287,-0.6288264874093542,-0.23747726523906101,-0.06219828138393821
504535000000,60,504536000000,FL_wheel_link,-0.11882316612617266,-0.15859116318551233,-0.08446144565640576,-0.015866215195645225,-0.00019816506334033486,0.005352246713156339
504537000000,61,504537000000,FL_wheel_link,1.9211646078771254,-3.198250799173021,6.284241088727084,-0.1950264619632105,-0.19109623083077742,-0.05164322966106184
504538000000,62,504538000000,FL_wheel_link,-0.019225675575304618,-0.008387036125763732,-0.13445629106334261,-0.010591785261909636,-0.0015488718357813056,0.0008772975902599156
504539000000,63,504539000000,FL_wheel_link,1.9905893453163443,-6.100067490685966,7.425231263147042,-0.4760654763522032,-0.18996701867636562,-0.05528086595613339
504540000000,64,504540000000,FL_wheel_link,-0.10016745691451005,-0.1233630355486061,-0.07171471767841156,-0.012328939845557083,-9.439454893057572e-05,0.004886037990421542
504541000000,65,504541000000,FL_wheel_link,2.1319596185769165,-4.007422077234591,8.287920364510867,-0.22146471892066463,-0.21369342158142893,-0.056793867726161046
504542000000,66,504542000000,FL_wheel_link,-0.019339390510625516,0.00012926758650036452,-0.07189181062095829,-0.010559615686233367,-0.0028664519980196776,0.0009284150292354248
504543000000,67,504543000000,FL_wheel_link,1.660764015458577,-8.616288686910199,7.8262522068881175,-0.7111983886463362,-0.16195907359096853,-0.04501346996639087
504544000000,68,504544000000,FL_wheel_link,0.05437279989722059,0.24088685624063869,-0.3141727736425198,-0.006715157814132965,-0.0028572840767452467,-0.0005141540307756879
504545000000,69,504545000000,FL_wheel_link,2.316931586961216,-8.02868944859201,8.481324910179314,-0.6217338291184108,-0.2376279855794545,-0.06217253600998904
504546000000,70,504546000000,FL_wheel_link,-0.11640105130671136,-0.15993644357775122,-0.08748828034157655,-0.016116082004571198,-0.00022763556716077354,0.005288718441447614
504546000000,71,504547000000,FL_wheel_link,4.768989616530261,-4.297983920170314,12.893975130646288,-0.13087510429163024,-0.47258917909950493,-0.1287767994769409
504548000000,72,504548000000,FL_wheel_link,-0.3343262419416077,-0.41854566580418034,-0.6693509408230557,-0.033269861813060055,-0.00635258439124734,0.008719693592090981
504549000000,73,504549000000,FL_wheel_link,0.3423941290525128,0.8425583638168079,0.49544253419012296,0.03992755736622617,-0.013664512229617762,-0.008981657229279329
504550000000,74,504550000000,FL_wheel_link,-1.551282176252606,-4.284730976462608,1.4637893563395388,-0.39653634826973794,0.15485438367360058,0.03921143748050009
504551000000,75,504551000000,FL_wheel_link,0.2628455627545693,0.7023223755094263,0.3519751183938676,0.034597658782779914,-0.007610314730262397,-0.005069473232988144
504551000000,76,504552000000,FL_wheel_link,0.026170386728274764,-9.638195982599475,8.736176556285773,-0.7620942244976475,-0.0038978817365336593,-0.0024119696144703773
504551000000,77,504553000000,FL_wheel_link,0.25739249475267595,0.30752551073161627,0.3952189334524119,-0.0020355551475441857,-0.01029092536145028,-0.0065318665742977785
504551000000,78,504554000000,FL_wheel_link,-0.6762151154687359,-7.353945692985102,4.8465169289978425,-0.6367505329581733,0.06232745760318947,0.015868088546643302
504551000000,79,504555000000,FL_wheel_link,0.22528956934463523,0.29624206903887657,0.25005953967982986,0.003487482549562551,-0.009228477238265222,-0.003933161387296258
504556000000,80,504556000000,FL_wheel_link,-0.4730323372591121,-7.932814908018962,6.787097410598303,-0.6381964696887308,0.03801913463533163,0.011351436023510575
504557000000,81,504557000000,FL_wheel_link,2.8747029595138347,-2.0277175817422655,4.619785176755773,-0.1119721640118608,-0.28913645366787005,-0.07652514406331345
504558000000,82,504558000000,FL_wheel_link,-0.5650634706778428,-0.5209868447148012,-0.47449716276715054,-0.04826599070779143,0.027131360436574443,0.01606760585365015
504559000000,83,504559000000,FL_wheel_link,2.8380415888209485,-2.882857128772854,7.545567727243965,-0.14078903759747444,-0.26893817117978597,-0.07550793255599215
504560000000,84,504560000000,FL_wheel_link,-0.3284427171069684,-0.30627470885626,-0.6806410227083922,-0.029752377506883157,0.0035675957448897243,0.009782751724891493
504561000000,85,504561000000,FL_wheel_link,0.3358019654114819,0.7297263262054337,0.3870782772131101,0.035693467892681206,-0.014732079147875193,-0.007225598960069631
504562000000,86,504562000000,FL_wheel_link,0.04714390703134397,-10.812593886595666,10.918896700381715,-0.8272479085535889,-0.002110556494581306,-0.0021113604613183373
504563000000,87,504563000000,FL_wheel_link,2.9050326016763792,-3.2756653898719703,4.7107943966392405,-0.25404738501247964,-0.2857970611093031,-0.07970250347745386
504564000000,88,504564000000,FL_wheel_link,-0.797486822933955,-0.8639479651912026,-0.24519194476714312,-0.0823409338709974,0.05625796428925693,0.02252553624988024
504565000000,89,504565000000,FL_wheel_link,0.3172118540662038,0.6844018573171587,0.3409171959298957,0.03368322234363961,-0.013927065088519446,-0.006058062593131305
504566000000,90,504566000000,FL_wheel_link,0.14593265882103434,-10.74110257274685,10.87188204197409,-0.8200508161472786,-0.016962845698176743,-0.004891205875401983
504567000000,91,504567000000,FL_wheel_link,2.9426068340309395,-3.1982478427526475,4.576249788702752,-0.2479536292751641,-0.2909757005038866,-0.08030274126009224
504568000000,92,504568000000,FL_wheel_link,-0.832802215058362,-0.9034805686527021,-0.2215984912077437,-0.08593821308512282,0.059242507915270616,0.02335806031031613
504569000000,93,504569000000,FL_wheel_link,0.3175144939657128,0.6852889461037207,0.3306431463765629,0.033773113100688576,-0.014108374539885159,-0.005900833045940861
504570000000,94,504570000000,FL_wheel_link,0.1327458219931219,-10.73445330777836,10.765140704050264,-0.8223597748395118,-0.016117020221693645,-0.00471635943758264
504571000000,95,504571000000,FL_wheel_link,2.986480223456132,-3.115529844953839,4.510817251911206,-0.2406517188429041,-0.29631311540984695,-0.0813182765189296
504572000000,96,504572000000,FL_wheel_link,-0.7001900206007612,-0.7430984649941395,-0.3427215531334999,-0.07085651561948252,0.04414484584938184,0.019745693192500885
504573000000,97,504573000000,FL_wheel_link,0.321434243538591,0.6939122726856878,0.3332670330539436,0.03406990768456104,-0.01431497917645982,-0.006036304452055613
504574000000,98,504574000000,FL_wheel_link,0.0675037276741901,-10.735911672104887,10.646555344300223,-0.8266320346871672,-0.007770956764882098,-0.0030560172959621934
504575000000,99,504575000000,FL_wheel_link,2.9739588858308466,-3.1098590308335377,4.482080695041757,-0.24099416554700928,-0.29493964092342356,-0.08096692640848649
504576000000,100,504576000000,FL_wheel_link,-0.6249013693959589,-0.6520523134887077,-0.4103354877635493,-0.06244265531191123,0.03587519141098555,0.01773215201403662
504577000000,101,504577000000,FL_wheel_link,0.3245962300104144,0.6992994328510741,0.3345885776131354,0.03429860930533783,-0.014506644052104119,-0.006126243417759244
504578000000,102,504578000000,FL_wheel_link,0.024445353641437073,-10.727406481330439,10.55934088435411,-0.8286899122055452,-0.002294749638737492,-0.0019394207182684003
504579000000,103,504579000000,FL_wheel_link,3.7412831259859853,-8.149273251037382,8.202877522277584,-0.7671734632037918,-0.3486627349405265,-0.1046752115898422
504580000000,104,504580000000,FL_wheel_link,-1.352532887696487,-8.876413645237154,5.406543556163589,-0.8702039550136929,0.10526756386610997,0.03763574961947501
504581000000,105,504581000000,FL_wheel_link,-0.1296327027653544,0.23919107487414912,0.36889637082172394,-0.05769874745456331,0.010974377980611915,0.009592789366887183
504581000000,106,504582000000,FL_wheel_link,6.712466961817618,-25.810077080462086,22.92347954594061,-2.229596297264747,-0.5987609696175746,-0.18573575209451898
504583000000,107,504583000000,FL_wheel_link,0.7938360432562632,-13.69290756679542,8.777042503345545,-1.2668023967701356,-0.1592859425579246,-0.019155136082298768
504584000000,108,504584000000,FL_wheel_link,4.393402206943255,-19.27889726572176,13.535410562015514,-1.741703196863563,-0.38428418233778094,-0.12289055157797987
504585000000,109,504585000000,FL_wheel_link,1.7706095980374439,-16.14345099234941,11.707290961301736,-1.4218722931700056,-0.22243581424650682,-0.04711654538214649
504586000000,110,504586000000,FL_wheel_link,4.420423095099682,-12.39237220526799,10.57726221549784,-1.0403869746469354,-0.4262426303711553,-0.12063773454402799
504587000000,111,504587000000,FL_wheel_link,3.0178979997243953,-11.390956472366952,11.849734597013674,-0.8977280830785596,-0.3488050520559887,-0.07631558649230705
504588000000,112,504588000000,FL_wheel_link,4.3073935767234985,-9.10185524681076,8.528027186037287,-0.739148259837642,-0.43347418089600076,-0.11684045140909656
504589000000,113,504589000000,FL_wheel_link,2.125641172535504,-9.446966114561647,6.981277313707509,-0.8250938761620467,-0.23972706278851535,-0.056790610761921975
504590000000,114,504590000000,FL_wheel_link,2.6324889183306643,-7.8112949401795095,8.417096792597006,-0.6154606339683545,-0.2613525109767277,-0.06738084247121345
504590000000,115,504591000000,FL_wheel_link,3.8777683482308367,-7.390698414279199,7.29470828952835,-0.58564011698285,-0.39203457413150183,-0.10519058633354265
504592000000,116,504592000000,FL_wheel_link,1.2916595978675924,-8.46038839727433,5.687097465608017,-0.7560543254080717,-0.14913738169737428,-0.03460828847598865
504593000000,117,504593000000,FL_wheel_link,2.360862283803221,-7.493957925000307,7.978097374297638,-0.5924224160859876,-0.23326594856906047,-0.060733542301943624
504593000000,118,504594000000,FL_wheel_link,3.4598288959190415,-7.024546686322681,6.999107989250553,-0.5551854145676399,-0.3465109913776255,-0.09377281309645488
504595000000,119,504595000000,FL_wheel_link,0.732785997055394,-7.734343446813989,5.014543902200649,-0.696628081708986,-0.0903312578772737,-0.019390953754835877
504596000000,120,504596000000,FL_wheel_link,2.135534120492413,-7.376917435446388,7.838154939910154,-0.5850609260596783,-0.20844619376804074,-0.05455840916862151
504597000000,121,504597000000,FL_wheel_link,3.297445499332995,-6.955253353805864,6.940909275177979,-0.5496032127447282,-0.32848974380776674,-0.0893627123111631
504598000000,122,504598000000,FL_wheel_link,0.4490266772506537,-7.512896498814434,4.842424619896635,-0.6775435769699206,-0.06136404161385245,-0.011656072077794802
504599000000,123,504599000000,FL_wheel_link,2.0673825561680856,-7.37146512657786,7.824599698846078,-0.5849552530009077,-0.20073321655009743,-0.05276896946407893
504600000000,124,504600000000,FL_wheel_link,3.2517819239373122,-6.939873124542995,6.941763604391348,-0.5478424817048653,-0.32339674735231344,-0.08810214555858503
504601000000,125,504601000000,FL_wheel_link,0.34134945534268724,-7.577781615289263,4.940882990206756,-0.68185515204381,-0.050960305479585855,-0.008749084527006137
504602000000,126,504602000000,FL_wheel_link,2.0652421992277903,-7.341139301645459,7.821055141295486,-0.5811837055372155,-0.20041413897761198,-0.05279152781584179
504603000000,127,504603000000,FL_wheel_link,3.262369872262523,-6.940345118479682,6.965438261083005,-0.54698115034317,-0.3245913809157999,-0.08836108862727814
504604000000,128,504604000000,FL_wheel_link,0.31106906315180005,-7.726570834435069,5.128046673344635,-0.6927632770820946,-0.04857823488864499,-0.007950600756790174
504605000000,129,504605000000,FL_wheel_link,2.0836254151125404,-7.312643030970008,7.830478217712875,-0.5771332853336952,-0.2024853724116588,-0.053354448240565705
504606000000,130,504606000000,FL_wheel_link,1.239739359591434,-6.544697310645449,7.571159771141184,-0.4989817947416494,-0.13896990703511158,-0.029344994588768145
504607000000,131,504607000000,FL_wheel_link,0.9264554041491593,-6.16474890731072,6.623691804908162,-0.48656555159272197,-0.09801052941550725,-0.02152923569849116
504608000000,132,504608000000,FL_wheel_link,0.7535084241181829,-5.779591439386829,5.907621044881325,-0.46624379367182794,-0.07538655599841554,-0.017240932207475537
504609000000,133,504609000000,FL_wheel_link,0.7568740713609485,-5.622588830061718,5.612948651829528,-0.45804631144778496,-0.07361846117159027,-0.01745235169155701
504612000000,134,504610000000,FL_wheel_link,0.7861428800734407,-5.541569638787119,5.515573898237945,-0.45107210801865205,-0.07656178878759409,-0.01843629045128764
504612000000,135,504611000000,FL_wheel_link,0.8766064681914261,-5.603647858658148,5.558567982566659,-0.4558400720084537,-0.08596020294853746,-0.020982614806994225
504612000000,136,504612000000,FL_wheel_link,0.9752615264977593,-5.698733316320942,5.6432082413543405,-0.46285652933855226,-0.09649034233988024,-0.023753688887763053
504613000000,137,504613000000,FL_wheel_link,1.0886993791031196,-5.8317228409120325,5.759418588709451,-0.47313460671383867,-0.10857916184472552,-0.026922773005840624
504614000000,138,504614000000,FL_wheel_link,1.2040493985564085,-5.97651560529625,5.882959043767384,-0.48452082504946437,-0.1208638719840443,-0.030146770906282386
504615000000,139,504615000000,FL_wheel_link,1.3196791407314754,-6.127275402714137,6.007762369712381,-0.4965847844361585,-0.13314002636840458,-0.03337985859589046
504616000000,140,504616000000,FL_wheel_link,1.4316120158365921,-6.275778942468191,6.127344268943986,-0.5086229110622877,-0.14498888761042436,-0.03651239807693922
504617000000,141,504617000000,FL_wheel_link,1.538086731982427,-6.418036447200611,6.23905566208936,-0.5202828007109054,-0.1562257407696656,-0.03949442241670695
504618000000,142,504618000000,FL_wheel_link,1.6374532138027054,-6.550741468438369,6.340949910230283,-0.5312612966936449,-0.16668190509482222,-0.04227917589384429
504619000000,143,504619000000,FL_wheel_link,1.7287124751478524,-6.67187767034641,6.432111205613364,-0.5413644141760052,-0.17625749578421743,-0.044837899798062714
504620000000,144,504620000000,FL_wheel_link,1.8111450043406014,-6.780058914435552,6.512064527912156,-0.5504523409112145,-0.18488231387483248,-0.04714980016401028
504621000000,145,504621000000,FL_wheel_link,1.8847875181600129,-6.874950389648083,6.581088825004828,-0.5584763732259231,-0.19256492085188157,-0.049214910627704125
504622000000,146,504622000000,FL_wheel_link,1.949264782615578,-6.955945823765206,6.639143606307312,-0.5653671125122088,-0.19927077717904323,-0.05102260593543441
504623000000,147,504623000000,FL_wheel_link,2.0053205212417247,-7.023837603267296,6.687232688294021,-0.571175652058777,-0.20508181118304727,-0.05259280140209649
504624000000,148,504624000000,FL_wheel_link,0.282982765115078,0.7689162445872869,-2.3562309793673313,0.022516817075479242,-0.03458577264438765,-0.008304234809763314
504625000000,149,504625000000,FL_wheel_link,-0.039433761415368196,0.018512658902235184,-0.03151400781393832,-0.0005196268660541631,0.0017754536248634637,0.0004590734211217834
504626000000,150,504626000000,FL_wheel_link,-0.4248523124278661,-0.2886752580214334,-0.5010120000578593,-0.018682568182786095,0.015376722123075011,0.008612020076844458
504627000000,151,504627000000,FL_wheel_link,0.1342224991624242,0.690703462223889,-1.0691938529796259,0.027958196736928818,-0.011438270561407001,-0.004958178600599243
504628000000,152,504628000000,FL_wheel_link,-0.04505750447633179,0.004687563394094783,0.009766408453054501,-0.0013506073115440581,0.0017476172320014618,0.0006419543178281997
504629000000,153,504629000000,FL_wheel_link,-0.4052119984233481,-0.2846833642128162,-0.6179637593077777,-0.02099890467545611,0.016177002329284387,0.008962791333424376
504630000000,154,504630000000,FL_wheel_link,0.21095823721136497,0.7700467226631388,-0.8210169736931328,0.026265495484057662,-0.009423467965745353,-0.006192131860671223
504631000000,155,504631000000,FL_wheel_link,-0.008721589342339686,0.01518277493601053,0.009028005375963427,-2.8735089332643064e-05,0.0007447302397307737,-0.00014782826200618934
504632000000,156,504632000000,FL_wheel_link,-0.33665414308365005,-0.22989964563761642,-0.6722125898011129,-0.020882062462433702,0.015488433223452194,0.008379575079950548
504633000000,157,504633000000,FL_wheel_link,0.323221028638006,0.8693026528494456,-0.7951535650837738,0.026697362726637995,-0.009999563357655892,-0.007054748832273596
504634000000,158,504634000000,FL_wheel_link,-0.0005936444694999606,0.016689588094990805,0.01438001824537772,0.00013815395706436408,0.00045890146046884876,-0.00024516969315497086
504635000000,159,504635000000,FL_wheel_link,-0.3089795950644707,-0.20655930950608084,-0.7277875088785728,-0.021557512676465787,0.015655764308307497,0.008324611093373773
504635000000,160,504636000000,FL_wheel_link,0.3858887829354633,0.920256737499594,-0.7437570041088043,0.026809913968260938,-0.01018056017834834,-0.007367367012400253
504637000000,161,504637000000,FL_wheel_link,0.004825016672350293,0.01895695189866764,0.01790225087810754,0.00028364786402626063,0.0002720283182157764,-0.0003006509388742503
504638000000,162,504638000000,FL_wheel_link,-0.29248893804641524,-0.18995400874249901,-0.7566752183276799,-0.02180139951732032,0.01573596309135194,0.008319567037559011
504639000000,163,504639000000,FL_wheel_link,0.4180123231292062,0.9469175040639786,-0.7125869898411716,0.0268571885863473,-0.010251084754509376,-0.00736605524956795
504640000000,164,504640000000,FL_wheel_link,-0.015664773106260126,0.05940226652460493,-0.27771053166856396,-0.005481416226712351,0.004853276041329517,0.0016134749846784108
504641000000,165,504641000000,FL_wheel_link,-0.030601667474639434,0.06245979255070205,-0.26396071350721056,-0.004841622248583701,0.0047216765006775265,0.0035731354595254653
504642000000,166,504642000000,FL_wheel_link,0.2668918745319103,0.724207766246189,-0.8823581712809478,0.014861063904243996,-0.0035210964553160154,-0.0052362396147089315
504644000000,167,504643000000,FL_wheel_link,-0.0022977341898777134,0.10778432887217711,-0.26688375978503265,-0.004426193341566082,0.005046664817606254,0.0011427511118605703
504644000000,168,504644000000,FL_wheel_link,-0.025704739873735526,0.07211826661559301,-0.2600256854899225,-0.0045798995051204005,0.004674015398852088,0.0035189062678178274
504645000000,169,504645000000,FL_wheel_link,0.24483557447934629,0.6812190050950196,-0.8923111430499858,0.014209853984831388,-0.003683650537879216,-0.004421665403666459
504646000000,170,504646000000,FL_wheel_link,-0.0009420889458804892,0.12467785881141825,-0.2549660716867968,-0.0038301866002270766,0.005086237163722613,0.0009254578031949653
504647000000,171,504647000000,FL_wheel_link,-0.035185594007187945,0.06146349045417007,-0.2610380190023378,-0.0047428687681118405,0.0047450621106182676,0.0037242563956642943
504648000000,172,504648000000,FL_wheel_link,0.22605822803353304,0.6540047025009105,-0.9150250152612516,0.014117406460819788,-0.003973770461233777,-0.00393677373601667
504649000000,173,504649000000,FL_wheel_link,-0.010099823533919833,0.1278338896613681,-0.23325304076681358,-0.0035703168735879585,0.005344772541275119,0.0007172211202281398
504650000000,174,504650000000,FL_wheel_link,-0.040775175076623454,0.05519992640672796,-0.2580682922110696,-0.004806666746304318,0.00480161200623557,0.00372774983033807
504651000000,175,504651000000,FL_wheel_link,0.21430812464522564,0.634332165220425,-0.9416373273515253,0.014111071585250247,-0.0043206351261784815,-0.0036022632853148382
504652000000,176,504652000000,FL_wheel_link,-0.018817835544390513,0.12189482335712312,-0.221904261552074,-0.0035449339930712807,0.00546302730863812,0.0006921346083714813
504652000000,177,504653000000,FL_wheel_link,6.052263889540258,-13.235573628466701,21.874782640353,-0.7466715240910169,-0.592169679353074,-0.15808058403999878
504654000000,178,504654000000,FL_wheel_link,10.657534648011314,-11.305001305203572,12.78448593972857,-0.876339399232522,-1.1139846002433826,-0.2945894754470342
504655000000,179,504655000000,FL_wheel_link,7.983611734976206,-10.447334700245793,10.480755124521423,-0.8045784954632569,-0.8378644777486047,-0.21573425851704986
504656000000,180,504656000000,FL_wheel_link,10.511868128969978,-9.351569164591371,14.391488012056655,-0.6140210395950306,-1.0975815895200116,-0.28488278500238656
504657000000,181,504657000000,FL_wheel_link,8.827207351979375,-8.151538521089876,11.382406023038829,-0.5406836344256848,-0.9314826958720417,-0.23758252122884366
504658000000,182,504658000000,FL_wheel_link,4.928963775070143,-10.665386554900234,10.6230575668829,-0.8394344016876497,-0.5540788915339175,-0.13070593294508784
504659000000,183,504659000000,FL_wheel_link,5.263230217119315,-7.62447287745534,7.502204851113011,-0.6218330441317581,-0.5408425052013135,-0.138848418767131
504660000000,184,504660000000,FL_wheel_link,3.733770082660265,-5.419912081686215,5.223130074556012,-0.44273850372069556,-0.3787703613560398,-0.0972297401478601
504661000000,185,504661000000,FL_wheel_link,4.069888737361931,-5.292294358803726,4.86185702570596,-0.4402443078632742,-0.4111118031475344,-0.10529463563387559
504662000000,186,504662000000,FL_wheel_link,2.8189063533475736,-5.526898534863394,5.480932023089801,-0.442581499528321,-0.28391744621684245,-0.07404525315869152
504663000000,187,504663000000,FL_wheel_link,1.4030614817355627,-1.074524041374061,0.23217803528507897,-0.11829821181133073,-0.13107978241417864,-0.03252202196395312
504664000000,188,504664000000,FL_wheel_link,-0.11041133612778502,0.45898690770708395,-0.548312227657767,0.010597985546886516,0.02099630330119549,0.004304613437354392
504665000000,189,504665000000,FL_wheel_link,0.05054424216210643,0.3144608562444967,-0.4863357764281484,0.0014895431984591001,0.004436864216040056,0.0010777350200269454
504666000000,190,504666000000,FL_wheel_link,3.753261570193156,-5.064094445304283,6.911814497363783,-0.3647446546654705,-0.3836905357834607,-0.09950731408729299
504667000000,191,504667000000,FL_wheel_link,0.14934695298212464,0.14661465164749551,-0.354182996559524,-0.005649324864656401,-0.009151232691229593,-0.0016808978201650136
504668000000,192,504668000000,FL_wheel_link,4.125758028114841,-5.191949190737209,8.238427128226986,-0.33598453865170524,-0.42632899436112415,-0.10902312873608598
504669000000,193,504669000000,FL_wheel_link,0.12580697229660281,0.15911178341557644,-0.30623676449917037,-0.00522646435017252,-0.008376156237365432,-0.002627183715506398
504670000000,194,504670000000,FL_wheel_link,3.6034737602059357,-4.793773565254009,7.291836817323326,-0.321718248111464,-0.37222209324861477,-0.0963390906786014
504671000000,195,504671000000,FL_wheel_link,7.07765108942473,-10.916065904209727,24.13301478743688,-1.1628535770964743,-0.7289305466692555,-0.01764739890117825
504672000000,196,504672000000,FL_wheel_link,0.4365657771936146,-0.5572797391891261,0.09633132532058575,-0.04958137536857691,-0.047206505377300256,0.001155921241173143
504673000000,197,504673000000,FL_wheel_link,0.2718045830933479,1.0245455264492112,0.7093419565680588,0.0365899964390246,-0.003961968087282202,-0.013003243152670563
504674000000,198,504674000000,FL_wheel_link,4.52674970645227,-13.804777660235004,22.562868286243603,-1.4598982429332423,-0.5600608830044331,0.013731196206436674
504675000000,199,504675000000,FL_wheel_link,-0.14100363989988915,0.06590836476696807,0.955935406294653,-0.029674647960114958,-0.01733225957861119,0.007715306105131608
504676000000,200,504676000000,FL_wheel_link,4.848586078522979,-9.57000773203745,16.476932423021935,-1.0414853272174964,-0.49077861099548903,-0.013345765699319084
504677000000,201,504677000000,FL_wheel_link,0.31547997362797353,-0.42689557508828047,0.11599046564212291,-0.04131550566363166,-0.0330924485763174,0.00036461977794539566
504678000000,202,504678000000,FL_wheel_link,3.590305717929813,-8.345038575319872,7.967067056817468,-0.9649581844256798,-0.4011016624028474,-0.00337425788661036
504679000000,203,504679000000,FL_wheel_link,0.16576690270790131,-0.06741919567689228,0.07756180075829106,-0.019088836265067997,-0.013896615281288254,-0.0009660600945565799
504680000000,204,504680000000,FL_wheel_link,2.682798862193303,-9.080892110449351,15.92570314051596,-0.9811272840480287,-0.30038754751780783,0.0013428047965540202
504681000000,205,504681000000,FL_wheel_link,0.177514361616185,-0.40016207191170694,0.11776951415106299,-0.038637152136653384,-0.01854668772565339,0.0002571499385093587
504682000000,206,504682000000,FL_wheel_link,0.8542727856715275,-3.695006946939422,2.445367934398963,-0.4693033344116066,-0.09942616341915292,-0.0009179584605801677
504683000000,207,504683000000,FL_wheel_link,2.9758027225488806,-5.503342059720362,6.7433052803425095,-0.61693226803056,-0.3040195673658542,-0.008744951482410432
504684000000,208,504684000000,FL_wheel_link,0.09953761635144748,-0.2152993317953924,0.014482730586496077,-0.02136064642424649,-0.01017422724386886,-3.663305807096763e-06
504685000000,209,504685000000,FL_wheel_link,1.350892896248412,-6.912423281512482,15.833202290756489,-0.777203070235633,-0.17163322024222671,0.007252917809417267
504686000000,210,504686000000,FL_wheel_link,-0.14073699775530787,-0.2890914079457272,0.08910317920353025,-0.028974097102024532,0.00204593129129349,0.006546322590695508
504687000000,211,504687000000,FL_wheel_link,1.0676425303100667,-3.835258576540033,7.409274237972909,-0.4739398613589001,-0.09679589118231535,-0.006816411613967163
504688000000,212,504688000000,FL_wheel_link,0.034056531489627825,0.07171694834105598,-0.14716775989928543,-0.018132114050528336,0.0036675403066861135,-0.00013062541379896264
504689000000,213,504689000000,FL_wheel_link,1.8913383496812088,-8.358008938074152,11.652866062846563,-0.9224183622757403,-0.1941523894001489,-0.0034224960482071853
504690000000,214,504690000000,FL_wheel_link,-0.09927489072491297,-0.19262828361712053,-0.09600553600618919,-0.023865540090831507,-0.00017202013023752578,0.006129222299682668
504691000000,215,504691000000,FL_wheel_link,1.377506168715227,-2.666950435679638,5.32804002223523,-0.34247247288606736,-0.13683207996883,-0.0056677095509869505
504692000000,216,504692000000,FL_wheel_link,0.03261592453947578,0.09719508637858026,-0.14930409499895264,-0.012695133879834498,0.0020307556071750754,-0.000944364232720371
504693000000,217,504693000000,FL_wheel_link,1.2549667115812095,-5.523673977341242,10.929495093399463,-0.5976252644069076,-0.13112282816908352,0.00045891790410648725
504694000000,218,504694000000,FL_wheel_link,0.20832136021587572,0.23686212919443042,0.22477858595609046,-0.010206250552765545,-0.011665655485908819,-0.006510138334247484
504695000000,219,504695000000,FL_wheel_link,0.3693956725469616,-9.524922235035596,11.633154058781443,-1.0353309526076047,-0.05051566392583429,0.0015118630173001218
504696000000,220,504696000000,FL_wheel_link,0.008476392130872493,0.2728002872163137,-0.28812835005512044,-0.012658955980127035,-0.0056385185915669945,0.0017811398162677777
504697000000,221,504697000000,FL_wheel_link,-0.2966572833616077,-0.10942426216918116,-0.8895051964744316,-0.014187423842551124,0.02401267043010047,0.014564113618249181
504698000000,222,504698000000,FL_wheel_link,-0.08525657050863518,0.14166329933138802,0.3374286231485666,0.011701458551527535,0.0016684896940471188,0.00497612609028474
504699000000,223,504699000000,FL_wheel_link,0.2768574733032838,0.5478791065220681,-1.3623314619720936,-0.010490076165120847,0.012962306789982909,-0.009515427125690921
504700000000,224,504700000000,FL_wheel_link,0.48679092911483574,0.43553751901498683,-0.1817343548353426,0.008099647970241455,-0.007387319857939293,-0.004766606312331439
504701000000,225,504701000000,FL_wheel_link,-0.00046847260464268374,0.008989559051185883,-0.005111988856130715,-0.00012225226754088929,0.00021745740228984751,-2.382881174208993e-05
504702000000,226,504702000000,FL_wheel_link,0.1673753299180529,0.5384110249170283,-1.5650569653204458,0.0036696454584467636,0.004113469098960834,-0.0018889838270062856
504703000000,227,504703000000,FL_wheel_link,0.015191467619098679,0.035474487672093324,0.022169682171364516,0.0007463572238142321,-7.661983565442694e-05,-0.00021214679606613377
504704000000,228,504704000000,FL_wheel_link,-0.003299044286546555,0.0036200582456239433,-0.000430802235839654,-5.639689494222326e-05,0.0001306269630508251,8.277853294398097e-06
504705000000,229,504705000000,FL_wheel_link,0.5751036981723658,-4.355682728211974,9.239869151064536,-0.5278224875734269,-0.05424816374126554,-0.0014314342034676686
504706000000,230,504706000000,FL_wheel_link,-0.010013431635079922,-0.15611180131529317,0.08524713463516133,-0.016690244674220964,0.003545359879106714,-0.00048382017087517624
504707000000,231,504707000000,FL_wheel_link,3.0785328608213303,-7.563498002537275,12.561279459318605,-0.8246768445457955,-0.3001343676131609,-0.011486110405115393
504708000000,232,504708000000,FL_wheel_link,-0.4016273633378021,-0.5510556052805642,-0.09187285392914812,-0.044477012804969754,-0.0030062225355953417,0.015166593167565509
504709000000,233,504709000000,FL_wheel_link,6.345387392298189,-5.58861584754562,13.909033740126883,-0.6653689371867548,-0.6477411356431014,-0.017358321633991786
504713000000,234,504710000000,FL_wheel_link,-0.0945086754898899,0.0606886715932332,-0.5976996857639063,-0.026528814154331826,0.0006782546310420065,0.004113602322705334
504713000000,235,504711000000,FL_wheel_link,0.14903041346465815,0.2631052212038743,0.12546424251955982,0.009657505999880736,-0.0038924132852221132,-0.0007654407046194273
504713000000,236,504712000000,FL_wheel_link,0.7777172083353117,-7.750034624114663,12.792673308672834,-0.8444740155851702,-0.08435572505979494,0.0008058766275541446
504713000000,237,504713000000,FL_wheel_link,0.2703153599753733,0.1566734843753967,0.4234554588874744,-0.014254229348992682,-0.011573415406163585,-0.004610900454964187
504713000000,238,504714000000,FL_wheel_link,0.9854177382273903,-6.140080810161496,10.715491329643232,-0.7091065922361981,-0.101301610620526,-0.003558297033263394
504713000000,239,504715000000,FL_wheel_link,0.1936820034545239,-0.0018644878103298707,0.24967898990066284,-0.011543206075807028,-0.010062560878021886,-0.0003915120502909048
504715000000,240,504716000000,FL_wheel_link,0.8862718103760105,-6.132649694134508,10.667708529040176,-0.6583417451507272,-0.10730636933213517,0.004070489313336603
504715000000,241,504717000000,FL_wheel_link,0.3084359399327399,0.25568441325620284,0.17152055440037234,-0.008096336873777078,-0.01916804388601477,-0.004247171556588445
504718000000,242,504718000000,FL_wheel_link,0.8334116665485864,-5.6917460657651535,8.86758242762151,-0.6483971707613077,-0.09837328691585151,-0.0008045838268573996
504719000000,243,504719000000,FL_wheel_link,0.1872626975160906,0.030965445006994795,0.23931301767344393,-0.009765944821494737,-0.008853028985460082,-0.00043584786719807426
504720000000,244,504720000000,FL_wheel_link,0.7086356413528991,-6.236835878113698,10.393390852576587,-0.673738145441548,-0.09244236410271173,0.004105657178782099
504721000000,245,504721000000,FL_wheel_link,0.3015399859029565,0.22960151528268424,0.2863119140705882,-0.004771003113063098,-0.0166434393804761,-0.003154974747234613
504722000000,246,504722000000,FL_wheel_link,0.003893159132831503,-8.854176256197777,11.352440287411271,-0.9560748710106934,-0.021942132004667325,0.003438387181783756
504723000000,247,504723000000,FL_wheel_link,0.3200864686753321,0.2927025823354965,0.29290806560077265,-0.0037448500030948595,-0.014653457082798403,-0.0038082147397689816
504724000000,248,504724000000,FL_wheel_link,-0.9774782850307093,-6.643544484555877,5.6395515435925745,-0.7245308503602357,0.08642656844703428,0.0027183385581080466
504725000000,249,504725000000,FL_wheel_link,0.23792121540796088,0.28399752047159765,0.14048015119233842,-0.0007682462335971956,-0.008931498786423082,-0.0018958542311244377
504726000000,250,504726000000,FL_wheel_link,-0.444613558400889,-7.449170592206206,9.687391306271962,-0.8045400598064771,0.03194516377992512,0.0030295633660292892
504727000000,251,504727000000,FL_wheel_link,0.22314337171713558,0.20495696644132416,0.2671922168484221,-0.006266429094269304,-0.007785797809134485,-0.0031375532695988384
504728000000,252,504728000000,FL_wheel_link,-2.1076813613570993,-2.4521998492873696,23.302306548156025,-0.26760933603142684,0.22191325143886342,0.0052291049784425146
504729000000,253,504729000000,FL_wheel_link,0.013894120550385053,0.027110959996418736,0.045213613737920176,0.001539249395070569,-0.0018016996197549014,0.0004201899631362858
504730000000,254,504730000000,FL_wheel_link,3.9195366747513174,-6.463142791512663,10.644117028437536,-0.6992268619277664,-0.4057192542550264,-0.008422776283566635
504731000000,255,504731000000,FL_wheel_link,-0.14608500113024514,0.11456229976280756,0.6088102656727958,0.0019117903124455798,0.005519166791811707,0.007759896166485325
504732000000,256,504732000000,FL_wheel_link,3.7372945243867375,-7.869390541152765,17.829016715107453,-0.8365257418725083,-0.3655815400609157,-0.010689065978652906
504733000000,257,504733000000,FL_wheel_link,-0.08923220415654617,0.20947603577582172,1.51265046326332,0.0062358164951369826,-0.01077652419464323,0.006069983350609088
504734000000,258,504734000000,FL_wheel_link,2.3054675066615142,-6.735342511899436,28.812858620025942,-0.6990060972614758,-0.26564683447122717,0.0065677818736877835
504735000000,259,504735000000,FL_wheel_link,0.16203538649664523,-0.224614196581151,0.14265608022176052,-0.021862850326590872,-0.018701979869493027,0.0004446675639331755
504736000000,260,504736000000,FL_wheel_link,-0.4755877246526509,0.022548535902396027,0.01612243340164842,-0.0015419164004035202,0.024636633890842613,0.007968552445006789
504737000000,261,504737000000,FL_wheel_link,3.3202833856921394,-10.405302988568593,18.06012704498665,-1.1373301587496096,-0.3026941409149591,-0.016589482604352723
504738000000,262,504738000000,FL_wheel_link,-0.1210968328022306,0.12176332639399229,1.5875407694129708,-0.007497055594785543,-0.00777431204502051,0.004322563758064318
504739000000,263,504739000000,FL_wheel_link,1.5711924509633186,-8.550591271061426,27.106254490144526,-0.9106744212944502,-0.17781966312948577,0.0041545590518815845
504740000000,264,504740000000,FL_wheel_link,0.1151829735027475,-0.33422623221256426,0.10902015883230917,-0.03360874890703067,-0.011835968657870281,-0.00015601025741235515
504741000000,265,504741000000,FL_wheel_link,-0.2467715480070022,0.2854478738604506,0.17874577139873477,0.007207144380192725,0.01798064883410877,0.005218692788101398
504742000000,266,504742000000,FL_wheel_link,3.983307457694112,-10.54011921356239,18.830018412643998,-1.1482369464376196,-0.3783649884790022,-0.01623351614946361
504743000000,267,504743000000,FL_wheel_link,-0.10109935618450394,0.14683825318039895,1.6390836786982081,-0.009320642210733643,-0.010064162291520538,0.0023540482983050344
504744000000,268,504744000000,FL_wheel_link,1.2610046709253822,-9.160818829221952,25.792099945942496,-0.9779184239942131,-0.1403223515906576,0.0019017021202586692
504745000000,269,504745000000,FL_wheel_link,0.10509038806242332,-0.3842133584902561,0.048386402676726815,-0.039510333196476705,-0.01044479868353677,-0.0004722409844263257
504746000000,270,504746000000,FL_wheel_link,-0.27952691129072665,0.45198513280410135,0.9332851749053019,0.024997807332265094,0.012122753432349212,0.0035246145792744736
504747000000,271,504747000000,FL_wheel_link,0.9730894998583834,-12.164157666860204,21.6360604236762,-1.3153419539227031,-0.0889733686787102,-0.0037960572012959715
504748000000,272,504748000000,FL_wheel_link,-0.22034739988443916,-0.03946371735360524,1.328928287074853,-0.01989928283424646,0.005696065764066132,0.004278688303118103
504749000000,273,504749000000,FL_wheel_link,1.9194883471808808,-10.093793254799676,21.634557673510347,-1.0860171629665591,-0.1906914444400643,-0.0028730070554290332
504751000000,274,504750000000,FL_wheel_link,-0.14510963516402575,0.02919996222841925,1.253096440167551,-0.01585679193074628,0.001708972331545414,0.0006399358168742712
504751000000,275,504751000000,FL_wheel_link,0.5712762920757393,-8.502704956242077,23.444228463498057,-0.9194366504219863,-0.05464086834799847,-0.0013632960398839433
504752000000,276,504752000000,FL_wheel_link,0.05600245244190763,-0.3460466339694085,0.042313502539639364,-0.03747198788324213,-0.0054824502168816115,-0.0004536485836142967
504753000000,277,504753000000,FL_wheel_link,-0.23506439037321164,0.3331212587275221,0.23918222410277648,0.00983281239836208,0.017691614959398853,0.005355963101337303
504754000000,278,504754000000,FL_wheel_link,3.4146177225181367,-10.226309963826296,18.59705878619721,-1.1159141936904038,-0.3133580354385392,-0.016229694948261014
504755000000,279,504755000000,FL_wheel_link,-0.1936189897776668,-0.015318163832555326,0.9938363238617804,-0.022967815782458906,-0.0013721877406437741,0.007157581108949212
504756000000,280,504756000000,FL_wheel_link,4.2061526255896915,-9.375577865449372,18.498138557442076,-1.011840998425579,-0.41006908371840733,-0.013490677394536216
504757000000,281,504757000000,FL_wheel_link,-0.061460334983170634,0.14203207309132715,1.461480645266776,-0.007681459414070855,-0.014006881826064367,0.0036516650253107475
504758000000,282,504758000000,FL_wheel_link,1.8470690168904085,-10.383465926845272,19.95446402748098,-1.1078134667854076,-0.19992814768957312,-0.00027481766072617875
504759000000,283,504759000000,FL_wheel_link,-0.11003811098128857,-0.07495636295053706,1.0152565290367572,-0.019137714551535276,-0.0047366114215299515,0.005412785621335305
504760000000,284,504760000000,FL_wheel_link,2.174521254711096,-9.634528709323444,19.570711665528393,-1.0368895735011363,-0.22670956774740153,-0.0016707330832357453
504761000000,285,504761000000,FL_wheel_link,-0.11420546390921299,0.00950145772399863,1.1191600000402737,-0.017118128284164848,-0.0016041622209640172,0.0016281443474106222
504762000000,286,504762000000,FL_wheel_link,1.2205373150171281,-9.924623209893937,18.132158732822038,-1.0721513972323817,-0.11877614136502318,-0.003426871292001199
504763000000,287,504763000000,FL_wheel_link,-0.14912472561977014,-0.018957133805821064,1.0532413173805355,-0.01782768393986429,0.0024836452043388397,0.0028159306272126368
504764000000,288,504764000000,FL_wheel_link,1.3440130578621696,-9.457090761232958,18.575027245189425,-1.02076931381731,-0.13065608806922652,-0.00300859566841305
504765000000,289,504765000000,FL_wheel_link,-0.15545271570715702,0.031603896355011124,1.1244146056988618,-0.01485465149793449,0.003836748801530427,0.0017014796498240267
504766000000,290,504766000000,FL_wheel_link,0.49110683512126174,-7.458706241357241,23.631867319988835,-0.8062687962639739,-0.04704263550935239,9.136446675385435e-05
504767000000,291,504767000000,FL_wheel_link,0.04456842125441493,-0.28738558870662656,0.10198831423892206,-0.031148322903504166,-0.0046561164547623615,-1.0602328247348754e-05
504768000000,292,504768000000,FL_wheel_link,-0.3621636193675681,0.1547976446018765,0.1265979462127754,0.0038432430108398686,0.021199353232629684,0.005997747731870004
504769000000,293,504769000000,FL_wheel_link,2.679663773744488,-10.027142756041714,18.077706649648896,-1.098631624611781,-0.2279874144330814,-0.01667369795218951
504770000000,294,504770000000,FL_wheel_link,-0.22520189062765825,-0.008075581821773398,1.0578039864194495,-0.02063899140394302,0.002117743233205573,0.00637273219930501
504771000000,295,504771000000,FL_wheel_link,3.981417431422977,-9.114481475293687,18.730608406361014,-0.980948744379496,-0.383375882064049,-0.013245681784335564
504772000000,296,504772000000,FL_wheel_link,-0.07510813418478438,0.16683277690926562,1.4791632095193972,-0.0061536887217790975,-0.012490687995160343,0.003718636135265475
504773000000,297,504773000000,FL_wheel_link,1.7283309386949002,-10.08117911829762,19.73130998759683,-1.0729875563402727,-0.1847117765316713,-0.0005433074552893963
504774000000,298,504774000000,FL_wheel_link,-0.11631449271615643,-0.05019261363556027,1.0386962934610442,-0.017320029800108647,-0.0038312196984737912,0.005565054108401972
504775000000,299,504775000000,FL_wheel_link,2.1159519451416404,-9.328263692884647,19.496732830341376,-1.0011962535733046,-0.21928088940133222,-0.001501854895421706
504776000000,300,504776000000,FL_wheel_link,-0.1108048523060621,0.01487744170617683,1.0891843267403738,-0.016827219888514048,-0.0017970188478094304,0.001732684239545781
504777000000,301,504777000000,FL_wheel_link,1.2374734571057777,-9.676557353746468,17.97289879093001,-1.0433729397944895,-0.12057068759704925,-0.0032898069396042617
504778000000,302,504778000000,FL_wheel_link,-0.14613372672562613,-0.009147925908868426,1.0419536190231056,-0.017688175197770568,0.00223597871660928,0.002727685242095922
504779000000,303,504779000000,FL_wheel_link,1.3569450827002498,-9.263560664916625,18.50720168152251,-0.9978773783007526,-0.13195773382777604,-0.002830720829700775
504780000000,304,504780000000,FL_wheel_link,-0.15571336885217596,0.04389751947271711,1.1232551211199002,-0.014712479849709983,0.003790761193965015,0.001565165454557181
504781000000,305,504781000000,FL_wheel_link,1.0492151822651605,-9.198518252169645,18.245971915454504,-0.9894772745845191,-0.09760190199788249,-0.003084212862485017
504782000000,306,504782000000,FL_wheel_link,-0.16301669988899464,0.03313455156114695,1.0841398789938828,-0.014613314194178249,0.0047197719820731825,0.002070364541001666
504783000000,307,504783000000,FL_wheel_link,1.0799654368330884,-8.98809545151374,18.327356546521017,-0.9659281720558077,-0.10156589416046702,-0.0026522316538067775
504784000000,308,504784000000,FL_wheel_link,-0.1646268337843615,0.048265759413915615,1.096872813877991,-0.01372155102069059,0.005103020669552862,0.0017152353733343377
504785000000,309,504785000000,FL_wheel_link,0.9343618724851983,-8.960308803685813,18.13861581656864,-0.9624966368948669,-0.08591229575946102,-0.002672337014558143
504785000000,310,504786000000,FL_wheel_link,-0.169626796009883,0.04511831248550896,1.0836211873309942,-0.013674807221875841,0.005659081785244316,0.0019277279721757784
504787000000,311,504787000000,FL_wheel_link,0.9233258746627744,-8.869687122137066,18.176309867521642,-0.9522164426508068,-0.08492977467174806,-0.0024844994529993197
504788000000,312,504788000000,FL_wheel_link,-0.17224237747274296,0.05288784785834516,1.0918750857097543,-0.013239974959923219,0.005995596916349112,0.0017875749478370717
504789000000,313,504789000000,FL_wheel_link,0.8547609542914958,-8.839743807516191,18.137912956935303,-0.9484641821778407,-0.07758394172174837,-0.0024441184749333378
504790000000,314,504790000000,FL_wheel_link,-0.17500582230886708,0.0528876027890855,1.0873510101785868,-0.013189313659510104,0.006304691994056975,0.001842826447259507
504791000000,315,504791000000,FL_wheel_link,0.8414118321555959,-8.789251415113947,18.163716440012273,-0.9425692113306352,-0.07626324521063671,-0.0023402796137821646
504792000000,316,504792000000,FL_wheel_link,-0.17659701262568891,0.05658033121833572,1.0901043537804522,-0.013035672407290163,0.006495142265152434,0.0017676654037642593
504793000000,317,504793000000,FL_wheel_link,0.80904945150641,-8.764295350101355,18.159039772673943,-0.9394580513823173,-0.0728341255866784,-0.002296850603287229
504794000000,318,504794000000,FL_wheel_link,-0.17823666510818895,0.057523530286423596,1.0886699095744505,-0.013025666784550478,0.0066692790778691575,0.0017652442044377974
504795000000,319,504795000000,FL_wheel_link,0.7990139806151206,-8.732058831313976,18.18088632974998,-0.935590786104177,-0.07181893276516338,-0.0022328230832245888
504796000000,320,504796000000,FL_wheel_link,-0.17940851252978132,0.05998386576380693,1.0902602422931906,-0.012970026281727574,0.0067931590114984775,0.0017138624904391446
504797000000,321,504797000000,FL_wheel_link,0.7838652024030086,-8.708187808363176,18.192846756095477,-0.9326260720222356,-0.07021974609827808,-0.0021928913621162144
504798000000,322,504798000000,FL_wheel_link,-0.18049576973080067,0.06146629797031242,1.0903310847434395,-0.012964742936931856,0.006899656835676958,0.0016895636242455967
504799000000,323,504799000000,FL_wheel_link,0.7781205482331015,-8.68157738145047,18.214256313923997,-0.9293788458869174,-0.06963381729313689,-0.002146171150442494
504801000000,324,504800000000,FL_wheel_link,-0.18132847757558118,0.06349360148452832,1.0913982944117464,-0.012942677248679752,0.006978792982941263,0.0016480215190563742
504801000000,325,504801000000,FL_wheel_link,0.7713716689459917,-8.657866995259237,18.23100614433609,-0.926448820625139,-0.06892392183471735,-0.0021096615059064266
504802000000,326,504802000000,FL_wheel_link,-0.18207259337536075,0.0651740331977115,1.091868418276495,-0.012937464697204863,0.00704548787328954,0.0016170154084032744
504803000000,327,504803000000,FL_wheel_link,0.7686409887035137,-8.632844015349024,18.250233724707208,-0.9233840099140551,-0.0686438262615302,-0.0020714588304361903
504804000000,328,504804000000,FL_wheel_link,-0.1826924831970837,0.06707059336843885,1.0926928801109348,-0.012924131228449116,0.007098549888287282,0.0015805006998083667
504805000000,329,504805000000,FL_wheel_link,0.7660094486041009,-8.608611945365793,18.26715414766479,-0.9204071736942842,-0.06836455525249413,-0.002037898631947796
504806000000,330,504806000000,FL_wheel_link,-0.1832555034180177,0.06886008368500235,1.0933031882112023,-0.012914395042764587,0.007144387612685906,0.0015484246190113058
504807000000,331,504807000000,FL_wheel_link,0.7652118598447304,-8.583670869770808,18.28454620581107,-0.9173567602951953,-0.06827877216186296,-0.0020042294962379775
504808000000,332,504808000000,FL_wheel_link,-0.1837475980491184,0.07073968260947355,1.0940218912940438,-0.012899924659829178,0.00718283988984581,0.0015145547141188044
504809000000,333,504809000000,FL_wheel_link,0.7648461644825719,-8.55886463765682,18.300983278580013,-0.9143217531662999,-0.06823527162930626,-0.0019721543001295083
504810000000,334,504810000000,FL_wheel_link,-0.18419103967135575,0.07258389024524098,1.094619069086154,-0.012885732242777979,0.007216332971175602,0.001482227762521112
504811000000,335,504811000000,FL_wheel_link,0.765395113963252,-8.533592351125712,18.3170121654577,-0.9112382600517427,-0.06828726684045627,-0.0019404411404726346
504812000000,336,504812000000,FL_wheel_link,-0.18458976414253575,0.07446535970429963,1.0952348801867204,-0.012869204464532847,0.007245445310350895,0.0014491300406872926
504813000000,337,504813000000,FL_wheel_link,0.9004137245689985,-8.617925204190522,18.46361620688829,-0.9203612237076377,-0.08290151698271792,-0.0016668868254539199
504814000000,338,504814000000,FL_wheel_link,-0.18468551227838326,0.0760375529783967,1.090537335324131,-0.012752654522162258,0.007331908839877912,0.0014097264340535414
504815000000,339,504815000000,FL_wheel_link,1.6299747773882034,-11.027639412448497,20.81984967159122,-1.1977574889195854,-0.15380167197310124,-0.004456960301775129
504816000000,340,504816000000,FL_wheel_link,-0.14327152314711195,0.09116942409871517,1.070431006844136,-0.008304695562178185,0.0035312068326015036,0.0018791709465138893
504817000000,341,504817000000,FL_wheel_link,1.7440424091397282,-10.328982025859776,19.681516641321593,-1.1195632359176875,-0.17215533234442182,-0.0030430046662172083
504818000000,342,504818000000,FL_wheel_link,-0.11295721445655676,0.08048988848830835,0.951050736895544,-0.008117321835843797,0.0007476208634115875,0.002490309922207453
504819000000,343,504819000000,FL_wheel_link,1.3882157770561279,-7.349509912811705,19.00364925365516,-0.800282891214958,-0.14642468917883578,0.006225440975024477
504820000000,344,504820000000,FL_wheel_link,-0.24566104234488811,0.16026256014649018,1.027522147948934,-0.013447761912750732,0.008730394407966371,-0.0006177843966259017
504821000000,345,504821000000,FL_wheel_link,1.0375120804561122,-7.337211204120132,18.424602724055315,-0.8121986828071958,-0.09889872490717722,0.001007598129510942
504822000000,346,504822000000,FL_wheel_link,-0.19347591148727505,0.12120095570768227,1.1316429939944235,-0.011303459096546297,0.00870471639533549,0.00023755490565467426
504823000000,347,504823000000,FL_wheel_link,0.49309929104178174,-8.199644918759155,17.823450930999577,-0.9091645717403545,-0.03728291033609443,-0.0018206308926562997
504824000000,348,504824000000,FL_wheel_link,-0.19744074247114252,0.06882603726562833,1.0638229388526712,-0.013558662203629173,0.008797673096791005,0.0018208110622015999
504825000000,349,504825000000,FL_wheel_link,0.7463529698295854,-8.214756989516717,18.359914673081764,-0.9133233872449712,-0.06459403264434588,-0.000976858396841515
504826000000,350,504826000000,FL_wheel_link,-0.18969512832444443,0.09588644094780885,1.1033358861230587,-0.012382099550441613,0.00784963299304319,0.001143507019737483
504827000000,351,504827000000,FL_wheel_link,0.6344738488589625,-8.288804399536524,18.186296348317317,-0.9200539225025175,-0.053224753315050666,-0.001258311486693045
504828000000,352,504828000000,FL_wheel_link,-0.18967561511353556,0.08080829223288113,1.0759099191584227,-0.013135786484390293,0.007718493878391889,0.0015842057477876703
504829000000,353,504829000000,FL_wheel_link,0.7559927810262339,-8.202930503440914,18.364698962456643,-0.9107158756011653,-0.06696671082558386,-0.0006953872914051556
504830000000,354,504830000000,FL_wheel_link,-0.1890099854335855,0.09324569332121846,1.0963629745928793,-0.012787742934138554,0.0075941959048421315,0.0012457095779336877
504831000000,355,504831000000,FL_wheel_link,0.721279280731657,-8.214580016910343,18.36091327979772,-0.9113333530293855,-0.06322367038720034,-0.0008047488407728204
504832000000,356,504832000000,FL_wheel_link,-0.18977583630675346,0.09049103891267421,1.0909952628486643,-0.01301646355373488,0.007631907108741271,0.0013296809549664347
504833000000,357,504833000000,FL_wheel_link,0.7703431569836412,-8.163691153767623,18.458081747781065,-0.9055547105305255,-0.06863898858669848,-0.0005836240561775397
504834000000,358,504834000000,FL_wheel_link,-0.18946351501808215,0.09591452019249716,1.098389836110175,-0.01291359167543655,0.007580311774440738,0.0011705973786268003
504835000000,359,504835000000,FL_wheel_link,0.7635801010752239,-8.149975595869563,18.469235607375346,-0.9036214951136565,-0.06792014140764713,-0.0005902447312661763
