%time,field.header.seq,field.header.stamp,field.header.frame_id,field.wrench.force.x,field.wrench.force.y,field.wrench.force.z,field.wrench.torque.x,field.wrench.torque.y,field.wrench.torque.z
504476000000,0,504476000000,FR_wheel_link,-1.1298288508050507,-6.101031841914039,13.916400522870234,-0.2791400880709809,0.1172831980518302,0.030080215593777895
504477000000,1,504477000000,FR_wheel_link,-0.6893089332601852,-5.570772216830941,4.477490637398797,-0.47594468428303616,0.07014101853048249,0.017663489787637265
504478000000,2,504478000000,FR_wheel_link,-2.3035539999372046,-6.278766820135354,6.227069818445091,-0.497710184565051,0.22214369270527923,0.06279444107250719
504479000000,3,504479000000,FR_wheel_link,0.07296690661486116,-6.282765369323266,15.652338710750445,-0.255526107837909,-0.002379550688643345,-0.003209478940440387
504480000000,4,504480000000,FR_wheel_link,-1.6128306349525445,-4.576881968903634,6.545507417360234,-0.3067988905019418,0.1603782687884024,0.0429185986310993
504481000000,5,504481000000,FR_wheel_link,-1.037402327870045,-6.336089728873686,5.794134133093019,-0.5183487086066189,0.1163806043768677,0.026620173781402426
504482000000,6,504482000000,FR_wheel_link,-1.130557612723617,-6.1051898242704175,13.913169397222898,-0.279672831985538,0.11736032415059215,0.030102089155956573
504483000000,7,504483000000,FR_wheel_link,-0.6895197568591098,-5.573626926650292,4.476701636362636,-0.4762887521157659,0.0701652060365619,0.01766787475052807
504484000000,8,504484000000,FR_wheel_link,-2.3037222227806087,-6.2808297655967325,6.226210082716972,-0.49796621570769395,0.2221583489609832,0.0628026484507959
504485000000,9,504485000000,FR_wheel_link,0.07649594491299228,-6.281508641865074,15.646125422619974,-0.2555621100408451,-0.0027473794774989097,-0.0033132499072780833
504486000000,10,504486000000,FR_wheel_link,-1.6134214808996912,-4.579726681931205,6.546800515221532,-0.30708497541030644,0.1604448503375363,0.042944405150660114
504487000000,11,504487000000,FR_wheel_link,-1.0376293030411348,-6.338628291768892,5.793424251195782,-0.5186515268031845,0.11640755087510105,0.026624403306509545
504488000000,12,504488000000,FR_wheel_link,-1.1312623214249011,-6.109308210716235,13.909902152075029,-0.2802022218074669,0.11743488982628682,0.030123269985191437
504489000000,13,504489000000,FR_wheel_link,-0.6897239562251982,-5.57646116883436,4.475915215122927,-0.4766304157544737,0.0701886862294776,0.01767208357805547
504490000000,14,504490000000,FR_wheel_link,-2.3038877807143248,-6.282885045533686,6.225346570211028,-0.4982214630145181,0.22217275835876482,0.06281078365411703
504491000000,15,504491000000,FR_wheel_link,0.079463737716301,-6.280954802082254,15.640492094008236,-0.25565627694967735,-0.0030564848280351664,-0.003401801098714491
504492000000,16,504492000000,FR_wheel_link,-1.6139492285585109,-4.5823793547143925,6.547758403345996,-0.3073598415143846,0.1605049546247928,0.04296843262663421
504493000000,17,504493000000,FR_wheel_link,-1.0377830250816666,-6.3410472070608535,5.792526372081056,-0.51894723903621,0.11642597562474694,0.026626641200590356
504494000000,18,504494000000,FR_wheel_link,-1.1319254481435523,-6.113348523335987,13.906514804904644,-0.2807263019879563,0.11750499767903791,0.03014321285538419
504495000000,19,504495000000,FR_wheel_link,-0.6899034572585925,-5.579260489578747,4.475100335645643,-0.47696908218416395,0.07020950529001968,0.01767562837284388
504496000000,20,504496000000,FR_wheel_link,-2.3040356982024033,-6.2849175458205035,6.224467857387757,-0.4984746591217289,0.22218531811900047,0.062818441814481
504497000000,21,504497000000,FR_wheel_link,0.08213530870565278,-6.280778045128351,15.635239497344225,-0.2557797184914975,-0.003334603925809837,-0.003482347734330371
504498000000,22,504498000000,FR_wheel_link,-1.61442566545702,-4.5848877762515245,6.548509076164233,-0.3076251494103007,0.16055992441664088,0.04299101151772172
504499000000,23,504499000000,FR_wheel_link,-1.0378807724943013,-6.343374434782324,5.791501053631,-0.5192368720739838,0.11643805876307894,0.02662736890570877
504500000000,24,504500000000,FR_wheel_link,-1.132553764053145,-6.117332973564435,13.90305308448986,-0.2812462952079612,0.1175713279826224,0.030162151544122856
504501000000,25,504501000000,FR_wheel_link,-0.6900635798727253,-5.582037290122173,4.474279838496466,-0.47730536009786473,0.07022833032369136,0.017678656307727886
504502000000,26,504502000000,FR_wheel_link,-2.3041713940815876,-6.28693735557683,6.223581275248355,-0.4987266632896832,0.2221965883256288,0.06282577242088863
504503000000,27,504503000000,FR_wheel_link,0.08442686151964351,-6.281090922030009,15.63044986949043,-0.2559420467066092,-0.003572944845071882,-0.00355259046679135
504504000000,28,504504000000,FR_wheel_link,-1.6148491880095337,-4.587238053181249,6.548998435444527,-0.3078808872424486,0.16060952111342713,0.04301211410651636
504505000000,29,504505000000,FR_wheel_link,-1.0379187582982021,-6.34560975684162,5.790349408290059,-0.519520326771411,0.1164435651989294,0.026626492532684634
504506000000,30,504506000000,FR_wheel_link,-1.1331421383448095,-6.121261410329583,13.899519919893145,-0.2817621498189061,0.1176332272709501,0.030179931399647003
504507000000,31,504507000000,FR_wheel_link,-0.6902012017407235,-5.584788334685857,4.4734494144463035,-0.4776390437672377,0.07024480318673931,0.017681084211515846
504507000000,32,504508000000,FR_wheel_link,-2.3042925008422532,-6.2889420106636384,6.222684778791461,-0.4989772807965537,0.2222063156843883,0.06283271094984962
504508000000,33,504509000000,FR_wheel_link,0.08625748993217519,-6.282002077306075,15.62622318034984,-0.2561520135281086,-0.0037630705361886146,-0.0036103119851160076
504508000000,34,504510000000,FR_wheel_link,-1.615210138172345,-4.589393584893887,6.549146855413065,-0.3081253240906212,0.16065274102566407,0.043031452354086445
504511000000,35,504511000000,FR_wheel_link,-1.0378862841566499,-6.347732726427182,5.789041777909867,-0.519796418565237,0.11644105752409392,0.026623697796419543
504511000000,36,504512000000,FR_wheel_link,-1.1336883595945226,-6.125117640828391,13.895885234395777,-0.28227285264665797,0.11769060642930922,0.03019647919444638
504511000000,37,504513000000,FR_wheel_link,-0.6903120665194948,-5.587509199714919,4.472602812429724,-0.47796983251926206,0.07025849836535203,0.017682795313756397
504511000000,38,504514000000,FR_wheel_link,-2.304395152628791,-6.290927514766534,6.221775906289514,-0.4992261541425803,0.22221408592760167,0.06283915185597813
504515000000,39,504515000000,FR_wheel_link,0.08753792377536895,-6.283637164351697,15.622707452220538,-0.2564182133107575,-0.003895562661469787,-0.0036533122216567473
504516000000,40,504516000000,FR_wheel_link,-1.6154991840803647,-4.591300621733435,6.548839954805123,-0.3083564728879708,0.1606884975094201,0.04304898407778775
504517000000,41,504517000000,FR_wheel_link,-1.0377707469641666,-6.349722497910703,5.78755280562085,-0.5200636987107539,0.11642911861783106,0.026618631882639673
504518000000,42,504518000000,FR_wheel_link,-1.1341843546050483,-6.128887291296647,13.892133421585433,-0.28277724246583547,0.11774261599384617,0.030211552225321077
504519000000,43,504519000000,FR_wheel_link,-0.6903933235156257,-5.5901928145793125,4.471739809664254,-0.4782969343029754,0.07026911096335292,0.017683716095307847
504520000000,44,504520000000,FR_wheel_link,-2.3044778003786677,-6.292890882141796,6.2208535656156645,-0.49947297550850395,0.22221974572646216,0.06284505377520122
504521000000,45,504521000000,FR_wheel_link,0.0883214991773612,-6.285941401424807,15.619893985771167,-0.25673612553471203,-0.003976142855900977,-0.0036820318933255686
504522000000,46,504522000000,FR_wheel_link,-1.6157165315792354,-4.592959825336896,6.548015932958702,-0.30857498483240847,0.16071690281362133,0.04306363904863113
504523000000,47,504523000000,FR_wheel_link,-1.037576750938803,-6.35159058625987,5.785912641538324,-0.520322532850501,0.11640836076271269,0.02661141879252113
504524000000,48,504524000000,FR_wheel_link,-1.134627839012712,-6.132574938736159,13.888304549930236,-0.2832747523321802,0.11778903908959086,0.030225112593323757
504525000000,49,504525000000,FR_wheel_link,-0.6904543812092148,-5.592837023447013,4.47088707240856,-0.4786192344892898,0.07027766146436493,0.017684120377865653
504526000000,50,504526000000,FR_wheel_link,-2.3045498224445895,-6.294838305567216,6.219925156771127,-0.49971815424708665,0.22222432078356255,0.06285068160645815
504527000000,51,504527000000,FR_wheel_link,0.08857476783159135,-6.289027725942776,15.617890081652597,-0.2571101796363944,-0.004002411049695551,-0.0036989570897813934
504528000000,52,504528000000,FR_wheel_link,-1.6177555108263362,-4.593867913264589,6.522836796121215,-0.30937906224572226,0.1608226432457108,0.04316069633057809
504529000000,53,504529000000,FR_wheel_link,-0.8957618671722305,-5.838935946211619,8.275882138469676,-0.39913298416098575,0.10552099501783646,0.021298862124860395
504529000000,54,504530000000,FR_wheel_link,-2.373068209712476,-6.079197420866842,5.8070114679675875,-0.4877391179818551,0.23091545426063634,0.06484746651811561
504531000000,55,504531000000,FR_wheel_link,0.10915459777521175,-6.423405750711876,13.464991231590274,-0.32851587933167525,-0.006838581948749062,-0.0037831105345241256
504532000000,56,504532000000,FR_wheel_link,-1.532398625171478,-5.007653386689802,7.113432329003494,-0.339883798566727,0.1509760148720084,0.04092653925619668
504533000000,57,504533000000,FR_wheel_link,-1.0527028995342327,-6.473122350160638,5.736888818417438,-0.5357154907097771,0.11609721683509122,0.027136836782317514
504534000000,58,504534000000,FR_wheel_link,-1.1833547500827537,-6.233480880558332,13.878901201734738,-0.2947898313810373,0.12271054760712778,0.031695111787579826
504535000000,59,504535000000,FR_wheel_link,-0.7301444976469225,-5.680023141255012,4.488421778833849,-0.4878848799641459,0.07415115017414026,0.018755633476614145
504535000000,60,504536000000,FR_wheel_link,-2.3412150244915013,-6.34568291871013,6.2540596575144445,-0.5043098985476575,0.2260458014173407,0.06385441891034048
504537000000,61,504537000000,FR_wheel_link,0.02085871841922038,-6.322106989197566,15.779875644611186,-0.2564694640726727,0.0029382984584835764,-0.0018486974679207333
504538000000,62,504538000000,FR_wheel_link,-1.661763130506743,-4.605912338238691,6.570353674741492,-0.30930839221477796,0.16577351948170413,0.04439194231182669
504539000000,63,504539000000,FR_wheel_link,-0.9253596511443545,-5.833581147359036,8.309449407811758,-0.3978475255747159,0.10841539272042416,0.022122282087945123
504540000000,64,504540000000,FR_wheel_link,-2.4009372131823064,-6.0918481189658085,5.871364292373056,-0.4873429429848223,0.234325392797158,0.06554133215043981
504541000000,65,504541000000,FR_wheel_link,0.09386527172527881,-6.427371070673412,13.417321896365603,-0.33034157300705835,-0.005499752493867055,-0.0033431954452040127
504542000000,66,504542000000,FR_wheel_link,-1.5459212436337464,-5.023154732697943,7.136483489004668,-0.3409386028852593,0.15247787273015373,0.041297295842055576
504543000000,67,504543000000,FR_wheel_link,-1.0820648539490674,-6.4733484348256844,5.738900315162901,-0.5356801883785098,0.11891151539473502,0.027939068711182388
504544000000,68,504544000000,FR_wheel_link,-1.190494223135215,-6.242472518747935,13.953645067508415,-0.2937072703135488,0.12360618682026092,0.031894654098039425
504545000000,69,504545000000,FR_wheel_link,-0.7551142380329403,-5.659664282174993,4.486822999430755,-0.4857381812588914,0.07648112642843227,0.01942361669555294
504546000000,70,504546000000,FR_wheel_link,-2.360982584996262,-6.347682657490453,6.257895437728694,-0.5043280413901039,0.22828426655980857,0.06438980126376934
504546000000,71,504547000000,FR_wheel_link,0.23353057799495808,-0.10281545407293344,0.38298800241779996,-0.011677492075779814,-0.008965765556118796,-0.009638341070202464
504548000000,72,504548000000,FR_wheel_link,-3.27563396109203,-11.87689231571316,15.918022550846036,-0.8112858560592545,0.2933043333693002,0.08706189791300788
504549000000,73,504549000000,FR_wheel_link,0.1193506291226139,-0.10278273183699975,1.5043413923303395,-0.0008243878738158779,0.008463131164342556,-0.004196498631705716
504550000000,74,504550000000,FR_wheel_link,-3.5848121794390746,-12.686022400623042,19.35724625389279,-0.7772862981771596,0.36303061930689623,0.09419541867528816
504551000000,75,504551000000,FR_wheel_link,0.07744993367761421,-0.14433294466532454,1.4689825500618756,-0.004551170481682892,0.010689254412247856,-0.001410205733897477
504551000000,76,504552000000,FR_wheel_link,-2.421737837573586,-13.380626112293315,17.58223413155901,-0.9093511458791211,0.24712040587269468,0.0635085154684481
504551000000,77,504553000000,FR_wheel_link,0.10624852252531156,-0.2289942326648168,1.1713500460404525,-0.01287345002272735,0.004147316841735397,-0.003780971289273574
504551000000,78,504554000000,FR_wheel_link,-2.5445208063737192,-13.074549293610417,17.588106575992843,-0.886152027159208,0.2539861152573501,0.06653607004795459
504551000000,79,504555000000,FR_wheel_link,0.10308429438733398,-0.2088323576493152,1.1729161740364367,-0.013950023154240147,0.002348746402316363,-0.001902784567714793
504556000000,80,504556000000,FR_wheel_link,-2.014149263112439,-13.146459837988822,16.561175339433532,-0.9243645909656745,0.19634078377940078,0.05323346930014618
504557000000,81,504557000000,FR_wheel_link,0.057418162838996256,-0.18955215184113522,0.8187947450366777,-0.021946890950258424,-0.002062899791476499,-0.0030408435327238343
504558000000,82,504558000000,FR_wheel_link,-3.802295484027911,-12.044831972652323,15.13802339099171,-0.8549194597985135,0.3575123289623915,0.10248687852407969
504559000000,83,504559000000,FR_wheel_link,0.14759331466451575,-0.2222342434520589,0.8832793370551193,-0.020155006144045418,0.005591266267638379,-0.005505866222650356
504560000000,84,504560000000,FR_wheel_link,-4.335297979842956,-12.311010546530147,15.648683452311431,-0.8663558437404393,0.41253534829927846,0.11661669420756121
504561000000,85,504561000000,FR_wheel_link,0.046088818807825366,-0.1405429888884789,1.40552999494895,-0.007905469329327293,0.014132653719353738,-0.0008444094427425427
504562000000,86,504562000000,FR_wheel_link,-2.0819798577079247,-13.736961478891967,16.824934100383203,-0.9702169198130441,0.21642549593925486,0.05527050587656096
504563000000,87,504563000000,FR_wheel_link,0.06997906262309869,-0.22788319477785215,0.7680356225270664,-0.02366915196533534,0.0030448945764548017,-0.005684470771798141
504564000000,88,504564000000,FR_wheel_link,-3.9235513931180175,-12.355954349377475,15.31387172150972,-0.8827242869089643,0.37529858714213804,0.10593679881855082
504565000000,89,504565000000,FR_wheel_link,0.07677251709408744,-0.14419247759189094,1.4078177833980177,-0.009275444721084027,0.009953495934615069,-0.0009146478856166539
504566000000,90,504566000000,FR_wheel_link,-1.8279975311742773,-13.681857819196518,16.669078954579817,-0.971466158300287,0.18573696033631576,0.04839551172150203
504567000000,91,504567000000,FR_wheel_link,0.07534949395180748,-0.21338734375081106,0.7716726092766689,-0.023492258699771614,0.0011161815570744724,-0.0054228257555630835
504568000000,92,504568000000,FR_wheel_link,-3.769537174861746,-12.252865694173332,15.242642304138103,-0.8740106613159334,0.35895784963081145,0.10176029110612103
504569000000,93,504569000000,FR_wheel_link,0.08793641043064038,-0.1352029292345299,1.4188038714277247,-0.00860297479353661,0.008677502218803848,-0.0010329729611837622
504570000000,94,504570000000,FR_wheel_link,-1.7428541316674258,-13.578674274152155,16.68852948099789,-0.9598977695831126,0.17653839018689904,0.04597374367618198
504571000000,95,504571000000,FR_wheel_link,0.07555206300223948,-0.19648958434012131,0.798373299573405,-0.022172284207382625,0.0002481745333329146,-0.005286490987557024
504572000000,96,504572000000,FR_wheel_link,-3.7994085723846878,-12.105635217662494,15.20030872662165,-0.8591531525532567,0.36041740103345593,0.10244975999829349
504573000000,97,504573000000,FR_wheel_link,0.08324315909646238,-0.1257516309622504,1.4225855559595302,-0.007635610028374554,0.00936698042985182,-0.0009536270573255893
504574000000,98,504574000000,FR_wheel_link,-1.7860886252135177,-13.51269902840967,16.767287867902972,-0.9495950507552163,0.18262837281120597,0.04705417283401839
504575000000,99,504575000000,FR_wheel_link,0.07518631744032966,-0.1914973885110815,0.8096747861069946,-0.021485002769566323,0.00039985398990270357,-0.005258209213448566
504576000000,100,504576000000,FR_wheel_link,-3.852518456771706,-12.052502237143585,15.187584732276509,-0.8536068995606223,0.36524435918485454,0.10383973007733756
504577000000,101,504577000000,FR_wheel_link,0.07885939943263456,-0.12178634743660463,1.426489342385461,-0.00717928032565089,0.00995103110997599,-0.0008597259085787613
504578000000,102,504578000000,FR_wheel_link,-1.8346915371431867,-13.502398731354726,16.844326427322343,-0.9456682562906685,0.18866552521808383,0.04832235828895079
504579000000,103,504579000000,FR_wheel_link,0.29803833518825673,-0.18236827859219917,0.8940529714611483,-0.0813183939635284,0.0022509644178350177,-0.014325240292854232
504580000000,104,504580000000,FR_wheel_link,-3.08673219520648,-21.256076374375994,22.640677732574318,-1.7295318980355034,0.2816444080165935,0.08415769684508959
504581000000,105,504581000000,FR_wheel_link,-5.731830805980311,-11.072688773056262,6.748025517508577,-1.0636858909227307,0.583234322975869,0.15716960506039548
504581000000,106,504582000000,FR_wheel_link,0.8385280027982362,-0.06814116746749627,0.1963150267907677,-0.06945995996577985,0.0018236241642914722,-0.03110420165780392
504583000000,107,504583000000,FR_wheel_link,-3.2291321135800155,-28.70677951890714,25.541051150818575,-2.472023086100051,0.25045915586903256,0.08696069012693242
504584000000,108,504584000000,FR_wheel_link,0.5380902359349642,-1.245364531333976,0.4077194956004089,-0.12303978885593111,0.00966359232073822,-0.02186950302778381
504585000000,109,504585000000,FR_wheel_link,-2.4224570857616925,-22.800750658091793,20.441992423525193,-1.926427216165429,0.20696692599930167,0.06418211818490643
504586000000,110,504586000000,FR_wheel_link,0.18629362149862988,-0.8662246518100509,0.06927671965639157,-0.08994231958170049,0.0044044508370061075,-0.010186673862919503
504587000000,111,504587000000,FR_wheel_link,-2.9716516243560784,-17.88148681175774,12.023702595077808,-1.6336365243321613,0.2627871331770566,0.08180286909089965
504588000000,112,504588000000,FR_wheel_link,0.021923203862114965,-0.5188483734010738,-0.13192063977481924,-0.06397651678323246,0.003856390913447999,-0.004744275252985187
504589000000,113,504589000000,FR_wheel_link,-2.627619090701345,-13.111185376585688,12.9101320574626,-1.0690885462885569,0.24530890822661222,0.06887279392831291
504590000000,114,504590000000,FR_wheel_link,-2.9196828721935373,-8.07064187373576,4.720457876709433,-0.741440424913272,0.3061280410853763,0.07885693046084419
504591000000,115,504591000000,FR_wheel_link,-0.008537442040896303,0.02888433349133805,-0.14008145932512112,-0.011516652918821625,0.00448992841565529,-0.003378973078826832
504592000000,116,504592000000,FR_wheel_link,-3.1442866640530616,-13.664383748958185,14.248993529229708,-1.0827014867957345,0.30445000863106797,0.08315147654513771
504593000000,117,504593000000,FR_wheel_link,-2.2939384392711,-6.924459862259178,4.103647552657242,-0.6315833230975127,0.24146916121984507,0.06141290600152646
504593000000,118,504594000000,FR_wheel_link,0.0006581916170289234,0.019368195881396644,-0.13888442020576236,-0.009748992872149042,0.00650647790287749,-0.003118055940738416
504595000000,119,504595000000,FR_wheel_link,-3.3836231734915456,-14.094856186792509,14.892206716758354,-1.106312131939299,0.330659354992787,0.08999689664487262
504596000000,120,504596000000,FR_wheel_link,-2.4222829275366706,-7.199458651270646,4.320771309960302,-0.6531748292553814,0.25646924396332,0.06502828590506535
504597000000,121,504597000000,FR_wheel_link,0.010256728738510081,-0.005141814334957088,-0.12401140032802313,-0.010329610186357426,0.00692892109464779,-0.00328253213567575
504598000000,122,504598000000,FR_wheel_link,-3.431174272944138,-14.456008286144755,15.275465004353357,-1.133077919248732,0.3354976420305934,0.09149991234564431
504599000000,123,504599000000,FR_wheel_link,-2.391512376686587,-7.161824018829942,4.314890359192168,-0.6482865214661568,0.2541294858531553,0.06420583079435531
504600000000,124,504600000000,FR_wheel_link,0.018465504181683412,-0.011174350161792721,-0.12132853505075764,-0.010373802233846013,0.00651755652456786,-0.0034539047112026266
504601000000,125,504601000000,FR_wheel_link,-3.3780275961128754,-14.695063022281687,15.45909586147213,-1.1539282463780973,0.32951150811837415,0.09015601536430323
504602000000,126,504602000000,FR_wheel_link,-2.2942413243927913,-6.952323898787975,4.186018159839456,-0.6287372840383112,0.24426030358882825,0.06153716314291373
504603000000,127,504603000000,FR_wheel_link,0.024366408284574384,-0.00852308392190334,-0.12483438863123666,-0.010164717063869934,0.005821804357265771,-0.0035833118765952517
504604000000,128,504604000000,FR_wheel_link,-3.2948933929922184,-14.846200160142677,15.530422522844795,-1.1690267954651488,0.320352291493853,0.087948817714713
504605000000,129,504605000000,FR_wheel_link,-2.1936680967347195,-6.745116314920054,4.057091938488058,-0.6097031065818179,0.23373701018041743,0.058775728878963346
504606000000,130,504606000000,FR_wheel_link,-2.4481361400254156,-11.112510516005297,7.637870883126768,-0.998908735927968,0.23778608467959728,0.06771416134566416
504607000000,131,504607000000,FR_wheel_link,-2.869949740026912,-10.646573838613064,8.110629324934392,-0.9190697733970294,0.28936052977667465,0.07833147728631319
504608000000,132,504608000000,FR_wheel_link,-3.014444498119504,-9.994734101612282,8.098809003898367,-0.8472090514685493,0.3091261995972385,0.08180738761130554
504609000000,133,504609000000,FR_wheel_link,-3.1776400021120423,-9.767111784236032,8.146086170644915,-0.8208116177446398,0.3279922578999055,0.08604096957367043
504612000000,134,504610000000,FR_wheel_link,-3.0429678565571843,-9.351628445653867,7.893191723357143,-0.7833334575694009,0.3142555707684165,0.08219358478303612
504612000000,135,504611000000,FR_wheel_link,-2.9843848290162884,-9.154990980342035,7.774692122247636,-0.7660446876927003,0.30816254419582556,0.08053628719526622
504612000000,136,504612000000,FR_wheel_link,-2.8865084823499885,-8.95121186931544,7.627897909760259,-0.7488665646843484,0.2977156680249796,0.07777789299099759
504613000000,137,504613000000,FR_wheel_link,-2.7933492901157813,-8.77554357223121,7.498946849222174,-0.7342666581835126,0.2877089403407509,0.07514885442929792
504614000000,138,504614000000,FR_wheel_link,-2.6972470874730368,-8.602615112188937,7.372552171360312,-0.7198685255179988,0.27739483709644297,0.07243054030034413
504615000000,139,504615000000,FR_wheel_link,-2.605127172644716,-8.43632291693617,7.254115574382034,-0.7059214729183996,0.2675252230271633,0.06981653468960156
504616000000,140,504616000000,FR_wheel_link,-2.5178312083588796,-8.275391184381188,7.142902372667242,-0.6922903873924211,0.25819730389917095,0.06733175424376432
504617000000,141,504617000000,FR_wheel_link,-2.4373028197143514,-8.122058552701985,7.0403159095395855,-0.6791706554879415,0.24961523514432252,0.06503195083698857
504618000000,142,504618000000,FR_wheel_link,-2.3644402872217736,-7.977875885797326,6.946941432245839,-0.6667094551685531,0.24187070060365393,0.0629438177778332
504619000000,143,504619000000,FR_wheel_link,-2.2999469239484247,-7.844472241382071,6.863381630581639,-0.6550655044578731,0.2350334009751564,0.06108839451643609
504620000000,144,504620000000,FR_wheel_link,-2.244134336062711,-7.723025511918512,6.789927216021311,-0.6443594119863246,0.2291317733738293,0.05947565770925095
504621000000,145,504621000000,FR_wheel_link,-2.1971614765493617,-7.6142924358641375,6.726600268210039,-0.6346769092089759,0.2241771427761778,0.05811066961286511
504622000000,146,504622000000,FR_wheel_link,-2.158754692033346,-7.518530559745214,6.673174709923867,-0.6260555006760746,0.2201377355177116,0.05698693389195318
504623000000,147,504623000000,FR_wheel_link,-2.1286436429504505,-7.4356461011584365,6.629178966515315,-0.6185056946364581,0.21697990407275788,0.05609696932958176
504624000000,148,504624000000,FR_wheel_link,3.0760567393393456,-3.5140086163905213,34.331690385834875,0.5324244287562617,-0.3211561231824739,-0.08405721912159338
504625000000,149,504625000000,FR_wheel_link,0.18641973971901532,0.27620691254072405,-0.09297861678236322,0.015868836762496296,-0.020612672896070827,-0.004543382037482183
504626000000,150,504626000000,FR_wheel_link,-0.1703211023501321,-4.328210948785893,8.212593001007239,-0.22012749326514897,-0.010398084729464352,0.0025968482545581754
504627000000,151,504627000000,FR_wheel_link,1.8102954637618285,-1.9404263965039026,18.32735798184384,0.2728573959490845,-0.18416044601163173,-0.0493735476933097
504628000000,152,504628000000,FR_wheel_link,0.11678931477072461,0.14900202537770366,-0.03351577687693325,0.01045462073771043,-0.013205393542993394,-0.0035326390122239148
504629000000,153,504629000000,FR_wheel_link,-1.683925667658626,-6.528106427337392,10.696057889730428,-0.3797583459000722,0.14693668061924725,0.04342137859858089
504630000000,154,504630000000,FR_wheel_link,0.40086583996734015,-3.069647642983904,17.656681062988394,0.13754819364949555,-0.029391724057550056,-0.011957949191932576
504631000000,155,504631000000,FR_wheel_link,0.021307279598608106,0.047152093813536106,-0.03508197129240959,0.0017810455462785068,-0.0020914335906515257,-0.0007453545453735395
504632000000,156,504632000000,FR_wheel_link,-3.2106483897866096,-8.237819374655212,12.188343052785543,-0.5182838692641974,0.30918087956343693,0.08493455841412365
504633000000,157,504633000000,FR_wheel_link,-1.2315850785075375,-4.803889887917964,18.950105932117673,-0.011498354958869167,0.14814457542532095,0.03309200783040209
504634000000,158,504634000000,FR_wheel_link,-0.04350626791682114,-0.026430354267913226,0.006306510118551603,-0.003941931721705807,0.00485408962020742,0.0007261184564771751
504635000000,159,504635000000,FR_wheel_link,-4.220198165836488,-9.525985000046463,13.51108215210602,-0.6171174729146608,0.41531460684796506,0.11231093661129415
504636000000,160,504636000000,FR_wheel_link,-2.2908844577240868,-5.8760074011605825,19.244160628068,-0.1178213249246161,0.2625009102953409,0.06229140040234334
504637000000,161,504637000000,FR_wheel_link,-0.0873138242404936,-0.07591118971940329,0.029702527965481694,-0.008152716469527428,0.009567416421468685,0.0017941587934262098
504638000000,162,504638000000,FR_wheel_link,-4.8525232263371,-10.343334794396513,14.323941844301915,-0.6811495037658676,0.48170738264124735,0.12949321489273785
504639000000,163,504639000000,FR_wheel_link,-2.9462235383404773,-6.576822260166541,19.404558106999275,-0.18854057076176817,0.3326222138651833,0.08040003067366862
504640000000,164,504640000000,FR_wheel_link,-2.7850775162758303,-4.925234945816282,6.807265511728922,-0.3296333887413004,0.2874033726020745,0.07451434305420479
504641000000,165,504641000000,FR_wheel_link,-4.191195306207952,-7.050949076239894,7.277204507913202,-0.5422311139823002,0.4297577108117898,0.1133686299379558
504642000000,166,504642000000,FR_wheel_link,-3.117490230520435,-7.278109759026595,20.628595753804042,-0.21653107804754107,0.34162641695498075,0.08349726662460838
504644000000,167,504643000000,FR_wheel_link,-2.8510178698857906,-5.181186807499195,7.52947729896068,-0.33788626443206315,0.29564803335519363,0.07611252470834898
504644000000,168,504644000000,FR_wheel_link,-4.357272215650158,-7.269058515236081,7.436111701175064,-0.5617057705753716,0.4471833911852364,0.1178571682706771
504645000000,169,504645000000,FR_wheel_link,-3.012970928719236,-7.173675949706263,20.21997841742767,-0.2172489261840025,0.3285569422929333,0.08097447343488202
504646000000,170,504646000000,FR_wheel_link,-2.74614410618491,-5.129580787875594,7.703004459202763,-0.3290141148876304,0.28517970288950917,0.07322811954457906
504647000000,171,504647000000,FR_wheel_link,-4.214544258502967,-7.14558811379775,7.384764704600556,-0.5507063612659524,0.43172216193132995,0.11407980109344193
504648000000,172,504648000000,FR_wheel_link,-2.778650096182297,-6.942799325183321,20.069177174348507,-0.1975392284370201,0.3024667291635974,0.07481007951348292
504649000000,173,504649000000,FR_wheel_link,-2.5876923993777616,-4.948407395649461,7.536583422628874,-0.31445639010646637,0.2683802895503834,0.06866620905885662
504650000000,174,504650000000,FR_wheel_link,-4.0896818613965955,-6.995107854765846,7.294055401833017,-0.5374485675027485,0.4184792250739213,0.11069328502199217
504651000000,175,504651000000,FR_wheel_link,-2.5708735950758586,-6.720470331468794,20.025817301197282,-0.17566084210753488,0.2797499257306143,0.06937177114754645
504652000000,176,504652000000,FR_wheel_link,-2.4575473357941977,-4.785794726129765,7.341541400129874,-0.30253651250283614,0.2543647533086143,0.06502830830544429
504652000000,177,504653000000,FR_wheel_link,0.3743066194607469,-0.6038789359034199,-1.3140237969648072,-0.05873068211383359,-0.011869157359129977,-0.00910738807409231
504654000000,178,504654000000,FR_wheel_link,-0.23390580805252603,0.5350721077333878,-0.07608592647506897,0.012295802429947926,-0.0013958346812444318,-0.007499407183557713
504655000000,179,504655000000,FR_wheel_link,-0.1860899827185782,0.29573803453750236,-0.402953561774298,-0.0037742244483007998,-0.004147846061946441,-0.0012368659250387593
504656000000,180,504656000000,FR_wheel_link,-0.1417487027967906,0.4858140583456527,-0.09241535005946831,0.007347105858405181,-0.009166345857948455,-0.004547637552944732
504657000000,181,504657000000,FR_wheel_link,-0.2544845483943575,0.32150059363929223,-0.43104274722716207,-0.004141836986275606,-0.005035720873761652,0.0010695324222012382
504658000000,182,504658000000,FR_wheel_link,-3.0954499442099657,-14.415730181072137,12.706176171761378,-1.2271363114841396,0.26532544658434176,0.08102680604519966
504659000000,183,504659000000,FR_wheel_link,-2.755332079657281,-6.756112705210737,10.727666671179465,-0.44903023076352594,0.27655113461410075,0.07159302625209851
504660000000,184,504660000000,FR_wheel_link,-3.146729390263359,-5.897312933117199,8.686149739778354,-0.4011608238169801,0.32314173774202565,0.08361297750331648
504661000000,185,504661000000,FR_wheel_link,-2.9720738522057157,-5.338467486544461,9.619267920962645,-0.3235695082972285,0.30808602904423105,0.07999150987449802
504662000000,186,504662000000,FR_wheel_link,-3.1230981022329023,-5.560020269536657,5.645792692652227,-0.43831104003561727,0.32333922677084875,0.08219805239875985
504663000000,187,504663000000,FR_wheel_link,-2.7700308375391103,-5.5436102390611905,14.979590364138742,-0.19201776489083214,0.29337266811141177,0.075859979911208
504664000000,188,504664000000,FR_wheel_link,-2.186584471348511,-5.163998608100179,11.236351480113425,-0.24432106991671065,0.23424908888206042,0.060028235922894094
504665000000,189,504665000000,FR_wheel_link,-2.205365045990198,-5.426965563676458,12.379473871686525,-0.2436929124073679,0.23461246979584566,0.06057698873313566
504666000000,190,504666000000,FR_wheel_link,-1.736245527208511,-5.104246343672896,8.672141766727982,-0.31990345887530797,0.17707663648995994,0.045315794305808677
504667000000,191,504667000000,FR_wheel_link,-1.6488559019379518,-4.6019190558250695,10.984395657868538,-0.19611503990559706,0.17392508019913627,0.04517592570768375
504668000000,192,504668000000,FR_wheel_link,-1.3439122061239208,-4.773853646422824,7.5809451070724005,-0.3144196847587365,0.1316489547006789,0.034573171993750845
504669000000,193,504669000000,FR_wheel_link,-1.355927661706758,-4.365302789110398,10.55445422846856,-0.18261725377591115,0.1433522040367948,0.036802024791135965
504670000000,194,504670000000,FR_wheel_link,-1.0172686539627067,-4.448185442579504,7.850441216876829,-0.2713426188402834,0.09988826321196616,0.02559586062696626
504671000000,195,504671000000,FR_wheel_link,0.36226575360414504,-0.4939425020516162,-1.2821463258145798,-0.048227577612370995,-0.021089750371134613,-0.008798155458132716
504672000000,196,504672000000,FR_wheel_link,-0.012689840803511591,0.06909298315836379,0.01952089140174582,0.0014351323351637557,-0.0009249012449758135,-0.00026712457903834113
504673000000,197,504673000000,FR_wheel_link,0.3133961495685629,0.36898252994945935,1.1596430615219147,0.03665135938277025,-0.00788530401389759,-0.013786601972473105
504674000000,198,504674000000,FR_wheel_link,2.5118867094167694,-14.221428827170342,15.015428888037935,-1.0995120353018302,-0.3343366753063993,-0.06870075418620286
504675000000,199,504675000000,FR_wheel_link,0.44598338548384264,-8.894683296572094,10.997046885013347,-0.6892522424997929,-0.07915886886939116,-0.015863693540780766
504676000000,200,504676000000,FR_wheel_link,0.3114188583552646,-0.3576156147507725,-0.5783497078094522,-0.03518737849155934,-0.011633938034977554,-0.008304740265594428
504677000000,201,504677000000,FR_wheel_link,-0.008418749334833261,0.06269065507752009,0.022190809056497767,0.001244036158303172,7.877929612032993e-05,-0.0003153437670843188
504678000000,202,504678000000,FR_wheel_link,0.13275509356254012,-10.695608128037273,25.388147398629435,-0.46975392615909983,-0.03362745573489251,-0.011487361636177557
504679000000,203,504679000000,FR_wheel_link,0.04286606567890341,-0.189812409996122,0.29775988037616713,-0.023316472388991587,-0.002388806186186209,-0.0010750775344668048
504680000000,204,504680000000,FR_wheel_link,1.0932820382002606,-6.961775538526918,4.594311290374519,-0.6238647212629039,-0.1272360185652633,-0.026466400339612936
504681000000,205,504681000000,FR_wheel_link,0.07480963800316984,-0.06828344041784273,0.10597597165165726,-0.006961291207041932,-0.00914112131411708,-0.002545927184867242
504682000000,206,504682000000,FR_wheel_link,-0.45978058049647363,-10.722221960360878,30.621044267925296,-0.3216753415871011,0.042054302624510737,0.006695559865592629
504683000000,207,504683000000,FR_wheel_link,0.06679183753890248,-0.22624037261893076,0.03338419567076999,-0.025003940168536905,-0.0011126773082475155,-0.003484040421173393
504684000000,208,504684000000,FR_wheel_link,-0.007319168171976016,0.03279965670445162,-0.00524655703516734,0.00023228658442633386,0.00026384498598457014,7.973627513952909e-05
504685000000,209,504685000000,FR_wheel_link,0.8970917163806407,-13.47109338733562,14.980796971170895,-1.050425149792752,-0.12004635300695177,-0.021566211490014447
504686000000,210,504686000000,FR_wheel_link,-2.0613198432563724,-5.706653420681527,4.850824518674623,-0.48091871256098595,0.19840596362587395,0.05616318199120858
504687000000,211,504687000000,FR_wheel_link,-0.6699392490250016,-6.941359565856514,14.445809156119104,-0.35287828666841936,0.08365844797961197,0.016531338679777775
504688000000,212,504688000000,FR_wheel_link,-1.810646598189064,-4.767696941527489,9.853656034689754,-0.2395837526212485,0.19139918631287034,0.047753000555012026
504689000000,213,504689000000,FR_wheel_link,-0.5741635243300509,-6.47489008908733,5.781725499554597,-0.5331656540747831,0.06500649413938425,0.015899211280153425
504690000000,214,504690000000,FR_wheel_link,-3.006119073769148,-6.912010761897649,7.108548827364481,-0.5402133318118894,0.29536296965587283,0.0813466358497159
504691000000,215,504691000000,FR_wheel_link,-0.42984921947167165,-5.888532011939184,15.968352688103796,-0.20388375662877933,0.05169707690962108,0.009703373350844431
504692000000,216,504692000000,FR_wheel_link,-1.5960790775832598,-3.9054066229785445,8.359361819862382,-0.18451536306681346,0.16795451395279323,0.040857457152831525
504693000000,217,504693000000,FR_wheel_link,-0.5583711486170397,-6.194738515358843,4.151934127404163,-0.5409324191312224,0.05662780044480731,0.018346686282103702
504694000000,218,504694000000,FR_wheel_link,0.1269882367750022,0.24386524014049804,0.5806972399949799,0.019612551978496838,-0.0014141278671290156,-0.006903589065667307
504695000000,219,504695000000,FR_wheel_link,-0.7973402677365296,-11.1654409541971,16.288325789251346,-0.7086004965997825,0.07165870639469357,0.01918459396316914
504696000000,220,504696000000,FR_wheel_link,0.10837943995219212,-5.813920042245801,16.175261834372165,-0.21215649941928136,-0.017249398535767388,-0.002224122119337077
504697000000,221,504697000000,FR_wheel_link,-7.992659577840225,-6.930644214734063,27.130197211332906,-0.7854536420705225,0.8342651661265422,0.022973258053944894
504698000000,222,504698000000,FR_wheel_link,-0.3968666505619358,0.17201684366854994,0.35941161771399327,-0.004457579436402046,0.03387675011081379,0.003889298192245658
504699000000,223,504699000000,FR_wheel_link,-4.636950712990529,-6.537870303430148,31.577937196419885,-0.6879010002043895,0.529733706687467,-0.007327960335204357
504700000000,224,504700000000,FR_wheel_link,-5.913730849515823,-4.646185768109861,5.6105891935212355,-0.49916928723493137,0.6693060350009732,0.003364913206571344
504701000000,225,504701000000,FR_wheel_link,-0.2090650744449009,-0.16793074739773906,0.04324095776136848,-0.016645054858898015,0.02191383571630469,-0.0008631702516688293
504702000000,226,504702000000,FR_wheel_link,-4.619328262301101,-8.747207817093166,33.209662898605515,-0.9445470680179167,0.5091345961668801,0.0023943054909087713
504703000000,227,504703000000,FR_wheel_link,-0.16022078187068542,-0.19220095879511243,0.1283832734435423,-0.01900596638927161,0.01757139818487678,-0.0008380303976150544
504704000000,228,504704000000,FR_wheel_link,0.021767808433124477,0.023626962200409392,-0.0017312331249000118,-5.640608272116537e-05,-0.0024723725236842752,-5.03691857405992e-05
504705000000,229,504705000000,FR_wheel_link,-1.2669511192003111,-11.364310017772853,28.199400489937155,-1.252815678921218,0.14067875978423217,0.0002898020718720695
504706000000,230,504706000000,FR_wheel_link,-0.09761100470121692,-0.22426047138402933,0.15826460578076024,-0.021214739953630164,0.011678465619282014,-0.0010674028113497286
504707000000,231,504707000000,FR_wheel_link,0.39476642173338417,-0.1537903957670292,-0.39201742308284115,-0.013087223662473108,-0.016466263705156442,-0.009327192789419752
504708000000,232,504708000000,FR_wheel_link,-2.8783703276660733,-10.596359024759789,14.756110641924066,-1.1758896285169107,0.2582078670492067,0.017676854185206495
504709000000,233,504709000000,FR_wheel_link,0.22736263948923716,-0.09012135114088782,0.8722910781439639,-0.025339467360469325,-0.002242513289930425,-0.01293783022005533
504713000000,234,504710000000,FR_wheel_link,-2.6557153069971684,-9.238059803778935,27.18503851334482,-1.0125060851981627,0.27024416092065096,0.00669787033728704
504713000000,235,504711000000,FR_wheel_link,-0.021102839374779813,-0.16551303444884455,0.5616847270141379,-0.023548385564718874,0.012851790157887764,-0.0011104235834857624
504713000000,236,504712000000,FR_wheel_link,-0.9303875053260668,-9.019639317270578,10.967952913719376,-0.99294974274122,0.09707984753047672,0.00266010794150201
504713000000,237,504713000000,FR_wheel_link,0.15780902028011667,-0.13664675009601632,0.8566104914586268,-0.020664903694304654,-0.0009383790385095181,-0.005312743388750014
504713000000,238,504714000000,FR_wheel_link,-0.3314976542066741,-9.903987857295489,25.93934610635961,-1.0869735056402219,0.03901639478183422,-0.001708616198004012
504713000000,239,504715000000,FR_wheel_link,0.09999624052213268,-0.20067954477029412,0.44977370528222166,-0.028229953349799705,-0.0016144715463094466,-0.0008012118962845254
504715000000,240,504716000000,FR_wheel_link,-0.21285913272659895,-7.738951822182608,9.285662857779718,-0.8564022303141186,0.006708842360000022,0.004955199219959169
504715000000,241,504717000000,FR_wheel_link,0.25832616141803594,-0.053209862151626416,0.9085062283780905,-0.018351147224277758,-0.011336454433886744,-0.00443299923919107
504718000000,242,504718000000,FR_wheel_link,-0.028090302786747845,-9.53067602299106,26.430920996777324,-1.0459294627037927,-0.006279088881641581,0.0007107795513724424
504719000000,243,504719000000,FR_wheel_link,0.12352106332107965,-0.166009835368505,0.48277936185433346,-0.025690025720817564,-0.003531045490496272,-0.0008324661252272166
504720000000,244,504720000000,FR_wheel_link,0.0178828944849867,-7.885085005044608,9.647735700770166,-0.876665687732018,-0.01852336832332152,0.0050755709095197665
504721000000,245,504721000000,FR_wheel_link,0.2494723441718147,-0.03593756818135732,1.0001146567619152,-0.014175268570961142,-0.01241774559636159,-0.0038612044485860715
504722000000,246,504722000000,FR_wheel_link,-0.59240796337482,-11.181530527216712,19.635373534019003,-1.2201728836860377,0.042134967710516835,0.004860200208169407
504723000000,247,504723000000,FR_wheel_link,0.2761060427626668,-0.011565062337740326,1.2946995060803554,-0.012630774801556895,-0.011310743274650911,-0.00478250764363142
504724000000,248,504724000000,FR_wheel_link,-1.335655299941598,-9.865646357818573,19.914924471833096,-1.0699155733797245,0.12519092823321698,0.004129387319083688
504725000000,249,504725000000,FR_wheel_link,0.2025709702837998,-0.005289812473590404,1.1504812033045961,-0.012576000217006153,-0.0061770778342705055,-0.0027853689265051494
504726000000,250,504726000000,FR_wheel_link,-0.7811080148626957,-10.051541887350744,17.660518068601213,-1.0941359554719146,0.06849829146986963,0.0041090663613957135
504727000000,251,504727000000,FR_wheel_link,0.1927484720576877,-0.07399541869318964,0.96726978052434,-0.017327941854512505,-0.005629134340479145,-0.0038771415947835754
504728000000,252,504728000000,FR_wheel_link,-1.585006124838693,-2.6894392101423774,8.902634505247494,-0.32868277580822636,0.16764221713706073,0.005370161628482785
504729000000,253,504729000000,FR_wheel_link,-0.006998443946146557,-0.04653219240532888,-0.004696370051370165,-0.00847834151445708,5.98399889551772e-05,0.00042943730454336477
504730000000,254,504730000000,FR_wheel_link,0.17716075345743656,-0.04335942088931735,-0.37826604294935817,-0.009967760026848203,-0.010201248823471062,-0.005172767442667559
504731000000,255,504731000000,FR_wheel_link,-4.7456898664545815,-2.7961826485276102,11.592445821830642,-0.3400387733080422,0.4897759118735943,0.012186015318709867
504732000000,256,504732000000,FR_wheel_link,0.35359232822093545,-0.4696095348765903,-0.7495908658093058,-0.03515944190504301,-0.008596448423072438,-0.008740706271134423
504733000000,257,504733000000,FR_wheel_link,-0.343796474591332,0.8822120871173611,0.41624322411317893,0.04044687415366795,0.015168300915878308,0.00631618689291564
504734000000,258,504734000000,FR_wheel_link,1.0580125554210522,-4.066233906129345,2.9080259807985174,-0.48492320516436016,-0.13338560844494335,0.007204368850957807
504735000000,259,504735000000,FR_wheel_link,0.04456627505508471,-0.08055632275789198,0.03046126413231498,-0.013139609259933651,-0.007367113765963457,0.00031253228781456203
504736000000,260,504736000000,FR_wheel_link,-3.5594757466023417,-3.4262105591983474,13.80561978155498,-0.3896772949131527,0.3481505050569453,0.01162496413629585
504737000000,261,504737000000,FR_wheel_link,0.44019993086206455,-0.44882769584292026,-0.6826247329681565,-0.03590719255480139,0.0037240105200722993,-0.01476811651537074
504738000000,262,504738000000,FR_wheel_link,-0.3558269448658412,0.8531190341869255,0.39969319309372947,0.04038598646359068,0.016081293810567495,0.004485937046592572
504739000000,263,504739000000,FR_wheel_link,-0.2988632607420125,-5.666737795855564,9.207839314322822,-0.6529453037727182,0.02032312665086211,0.005700415382733678
504740000000,264,504740000000,FR_wheel_link,0.002927792029662632,-0.19235926725119257,0.1099060860422406,-0.018420916206389484,-0.001223040648443566,-0.0004968730780520333
504741000000,265,504741000000,FR_wheel_link,-5.680478479792943,-5.068275403702981,12.13439112046284,-0.5731211709681687,0.591270710348815,0.010784119111783619
504742000000,266,504742000000,FR_wheel_link,0.4281069399548277,-0.46038792595277733,-0.4313959240637749,-0.03413833357710638,-0.0033696906463674403,-0.014127705154088167
504743000000,267,504743000000,FR_wheel_link,-0.3801192729218503,0.8027642267208792,0.30317151906600426,0.03983077996254543,0.018421199544002263,0.0025909557079250474
504744000000,268,504744000000,FR_wheel_link,-0.5595151393865652,-6.8108775139081805,12.075634331318259,-0.7601785696050334,0.052028432022367566,0.0035654933540379546
504745000000,269,504745000000,FR_wheel_link,-0.0005006583358324601,-0.2883704192416967,0.06407279804272717,-0.02837945715600972,0.0001700511879445879,-0.0008222752994220222
504746000000,270,504746000000,FR_wheel_link,-0.2580340096585945,0.5862941726765187,0.2945413440395799,0.02500462911511076,0.009890781464220308,0.003933428147468491
504747000000,271,504747000000,FR_wheel_link,-0.1825340877901347,-10.595594701997472,14.67458829388881,-1.1453346391571428,0.03437066997953442,-0.00257833492332106
504748000000,272,504748000000,FR_wheel_link,-0.29597519765059804,0.25801397971998896,0.5161867639924471,-0.009648787595958745,0.011971013013671044,0.004171401722260697
504749000000,273,504749000000,FR_wheel_link,1.1298921921092342,-7.078751834185471,5.527227734430152,-0.7769611631882465,-0.106120919081371,-0.0024457442547007047
504751000000,274,504750000000,FR_wheel_link,-0.20428387000955112,0.2787503842934999,0.22579221263700316,-0.0009506090187732324,0.006659718023493455,0.0007903543555905568
504751000000,275,504751000000,FR_wheel_link,-0.1597267781874303,-5.4410795297964825,9.31622916540041,-0.6057326902869471,0.02270587986641992,-0.0007659479139810327
504752000000,276,504752000000,FR_wheel_link,0.01476713295433578,-0.2095194227896684,0.06328827657571007,-0.022036769241768492,-0.0013180549279432144,-0.0007531920257952715
504753000000,277,504753000000,FR_wheel_link,-5.825024651312934,-4.790730209357195,12.081536075144019,-0.5463250389706837,0.6074462275174644,0.011037081776164021
504754000000,278,504754000000,FR_wheel_link,0.47277537663586056,-0.48029848576508993,-0.39374984135320484,-0.03355981842780549,-0.0030626415970569764,-0.014684905914873652
504755000000,279,504755000000,FR_wheel_link,-4.518166681865127,-3.6653278029469463,11.109734976453028,-0.44438797434391697,0.4540977352757462,0.01135201589653235
504756000000,280,504756000000,FR_wheel_link,0.3760042683098133,-0.4441022765958706,-0.5749915089246806,-0.033650776556265034,-0.005912172380379489,-0.01102265699773812
504757000000,281,504757000000,FR_wheel_link,-0.34729382850359536,0.7938243671534306,0.3336684839802794,0.03644196739722199,0.015192749818427427,0.003835468095902664
504758000000,282,504758000000,FR_wheel_link,0.020622169959607195,-9.561996502592075,13.497203461503869,-1.0356991049640771,-0.005921672140058509,0.0015940904662942318
504759000000,283,504759000000,FR_wheel_link,-0.22673930325076647,0.21680241257841967,0.49909262126382714,-0.01326456950391847,0.005902605103348526,0.005237518768339624
504760000000,284,504760000000,FR_wheel_link,0.8170111927487844,-7.156986670794051,6.825357396410745,-0.7879681944942414,-0.08224287591566015,-0.0005438261288152058
504761000000,285,504761000000,FR_wheel_link,-0.2070648553492575,0.21499418131198494,0.2675580704151733,-0.003922168820306465,0.006804920345240851,0.0016873848995776096
504762000000,286,504762000000,FR_wheel_link,0.08662950583209383,-8.02882838787566,10.98219431500274,-0.8688562442031099,0.0020947921534136826,-0.002286136648390086
504763000000,287,504763000000,FR_wheel_link,-0.22423309396338514,0.21944058151109647,0.3580953605843388,-0.006531000374617846,0.009087781261022294,0.002765417503474408
504764000000,288,504764000000,FR_wheel_link,0.5268447437468469,-7.246567095357091,8.26710285357574,-0.7888233497144617,-0.04323396403567359,-0.002315006559445984
504765000000,289,504765000000,FR_wheel_link,-0.21626275986938895,0.23381860337007082,0.2770939543522627,-0.0025661669719665293,0.009009705851530561,0.001761724238015332
504766000000,290,504766000000,FR_wheel_link,-0.25844174073954673,-4.722109658412199,7.749513146855876,-0.5366014365770561,0.03288947446696491,0.0006839620652045186
504767000000,291,504767000000,FR_wheel_link,-0.002200262361226571,-0.1377885221600656,0.12954259885125255,-0.01602742748286328,-0.0005213935919053973,-0.0003089435755531413
504768000000,292,504768000000,FR_wheel_link,-4.212274800022143,-3.1106697165029447,12.373535825878301,-0.3598976549092349,0.42714706978067396,0.010296579285680306
504769000000,293,504769000000,FR_wheel_link,0.48145618977650084,-0.4903736808075536,-0.3510144230686541,-0.0333574254041302,0.004477733233362417,-0.015645486487530037
504770000000,294,504770000000,FR_wheel_link,-3.4703318126598623,-2.1144809994756693,9.123123549272536,-0.2773525436682951,0.3438711756017927,0.009584699723151251
504771000000,295,504771000000,FR_wheel_link,0.37509986899428627,-0.4635555418147381,-0.6090044868431821,-0.03366915391408403,-0.0026559102902458664,-0.010863075102331997
504772000000,296,504772000000,FR_wheel_link,-0.34509986140210014,0.8235261702081291,0.3261575406608678,0.03750304372315487,0.015073517189662529,0.003918066905395805
504773000000,297,504773000000,FR_wheel_link,-0.22751625135654496,-9.472989822312183,13.885809901591038,-1.021166021590104,0.02291058604410301,0.0014303626079933685
504774000000,298,504774000000,FR_wheel_link,-0.24006526630368968,0.24037161015708783,0.5028817189552821,-0.012428699093530438,0.007549149982557909,0.005398029132136427
504775000000,299,504775000000,FR_wheel_link,0.6676035801403155,-7.134445564513969,7.068283647269417,-0.7826216282844585,-0.06526829814219265,-0.0002984408824115853
504776000000,300,504776000000,FR_wheel_link,-0.20923982769374935,0.21890553599703885,0.2721728562564588,-0.004383987915262121,0.007208370762174322,0.0017719886945489934
504777000000,301,504777000000,FR_wheel_link,0.02507008066567895,-7.88089667802789,11.0067640545482,-0.851182593463577,0.008558702751380487,-0.00208020165635317
504778000000,302,504778000000,FR_wheel_link,-0.22571154949552824,0.22420097055764845,0.35183784188230494,-0.006617791346273691,0.00931501832877691,0.002674605844214995
504779000000,303,504779000000,FR_wheel_link,0.44439338031243336,-7.208626213896395,8.456469414945687,-0.7830461097807602,-0.0344913299100163,-0.0020451840591039494
504780000000,304,504780000000,FR_wheel_link,-0.22012499816843115,0.23997014687613455,0.27081282057432576,-0.0025481340018672248,0.009342473858054997,0.0016239118784302448
504781000000,305,504781000000,FR_wheel_link,0.2845209049596238,-7.409539911397119,9.555105008305565,-0.7995260032420997,-0.015746118233082584,-0.002394227312357805
504782000000,306,504782000000,FR_wheel_link,-0.21559064182093166,0.23893331273001278,0.2996754030040333,-0.003732528380641817,0.009046769274317797,0.002094054202520275
504783000000,307,504783000000,FR_wheel_link,0.4921662861380218,-7.163683992433562,8.652647636254397,-0.7750918369927897,-0.038388157826245384,-0.0021696418751532554
504784000000,308,504784000000,FR_wheel_link,-0.2076743652730729,0.24088195435792015,0.2723407449989505,-0.0026849572607656413,0.008455134272718615,0.0017724110579557984
504785000000,309,504785000000,FR_wheel_link,0.4577231617436879,-7.250411943296038,9.150871366555887,-0.7826598078521729,-0.03446679358278543,-0.0022659823373996357
504785000000,310,504786000000,FR_wheel_link,-0.20517579010348264,0.241661786280223,0.2848118420757398,-0.0031872019321239754,0.008230150194410174,0.0019708121331788704
504787000000,311,504787000000,FR_wheel_link,0.5482478620550051,-7.158923098713147,8.829274197638844,-0.7733908091195814,-0.04420578907421724,-0.002188823706516782
504788000000,312,504788000000,FR_wheel_link,-0.20177423946555267,0.24406824109700187,0.27417275764776716,-0.0027263199422281953,0.00794469958055672,0.0018447085848414533
504789000000,313,504789000000,FR_wheel_link,0.5612940960000827,-7.177873743038971,8.985220578540781,-0.7746205884008294,-0.045473031164817046,-0.0022158992886783246
504790000000,314,504790000000,FR_wheel_link,-0.19976233930491077,0.24489107539866928,0.2772637420285825,-0.0028622790531444404,0.0077566983599497135,0.0018958049088667283
504791000000,315,504791000000,FR_wheel_link,0.6125668680628391,-7.131122999843714,8.85130533146936,-0.769674524518486,-0.05097346512547968,-0.002178669777225653
504792000000,316,504792000000,FR_wheel_link,-0.19753176327742586,0.24598776852699542,0.2719981362305278,-0.00267300738053939,0.007550925184469296,0.001826300854025836
504793000000,317,504793000000,FR_wheel_link,0.6321418506990186,-7.126864206312748,8.900017572414638,-0.7687985426611681,-0.05302540462126387,-0.002180426632618873
504794000000,318,504794000000,FR_wheel_link,-0.19613281543956176,0.24664823206440778,0.2719371081697727,-0.002701423322482191,0.007408542136825442,0.0018228795826307413
504795000000,319,504795000000,FR_wheel_link,0.6632469731507467,-7.099168796225319,8.841445106569074,-0.765726222376552,-0.05635219316390078,-0.002157298707288216
504796000000,320,504796000000,FR_wheel_link,-0.19487648091385856,0.24750873389436304,0.2687728239924695,-0.0026024198919807106,0.007280031409282994,0.0017742520911936982
504797000000,321,504797000000,FR_wheel_link,0.6810174917244871,-7.085967557560256,8.847315641575468,-0.764018327895434,-0.058226869494759526,-0.002147364244596592
504798000000,322,504798000000,FR_wheel_link,-0.19403046696938017,0.24822957610436436,0.2675171524022858,-0.0025824529366040507,0.007185029113164975,0.0017502941925756693
504799000000,323,504799000000,FR_wheel_link,0.7013944735316486,-7.064715358999983,8.814797973403284,-0.7615640767552918,-0.06039761726488441,-0.002126424595496154
504801000000,324,504800000000,FR_wheel_link,-0.19331910168724858,0.24901143659155128,0.2651616359150796,-0.00251773658062862,0.007103484637513942,0.001710396976874648
504801000000,325,504801000000,FR_wheel_link,0.7154894284068769,-7.048827079249524,8.806476732122977,-0.7596142408737512,-0.06188727978183295,-0.0021095864474788145
504802000000,326,504802000000,FR_wheel_link,-0.19283253835186778,0.2497520274348224,0.2635317167481688,-0.0024823411517913853,0.007041969123890997,0.0016801293101124735
504803000000,327,504803000000,FR_wheel_link,0.7293026511091276,-7.030220591235914,8.785008116833323,-0.7574135944520792,-0.06335308129325751,-0.0020877883585115747
504804000000,328,504804000000,FR_wheel_link,-0.19246976721135928,0.25053872075331973,0.2615449114357734,-0.002430727725755287,0.006992806667204582,0.0016447960470085472
504805000000,329,504805000000,FR_wheel_link,0.7398358483503196,-7.013610634310498,8.77273779907992,-0.7553982499741118,-0.06446309235546066,-0.0020670628342262937
504806000000,330,504806000000,FR_wheel_link,-0.19224892661469042,0.2513376613668916,0.25985096532935903,-0.002389075523815323,0.006957119943150878,0.0016135583151891007
504807000000,331,504807000000,FR_wheel_link,0.7494740119519054,-6.996148848402341,8.756051457738002,-0.753304467659804,-0.06547870859900257,-0.002043964317502117
504808000000,332,504808000000,FR_wheel_link,-0.19211502723615534,0.252156279587331,0.25803336894881584,-0.0023411272728593733,0.006930599327614627,0.0015806786380598518
504809000000,333,504809000000,FR_wheel_link,0.7573845963406107,-6.979620270994751,8.742747354682654,-0.7513015116750865,-0.06630880277147083,-0.0020203190323031806
504810000000,334,504810000000,FR_wheel_link,-0.19205854082605783,0.2529705791638702,0.256310319720543,-0.0022962988884577375,0.006912322461107397,0.001549212092874539
504811000000,335,504811000000,FR_wheel_link,0.7644767050054257,-6.962734937740711,8.727976400787988,-0.7492638986268509,-0.06705156485137315,-0.001995516634837574
504812000000,336,504812000000,FR_wheel_link,-0.19205785389063956,0.25378004497216305,0.2545340136076173,-0.0022495649033747664,0.006900211066282978,0.0015170265614132753
504813000000,337,504813000000,FR_wheel_link,0.7607475276652527,-6.918521748672534,8.673434674587009,-0.7447414739844562,-0.06705573551881944,-0.001975452965918237
504814000000,338,504814000000,FR_wheel_link,-0.19171814192571457,0.2539707086110419,0.251894761460573,-0.0021158479927485783,0.006957078384005193,0.0014830068179805343
504815000000,339,504815000000,FR_wheel_link,1.0565713058599357,-6.796052477276319,9.043383277619519,-0.7331296705032438,-0.0918784561045149,-0.005368705118037123
504816000000,340,504816000000,FR_wheel_link,-0.15355629404594862,0.24592060756169137,0.23909583077295174,-0.0017021543128760328,0.003197603007677012,0.0016778449863607283
504817000000,341,504817000000,FR_wheel_link,1.112291088094785,-6.483213650965661,8.719974310811487,-0.7010314444974775,-0.1041683228307278,-0.004060636729485173
504818000000,342,504818000000,FR_wheel_link,-0.12356837943548517,0.22796771420526668,0.24259977659590218,-0.003731495067112443,0.0004437783686082068,0.002222785111665946
504819000000,343,504819000000,FR_wheel_link,1.0761993787037123,-6.612937528487745,8.153654506037958,-0.7110657415020507,-0.1190851302977799,0.0016804324425148814
504820000000,344,504820000000,FR_wheel_link,-0.2034914229250776,0.32284291645095564,0.06365435148631814,-0.002662576936530124,0.00979190069769406,0.0018009540369679777
504821000000,345,504821000000,FR_wheel_link,1.1398076216004076,-5.983882861358837,5.824721805784324,-0.6461970307019598,-0.10856228166183701,-0.0007021384549074083
504822000000,346,504822000000,FR_wheel_link,-0.20068241974439005,0.26411103699801586,0.19113080253009776,0.001862564362400084,0.008384161179263598,0.00027344160867061524
504823000000,347,504823000000,FR_wheel_link,0.497465377408175,-6.9345089237016815,9.79579089470639,-0.7388720501538166,-0.03661525965458862,-0.002274126524427947
504824000000,348,504824000000,FR_wheel_link,-0.20458910566473948,0.2594807066322692,0.28503118679277717,-0.0028609260214180468,0.00844913685614357,0.0017839018471804253
504825000000,349,504825000000,FR_wheel_link,0.7625562622084212,-6.704754862004032,8.27827325928156,-0.7204008335029187,-0.06517052881802576,-0.0019693762766890693
504826000000,350,504826000000,FR_wheel_link,-0.1968978988362667,0.2607835539352119,0.2335511717575784,-0.0012471776579567975,0.007501290886885022,0.001133654820340939
504827000000,351,504827000000,FR_wheel_link,0.6390174695262569,-6.918723472613208,9.291269532899818,-0.7404633897436472,-0.05256557867795314,-0.0020126948705244674
504828000000,352,504828000000,FR_wheel_link,-0.19691931534032173,0.2579679598282236,0.2628361327372379,-0.002704716893316017,0.007356999788100102,0.0015510172586919706
504829000000,353,504829000000,FR_wheel_link,0.7592636234789865,-6.793810997046927,8.636023799707026,-0.7293582333259327,-0.0661751448550314,-0.0017047908215482022
504830000000,354,504830000000,FR_wheel_link,-0.19624998821662226,0.259715580396014,0.24138133898097028,-0.0019174312972343598,0.007232433909508626,0.001225789261791496
504831000000,355,504831000000,FR_wheel_link,0.7258907850135605,-6.842421059715125,8.928952134646401,-0.7332970189536061,-0.06257078898260288,-0.00174139654309248
504832000000,356,504832000000,FR_wheel_link,-0.1970114983909562,0.2597917993626103,0.24810240801178052,-0.002249199744482608,0.007265327563665963,0.001304287331102262
504833000000,357,504833000000,FR_wheel_link,0.7743748742764387,-6.778840322875668,8.657586293821378,-0.7270748459493204,-0.06792555064797201,-0.0016212962540779474
504834000000,358,504834000000,FR_wheel_link,-0.19668594657251998,0.2605324810116442,0.2384188512130569,-0.0019159827895150394,0.007213265813238364,0.0011501662930917245
504835000000,359,504835000000,FR_wheel_link,0.7680820555222825,-6.780840395924478,8.73988350147927,-0.7267099546392899,-0.06725528775063278,-0.0016129020055795085
504836000000,360,504836000000,FR_wheel_link,-0.19695917419328382,0.26076531595524016,0.23941661171467868,-0.002005923162990748,0.0072212088221834244,0.0011499004668935134
504837000000,361,504837000000,FR_wheel_link,0.7872826052388828,-6.748447329454182,8.639542343029643,-0.7233027499072324,-0.06936215722849476,-0.001554727648842083
504838000000,362,504838000000,FR_wheel_link,-0.19707573974028433,0.2614403404170841,0.23503064760185205,-0.0018656924264539455,0.007218401582578058,0.0010731514831225197
504839000000,363,504839000000,FR_wheel_link,0.7864985945468752,-6.738737303216556,8.661102974694186,-0.7219025352203325,-0.06925028107303449,-0.001537780539498837
