%time,field.header.seq,field.header.stamp,field.header.frame_id,field.wrench.force.x,field.wrench.force.y,field.wrench.force.z,field.wrench.torque.x,field.wrench.torque.y,field.wrench.torque.z
504476000000,0,504475000000,BL_wheel_link,-0.02990677002351136,0.39712969848192226,-0.48671391365284206,-0.002960269038049942,-0.002595110584564344,-0.003456890071327985
504476000000,1,504476000000,BL_wheel_link,-0.3801610159069769,-2.483298510675489,10.258323394231887,-0.28329875076184563,0.04010240551995266,0.00012666114506083154
504477000000,2,504477000000,BL_wheel_link,-0.010086481028998867,0.1596066318019477,-0.4140346654856673,-0.012132143871430134,-0.00041725129263567567,-0.0004927143448378067
504478000000,3,504478000000,BL_wheel_link,0.026067160483915105,-0.03939286643528288,0.12816462607316903,-0.004158276392763142,0.007321855329237349,0.005060397259896792
504479000000,4,504479000000,BL_wheel_link,1.6260001151863523,-1.9759653907287449,18.749427151792545,-0.23660151072864466,-0.17455912553352834,-0.0037977351931034256
504480000000,5,504480000000,BL_wheel_link,-0.22605427202937,-1.1541872464325413,1.076824620882782,-0.127749948203722,0.02423869738758811,0.0015842214167643542
504481000000,6,504481000000,BL_wheel_link,-0.029941557569888505,0.3972697652145465,-0.4869513012298181,-0.0029585800514494525,-0.002593614075486369,-0.0034584024103571876
504482000000,7,504482000000,BL_wheel_link,-0.3815299369366067,-2.4841060820933456,10.251829166694874,-0.28339102817061335,0.04024958696006081,0.00012859205329118426
504483000000,8,504483000000,BL_wheel_link,-0.010084633049281193,0.1596903452811429,-0.4144139618726909,-0.012136489006766227,-0.00041623419054060817,-0.0004933484756164404
504484000000,9,504484000000,BL_wheel_link,0.026053427484733632,-0.039386867030810346,0.12814049325724225,-0.00415727138008319,0.007322666488344454,0.005061041486882533
504485000000,10,504485000000,BL_wheel_link,1.6251061499154194,-1.9762203219930927,18.747445095334612,-0.2366179758184193,-0.17447547029010252,-0.0037977385060200194
504486000000,11,504486000000,BL_wheel_link,-0.22715310573830605,-1.1544517862596795,1.0770099156482822,-0.12777466819361463,0.024364002572749698,0.001586913310176248
504487000000,12,504487000000,BL_wheel_link,-0.029974120610598842,0.3974025316005242,-0.4871864577852806,-0.002957076834071877,-0.0025923132426490607,-0.003459805928353652
504488000000,13,504488000000,BL_wheel_link,-0.38286494404237004,-2.4848934877093587,10.245370721431172,-0.28348104245957145,0.040392895699711454,0.00013045129498271552
504489000000,14,504489000000,BL_wheel_link,-0.01008279543517996,0.15977215962750935,-0.41478679897180737,-0.012140766110973217,-0.0004152305406337122,-0.000493973199723677
504490000000,15,504490000000,BL_wheel_link,0.02603928109742957,-0.03938126120994109,0.12811692896664162,-0.004156279675276743,0.00732349076127658,0.005061674129838486
504491000000,16,504491000000,BL_wheel_link,1.624238657170995,-1.9764437623154136,18.74541404744506,-0.23663328354503652,-0.17439299814491954,-0.0037977440921569267
504492000000,17,504492000000,BL_wheel_link,-0.2281754147772619,-1.1546349363256798,1.0771135078934413,-0.12779042644153166,0.024480685024797173,0.0015894396086564289
504493000000,18,504493000000,BL_wheel_link,-0.03000162362079828,0.39752240437551967,-0.48741959076024055,-0.0029559257306206697,-0.00259150126990191,-0.0034609904570868377
504494000000,19,504494000000,BL_wheel_link,-0.3841288059194808,-2.4856517776699505,10.238889953531476,-0.28356789556821416,0.04052796096301252,0.00013213969926885102
504495000000,20,504495000000,BL_wheel_link,-0.010079670369013992,0.1598517105000368,-0.4151548836956246,-0.012144994358797862,-0.0004143940275192033,-0.0004945700375867441
504496000000,21,504496000000,BL_wheel_link,0.026024148885540683,-0.039376718118114835,0.1280948730462566,-0.004155305956775079,0.007324343872933408,0.005062302296998372
504497000000,22,504497000000,BL_wheel_link,1.6234008850004717,-1.976643873652745,18.743473400791693,-0.23664729247047375,-0.17431290961278162,-0.003797787256812929
504498000000,23,504498000000,BL_wheel_link,-0.22914592868264327,-1.154783953672915,1.0771827571141586,-0.12780258865082386,0.024591342361539002,0.0015917903564968555
504499000000,24,504499000000,BL_wheel_link,-0.030026057979090887,0.3976319703110297,-0.48764893778806084,-0.002955050421817044,-0.0025909826114647733,-0.003462035652024928
504500000000,25,504500000000,BL_wheel_link,-0.38535142048003923,-2.4863890229370242,10.232405405142233,-0.28365236171696984,0.040658244231403226,0.00013374070167143995
504501000000,26,504501000000,BL_wheel_link,-0.010076425541598148,0.15992965586300628,-0.41551812964241697,-0.012149187929859886,-0.0004136099130240675,-0.000495166722423834
504502000000,27,504502000000,BL_wheel_link,0.02600829275924397,-0.03937302084177528,0.12807402798589068,-0.004154345838144837,0.007325225802184114,0.005062931093992277
504503000000,28,504503000000,BL_wheel_link,1.6225832137810756,-1.9768202508191313,18.741582386808318,-0.23666028672631995,-0.17423385621771745,-0.003797841922611074
504504000000,29,504504000000,BL_wheel_link,-0.2300630424148311,-1.1548730456080898,1.0771910051965945,-0.12780815702149373,0.024695955351368502,0.0015940145411026466
504505000000,30,504505000000,BL_wheel_link,-0.03004722034807522,0.39773197179927855,-0.4878752249510281,-0.002954440315490944,-0.0025908014198359587,-0.003462959148236808
504506000000,31,504506000000,BL_wheel_link,-0.38652791116721363,-2.4871038494194715,10.225924784471898,-0.2837343022579131,0.04078318771784044,0.00013524786275269374
504507000000,32,504507000000,BL_wheel_link,-0.01007288169497119,0.1600057250100526,-0.4158761498345932,-0.0121533384969481,-0.00041289274258344503,-0.0004957537127400958
504507000000,33,504508000000,BL_wheel_link,0.025991655342877684,-0.03937023617423778,0.12805448687187554,-0.004153399013360203,0.007326136008046923,0.00506356168540638
504508000000,34,504509000000,BL_wheel_link,1.6217902035968133,-1.9769714533798117,18.73974060403826,-0.23667245315365948,-0.1741561215367859,-0.003797918393216873
504508000000,35,504510000000,BL_wheel_link,-0.23091156203424623,-1.154877404200334,1.0771128357549884,-0.12780438404704114,0.024792883168654092,0.0015961016933700445
504511000000,36,504511000000,BL_wheel_link,-0.030064593169193993,0.3978206550504268,-0.4880980502553387,-0.002954155514331916,-0.0025910472796975025,-0.003463719515554545
504511000000,37,504512000000,BL_wheel_link,-0.387646834801476,-2.487794805482018,10.219429122367714,-0.2838135940616764,0.04090143479088733,0.0001366197965896425
504511000000,38,504513000000,BL_wheel_link,-0.0100687365788635,0.16007995135263628,-0.41622936919336395,-0.012157458177257888,-0.0004122898132824498,-0.0004963365911307448
504511000000,39,504514000000,BL_wheel_link,0.025974061017268207,-0.039368573346879265,0.12803658208293606,-0.0041524689445691584,0.0073270800612442195,0.0050641953869341085
504515000000,40,504515000000,BL_wheel_link,1.6210259468900943,-1.9770936438321987,18.73798516796998,-0.23668372105899138,-0.1740799472497828,-0.00379800435242017
504516000000,41,504516000000,BL_wheel_link,-0.23167216357994813,-1.1547586964065497,1.0769104272264705,-0.1277870128009131,0.024880088123412462,0.0015980174173464631
504517000000,42,504517000000,BL_wheel_link,-0.030077634285607335,0.3978969680957316,-0.48831742443885495,-0.002954244880113455,-0.0025918381897697125,-0.0034643006795880196
504518000000,43,504518000000,BL_wheel_link,-0.3886935764243371,-2.4884572172439787,10.212923427732633,-0.2838897448167911,0.041011289461183514,0.0001378168494673357
504519000000,44,504519000000,BL_wheel_link,-0.010063858406890704,0.16015165143609084,-0.4165758352226214,-0.01216153323540928,-0.0004118177886770647,-0.000496910623392043
504520000000,45,504520000000,BL_wheel_link,0.02595536338143805,-0.03936816151891266,0.1280205445190451,-0.004151560714731621,0.007328062638365277,0.005064829360670339
504521000000,46,504521000000,BL_wheel_link,1.6202946536981544,-1.9771940413829074,18.73636072154674,-0.23669460976949275,-0.17400590198067356,-0.0037981823129405456
504522000000,47,504522000000,BL_wheel_link,-0.2323322279829131,-1.1544903929285835,1.0765624169846095,-0.12775314447001015,0.024956281429853136,0.0015998697978000694
504523000000,48,504523000000,BL_wheel_link,-0.0300875204888017,0.3979641028166097,-0.4885342074059724,-0.0029546532488483796,-0.0025931808319752388,-0.003464759259405357
504524000000,49,504524000000,BL_wheel_link,-0.3896665694713957,-2.4890863621507027,10.206472600933004,-0.28396221037939257,0.04111263938308672,0.00013884037622486842
504525000000,50,504525000000,BL_wheel_link,-0.010058971525752108,0.1602198988759079,-0.4169100132393456,-0.0121655059091316,-0.0004113928605632977,-0.0004974837334796733
504526000000,51,504526000000,BL_wheel_link,0.025935731897023282,-0.0393687227052378,0.1280060352815125,-0.00415068282209447,0.007329079741185058,0.005065450194165565
504527000000,52,504527000000,BL_wheel_link,1.6195974927051313,-1.9772902444420084,18.734842841417965,-0.23670632029051014,-0.1739343140906973,-0.003798287136397363
504528000000,53,504528000000,BL_wheel_link,-0.23811132428513648,-1.133333033951337,1.0564768586253945,-0.1252562171382598,0.025760591614557272,0.0016662587034881136
504529000000,54,504529000000,BL_wheel_link,-0.0777851946022754,-2.630383979091831,2.4216932817959895,-0.32850807333053367,-0.0051280299365197846,-0.00548175415357309
504529000000,55,504530000000,BL_wheel_link,0.002251483909824513,-0.11819168328210797,0.0018425224512763436,-0.011655708912944969,0.00927900186073795,0.004330323342867206
504531000000,56,504531000000,BL_wheel_link,1.4644863509637265,-2.246514821986771,15.608822859288944,-0.26514112510373017,-0.15490888239686673,-0.0029822971497877743
504532000000,57,504532000000,BL_wheel_link,-0.3819280475218353,-1.472274779155074,1.3114361586245424,-0.1636282834647991,0.04145338410102044,0.002188699428593616
504533000000,58,504533000000,BL_wheel_link,-0.02790506296031034,0.39031033786003905,-0.49019002426818004,-0.002836114658147827,-0.0017386058392323174,-0.0028830125917924817
504534000000,59,504534000000,BL_wheel_link,-0.5026595876300146,-2.5546338054562097,9.946309201535616,-0.2912809089778519,0.0539070922867695,0.00045121048480595283
504535000000,60,504535000000,BL_wheel_link,-0.010377762218974337,0.16137370119052924,-0.42834713683321657,-0.012510058495030667,-0.00012486079705399233,-0.00042259382649893653
504536000000,61,504536000000,BL_wheel_link,0.02772566145761308,-0.03688918426536592,0.12772901922003416,-0.004150810102203267,0.0072980439548457985,0.0050818442161901295
504537000000,62,504537000000,BL_wheel_link,1.577634313545848,-1.9652949320221336,18.840117761377456,-0.23536270182743105,-0.16923518754373504,-0.0036916715050200263
504538000000,63,504538000000,BL_wheel_link,-0.2681269034836952,-1.1404912836072634,1.0644914695679055,-0.12614794627758444,0.029191432677833425,0.0016486014113253778
504539000000,64,504539000000,BL_wheel_link,-0.10310527079669951,-2.689356555675148,2.4596422191103793,-0.334968384483044,-0.0027268030948992827,-0.005572334440850982
504540000000,65,504540000000,BL_wheel_link,0.0016722735249022833,-0.11411034157760719,0.0023716774479132976,-0.011529946805645919,0.009558408757773359,0.004363601108680881
504541000000,66,504541000000,BL_wheel_link,1.455582841804381,-2.2477942312463735,15.581136253384496,-0.2649125514006806,-0.1536699624789555,-0.0028698876275076238
504542000000,67,504542000000,BL_wheel_link,-0.3846578139565915,-1.4838599489262525,1.3218380067751025,-0.16502478388383077,0.04172622301097682,0.0021607948314915585
504543000000,68,504543000000,BL_wheel_link,-0.027559794132390042,0.38678966853457997,-0.4843170003373791,-0.0028170305431826493,-0.0016397620906446887,-0.0028154704205509877
504544000000,69,504544000000,BL_wheel_link,-0.4889426715211417,-2.537384951424654,10.092306375592727,-0.2894398266695585,0.05249905054272186,0.0004032982669529943
504545000000,70,504545000000,BL_wheel_link,-0.010257617836017849,0.1582120037467558,-0.4194378054477442,-0.012396470786636077,-9.286875930924424e-05,-0.0003604184599304064
504546000000,71,504546000000,BL_wheel_link,0.027865719000069414,-0.03592872544034925,0.12717612616234408,-0.0041616567592116255,0.007260620636013335,0.005028948085648057
504546000000,72,504547000000,BL_wheel_link,3.9810667958228274,-1.6285609311979943,12.331334853208883,-0.2031151416929411,-0.4304200711633419,-0.010274239628350897
504548000000,73,504548000000,BL_wheel_link,0.000645624882707807,-0.5644393445439287,1.0076099871955173,-0.03276610621655376,0.0025214859951722783,0.010305658120579993
504549000000,74,504549000000,BL_wheel_link,2.7263964394257485,0.19043420080441048,12.463534481038511,-0.03127243981966969,-0.2893621943358202,-0.008176989842980601
504550000000,75,504550000000,BL_wheel_link,-0.1544386622644625,-0.2783544867905568,0.9544148197859372,-0.031646704022535,0.0048582946299134035,-0.0005198064064883437
504551000000,76,504551000000,BL_wheel_link,2.126407571317401,0.853127473825604,12.408678867738058,0.051006555428767586,-0.21604563161942247,-0.005039340315600544
504551000000,77,504552000000,BL_wheel_link,-0.05632669746243008,-0.10660103577928756,0.48601457870730547,-0.030766626622346867,-0.0028940499118947204,-0.0010806837430279567
504551000000,78,504553000000,BL_wheel_link,2.1849619474533584,0.5215490443174656,9.632265736739082,0.017452110113070102,-0.23171425800476744,-0.006095008905562919
504551000000,79,504554000000,BL_wheel_link,-0.13096110217116189,-0.04011920491636359,0.5251716691905136,-0.02372531223576809,0.003581281623310572,4.923948491125565e-05
504551000000,80,504555000000,BL_wheel_link,1.6762230250472316,1.135031558945737,10.11371405248636,0.09257473890916723,-0.16802471554205983,-0.003130249874139816
504556000000,81,504556000000,BL_wheel_link,-0.07453830762249739,-0.08048260730472959,0.44855387995804774,-0.02299447577437097,0.0030968992296598555,0.0016710078576348355
504557000000,82,504557000000,BL_wheel_link,1.8848392160663403,-0.15621139634727307,9.298575770819152,-0.04454016197912232,-0.1997174111351372,-0.003401139199708223
504558000000,83,504558000000,BL_wheel_link,-0.04239277841927268,-0.38396577922333613,0.7786080989786324,-0.022525045065238173,0.01200600709668473,0.00885899540636959
504559000000,84,504559000000,BL_wheel_link,2.325260359866043,-1.058074038659261,10.601544672619736,-0.15383176331838846,-0.24765090904549358,-0.008016248202776695
504560000000,85,504560000000,BL_wheel_link,-0.028038229184669528,-0.45133861745171144,0.8165123338249421,-0.027999138389578737,0.010398617931141135,0.008841847535516513
504561000000,86,504561000000,BL_wheel_link,1.7592877410203662,0.20288919737339245,11.116607701835957,-0.02038976131625156,-0.17924671988712626,-0.005147692324863843
504562000000,87,504562000000,BL_wheel_link,-0.017668557846505378,-0.13052770454050622,0.2862628026539885,-0.03473795970569324,-0.0028509003951560988,-0.0013244618658591802
504563000000,88,504563000000,BL_wheel_link,1.5591133152815475,-1.0660792242375878,6.154276665490006,-0.16129584113606935,-0.17963373684686754,-0.007195100008369485
504564000000,89,504564000000,BL_wheel_link,-0.05389573730257144,-0.37340555369300565,0.6760730448804433,-0.026729273772692554,0.013428124365505407,0.007753784555038238
504565000000,90,504565000000,BL_wheel_link,1.5429087393455296,0.47364483798008117,11.267882936813306,0.01244889648608781,-0.15234323260567978,-0.0038279884679065165
504566000000,91,504566000000,BL_wheel_link,-0.0322594995825438,-0.1357422715301345,0.3068398011396519,-0.033141406305254674,-0.0011259031855346095,-0.00029023281929812334
504567000000,92,504567000000,BL_wheel_link,1.42110795689281,-0.9734971369774374,6.262011448585328,-0.14931175882610956,-0.16286423394126823,-0.00630840497126765
504568000000,93,504568000000,BL_wheel_link,-0.06405167382809543,-0.37141177647241425,0.6830420494884116,-0.026326318466103747,0.014123239204499777,0.007791788392277665
504569000000,94,504569000000,BL_wheel_link,1.5229361344367496,0.5529285838855046,11.44145697377047,0.021495349753080817,-0.1492667238229718,-0.0035827916203765766
504570000000,95,504570000000,BL_wheel_link,-0.04179178985254815,-0.13424094108318238,0.32473104332464264,-0.03284002286119807,-0.0009185979311368622,-0.00033340974467793326
504571000000,96,504571000000,BL_wheel_link,1.4839533182533615,-0.8398259776908887,6.71054793729448,-0.1340721600265241,-0.1684668922200229,-0.0059921949604125335
504572000000,97,504572000000,BL_wheel_link,-0.06557562016534424,-0.3902674353008268,0.7222379725066612,-0.026102168566054934,0.01402906970213837,0.008086120973826324
504573000000,98,504573000000,BL_wheel_link,1.5342930418651384,0.530780664174194,11.463845001663845,0.018757578321663207,-0.1506758257409885,-0.0036867750136611328
504574000000,99,504574000000,BL_wheel_link,-0.04757225470640246,-0.1277691536519744,0.32933734476981325,-0.033039600298403554,-0.0010463384658601586,-0.0008259935957995439
504575000000,100,504575000000,BL_wheel_link,1.5058235551156196,-0.7908923425729399,6.824877702470674,-0.1288795895380048,-0.1706071990684532,-0.0060060454631503495
504576000000,101,504576000000,BL_wheel_link,-0.06590944700695218,-0.39979341471404994,0.7390264499816857,-0.02605338442617447,0.01403983227112297,0.00821384303054998
504577000000,102,504577000000,BL_wheel_link,1.5396439891349678,0.5206642765365095,11.490150399282388,0.0174625316920132,-0.1513005361079492,-0.0037383362737093643
504578000000,103,504578000000,BL_wheel_link,-0.051021624858567684,-0.12344829093610167,0.3324204488334118,-0.033148294056546915,-0.001071788640352676,-0.0011234243838185733
504579000000,104,504579000000,BL_wheel_link,0.47164749825616115,-2.2690544505074124,1.7167531902963296,-0.39937023337869515,-0.08334807729327223,-0.014526585292010868
504580000000,105,504580000000,BL_wheel_link,-0.4495835851951243,0.13031368396848797,0.09060568719636349,-0.10082403051933023,0.056401304808887026,0.008457649453485682
504581000000,106,504581000000,BL_wheel_link,0.40161924570600616,0.5679533831084504,-0.753907694875085,-0.03425111670253429,-0.009888393993200593,0.008450916039044177
504581000000,107,504582000000,BL_wheel_link,-0.21308015654972207,1.4114756694946835,-1.9086222641926742,-0.061254557620074195,-0.03044593476955003,-0.030186440249729697
504583000000,108,504583000000,BL_wheel_link,-0.1277534559937813,0.8488555214823912,-0.6557726824709359,-0.03208609786416961,0.030008288485157027,0.02077152268498849
504584000000,109,504584000000,BL_wheel_link,-0.25712167291402543,1.4628654769812655,-1.6434766272608792,0.017145102652361216,-0.01758413326580857,-0.022726468596087263
504585000000,110,504585000000,BL_wheel_link,-0.13999632738414408,0.8706812724989972,-0.7897457697081904,0.0023967489696757223,0.016953618235676718,0.009590282508802958
504586000000,111,504586000000,BL_wheel_link,-0.12567916881756097,0.6522133158775665,-0.8542772162220283,0.0028155969993308994,-0.010935142196606983,-0.010156965592131709
504587000000,112,504587000000,BL_wheel_link,0.18693822234406704,0.5551955026205583,-0.9039425705128435,0.003621092463343437,0.0045607878568935285,0.013393952693340599
504588000000,113,504588000000,BL_wheel_link,-0.08871482213461164,0.3481342494789481,-0.5264130894944555,-0.0010247514407278366,-0.007164486435945203,-0.004921854894157679
504589000000,114,504589000000,BL_wheel_link,-0.1151635814762243,0.3953945436058535,-0.2961533478953367,-0.004485303089572276,0.01067335495549681,0.004529704534399349
504590000000,115,504590000000,BL_wheel_link,0.1534852004775942,0.4397996042181116,-0.7529284483234195,0.0012466442748259158,-0.006234610216853123,0.0004572051166699729
504591000000,116,504591000000,BL_wheel_link,-0.08350932769741781,0.19698377604776182,-0.33895738584203083,-0.00403800586754178,-0.005819455994311138,-0.003938870966976161
504592000000,117,504592000000,BL_wheel_link,-0.12501173278206534,0.35840662795600464,-0.18340460163652506,-0.006456468866063004,0.012255350245971564,0.003639906633110585
504593000000,118,504593000000,BL_wheel_link,0.12338211697658391,0.4064725959248451,-0.6892222148128793,0.0005791822113090628,-0.006197643087744373,-0.00036944349197247204
504593000000,119,504594000000,BL_wheel_link,-0.06986801113499523,0.1963034114380784,-0.34004782418452956,-0.004034031307874284,-0.006237290280414306,-0.004297559889177517
504595000000,120,504595000000,BL_wheel_link,-0.1112983812848448,0.32867070022019435,-0.13142917020821246,-0.007385498848669914,0.012896936512365814,0.0036772857190506716
504596000000,121,504596000000,BL_wheel_link,0.13364702688093225,0.4239508997923364,-0.7102005196885315,0.0010075515410485807,-0.00636332838334828,-0.0005472163576128707
504597000000,122,504597000000,BL_wheel_link,-0.06567638671396486,0.2026043081077331,-0.34792536796796136,-0.0039443500153523966,-0.006476802963362405,-0.004525644153757496
504598000000,123,504598000000,BL_wheel_link,-0.10170613393621593,0.3226821488417041,-0.12146916153487727,-0.007593724934548286,0.013230184916057642,0.0039031692742821263
504599000000,124,504599000000,BL_wheel_link,0.13316813849748738,0.4282803248771701,-0.7159100670029654,0.0011103090369591101,-0.006485800707971314,-0.0007080200390097527
504600000000,125,504600000000,BL_wheel_link,-0.06484643029432854,0.20464976582524008,-0.35102599970852155,-0.003914289246869143,-0.006559698954720501,-0.004585764280393066
504601000000,126,504601000000,BL_wheel_link,-0.09614349663152551,0.33056892274554056,-0.13492928931566242,-0.007399415105419924,0.013311280219411225,0.00410572110623678
504602000000,127,504602000000,BL_wheel_link,0.12873478514350417,0.4202492174763312,-0.7074857292422876,0.0009532908132106285,-0.006550300983132595,-0.0008046399680696184
504603000000,128,504603000000,BL_wheel_link,-0.0654452291310342,0.20371495145429833,-0.3508693364601525,-0.003925399379028742,-0.006556309891543661,-0.004548485074790403
504604000000,129,504604000000,BL_wheel_link,-0.09185236271763851,0.34195978560711815,-0.15598129296278357,-0.00707365115657848,0.013257623925954833,0.004275526941045054
504605000000,130,504605000000,BL_wheel_link,0.12399364232976429,0.40984006878482493,-0.6966973139754199,0.0007489961598340297,-0.006568266690398306,-0.0008367723171649561
504606000000,131,504606000000,BL_wheel_link,0.1804478186902528,0.3192397035351477,-0.5951933569781369,-0.00030370941232361475,-0.0003548344219783047,0.0062072797781198945
504607000000,132,504607000000,BL_wheel_link,0.14453159873786614,0.3204382210694726,-0.5204205757768487,-0.0017630219591095774,-5.0031268727509506e-05,0.0037454450407422048
504608000000,133,504608000000,BL_wheel_link,0.11856712242056167,0.3126478045298296,-0.46526184044509333,-0.002466456738662484,8.68230985753937e-05,0.0021941476913680076
504609000000,134,504609000000,BL_wheel_link,0.1082440168573662,0.30998344786266874,-0.44269446826295644,-0.0027913884231009203,0.00016977480282869234,0.0015522513297350547
504612000000,135,504610000000,BL_wheel_link,0.09801418537026774,0.29568107660551857,-0.41993296963126586,-0.003077925555011912,0.00016042807344953964,0.0013184377921943169
504612000000,136,504611000000,BL_wheel_link,0.09098652272605323,0.292497353317988,-0.41380907271545364,-0.003187975454607179,0.0001472229496454194,0.0011999531385481475
504612000000,137,504612000000,BL_wheel_link,0.08373047004789363,0.289630541197009,-0.40973875673392013,-0.0032536545038145456,0.00012630009895668744,0.001136848172364439
504612000000,138,504613000000,BL_wheel_link,0.07630182198724242,0.28921673785463076,-0.40878168733365094,-0.00328168082554764,0.0001058378099348591,0.001080885743381181
504614000000,139,504614000000,BL_wheel_link,0.06855511508369413,0.2896174964415953,-0.40858724418026515,-0.003296151569342578,8.642860627942352e-05,0.0010188524118892183
504615000000,140,504615000000,BL_wheel_link,0.06065453110793717,0.29077739940353214,-0.40894831171589713,-0.0033023084918219914,6.912275934725979e-05,0.0009463571728403225
504616000000,141,504616000000,BL_wheel_link,0.05277280079407769,0.2922962499459655,-0.40940922759689974,-0.0033055110925774957,5.408583315706346e-05,0.0008644116966870702
504617000000,142,504617000000,BL_wheel_link,0.045087091559087855,0.2940279018515696,-0.4098699411351942,-0.0033074898746332073,4.135854800075742e-05,0.0007756916523277914
504618000000,143,504618000000,BL_wheel_link,0.03775009980269664,0.29582624046859707,-0.4102461362667795,-0.00330939653208379,3.0840224274881946e-05,0.0006833468775773032
504619000000,144,504619000000,BL_wheel_link,0.030885335682198853,0.2976025350664741,-0.4105197845606132,-0.0033116235585287507,2.238278997955816e-05,0.0005903822676796779
504620000000,145,504620000000,BL_wheel_link,0.024587245122227736,0.2992857739427214,-0.41068437819860615,-0.0033143632543623405,1.581104170376253e-05,0.000499431821090983
504621000000,146,504621000000,BL_wheel_link,0.018910433877583968,0.3008434805622688,-0.410766404000276,-0.0033173784270048553,1.0915572185132838e-05,0.0004126094996102538
504622000000,147,504622000000,BL_wheel_link,0.013898511070929015,0.3022219528275958,-0.41075299771833046,-0.003320940577245699,7.520375168255629e-06,0.00033158091529309906
504623000000,148,504623000000,BL_wheel_link,0.009549007270108475,0.3034231276914102,-0.4106859196354249,-0.003324608483330606,5.39683971551453e-06,0.0002574997699068159
504624000000,149,504624000000,BL_wheel_link,7.872323895382585,8.353551270522978,62.57845271735287,0.9152802317807496,-0.8605806354029734,-0.003077922899044817
504625000000,150,504625000000,BL_wheel_link,0.2910147113541025,0.30301472921659456,0.32198680604933566,0.024626292679683484,-0.03248485565810903,0.0006542922055418267
504626000000,151,504626000000,BL_wheel_link,-0.20165972958949574,-0.41301657369778644,0.7669140258929299,-0.018736453070087863,0.01657473969086026,0.004654243723589252
504627000000,152,504627000000,BL_wheel_link,3.6569414895422345,2.842544547657494,31.88418992344983,0.24221677313087103,-0.3929318678730709,0.0025277267181468433
504628000000,153,504628000000,BL_wheel_link,0.21667493337293992,0.09928236177435806,-0.10455796049226523,0.013031314826163817,-0.025808009912667844,-0.00031743250612579924
504629000000,154,504629000000,BL_wheel_link,-0.17983474246236758,-0.40614842151682656,0.8007866797957659,-0.021079894698258588,0.01817679984858927,0.004776992667220906
504630000000,155,504630000000,BL_wheel_link,2.5671784247132754,0.8973927876824903,26.61001684740146,0.031777083110422516,-0.27799134584870633,-0.001426336532375911
504631000000,156,504631000000,BL_wheel_link,0.13196063598280805,0.013897463149167552,0.024065605144128203,0.0006529520593444894,-0.015381928084058496,0.0001341440587510935
504632000000,157,504632000000,BL_wheel_link,-0.128822630027378,-0.3446187117636517,0.7317047879086804,-0.020986596758273385,0.017512450879117607,0.004361452171676314
504633000000,158,504633000000,BL_wheel_link,1.6015983095476454,-0.18087254628762994,24.73814778315493,-0.09103476456704399,-0.16876651124310765,-0.003143187611235297
504634000000,159,504634000000,BL_wheel_link,0.07962224905647891,-0.04208038737200197,-0.02318014505281673,-0.00496177021511387,-0.009383333833235294,-2.6387233708577125e-05
504635000000,160,504635000000,BL_wheel_link,-0.1012229769236275,-0.31798868338286645,0.7188014475247086,-0.021679276766192343,0.017525529257248172,0.004261264280419518
504636000000,161,504636000000,BL_wheel_link,1.0211549347410798,-0.8027191619618097,22.943762502998716,-0.16114868808370386,-0.10264996602867606,-0.0040039083941832455
504637000000,162,504637000000,BL_wheel_link,0.04739542306082267,-0.07314168177895472,-0.04972320008898039,-0.008079877478454952,-0.005620676163047365,-0.00012097371693649663
504638000000,163,504638000000,BL_wheel_link,-0.08068044238720855,-0.296516986309105,0.7052125014966923,-0.02193452902319955,0.017384675031965065,0.004235933155763047
504639000000,164,504639000000,BL_wheel_link,0.7076368040732821,-1.1005858588813697,21.84695565121831,-0.19472594781445685,-0.06633705791879727,-0.004307818076021541
504640000000,165,504640000000,BL_wheel_link,-0.32336845049320107,-0.6998082941338383,0.6542078287588553,-0.07994503609623789,0.040502975996561795,0.00018989388536575814
504641000000,166,504641000000,BL_wheel_link,0.08829986771002474,0.05209921090872142,0.012860282625735603,-0.002343785620837055,0.004798863920327267,0.002346540965046602
504642000000,167,504642000000,BL_wheel_link,0.6487592090331185,-1.213491928595353,19.53302583134441,-0.19101475942649043,-0.06610634042334212,-0.0038224644151886138
504644000000,168,504643000000,BL_wheel_link,-0.3821359450325097,-1.0779614707929137,1.033202620054368,-0.12367848574756952,0.04551289873451852,-0.0007090849098313661
504644000000,169,504644000000,BL_wheel_link,0.08919340189623053,0.0636403010151649,0.00484946923169381,-0.0024619592327979585,0.005551767422558778,0.002695363028850405
504645000000,170,504645000000,BL_wheel_link,0.6637372855508337,-0.8832392194015268,19.332305177155256,-0.15198041347756439,-0.06593936447296263,-0.002984690422666858
504646000000,171,504646000000,BL_wheel_link,-0.4562431230377093,-1.240865872585934,1.2270893642546454,-0.14319333046509455,0.05297168648734107,-0.0006123127969504183
504647000000,172,504647000000,BL_wheel_link,0.08816403387114666,0.05715740976104213,0.01093356786187775,-0.002159593340865608,0.005221719307225219,0.0023921362345117768
504648000000,173,504648000000,BL_wheel_link,0.7715014624244594,-0.5522106896359064,19.74933058223749,-0.11410412518087527,-0.07682240837781848,-0.0023243658858456695
504649000000,174,504649000000,BL_wheel_link,-0.32246208684930605,-1.2515456756521064,1.2805127149636708,-0.14522020640154995,0.03698798002279921,-0.000717418466917169
504650000000,175,504650000000,BL_wheel_link,0.08431625855770797,0.0506369822639084,0.020919469215257357,-0.0023578733651100883,0.005214853571948215,0.0023951832147307115
504651000000,176,504651000000,BL_wheel_link,0.8369030350937741,-0.2880884494544278,20.218910367484053,-0.08388297714235514,-0.08325860544424495,-0.0018449129394023118
504652000000,177,504652000000,BL_wheel_link,-0.2466772499505656,-1.2138599626786997,1.2723206740053372,-0.1410837866428568,0.028080630745823724,-0.0006849204876100638
504652000000,178,504653000000,BL_wheel_link,0.22034955093064562,-0.3163867781196112,-0.4142704409953602,-0.037280370336445726,-0.027246014569899446,-0.005011914127584199
504654000000,179,504654000000,BL_wheel_link,1.9785731186960087,-2.117554667300598,2.162591678038819,-0.29529158978453096,-0.26950910813599943,-0.003830390186661904
504655000000,180,504655000000,BL_wheel_link,-0.1423503788908407,0.22941187111698133,-0.36225838283442047,-0.00037134524668390456,-0.010783289486022748,-0.0007658648700526641
504656000000,181,504656000000,BL_wheel_link,1.0612859116176239,-3.101574637023086,4.131487310354947,-0.3778937736181258,-0.1482659311782596,-0.0006392610949219821
504657000000,182,504657000000,BL_wheel_link,-0.01871630116502998,-1.6213134305066974,1.1410325344651344,-0.1845226000746632,-0.018415302557610355,0.002721441243675517
504658000000,183,504658000000,BL_wheel_link,-0.05003112220569042,0.35537720783152343,-0.47836901740081506,-0.0010873214596334281,0.01486141031889922,0.011528844073542455
504659000000,184,504659000000,BL_wheel_link,-1.4510903253129943,-1.6887570173146347,4.215382994892129,-0.23129956749358738,0.15131570149639867,-0.0008925656139724325
504660000000,185,504660000000,BL_wheel_link,-1.6151740988089993,-1.4402899810945977,1.5267835162408114,-0.1828237170017284,0.17476716560828964,-0.0013983551711962486
504661000000,186,504661000000,BL_wheel_link,-2.721718494095464,-2.236741967292766,2.2331704163023067,-0.26893489735775605,0.294995683676316,-0.0021329148153291537
504662000000,187,504662000000,BL_wheel_link,-0.13396480359596452,0.09848475388014133,-0.3308287553268613,-0.016020376587818245,0.013839387784417033,-0.0008267126311979044
504663000000,188,504663000000,BL_wheel_link,-1.1301626620575613,-0.7163396225627552,11.88506365611389,-0.11100007208053232,0.13133209081124986,-0.0010505180144865798
504664000000,189,504664000000,BL_wheel_link,-1.8889674872204434,-2.6069354767909108,4.458548582076678,-0.297064346747759,0.2100922728196007,-0.002013394844571581
504665000000,190,504665000000,BL_wheel_link,-1.4829838653582195,-2.1324462592433306,6.592497461180052,-0.24965914875096984,0.1669132053908356,-0.0016361479486695718
504666000000,191,504666000000,BL_wheel_link,-1.2076387262850579,-2.645567174784918,3.268952855214282,-0.31525106273105213,0.12557259943435634,-0.001489742691974492
504667000000,192,504667000000,BL_wheel_link,-1.2392103554512794,-1.7803399323323597,6.370487818541953,-0.2095874722184269,0.13892290746009717,-0.0009782866602285898
504668000000,193,504668000000,BL_wheel_link,-0.7484118116055722,-2.6592508009378557,3.3667581099311805,-0.3122142948659005,0.07629542351463237,-0.0002824615048460412
504669000000,194,504669000000,BL_wheel_link,-0.8639735620544995,-1.7216998295938,6.5021569817144265,-0.20517774079972534,0.09556612308834866,-0.0008717787888464891
504670000000,195,504670000000,BL_wheel_link,-0.591468163144891,-2.443962864325698,4.002457168917567,-0.2910524483499777,0.05722856117315964,-0.0006946071531062636
504671000000,196,504671000000,BL_wheel_link,0.7501130869330366,-1.0251790639566747,-0.01809629585118918,-0.10343301557785722,-0.0833089934951791,-0.0015532184024381057
504672000000,197,504672000000,BL_wheel_link,-0.06682965146590479,0.0916976162370807,-0.05742245454815348,0.005008647333186238,0.004441132842995669,-0.0004592394885476127
504673000000,198,504673000000,BL_wheel_link,4.151726009302795,-1.0160641720298682,9.686793490912464,-0.1861954882921382,-0.4734863464889635,-0.0072583392541546304
504674000000,199,504674000000,BL_wheel_link,0.22148484642370955,-0.5311612801891857,0.1525115462337865,-0.045175162760679295,-0.01626431297621974,0.0175606212761074
504675000000,200,504675000000,BL_wheel_link,0.9653268929724089,-3.614726844914088,5.22688973068353,-0.44129459248661507,-0.11001975554182805,0.00619789847202501
504676000000,201,504676000000,BL_wheel_link,0.11828003645041675,-0.25182580799115434,-0.615619805393246,-0.038703440659148214,-0.02238495673304889,-0.0055916855685512225
504677000000,202,504677000000,BL_wheel_link,-0.026405974793222486,0.05020875999612975,-0.020637213278460804,0.001057420124324887,0.0006137069250898135,-0.000254959239969483
504678000000,203,504678000000,BL_wheel_link,0.036138537860730874,-2.646092577093754,15.125956374203074,-0.3627418968581755,-0.037364833424557875,-0.002275695630007367
504679000000,204,504679000000,BL_wheel_link,-0.4605234302227811,-0.8011330192269537,0.4928775143079704,-0.09533939764492709,0.04953302411631419,-0.0013101573452083412
504680000000,205,504680000000,BL_wheel_link,0.1738703434943603,-0.021705952623567615,-0.5886347538874404,-0.014648733713532196,-0.0065775771194485156,0.006381014187041971
504681000000,206,504681000000,BL_wheel_link,-0.01892085462603202,0.0463145469473832,-0.02272177877628502,0.0010429711732614757,0.0003531317186879202,-9.080968503442207e-05
504682000000,207,504682000000,BL_wheel_link,-0.14398819422277237,-2.8991625053699033,21.540382880305923,-0.3813555549079468,-0.007139424823102342,-0.0032750375347024296
504683000000,208,504683000000,BL_wheel_link,-0.14630129143199105,0.010429463693579888,-0.2778025152168917,-0.0237470361047123,0.0035246312923034526,-0.003893307357592757
504684000000,209,504684000000,BL_wheel_link,-0.008598114075353984,0.046773964524653856,-0.0299110988176242,0.000764937997668811,-0.0002896099061326382,-0.00030887144465894205
504685000000,210,504685000000,BL_wheel_link,-0.2357274813007726,-3.9253485913106974,3.6610273913039357,-0.4538522789135827,0.04298756045177732,0.009087842349210645
504686000000,211,504686000000,BL_wheel_link,0.08251602312123282,0.18560308261408598,-0.21037311065581057,0.012880683633258016,0.0048893786373965485,0.004901686637108644
504687000000,212,504687000000,BL_wheel_link,0.662682684570602,-2.535898778401863,10.396357519005557,-0.3306233747168337,-0.07995544043214506,-0.004140639892834603
504688000000,213,504688000000,BL_wheel_link,-1.3259023900494635,-2.7850033807117542,2.875612549501408,-0.3167289500608309,0.14164387995020236,-0.0025330942926226774
504689000000,214,504689000000,BL_wheel_link,0.052440463857242534,0.24419584005600672,-0.6425876558647055,-0.005701514121683466,-0.0034601230807463816,-0.0002223155277813919
504690000000,215,504690000000,BL_wheel_link,0.07068255364959837,0.0521432369118738,0.02284997265167113,-0.002066193589584541,0.006827366629410429,0.004402823395915518
504691000000,216,504691000000,BL_wheel_link,1.2827919428238252,-1.2019079827149337,15.565921766287833,-0.1834251241739488,-0.1454192133650946,-0.0019357930206346276
504692000000,217,504692000000,BL_wheel_link,-0.6130365953636645,-2.2416300432789695,2.4826958175416154,-0.25754681852970096,0.06058328772462322,-0.00271842342259215
504693000000,218,504693000000,BL_wheel_link,0.21131677602289473,0.002007864168979523,-0.4958789239538792,-0.00955830760119036,-0.006295332467102399,0.00406479869007372
504694000000,219,504694000000,BL_wheel_link,2.0743419696846277,-0.41363307878087074,4.428981226216065,-0.08265771288794044,-0.239083081897433,-0.0036490153785834964
504695000000,220,504695000000,BL_wheel_link,-0.04444182043698285,-0.14528360058708864,0.2597361713216312,-0.03588047447895544,-0.0019563021278524925,-0.00024183421159305928
504696000000,221,504696000000,BL_wheel_link,1.1682042181942653,0.165195360918151,18.913530789453667,-0.03146726915478672,-0.11818903395448212,0.0036341765460918083
504697000000,222,504697000000,BL_wheel_link,-0.9974564108829871,-1.5839764236795073,1.560389928727717,-0.1587253221255883,0.15364383081547517,0.007308814058322669
504698000000,223,504698000000,BL_wheel_link,0.07405946042624942,0.1678548617876056,-0.505501393641929,0.016111770890339876,0.008900990625800909,0.004651355385014043
504699000000,224,504699000000,BL_wheel_link,-4.019818947264345,-6.70438621159106,14.153270377055822,-0.765851866621305,0.4092942270010006,-0.016299919821695437
504700000000,225,504700000000,BL_wheel_link,-0.8310113076181916,-0.7831509887710105,0.45739014458700455,-0.10789617973083361,0.11310804241929623,-0.004159153983254574
504701000000,226,504701000000,BL_wheel_link,0.04798907477194808,0.048853648133624965,-0.05057182552587218,0.0033480246563595095,-0.004754391156126243,0.0001870353267703066
504702000000,227,504702000000,BL_wheel_link,-1.3384922332160645,-0.9549663794967198,23.22106533751797,-0.14712074787866905,0.15045396394881527,-0.004287150028707295
504703000000,228,504703000000,BL_wheel_link,-0.11513933967662707,-0.19528705465951984,-0.09049835841089736,-0.019489014758161997,0.013161252522117292,-0.0002671193198234451
504704000000,229,504704000000,BL_wheel_link,0.004034350972555064,0.00880909431820616,0.005081850636787605,-5.639599279861821e-05,-0.000572430443312867,2.015165192265669e-06
504705000000,230,504705000000,BL_wheel_link,-0.5115627341502732,-2.8412037484691863,16.310718325995346,-0.36176989994288955,0.055287643558947525,-0.0016302632294956584
504706000000,231,504706000000,BL_wheel_link,-0.08387488767941027,-0.1644816925175028,-0.1490475293289023,-0.017439533214427552,0.008798922673735669,-0.0004910084772514089
504707000000,232,504707000000,BL_wheel_link,0.06679279752103867,0.07138702869769956,-0.5296124294577889,-0.012898712094046569,-0.01644799514171657,-0.005030430875945707
504708000000,233,504708000000,BL_wheel_link,-0.0532683575384255,-0.11523216300124986,0.4284021162391425,-0.008656914799125502,0.02067973723377181,0.00969638918123084
504709000000,234,504709000000,BL_wheel_link,2.2066537000852167,-1.7185611229516382,10.274121789602194,-0.2500521516266798,-0.25419898554123677,-0.003701044622345752
504713000000,235,504710000000,BL_wheel_link,-3.2010867824707008,-5.699479600535872,7.5925022681711845,-0.6355092203849244,0.33028527390702445,-0.00477557740798993
504713000000,236,504711000000,BL_wheel_link,-1.5030365683983167,-1.4041854587650295,0.9220757280937346,-0.15662506851102967,0.17025545330424735,-0.0013387846207307554
504713000000,237,504712000000,BL_wheel_link,0.10774151900478904,0.029116322289649534,-0.36105210810167965,-0.018040560978994005,-0.0031726050833467394,0.0022176618567669513
504713000000,238,504713000000,BL_wheel_link,0.3574455247613698,-0.9902045211592192,4.299529108813026,-0.14149440062665214,-0.04131004287729612,-0.002706197646047551
504713000000,239,504714000000,BL_wheel_link,-2.624857895127792,-5.835565566535962,6.870165379478372,-0.669380889146835,0.26088376401969016,-0.007378615726452906
504713000000,240,504715000000,BL_wheel_link,-1.3498983075422752,-1.1637488934900444,0.8097552928726635,-0.13168463797283816,0.15254069887467214,-0.0008396905425190574
504715000000,241,504716000000,BL_wheel_link,0.03830362984074298,-0.04073564456328668,-0.2013499647963819,-0.015099611142285658,0.00442798473354054,0.004352010589898806
504715000000,242,504717000000,BL_wheel_link,0.8545374152911173,0.1935890381199525,6.851531568532614,-0.014602147399499103,-0.08937422165320497,-0.0006709586403661318
504718000000,243,504718000000,BL_wheel_link,-2.1624279752111275,-4.503133477556222,8.048586826917052,-0.5193074623145517,0.21043457142790967,-0.005103507347560942
504719000000,244,504719000000,BL_wheel_link,-1.407532722112733,-1.2565279875341206,0.8656216773553795,-0.14218358279351548,0.15865029352332402,-0.0011277373943354115
504720000000,245,504720000000,BL_wheel_link,0.02426959766601054,-0.02832491625417407,-0.188618594953544,-0.015129132981333462,0.004439861362935636,0.0045344846735143295
504721000000,246,504721000000,BL_wheel_link,0.8609411620089367,0.6925850564909071,7.406948728511114,0.04249934030202429,-0.0864433894478149,0.00023292078025958498
504722000000,247,504722000000,BL_wheel_link,-0.16530592332436872,-0.11104648612157864,0.35017849116129696,-0.03162359089696267,0.00788740317040413,0.00041495989716558174
504723000000,248,504723000000,BL_wheel_link,1.427920248221088,1.629559331808522,10.453600455560943,0.13678739690632835,-0.14314602965766454,0.0012077915898692838
504724000000,249,504724000000,BL_wheel_link,-0.25020321668103207,0.012774082228134503,0.5673794154022408,-0.022638057519931618,0.010308305014083669,-0.0025911401846880427
504725000000,250,504725000000,BL_wheel_link,0.7390167157990806,1.760294361050358,9.238228735959657,0.16231624892998964,-0.06352820866852113,0.00234395341187055
504726000000,251,504726000000,BL_wheel_link,-0.12319779744000636,-0.0620089243370419,0.3178606960103282,-0.02413131181652626,0.006802605992317528,1.5548631656422257e-07
504727000000,252,504727000000,BL_wheel_link,0.6589535533610442,0.5331484398281627,6.731335364196049,0.028780351282402798,-0.0647234802929486,8.564385094153148e-06
504728000000,253,504728000000,BL_wheel_link,0.04904542896997169,0.014907820563208746,-1.901035590958641,0.0073308005416536344,0.007981176332968649,0.0009439621760977824
504729000000,254,504729000000,BL_wheel_link,0.01005933797501396,-0.002149649273842755,-0.01221563344601586,0.00023637844280631514,0.000122101141675001,0.00036150660774390635
504730000000,255,504730000000,BL_wheel_link,-0.008469046141106473,0.030222804138218796,-0.3775734707070393,-0.009891207129429366,-0.010064330665096486,-0.0023337301013211364
504731000000,256,504731000000,BL_wheel_link,-0.06829361106473994,0.2606329867667112,-0.7286110818125795,0.018557207370476357,0.02274046171711346,0.0018866693747321014
504732000000,257,504732000000,BL_wheel_link,0.24381937524513214,-0.2835164322115466,-0.4432097934472329,-0.028393540805035804,-0.02363578465540022,-0.0018936540695695214
504733000000,258,504733000000,BL_wheel_link,-0.15449621482838463,0.5624262818007144,-1.2944814597756003,0.0403446582098474,0.016574710368112783,0.0017590879294437588
504734000000,259,504734000000,BL_wheel_link,0.43797288685939934,-0.40958832948320534,-1.2141577341733336,-0.021264304782220387,-0.01598527196241642,0.012933361486677751
504735000000,260,504735000000,BL_wheel_link,-0.01605472284142489,0.027909136564752888,-0.02198922469409177,0.001043761579803138,0.0005455658673712389,0.000150183977939542
504736000000,261,504736000000,BL_wheel_link,-0.19177839457212087,-0.003846514909788698,0.13264647652083295,-0.0018837089739689172,0.023788374191061848,0.002082954926191684
504737000000,262,504737000000,BL_wheel_link,0.14830660770566287,0.14246132680761736,-0.9212066863732947,-0.016288242979134414,-0.025806486013208643,-0.00762978366600884
504738000000,263,504738000000,BL_wheel_link,-0.2567703242226493,0.6171565275461679,-1.2380303749924653,0.040178240817017645,0.01766274176810345,-0.0003368657604332155
504739000000,264,504739000000,BL_wheel_link,0.33877658797491306,-0.2528567560810328,-1.020509075069806,-0.025901019755757287,-0.012451685116397895,0.008981248760263422
504740000000,265,504740000000,BL_wheel_link,-0.023616443666145306,0.036315362419705906,-0.018778477341450793,0.0007450237372079956,0.0003276436687314113,-0.0004247226905956066
504741000000,266,504741000000,BL_wheel_link,-0.050848841221455596,0.22776525493426275,-0.32496787797587656,0.007236462092892758,0.016430719520618448,0.0012072364458628818
504742000000,267,504742000000,BL_wheel_link,0.125210024682076,0.06828957738858635,-0.814232688153717,-0.019835728573761386,-0.02497171341863142,-0.00689422055584089
504743000000,268,504743000000,BL_wheel_link,-0.37463240484515725,0.6550418191010123,-1.1636540125981436,0.03961061397317042,0.01934379768611478,-0.0028359471051109205
504744000000,269,504744000000,BL_wheel_link,0.19379856468563283,-0.27031142206674896,-0.6791037147323165,-0.033203136094442004,-0.00879031847952831,0.00501829890979078
504745000000,270,504745000000,BL_wheel_link,-0.018679030091699723,0.05694033130857279,-0.056165628422420726,0.0019137221420454718,0.00034635847397072904,-0.00026179067569398994
504746000000,271,504746000000,BL_wheel_link,-0.13463434900438143,0.3814525459917184,-0.757745839577483,0.025055891217193118,0.010476490896029584,0.0009787364028308264
504747000000,272,504747000000,BL_wheel_link,0.13246759903281458,-0.09037691299035705,-0.456832199772456,-0.03575955330522473,-0.010009549239758673,-0.000585102404589592
504748000000,273,504748000000,BL_wheel_link,-0.15378475561017957,0.5079476343935266,-1.0404588746680425,0.033089657615103886,0.012974682320731509,0.001025447919689071
504749000000,274,504749000000,BL_wheel_link,0.32605568974721055,-0.1308743641041654,-0.7843456787510432,-0.02544333373951506,-0.019822609583435163,0.003680996743516931
504751000000,275,504750000000,BL_wheel_link,-0.3181505924314572,0.4916339605412122,-0.8461907531627151,0.02908554608634565,0.014956528367093234,-0.0032954747144253735
504751000000,276,504751000000,BL_wheel_link,0.15199396640046556,-0.10733782983426379,-0.8029111654856291,-0.025799215903260724,-0.011101698921684281,0.0015716177183591755
504752000000,277,504752000000,BL_wheel_link,-0.015373345591117658,0.057225299779404014,-0.06282699547536924,0.0020722616906877636,0.00029311584116215766,-0.00020111101400252984
504753000000,278,504753000000,BL_wheel_link,-0.026361369281070385,0.24861208078499966,-0.44101043477870205,0.009882524393586205,0.016637562181791247,0.0012844716304475166
504754000000,279,504754000000,BL_wheel_link,0.14025498082083168,0.07705097912173801,-0.8372633322160611,-0.01967236279022185,-0.025882438641621673,-0.0072402296522015505
504755000000,280,504755000000,BL_wheel_link,-0.21244015919807246,0.45538143726829433,-0.8196838738229784,0.024976721056994222,0.025121132264561398,0.0006614795988058916
504756000000,281,504756000000,BL_wheel_link,0.1517171074228079,-0.07357867289665579,-0.6470274286714346,-0.02286169649906352,-0.023680273995089776,-0.004195302708759686
504757000000,282,504757000000,BL_wheel_link,-0.2509165548462616,0.552048937355432,-1.10687952959484,0.03628411672171317,0.01621972623418437,-0.0006920062723405288
504758000000,283,504758000000,BL_wheel_link,0.10695956394559504,-0.25059702184623744,-0.17445994526000502,-0.036732893637769895,-0.005807540319697012,0.002921590279480678
504759000000,284,504759000000,BL_wheel_link,-0.015416468614251194,0.35801527004903066,-0.8329398064910623,0.02548738221916931,0.008045930602941384,0.003427244266780324
504760000000,285,504760000000,BL_wheel_link,0.22630080532167035,-0.09126671875929182,-0.645682356067346,-0.022987922171590944,-0.014014057587141363,0.0037738065558205066
504761000000,286,504761000000,BL_wheel_link,-0.2273782026848442,0.4216459776917372,-0.7856992769320592,0.02624206524662598,0.01236637426000194,-0.0016164143339743198
504762000000,287,504762000000,BL_wheel_link,0.1077059206478116,-0.0760287902752506,-0.3995407303807954,-0.028494450470482362,-0.0091200032502653,-0.00010082907486574509
504763000000,288,504763000000,BL_wheel_link,-0.14100411310499036,0.3882014856642179,-0.8189187018151024,0.026010593334329642,0.010732535855813801,7.005472389008498e-05
504764000000,289,504764000000,BL_wheel_link,0.18879791880108968,-0.0770008437595242,-0.5558933530697565,-0.025124909267978293,-0.013025985029613118,0.0013751128284068565
504765000000,290,504765000000,BL_wheel_link,-0.21217330793734474,0.41612965002517033,-0.8460489123807413,0.027418486426264415,0.012721202969305036,-0.0016017430731026716
504766000000,291,504766000000,BL_wheel_link,0.2237652170467221,-0.07889191175936147,-1.051222563267988,-0.01906521569179594,-0.011816782284150116,0.0035774696497464344
504767000000,292,504767000000,BL_wheel_link,-0.011639703782060905,0.041702070043312486,-0.04448164722855004,0.00135544479440568,0.00018431375695142675,-0.00015609930986034304
504768000000,293,504768000000,BL_wheel_link,-0.12020946807981803,0.09879149582922298,-0.13633776050441515,0.0039050401055281785,0.020401765464238004,0.0009850000314273763
504769000000,294,504769000000,BL_wheel_link,0.14778631117291885,0.1373628201338152,-0.9194557691152464,-0.017624960634009312,-0.026969746113951552,-0.008192926681437477
504770000000,295,504770000000,BL_wheel_link,-0.21122070309665097,0.429893848050629,-0.8798021422159994,0.026923765500009716,0.024094398259444337,0.00016695012238210913
504771000000,296,504771000000,BL_wheel_link,0.17081417243476293,-0.09630762295676336,-0.6440547587252592,-0.023933275483453042,-0.024664456498170187,-0.003946286399578527
504772000000,297,504772000000,BL_wheel_link,-0.2357014490242993,0.5348211395310837,-1.1628492783540834,0.03734352719089927,0.01657507917409394,-0.0007029001258962359
504773000000,298,504773000000,BL_wheel_link,0.10671036913806542,-0.25222211909885794,-0.14147196991755773,-0.03752953651191478,-0.005760639585169813,0.002501071698664794
504774000000,299,504774000000,BL_wheel_link,-0.003369610229540576,0.34754089303293345,-0.8900024619091726,0.02666982641294103,0.008489261240431884,0.003473120976784168
504775000000,300,504775000000,BL_wheel_link,0.22921334075159402,-0.10937120274932846,-0.6149967698810592,-0.023816344601989243,-0.013957624547486898,0.003870384583956178
504776000000,301,504776000000,BL_wheel_link,-0.20372578051405715,0.39507771231966765,-0.788298958197968,0.025826908587314422,0.01190916923206468,-0.001393124424337895
504777000000,302,504777000000,BL_wheel_link,0.10395775621644725,-0.073764951297946,-0.38812517870895924,-0.028237192487624775,-0.008903306490169757,-9.452941019093015e-07
504778000000,303,504778000000,BL_wheel_link,-0.1340438130175099,0.3706074339804968,-0.8215238436599827,0.025828121000700244,0.010640246815609485,-5.465738355525012e-06
504779000000,304,504779000000,BL_wheel_link,0.18332547755595505,-0.07871213116606147,-0.5402873327991091,-0.02520741771783813,-0.012719133373533902,0.0014988815208680664
504780000000,305,504780000000,BL_wheel_link,-0.20881788884203967,0.4023619842508953,-0.8561278027046921,0.02748806987491616,0.012771292975618066,-0.0017657126275095218
504781000000,306,504781000000,BL_wheel_link,0.16229025278748746,-0.10416068509412975,-0.44458928768170003,-0.0278791375205351,-0.011668339060958287,0.0006983445978047914
504782000000,307,504782000000,BL_wheel_link,-0.17094432261635084,0.3817246570261337,-0.8554115416611103,0.026978202569506393,0.01193893590936403,-0.0010172752319016092
504783000000,308,504783000000,BL_wheel_link,0.18684541357307496,-0.10756050767732288,-0.4894013112701135,-0.02660718154654717,-0.012668618492455895,0.0014096307941344494
504784000000,309,504784000000,BL_wheel_link,-0.19017235230860183,0.3854617930314701,-0.8562014802434743,0.02715900677014389,0.012418448229691268,-0.001511236742775752
504785000000,310,504785000000,BL_wheel_link,0.17329284315408905,-0.11182157750533088,-0.4499798386740158,-0.027406933877011264,-0.011978259464765962,0.0010840981126958706
504786000000,311,504786000000,BL_wheel_link,-0.17436024883108475,0.3767871975971162,-0.8594515603212722,0.02703607652394765,0.012109924151750457,-0.0012077198331141687
504787000000,312,504787000000,BL_wheel_link,0.1826310366472554,-0.11326871280324657,-0.4663617856929462,-0.026958048369753726,-0.012361353415101396,0.0013569409376312871
504788000000,313,504788000000,BL_wheel_link,-0.18179960369904855,0.3780578987730342,-0.8642932393494103,0.027216913848815808,0.012347271500291291,-0.0014155161524306622
504789000000,314,504789000000,BL_wheel_link,0.17919166970135458,-0.11690713212120919,-0.45173899662955114,-0.027303901628194738,-0.012174498952069651,0.0012890650076051425
504790000000,315,504790000000,BL_wheel_link,-0.17638429804459405,0.3738654183380784,-0.8662600577295714,0.02718273474137374,0.012254774829374102,-0.0013336115647214044
504791000000,316,504791000000,BL_wheel_link,0.18297909752592276,-0.11834348499888457,-0.45729504078490635,-0.027149656321051086,-0.012335908129806332,0.0014222418305567391
504792000000,317,504792000000,BL_wheel_link,-0.17943190420226715,0.37319729531385093,-0.8679700975782334,0.02723786145228551,0.012350377600737986,-0.0014373878029412053
504793000000,318,504793000000,BL_wheel_link,0.18173577225219884,-0.12006782877953581,-0.45154784034603035,-0.027277036905640924,-0.01227492396023203,0.0014227184616619798
504794000000,319,504794000000,BL_wheel_link,-0.17786264783152242,0.3707241923862766,-0.8690219204690528,0.027227068349245775,0.012330851912239527,-0.0014353867847236692
504795000000,320,504795000000,BL_wheel_link,0.1832906123338617,-0.12108431536483902,-0.45338318080727313,-0.027225417380799193,-0.012349277691399721,0.0014980905905364456
504796000000,321,504796000000,BL_wheel_link,-0.17952047137654004,0.3696706547826556,-0.870280940015441,0.027258705867048275,0.012386138613221652,-0.001504240459201649
504797000000,322,504797000000,BL_wheel_link,0.1831342059360468,-0.12236592023225566,-0.45104267713849144,-0.02728236907160439,-0.012348328247495176,0.0015261561357675475
504798000000,323,504798000000,BL_wheel_link,-0.17947906695859728,0.3679572470414325,-0.8713124068753388,0.027266653177168417,0.012399310044449292,-0.0015339526584025702
504799000000,324,504799000000,BL_wheel_link,0.18399367038415831,-0.12339997402862743,-0.4514423692611662,-0.027274555959387367,-0.012395748732381945,0.0015818044759906157
504801000000,325,504800000000,BL_wheel_link,-0.18055336785767032,0.36671951778017864,-0.8723675160552433,0.027287968926388816,0.012437827024050052,-0.0015884028860682809
504801000000,326,504801000000,BL_wheel_link,0.18420233542414197,-0.12448338701619234,-0.45029780087536975,-0.02730518478707257,-0.012414261119736793,0.0016192198199143585
504802000000,327,504802000000,BL_wheel_link,-0.18096560802650058,0.36522033827207845,-0.8733424425604362,0.027300275694142177,0.01246012836993153,-0.001627695784469974
504803000000,328,504803000000,BL_wheel_link,0.18476236834080537,-0.12547250523836945,-0.4500898336720014,-0.027312593303923684,-0.012448937234656524,0.0016660982910445216
504804000000,329,504804000000,BL_wheel_link,-0.18173751011556294,0.3638816110634326,-0.8743771173145247,0.027318313483201274,0.012491194643192136,-0.0016751002688391646
504805000000,330,504805000000,BL_wheel_link,0.1850849392180775,-0.12647546580598631,-0.4492884227579141,-0.027334429948637527,-0.012472818401758519,0.0017057689906426973
504806000000,331,504806000000,BL_wheel_link,-0.18223539164923905,0.3624397225903747,-0.8754334044602516,0.027334074925268164,0.012516232384590629,-0.0017163522179817147
504807000000,332,504807000000,BL_wheel_link,0.1855374921178909,-0.12744993425168358,-0.448797975417746,-0.027348405903092024,-0.01250229424463977,0.0017486504098278334
504808000000,333,504808000000,BL_wheel_link,-0.1828424317233502,0.36104273592974234,-0.876526566797464,0.02735202907998429,0.01254420256085571,-0.0017602811495972303
504809000000,334,504809000000,BL_wheel_link,0.18591833996514917,-0.12842990277690397,-0.44810197992413275,-0.027367262850876515,-0.012527821055785303,0.0017893776168553626
504810000000,335,504810000000,BL_wheel_link,-0.1833383657590379,0.35959076392570666,-0.8776052807915233,0.027368352115918843,0.0125695488525172,-0.001801942233347433
504811000000,336,504811000000,BL_wheel_link,0.18633662962330946,-0.12939361800430926,-0.4474916287920031,-0.027383097082334867,-0.012554805742727541,0.0018309601525363772
504812000000,337,504812000000,BL_wheel_link,-0.1838696731199703,0.35814645393221567,-0.8786878343879985,0.027385140464182205,0.012595788727250997,-0.001844653044954487
504813000000,338,504813000000,BL_wheel_link,0.18238987970221734,-0.12671501750476946,-0.4529157217309464,-0.02731516548718302,-0.01257787395456688,0.0018596067210291437
504814000000,339,504814000000,BL_wheel_link,-0.18290544242981444,0.3548071284412692,-0.8772347119286711,0.02730223895253473,0.012567254050573795,-0.0018727891778650685
504815000000,340,504815000000,BL_wheel_link,0.10562695950790624,0.020366761118437646,-0.6599393575864303,-0.025743210046825442,-0.01424092726547799,-0.0009483382431886697
504816000000,341,504816000000,BL_wheel_link,-0.159539657898979,0.3173675072749385,-0.8251288399661688,0.02554354726330904,0.011815658432444032,-0.0014066449130904365
504817000000,342,504817000000,BL_wheel_link,0.08925815751655014,-0.010260644773587874,-0.5650112979109456,-0.024967583442777167,-0.012161653142629718,-7.344595261481787e-05
504818000000,343,504818000000,BL_wheel_link,-0.10708668435327778,0.2684768929666368,-0.7328670017968757,0.022441235154124033,0.009779810601295208,-0.0002807482636102993
504819000000,344,504819000000,BL_wheel_link,0.23398759811941508,-0.35925593492209307,-0.18939456462740634,-0.03393966799570278,-0.011750162703713986,0.005415532415421525
504820000000,345,504820000000,BL_wheel_link,-0.23287488965629066,0.46032004008135374,-1.114118100713323,0.03539584373546673,0.015926815477895463,-0.002191591502148442
504821000000,346,504821000000,BL_wheel_link,0.2708603061761384,-0.20566741662574656,-0.5032558665623297,-0.025589195417111632,-0.015686314771275536,0.004424778211437893
504822000000,347,504822000000,BL_wheel_link,-0.24951199740378144,0.3738082309268383,-0.8938561263823067,0.028303422196914455,0.014274721071221458,-0.0036654672698589424
504823000000,348,504823000000,BL_wheel_link,0.1611493885460883,-0.14808567100488032,-0.34788954115841864,-0.029549673304285283,-0.011374254133495455,0.0009600430567801106
504824000000,349,504824000000,BL_wheel_link,-0.151741173548865,0.33525299975267947,-0.8893481508798007,0.027161499083647515,0.011978744574414252,-0.0013591071659327827
504825000000,350,504825000000,BL_wheel_link,0.2017777959162419,-0.1246813737588955,-0.49033974846588146,-0.026330588356754354,-0.013447898768221198,0.002111372213946123
504826000000,351,504826000000,BL_wheel_link,-0.1956567916023103,0.35065385113107095,-0.8886623279295378,0.027626824032782736,0.012986815115069187,-0.0023710364614468833
504827000000,352,504827000000,BL_wheel_link,0.174896803830826,-0.13229219178397533,-0.4152975655941128,-0.02803947171889164,-0.012053857233789423,0.0015615018125026943
504828000000,353,504828000000,BL_wheel_link,-0.16705116312776352,0.33705385542685795,-0.8816858786554612,0.027135598486937113,0.012264509254237253,-0.0017106210800605184
504829000000,354,504829000000,BL_wheel_link,0.1920299401419725,-0.13277757434602375,-0.4576036453905144,-0.026964665628748663,-0.012769050929946478,0.0021971705598837726
