%time,field.header.seq,field.header.stamp,field.header.frame_id,field.wrench.force.x,field.wrench.force.y,field.wrench.force.z,field.wrench.torque.x,field.wrench.torque.y,field.wrench.torque.z
504476000000,0,504475000000,BR_wheel_link,-0.02673739202749282,0.20311213819208535,-0.28636777502574495,-0.004928387605641257,-0.002958658195473723,-0.0032742794476265107
504476000000,1,504476000000,BR_wheel_link,-0.02797874270955869,0.3263428447982303,-1.1894247740325432,0.008136319044012873,0.0032603652779768476,-0.000304304225870484
504477000000,2,504477000000,BR_wheel_link,0.018284031719963623,0.18903697352988058,-0.16928225020791876,-0.007156762692129483,-0.0035816904193475573,-0.00033050707870116696
504478000000,3,504478000000,BR_wheel_link,0.027053516023692548,0.1793181362282914,-0.352180371417022,-0.004202166172790482,0.007431534749857765,0.004734490062567482
504479000000,4,504479000000,BR_wheel_link,0.07621593836206014,0.40585679908802325,-1.4430800380606867,0.011528403024664716,-0.010924364054143116,-0.0016726179892364774
504480000000,5,504480000000,BR_wheel_link,-0.06462400726068965,0.08665377260192472,-0.38671200101657294,-0.003376334962726232,0.006771682635841645,0.0008476969539115422
504481000000,6,504481000000,BR_wheel_link,-0.02673871307189806,0.20315987720606354,-0.28647753907209694,-0.004927856010277149,-0.002960567251119594,-0.003275457711753522
504482000000,7,504482000000,BR_wheel_link,-0.027988142105750687,0.32632313745280306,-1.1892286384989303,0.008134127812706424,0.003264213150431427,-0.00030410661516243245
504483000000,8,504483000000,BR_wheel_link,0.0183355227151987,0.1891348454758425,-0.16934411231945334,-0.007157118753755281,-0.003585895991727545,-0.00033071295684315716
504484000000,9,504484000000,BR_wheel_link,0.027035137100090693,0.17933700967262878,-0.3522953424001739,-0.004201191227941025,0.0074329754579226985,0.004734807732150967
504485000000,10,504485000000,BR_wheel_link,0.07610577382654567,0.4056798911745588,-1.4428995249395524,0.011530325211292786,-0.010923473497142087,-0.001673057992972893
504486000000,11,504486000000,BR_wheel_link,-0.06453424105766917,0.0866913338989218,-0.38680354059802097,-0.0033771554953864295,0.0067716363016693554,0.0008489515536643667
504487000000,12,504487000000,BR_wheel_link,-0.026738893801990647,0.20320638738819025,-0.2865803106374606,-0.004927449327071952,-0.0029625640683018676,-0.003276528394851024
504488000000,13,504488000000,BR_wheel_link,-0.028000410744031548,0.3263011366766947,-1.189032874113026,0.008131945713179434,0.003268068317612035,-0.0003039446441093905
504489000000,14,504489000000,BR_wheel_link,0.018386057097457442,0.18923048522083186,-0.1694059256854969,-0.007157479473155194,-0.003590015440045793,-0.00033091504889266193
504490000000,15,504490000000,BR_wheel_link,0.027016486810828556,0.17935515777574615,-0.35240972092847095,-0.004200229011650943,0.007434413656950328,0.0047351135505027285
504491000000,16,504491000000,BR_wheel_link,0.07600953560394938,0.40552510957249277,-1.4427508558630853,0.011532499092166953,-0.010922427143505517,-0.0016734959529150564
504492000000,17,504492000000,BR_wheel_link,-0.0644488427732323,0.08671968476916642,-0.3868754124550745,-0.0033780077691911337,0.006771492364379218,0.0008501335041849957
504493000000,18,504493000000,BR_wheel_link,-0.026736917294135458,0.20325183743535724,-0.28667001941810266,-0.004927273293501776,-0.002964759722125407,-0.0032773838076467967
504494000000,19,504494000000,BR_wheel_link,-0.02802050245436525,0.3262737612988638,-1.1888341014860817,0.008129732937213977,0.0032720128947154948,-0.0003038803104801805
504495000000,20,504495000000,BR_wheel_link,0.01843605075031235,0.18932420169210445,-0.16946563009544435,-0.007157877218550506,-0.0035941123245710064,-0.00033109462738365413
504496000000,21,504496000000,BR_wheel_link,0.026997069265507344,0.17937228797120464,-0.3525232247244103,-0.0041992845003187874,0.007435858128025056,0.004735414579686972
504497000000,22,504497000000,BR_wheel_link,0.07591973891968133,0.405383302012611,-1.4426282593423618,0.01153493169379371,-0.010921302725311114,-0.0016739523694451358
504498000000,23,504498000000,BR_wheel_link,-0.06436825849804997,0.08674107613847193,-0.38693650906010857,-0.0033788409855752765,0.006771291916367344,0.0008512034943614361
504499000000,24,504499000000,BR_wheel_link,-0.02673360311321866,0.20329504982857174,-0.28674975146159054,-0.004927277064224785,-0.0029670765109888965,-0.003278101690622692
504500000000,25,504500000000,BR_wheel_link,-0.028045144030515758,0.32624284272927967,-1.1886332742391528,0.008127489659473155,0.0032760084162567053,-0.00030386283784631296
504501000000,26,504501000000,BR_wheel_link,0.01848520954983196,0.18941588227066658,-0.1695245657504311,-0.007158293071460983,-0.0035981621658224406,-0.0003312783202031427
504502000000,27,504502000000,BR_wheel_link,0.026977121262949454,0.17938887088893307,-0.3526363802365141,-0.004198353249312892,0.0074373114078742295,0.004735715787873121
504503000000,28,504503000000,BR_wheel_link,0.07583933009466139,0.40525782743727473,-1.4425342721627465,0.01153762094532127,-0.010920075160075024,-0.0016744166215747983
504504000000,29,504504000000,BR_wheel_link,-0.06429075082201326,0.0867549659669092,-0.38698180868171184,-0.003379696741726346,0.006771003922263875,0.0008522161690798412
504505000000,30,504505000000,BR_wheel_link,-0.026729065150341944,0.20333588093419397,-0.28681939438025694,-0.004927458988357185,-0.0029695250714864892,-0.0032786969494650086
504506000000,31,504506000000,BR_wheel_link,-0.028074897731532128,0.3262084340987306,-1.1884314405030842,0.008125228092218384,0.003280068109254743,-0.00030389749191924787
504507000000,32,504507000000,BR_wheel_link,0.01853355009209791,0.18950554638000214,-0.169582579573533,-0.007158728912095969,-0.0036021623223260043,-0.00033145702144342273
504507000000,33,504508000000,BR_wheel_link,0.02695656879101905,0.17940488152774609,-0.35274914867774754,-0.004197434934895045,0.007438774623778385,0.004736018282302652
504508000000,34,504509000000,BR_wheel_link,0.07576983038941426,0.4051519307023361,-1.4424745272484807,0.011540592722063156,-0.010918707025602464,-0.0016749022039622683
504508000000,35,504510000000,BR_wheel_link,-0.06421636653364904,0.08675982767055421,-0.3870063853956116,-0.003380577325860697,0.006770597113606982,0.0008531835623876878
504511000000,36,504511000000,BR_wheel_link,-0.026723521074560996,0.20337469705404407,-0.28687790708553984,-0.0049278439152113,-0.002972124147708369,-0.003279134473484675
504511000000,37,504512000000,BR_wheel_link,-0.02811126652499399,0.32616932184750036,-1.1882269510947907,0.008122931849761492,0.0032842046874109296,-0.00030400864298850243
504511000000,38,504513000000,BR_wheel_link,0.018581098722752307,0.18959295939792278,-0.1696389619571626,-0.007159196954832638,-0.0036061325024423626,-0.0003316364104701295
504511000000,39,504514000000,BR_wheel_link,0.02693526582991182,0.17942018680468044,-0.35286142708379503,-0.004196533100724676,0.0074402505063482305,0.004736323339607492
504515000000,40,504515000000,BR_wheel_link,0.07571235756282016,0.4050683211842396,-1.4424584785105137,0.011543891690179218,-0.01091713057248153,-0.0016753851682739175
504516000000,41,504516000000,BR_wheel_link,-0.0641444488614055,0.08675433540665436,-0.38700254023094915,-0.003381483376359797,0.006770012894683327,0.000854082663503998
504517000000,42,504517000000,BR_wheel_link,-0.026717366093084734,0.20341137940467796,-0.28692405862017467,-0.004928458015693027,-0.002974899000164698,-0.0032794006267552202
504518000000,43,504518000000,BR_wheel_link,-0.028155849797946525,0.32612449448414804,-1.1880199102744822,0.008120601823677149,0.003288432354069767,-0.0003042204453362477
504519000000,44,504519000000,BR_wheel_link,0.018627600783392637,0.1896774135594835,-0.16969352835179502,-0.0071597024656571305,-0.0036100494648702306,-0.000331813772758255
504520000000,45,504520000000,BR_wheel_link,0.026913107466930493,0.1794345624363916,-0.35297303177993367,-0.004195652654797785,0.007441738906887563,0.004736628202637009
504521000000,46,504521000000,BR_wheel_link,0.07566597507276891,0.40500689457652,-1.442484049667955,0.011547424904896625,-0.010915418335914133,-0.0016759884303106762
504522000000,47,504522000000,BR_wheel_link,-0.06407416196736039,0.08673682225956805,-0.3869689536668114,-0.003382335901382241,0.006769261777243102,0.0008550892852890986
504523000000,48,504523000000,BR_wheel_link,-0.026712264560905183,0.20344634688281243,-0.28696108100087186,-0.004929257513119087,-0.0029778100161753957,-0.003279556640823267
504524000000,49,504524000000,BR_wheel_link,-0.028207808196106403,0.3260746940964943,-1.1878138141933292,0.008118278342229834,0.0032927117890116345,-0.0003045290735493631
504525000000,50,504525000000,BR_wheel_link,0.018672145102494805,0.18975718470423578,-0.169747658264993,-0.007160229443066287,-0.003613809582195273,-0.0003320027001203603
504526000000,51,504526000000,BR_wheel_link,0.026890276234130074,0.17944777827773584,-0.3530837638862544,-0.0041948014755152745,0.007443232128463617,0.004736918837966837
504527000000,52,504527000000,BR_wheel_link,0.07562636885551864,0.4049537267870641,-1.4425418954615736,0.011550578476593503,-0.010913328800374097,-0.0016764914472991884
504528000000,53,504528000000,BR_wheel_link,-0.06203665012035421,0.08634543114621525,-0.3829916442481044,-0.003443811708166066,0.00675159442526179,0.0009156020180726978
504529000000,54,504529000000,BR_wheel_link,-0.11510869595952647,0.21377636248364668,-0.5839142329627331,-0.0011002472200503303,-0.0021920205951260646,-0.005729879356262191
504529000000,55,504530000000,BR_wheel_link,0.038391878724107376,0.16892601070143323,-0.3116527953857351,-0.003975552951196638,0.006795885790750427,0.004531219535794852
504531000000,56,504531000000,BR_wheel_link,0.11060163890291183,0.37137149245911794,-1.1658031117941057,0.0071543534834507105,-0.011886587819593496,-0.0009940334078615929
504532000000,57,504532000000,BR_wheel_link,-0.062259906566236055,0.14489992481605407,-0.47521793390708966,-0.0019835888981891434,0.0071763884083024245,0.0012304798624666446
504533000000,58,504533000000,BR_wheel_link,-0.01599837693477757,0.2195513899546696,-0.2902139001960564,-0.004968593388089718,-0.0029750652088978073,-0.002674410602256622
504534000000,59,504534000000,BR_wheel_link,-0.02083556995562448,0.3327926905796733,-1.1787429438655317,0.007957212670013836,0.003381923489535361,-0.000128095052907986
504535000000,60,504535000000,BR_wheel_link,0.022247856434077062,0.19688790009241475,-0.1722748499057954,-0.007178008956447908,-0.0037456401963109824,-0.00024900439183653863
504535000000,61,504536000000,BR_wheel_link,0.028347304665904217,0.18113718595056238,-0.3550729383172513,-0.004195757706589465,0.00743758901103649,0.004747571378716212
504537000000,62,504537000000,BR_wheel_link,0.07606335598390956,0.40827523527565857,-1.4580516052589085,0.011773496906476338,-0.010701458961932798,-0.0016292126422702245
504538000000,63,504538000000,BR_wheel_link,-0.058594019164245864,0.08355125813480685,-0.3788855155929812,-0.003542945237271497,0.006651777867110066,0.0008694871098587686
504539000000,64,504539000000,BR_wheel_link,-0.1130583390403896,0.21443856849671122,-0.5864642671755691,-0.0010665399474452343,-0.0021553646071541966,-0.005651219560925463
504540000000,65,504540000000,BR_wheel_link,0.034126691800862904,0.16781088070515543,-0.31706694085145926,-0.004006220066954286,0.006832692215557303,0.0043313722166791815
504541000000,66,504541000000,BR_wheel_link,0.11422358096476021,0.37131069724401905,-1.159326239647092,0.0070632292422196825,-0.011949515892962064,-0.0008841254480798725
504542000000,67,504542000000,BR_wheel_link,-0.062197290958052154,0.14536994749975019,-0.47712595050901263,-0.0019444360419179083,0.0071662079761719705,0.0012037576844623281
504543000000,68,504543000000,BR_wheel_link,-0.015464994357965528,0.21890547942710087,-0.2905414482065334,-0.004958604798263761,-0.0028813055363581227,-0.002606184594616977
504544000000,69,504544000000,BR_wheel_link,-0.019406472336130333,0.3330387876268528,-1.1857157034389991,0.008066783574431137,0.0032725396044802012,-0.00015462289576699984
504545000000,70,504545000000,BR_wheel_link,0.021487955596500352,0.19520276516183804,-0.17295103114069565,-0.00716837045104857,-0.003611173877383568,-0.0001912930736306576
504546000000,71,504546000000,BR_wheel_link,0.028458304839546693,0.17963158753314412,-0.35380156048837014,-0.004205718752650587,0.007405973713825905,0.004696780993991373
504546000000,72,504547000000,BR_wheel_link,0.15072306009113043,0.22205954715028023,-0.41463628881217074,0.01125047536460002,-0.026133623511417653,-0.004992048324850347
504548000000,73,504548000000,BR_wheel_link,-0.2138627750389152,-0.0426276338322882,-0.6054226981353164,-0.02529790372550394,0.02459405489292455,0.00872823260634205
504549000000,74,504549000000,BR_wheel_link,0.13667611910025984,0.6939863393159982,-1.2224998921148473,0.04001021705311089,-0.016161689915749775,-0.004704061718899659
504550000000,75,504550000000,BR_wheel_link,-0.308430576780179,-0.37132781595641606,-0.4115320516062188,-0.03435365364738999,0.020712528906432215,-0.0017242155333344505
504551000000,76,504551000000,BR_wheel_link,0.244306968461329,0.6689143257234352,-1.077835349635912,0.036951481711841844,-0.01747566533734434,-0.0022191030060619986
504551000000,77,504552000000,BR_wheel_link,-0.18752578449215457,-0.2585529496580604,-0.24097105535614008,-0.03635703854384101,0.010632923940892307,-0.0017545864858844423
504551000000,78,504553000000,BR_wheel_link,0.10576026505453709,0.5386072287896096,-0.9436334199295208,0.030610855112111292,-0.012263301430277616,-0.0033040687352993026
504551000000,79,504554000000,BR_wheel_link,-0.25058598430967505,-0.11180054183203918,-0.5335598279083661,-0.02766475655496833,0.01588170813949838,-0.0008805683404572033
504551000000,80,504555000000,BR_wheel_link,0.21854790879196606,0.5429396877951691,-0.8517740493566346,0.029229637615897305,-0.014164755271184461,-0.0008988233198797318
504556000000,81,504556000000,BR_wheel_link,-0.16659612687050046,-0.09645950500017454,-0.4034207987872386,-0.029643331251582652,0.012673207331200078,0.000959785446107461
504557000000,82,504557000000,BR_wheel_link,0.12995266461153965,0.4826561037725443,-0.7444238841739843,0.02212142845590925,-0.014367281684872165,-0.0008295966145890729
504558000000,83,504558000000,BR_wheel_link,-0.12599496953387276,0.019478473905518025,-0.5741574134037901,-0.021628127150190683,0.02074488541805803,0.007718783084134997
504559000000,84,504559000000,BR_wheel_link,0.1850531068156348,0.4386014963909382,-0.6707097362534176,0.022309462844402033,-0.021728894624477857,-0.004689965466567194
504560000000,85,504560000000,BR_wheel_link,-0.13548762518268959,-0.007215331160340625,-0.5712663163020095,-0.022832954680219612,0.02148999955369537,0.00760176560482138
504561000000,86,504561000000,BR_wheel_link,0.21231158839122255,0.6542203170383513,-1.0432111253122889,0.03577934885824376,-0.016026531887823492,-0.0027414372946338444
504562000000,87,504562000000,BR_wheel_link,-0.10762327297517396,-0.2278902954762526,-0.14051811081970214,-0.03687464179862052,0.006298758727797903,-0.0017755413463575256
504563000000,88,504563000000,BR_wheel_link,-0.04630721170517535,0.4562013530478688,-0.7728719785970395,0.021730175591221715,-0.010056436626930641,-0.00497040242898382
504564000000,89,504564000000,BR_wheel_link,-0.11499351235619582,0.03229631755242673,-0.5819615948696357,-0.020784028149838516,0.01971356943881026,0.006659448077378907
504565000000,90,504565000000,BR_wheel_link,0.2572249472758643,0.6554286674294952,-1.0036214146577418,0.03505379240118858,-0.016679559613719502,-0.0016621903486312701
504566000000,91,504566000000,BR_wheel_link,-0.11218974397666087,-0.19881886344976765,-0.17055969849394176,-0.03645820129964403,0.007051182377648509,-0.0007503047930787978
504567000000,92,504567000000,BR_wheel_link,-0.024200573639518858,0.4683712362859771,-0.7693878337140759,0.021793358496934066,-0.010188889754458603,-0.004252275639900022
504568000000,93,504568000000,BR_wheel_link,-0.1188386742839086,0.030208709263697002,-0.5805186598439016,-0.02083896767565654,0.0197751341084276,0.006708170411338911
504569000000,94,504569000000,BR_wheel_link,0.26937351367380835,0.6612113641213974,-1.005047163967092,0.035234935905787086,-0.0169986967721412,-0.0014395040669543373
504570000000,95,504570000000,BR_wheel_link,-0.12293233017396837,-0.20492690688566367,-0.1762127136823055,-0.036525179912850855,0.007391977174282674,-0.0008074366403883165
504571000000,96,504571000000,BR_wheel_link,-0.0107893227919795,0.48464963515222453,-0.7928126923003384,0.022520356842340463,-0.010581153325430186,-0.0038721216518159745
504572000000,97,504572000000,BR_wheel_link,-0.1250462744756814,0.01636879933685268,-0.570867851197423,-0.021366315650554885,0.020189776709467224,0.006982881791965248
504573000000,98,504573000000,BR_wheel_link,0.26758758168567104,0.6624362011777456,-1.0096055725804418,0.035377827584441704,-0.017027415202687347,-0.0015306262983295579
504574000000,99,504574000000,BR_wheel_link,-0.13003854879615973,-0.22052596684356368,-0.17132801187293853,-0.03662444339551971,0.007384181412192501,-0.0013030583737659617
504575000000,100,504575000000,BR_wheel_link,-0.007961243030876503,0.48789213223245714,-0.7989859230234837,0.02275101478794251,-0.010715983665759122,-0.003861789644520682
504576000000,101,504576000000,BR_wheel_link,-0.12687144453939408,0.009682128079972884,-0.5656550209759197,-0.02161107112947706,0.020365094194021844,0.00710317678822079
504577000000,102,504577000000,BR_wheel_link,0.26741916431615254,0.6640018177832303,-1.0129558216752237,0.03549630921169248,-0.01707269238804461,-0.0015752030811683206
504578000000,103,504578000000,BR_wheel_link,-0.1340403418418517,-0.22960772134766794,-0.16979223416934563,-0.03668719161361078,0.007405953009184408,-0.0016031847779071971
504579000000,104,504579000000,BR_wheel_link,-0.22204002523836763,0.5248860948515952,-0.8715513395252348,-0.03671466670246424,-0.010704107967127912,-0.013445363071761142
504580000000,105,504580000000,BR_wheel_link,-0.10063861429171622,0.8514135496136912,-1.654128823152916,-0.06743895638071432,0.02170392134256759,0.008665339783526464
504581000000,106,504581000000,BR_wheel_link,0.26761936017905597,0.6872576855340852,-0.7579850127748033,-0.04960554760684731,0.0030515234197270556,0.0070582645751171335
504581000000,107,504582000000,BR_wheel_link,-0.2123916193216851,0.026791652722452777,0.08216476024642103,-0.06100079730243135,-0.031725009185822606,-0.02882114163401372
504583000000,108,504583000000,BR_wheel_link,-0.11986886641424543,1.7415824864823546,-2.6481496868840733,-0.031670989325336754,0.02993896047300897,0.01941593425985138
504584000000,109,504584000000,BR_wheel_link,-0.255799339956739,0.38199667141753907,-0.48520959211359455,0.016613518765040122,-0.018290676721589832,-0.021851292095196016
504585000000,110,504585000000,BR_wheel_link,-0.13546197360185058,1.2592813217092744,-1.9203997716261054,0.0024549548273751663,0.016871249806074073,0.00883807468024545
504586000000,111,504586000000,BR_wheel_link,-0.1245161282175782,0.17439027007294874,-0.13664963927940138,0.0026621956946623945,-0.011335439114966865,-0.009628504373536599
504587000000,112,504587000000,BR_wheel_link,0.1886796200310673,1.1369112324539166,-1.2311853527650862,0.0036376991518650417,0.00470153831846414,0.013172936707929156
504588000000,113,504588000000,BR_wheel_link,-0.08700604600224093,0.12042295160552503,-0.05919596805206815,-0.0010745999296913771,-0.007412172833077395,-0.00455402657605641
504589000000,114,504589000000,BR_wheel_link,-0.11229362766852902,0.5801650690524456,-1.0073182555704967,-0.004239298887649059,0.010569841209746739,0.004032067234639414
504590000000,115,504590000000,BR_wheel_link,0.1525584741949746,0.4436755208978443,-0.35580553394681286,0.0010274011952541373,-0.006214827838701172,0.0007493133460478038
504591000000,116,504591000000,BR_wheel_link,-0.08307736579288667,0.016043107904826943,0.04115908875214419,-0.004081176397800374,-0.005973048635228714,-0.003658066045754395
504592000000,117,504592000000,BR_wheel_link,-0.12374929974532835,0.49785869639557967,-0.9945928290833043,-0.0063651203561723695,0.012239822361981026,0.0030601704572443796
504593000000,118,504593000000,BR_wheel_link,0.12323296649039821,0.37774414846030124,-0.29763680506849893,0.0005217809917828428,-0.0062249379278964696,-8.070615928100483e-05
504593000000,119,504594000000,BR_wheel_link,-0.06962220926821999,-0.000504421541178024,0.06579872624036988,-0.00406936843079978,-0.006366630331380003,-0.003995034141397388
504595000000,120,504595000000,BR_wheel_link,-0.11052162024273515,0.4694750663840945,-0.9847651814090997,-0.00728876434477513,0.012912506960163703,0.003060313364527686
504596000000,121,504596000000,BR_wheel_link,0.1335712618786914,0.38659515905450736,-0.30925520644322085,0.0009499546419775083,-0.00637378643388045,-0.00024386493713946005
504597000000,122,504597000000,BR_wheel_link,-0.06559679461275379,-0.0049946752477876,0.07281556228645211,-0.0039829568916742025,-0.006591392161225811,-0.00421186809783445
504598000000,123,504598000000,BR_wheel_link,-0.1011140847939697,0.4732640462733635,-0.9973829907725529,-0.007487592308821655,0.013264007144555218,0.003266311483221271
504599000000,124,504599000000,BR_wheel_link,0.1330697918758008,0.3833490224030446,-0.3073907669049569,0.0010435104057532679,-0.006485394848133557,-0.00039446738689655864
504600000000,125,504600000000,BR_wheel_link,-0.06484016646974841,-0.005825958750750843,0.0746397333722193,-0.003953330233540031,-0.006666034864946201,-0.004268242984238996
504601000000,126,504601000000,BR_wheel_link,-0.09556100858445182,0.4897787220355666,-1.017090180352763,-0.0072957659797115975,0.013357784638892752,0.0034669062937570504
504602000000,127,504602000000,BR_wheel_link,0.12852771350754735,0.3710765597992791,-0.29464902822636097,0.0008874670203311095,-0.006545818716037322,-0.0004907278404628518
504603000000,128,504603000000,BR_wheel_link,-0.0654682078070842,-0.005050550809705026,0.07422833882945001,-0.00396314287382158,-0.006657341964191089,-0.004231293847945491
504604000000,129,504604000000,BR_wheel_link,-0.09121411977310846,0.5084158878961729,-1.0355362253664389,-0.0069755671376919015,0.013312869799654927,0.0036430108068640464
504605000000,130,504605000000,BR_wheel_link,0.12366985214139892,0.35939354998991874,-0.2824454567489798,0.0006868024140494347,-0.006561645112826711,-0.0005264862078052719
504606000000,131,504606000000,BR_wheel_link,0.18112005892682276,0.5883326717422573,-0.5938311530096576,-0.0002851235850505638,-0.00021761182981993893,0.006234946289901244
504607000000,132,504607000000,BR_wheel_link,0.14435943693328565,0.47508311316359536,-0.5337322451384462,-0.0017685729425616155,4.362079780636141e-05,0.003739790465431621
504608000000,133,504608000000,BR_wheel_link,0.11852798874668963,0.3975530843669292,-0.4847947199866682,-0.0024721059442967255,0.0001410411397176018,0.0021871193925170206
504609000000,134,504609000000,BR_wheel_link,0.1082255475058522,0.36613678783807324,-0.4667336636897494,-0.0027903278169220946,0.00020605359485995393,0.0015419177301044
504612000000,135,504610000000,BR_wheel_link,0.09800461777161569,0.34171549426219044,-0.4423825376715097,-0.003081711510850146,0.00019265984464224067,0.0013097164937063816
504612000000,136,504611000000,BR_wheel_link,0.09097166572971,0.3334347544858383,-0.43521259662286416,-0.003188196282918958,0.00017558826008837918,0.00119151385877973
504612000000,137,504612000000,BR_wheel_link,0.08371717837833598,0.3278463577345822,-0.4295637772725016,-0.00325409479273103,0.00015339136493588588,0.0011296095872795602
504612000000,138,504613000000,BR_wheel_link,0.07628729835749697,0.3249509639767538,-0.42717281279534236,-0.0032815358762580313,0.00013156933794950172,0.0010746332045249033
504614000000,139,504614000000,BR_wheel_link,0.06854182477605714,0.3225446557117773,-0.42561222936500964,-0.0032959408728388774,0.00011078103429487001,0.0010136422938059539
504615000000,140,504615000000,BR_wheel_link,0.060642724313175356,0.3203904184242466,-0.42475425625074037,-0.0033020000491427145,9.180065466689205e-05,0.0009420837328947352
504616000000,141,504616000000,BR_wheel_link,0.052763261547507184,0.31814746276783873,-0.42413918487613567,-0.0033051933733289824,7.485568611251205e-05,0.0008609896846536378
504617000000,142,504617000000,BR_wheel_link,0.04508006227554123,0.31579861985232105,-0.4236720499635098,-0.00330717550860196,6.003451160433598e-05,0.000773012482783319
504618000000,143,504618000000,BR_wheel_link,0.03774572190265718,0.3133462578619891,-0.42326216245969217,-0.0033091035707025268,4.731944426096101e-05,0.0006813049081711908
504619000000,144,504619000000,BR_wheel_link,0.03088355076737319,0.31084166916244177,-0.42288419158222096,-0.0033113568327956516,3.663633457576558e-05,0.0005888725844918789
504620000000,145,504620000000,BR_wheel_link,0.024587888695895288,0.3083361487365318,-0.4225220751614309,-0.0033141253580939766,2.78773469967544e-05,0.0004983550948995852
504621000000,146,504621000000,BR_wheel_link,0.018913255822047045,0.305894443115311,-0.42219090234030704,-0.0033171701521455947,2.088726284988642e-05,0.0004118741755817612
504622000000,147,504622000000,BR_wheel_link,0.013903215778284753,0.30354071106733127,-0.42186710941633054,-0.0033207608509593554,1.5532547539489402e-05,0.000331102712149833
504623000000,148,504623000000,BR_wheel_link,0.009555259455896123,0.30132927198774373,-0.42157931392554393,-0.0033244556149733626,1.161464864726249e-05,0.00025720438354589743
504624000000,149,504624000000,BR_wheel_link,0.18836575454968343,0.42490320682848814,-3.763335093260187,0.04471060856859134,-0.02599051653722946,0.0015016651694908208
504625000000,150,504625000000,BR_wheel_link,-0.025425700927908062,-0.03257625478103565,-0.008370226922693201,-0.0005174986499148959,0.00025008762183115294,-2.8238786302549205e-05
504626000000,151,504626000000,BR_wheel_link,-0.18628122319954843,-0.1858698347550648,-0.18081115493109243,-0.01872131606125048,0.015052735353432323,0.00396789069297291
504627000000,152,504627000000,BR_wheel_link,0.052484383716563984,0.3198995655248847,-2.1691127952060616,0.029233106594760763,-0.012997786434400627,-0.0007609605163990875
504628000000,153,504628000000,BR_wheel_link,-0.03792708844274485,-0.045658833199839655,0.052917812731806346,-0.0025864472223173273,0.001064937681872439,-0.0004645766741054223
504629000000,154,504629000000,BR_wheel_link,-0.16289123158032917,-0.17679811987750893,-0.24528918072589295,-0.02104934170590803,0.016502830555514478,0.004030195807684508
504630000000,155,504630000000,BR_wheel_link,0.034650267322887014,0.33638432152225667,-1.969641113604004,0.02630613090750183,-0.010665313300611622,-0.0031970934426893585
504631000000,156,504631000000,BR_wheel_link,-0.02065851237995117,-0.00983190869481708,-0.010319572502948737,-1.8731199903289784e-05,0.0003072535876442972,-0.00035648951159421185
504632000000,157,504632000000,BR_wheel_link,-0.11398933343918985,-0.14068024219282427,-0.29125816522655323,-0.02094164068614613,0.016057299251306768,0.003635719311953096
504633000000,158,504633000000,BR_wheel_link,0.10914085256268967,0.4076319517718416,-1.9666275885299442,0.02674085971026651,-0.011103044340686319,-0.0038927606833358843
504634000000,159,504634000000,BR_wheel_link,-0.015265355073281073,-0.003043433865524907,-0.011485660091221974,0.0001542981633196236,0.00021337114655616774,-0.0003714145620037049
504635000000,160,504635000000,BR_wheel_link,-0.08926081342618447,-0.12440485904662192,-0.32893085423771773,-0.021624308113400957,0.01637387406966791,0.003516608406991681
504636000000,161,504636000000,BR_wheel_link,0.15631839439851145,0.4546830775780206,-1.929354462242446,0.026856605727961513,-0.011195730124666264,-0.004156455093219175
504637000000,162,504637000000,BR_wheel_link,-0.010872452518933309,0.0022667943782317315,-0.01290986756688954,0.00030374943164662076,0.00012497421912407994,-0.0003722580794350356
504638000000,163,504638000000,BR_wheel_link,-0.07156571976134227,-0.10877553107099988,-0.3563704632982283,-0.021873108338308883,0.016534147522175347,0.00347848186422417
504639000000,164,504639000000,BR_wheel_link,0.18684481336754005,0.4851300772691236,-1.9079743601058037,0.02690532392902804,-0.011196823699192681,-0.004141416013606585
504640000000,165,504640000000,BR_wheel_link,0.009875019786055237,0.02656006907354499,-0.24962187697728805,-0.005462423890202924,0.004950124944837546,0.00013462698371781797
504641000000,166,504641000000,BR_wheel_link,0.08665266718526414,0.11975309631650405,-0.28170546875297264,-0.0048849280615923555,0.005092957926182287,0.002104140015604928
504642000000,167,504642000000,BR_wheel_link,0.06390185373879476,0.27692036145561894,-1.7005177969103729,0.014879930891524756,-0.004268827343371483,-0.004057722529046958
504644000000,168,504643000000,BR_wheel_link,0.002010000929976839,0.04935591855433037,-0.32527855832110447,-0.004411490444412737,0.0050664134521594935,-0.00034638713236649144
504644000000,169,504644000000,BR_wheel_link,0.08939049455283335,0.12999555587781425,-0.2977932965304966,-0.004615456275020377,0.005097040124210858,0.002020143313521414
504645000000,170,504645000000,BR_wheel_link,0.08031297671342842,0.27243392755373624,-1.6587473542838906,0.014231560619448535,-0.004287289376931943,-0.0032141804484493225
504646000000,171,504646000000,BR_wheel_link,-0.006818345794743829,0.057969507941160216,-0.3588585361386447,-0.003805490460046826,0.005116660059088152,-0.0006063918044745957
504647000000,172,504647000000,BR_wheel_link,0.09117383281787103,0.12825845849973438,-0.29194659191869393,-0.004788794543522271,0.005169677481103941,0.0022439500275990825
504648000000,173,504648000000,BR_wheel_link,0.08613367836371197,0.26529032718342105,-1.6567671635512324,0.014139947230060427,-0.004487541834914949,-0.0026566635000145663
504649000000,174,504649000000,BR_wheel_link,-0.026710227907610646,0.05252099970048341,-0.3703273823073017,-0.0035469235602972908,0.0053451253442479,-0.0008870956972811644
504650000000,175,504650000000,BR_wheel_link,0.08651110466589022,0.12364365921319062,-0.2883814193887597,-0.0048515134723333955,0.005232884002572253,0.0022287050522929374
504651000000,176,504651000000,BR_wheel_link,0.09262763644507374,0.2581951070015272,-1.660054173758157,0.014133705086973883,-0.004770625784891752,-0.0022289699749993455
504652000000,177,504652000000,BR_wheel_link,-0.03628263678011126,0.04704586428747824,-0.36731987033961366,-0.0035225751652641223,0.005460152344191408,-0.0009465126959016598
504652000000,178,504653000000,BR_wheel_link,0.2200367994475023,-0.5279773084965886,1.3938009841227665,-0.03958686452316416,-0.027349073499996067,-0.0036975792961956465
504654000000,179,504654000000,BR_wheel_link,-0.5929780222053949,0.4144047028320227,-0.991166262781454,0.012333224221757472,0.0006386695638400048,-0.006988920217348618
504655000000,180,504655000000,BR_wheel_link,-0.21474343666770176,0.17017701005963082,-0.18584482244644457,-0.004112494887584073,-0.002068880567695929,-6.658278962223867e-05
504656000000,181,504656000000,BR_wheel_link,-0.26716312123762653,0.3883470039334323,-0.6599780714606786,0.00693199175730298,-0.007731849283205004,-0.001428851109624255
504657000000,182,504657000000,BR_wheel_link,-0.17175513750318971,0.219993316073065,-0.24005364259417666,-0.003620535634905409,-0.003059661613072646,0.0023612453657354472
504658000000,183,504658000000,BR_wheel_link,-0.008962030666631648,0.8325847976622434,-1.1952517140161327,-0.0026579771594748246,0.011105717552293289,0.011205096649679343
504659000000,184,504659000000,BR_wheel_link,-0.006102142295080298,0.4819895159904051,-0.9700221115138414,0.004597267715873916,-0.0008266901647763969,0.0005671771618090113
504660000000,185,504660000000,BR_wheel_link,0.03860542891086435,0.28178953699768633,-0.5347283955514627,-0.001825196243009825,0.0003620411713713713,0.0004276986446670449
504661000000,186,504661000000,BR_wheel_link,0.08129141879160132,0.3138660687426669,-0.5923094574813467,-0.0005881224086538929,-0.00046636548804429275,0.0007670016822598842
504662000000,187,504662000000,BR_wheel_link,-6.782339665104692e-05,0.1595823921215085,-0.25732599717633187,-0.004889223251890793,-0.0004259823128638274,-0.0008998008028228593
504663000000,188,504663000000,BR_wheel_link,0.14233779961820692,0.2249346202854264,-1.058624347846581,0.005871187532156968,-0.002546792493391509,0.0003608724956043893
504664000000,189,504664000000,BR_wheel_link,0.07383991397268135,0.13558340202352134,-0.6176151925274278,-0.0005525984031611063,0.0029859020213481363,-0.00026779521140984106
504665000000,190,504665000000,BR_wheel_link,0.0804462190939518,0.16435935326669499,-0.7667264417837845,0.0014890313595720683,0.0020661834970020975,-0.00010603931803129901
504666000000,191,504666000000,BR_wheel_link,-0.0013023032051720645,0.2674614051145886,-0.5987465190274295,-0.0015904723760183568,-0.001558752007665409,-0.00015132746836791561
504667000000,192,504667000000,BR_wheel_link,0.05787072026995824,0.1516687468841479,-0.7180347065924524,0.0017925623943885935,0.0020828938616883866,0.00021823328357157212
504668000000,193,504668000000,BR_wheel_link,0.006572008810561872,0.24176286842239725,-0.5000234213868971,-0.0035420387742312594,-0.002880204946828015,0.0007596035245900112
504669000000,194,504669000000,BR_wheel_link,0.013411028526496099,0.1630768997841865,-0.7732156059032691,0.003142488000520075,0.0025999035155230992,-0.0002234855772189932
504670000000,195,504670000000,BR_wheel_link,-0.028321204111038084,0.23002011578639397,-0.5751001679584045,-0.0019406246015169432,-0.002017930658810168,2.2546634205669667e-05
504671000000,196,504671000000,BR_wheel_link,0.207302417489381,-0.4618714228533334,1.2261176763194683,-0.03642796427301315,-0.02716446781649684,-0.0012019585331681467
504672000000,197,504672000000,BR_wheel_link,-0.021339442373132775,0.02152389869835962,-0.04597459866732584,0.0008122309060653824,0.0006778008119774147,4.945015432297139e-05
504673000000,198,504673000000,BR_wheel_link,-0.2547729483494849,0.4037940818995953,-1.3183851457715066,0.03655259975438163,-0.008609995939771707,-0.010916554251791206
504674000000,199,504674000000,BR_wheel_link,-0.016002756415307545,0.28967777729952604,-0.4090576197962836,-0.03933655377893887,0.008354290295364115,0.016376748536697138
504675000000,200,504675000000,BR_wheel_link,-0.2209894165747256,0.859770409130731,-1.9101240825248955,0.025800724701650873,0.013549503566870865,0.003214577571538652
504676000000,201,504676000000,BR_wheel_link,0.106811510468248,-0.21460785767244075,0.6678663662746033,-0.01901020265708578,-0.01931567123590161,-0.003313888109563345
504677000000,202,504677000000,BR_wheel_link,-0.02332625359760209,0.01900286737617522,-0.05037424187238622,0.0009672671958541495,0.0004180248232633653,-0.00027733131147469274
504678000000,203,504678000000,BR_wheel_link,-0.42428936175927123,0.46490040278774514,-2.30967188578071,0.005979806638891467,0.011990778403728553,-0.00316193670376143
504679000000,204,504679000000,BR_wheel_link,0.015981448230885917,0.16277341317724642,-0.23482954415488533,0.007499525992558863,-0.001792795817505521,-0.0010278916061904281
504680000000,205,504680000000,BR_wheel_link,0.1998273742214517,0.2589654070701949,0.0032537539249868977,-0.014736760393149247,-0.009201291959728797,0.00687082417136207
504681000000,206,504681000000,BR_wheel_link,-0.018645168135234914,0.02180767618260552,-0.05170815932918001,0.0009499496368697616,0.0004927243152360022,-9.940605944401375e-05
504682000000,207,504682000000,BR_wheel_link,-0.30623114766478865,0.3091824424218575,-2.4571301427771743,0.005777371709822688,0.011365515953416528,-0.003633611905674902
504683000000,208,504683000000,BR_wheel_link,-0.061383987134319654,0.09311541268294092,-0.12046856346403834,0.002026072745099624,-0.0068580112892845345,-0.003835200151271724
504684000000,209,504684000000,BR_wheel_link,-0.013947360369454674,0.014350703905829033,-0.03501196807005426,0.0009382122548486593,6.972589670319398e-05,-0.0003873686841520105
504685000000,210,504685000000,BR_wheel_link,0.18201489641483407,0.6588184710676459,-1.0357413930307962,-0.0062403251259356,-0.0015055751848545842,0.009322541742749407
504686000000,211,504686000000,BR_wheel_link,0.08609509402234349,0.2594479163322366,-0.37974740512526534,0.0006636445598563866,0.005617213287233035,0.005012412653936302
504687000000,212,504687000000,BR_wheel_link,-0.03901287969959684,0.2828860512369368,-1.2032060835551928,0.006900396528658825,-0.005592527100040484,-0.004415578835244415
504688000000,213,504688000000,BR_wheel_link,-0.04256949649398537,0.1265220627499155,-0.624379417597392,6.700623831313148e-05,0.005541272113402728,-0.0018589236018106928
504689000000,214,504689000000,BR_wheel_link,0.0920040360128527,0.20495175345442193,-0.16306105753379452,-0.008264375867488027,-0.006940724912028639,0.00047493533453580445
504690000000,215,504690000000,BR_wheel_link,0.06647634842541209,0.23079634680669586,-0.44807756709366464,-0.0018529163844205002,0.0070551345118243,0.003944170447763866
504691000000,216,504691000000,BR_wheel_link,-0.03831163962609556,0.268806580528712,-1.4653831664323298,0.010905421231066963,-0.005775759014071916,-0.00284530444183126
504692000000,217,504692000000,BR_wheel_link,-0.09888948989486612,0.04759832847671963,-0.5212422684656809,-0.0012050352132892636,0.005754436777097759,-0.002776004629447068
504693000000,218,504693000000,BR_wheel_link,0.23306446770806485,0.16481914488700453,0.08750459016935626,-0.01126617345032626,-0.00864426790423076,0.004521878041662455
504694000000,219,504694000000,BR_wheel_link,-0.1664583417093511,0.17779520095457751,-0.6681330781368462,0.01791704717074525,-0.003272371584152764,-0.00604854112625198
504695000000,220,504695000000,BR_wheel_link,-0.12642584712763338,-0.10166857363927483,-0.27043914592049556,-0.03128076439968532,0.007620518995642225,-0.00017299621192040215
504696000000,221,504696000000,BR_wheel_link,0.08365317628642595,0.5511847205404403,-1.9538598775209155,0.02583662847754395,-0.0032481475955341947,0.0028338304024873645
504697000000,222,504697000000,BR_wheel_link,-5.380903360036319,-3.8355607123804405,6.92287684484492,-0.43919655511083455,0.6159887896522117,0.0016678572355414648
504698000000,223,504698000000,BR_wheel_link,-1.6557618082225332,-0.24141296276338076,3.2095349538880895,-0.04710861063728973,0.19081856400574337,0.0025959505882419444
504699000000,224,504699000000,BR_wheel_link,-0.32108426992251726,-0.33326425622982725,-1.4771062920836684,-0.01158976957924409,0.01915834346244044,-0.013679652627566444
504700000000,225,504700000000,BR_wheel_link,0.3246563298833459,0.2420354516491718,-0.2825340502044513,0.00870953215862053,-0.008867875500235663,-0.001946763900717996
504701000000,226,504701000000,BR_wheel_link,0.005063644452515718,-0.0017837036170910456,0.008892289706882776,-0.00012870959206694312,-0.00037211986001240967,-3.034303410517288e-05
504702000000,227,504702000000,BR_wheel_link,0.059045267717356895,0.017510350903603117,-2.1092993608015926,0.00362318578684556,0.00326355564150617,-0.003052145388524745
504703000000,228,504703000000,BR_wheel_link,0.011756659098993153,0.023265507624939927,-0.018117913196967334,0.0007928670312138892,-0.0004636303674164762,-0.00012636921544663193
504704000000,229,504704000000,BR_wheel_link,0.0002935788850331988,-0.0009360199050896744,0.0005249311075465634,-5.63895180696904e-05,-0.0001654360983746675,-5.952490540460221e-06
504705000000,230,504705000000,BR_wheel_link,0.017338901453870077,0.2973154361658194,-1.931815347507917,0.0012196473497432581,-0.0002744877307031495,-0.0010802271607708003
504706000000,231,504706000000,BR_wheel_link,-0.0013125367002317125,0.02550326614077863,-0.03265198759632133,0.0010392142458746428,-0.00017199880363552014,-0.0004202139423400395
504707000000,232,504707000000,BR_wheel_link,0.06089310294792767,-0.155812562030766,0.4931040482239071,-0.012810163390718561,-0.016064732335089135,-0.004294350745743972
504708000000,233,504708000000,BR_wheel_link,-0.05556845733752195,0.29198491536944804,-0.9572997708891484,-0.00866425946138758,0.021317582739987486,0.008701089314539816
504709000000,234,504709000000,BR_wheel_link,0.03323711473601931,0.4575028839529516,-0.9309021681912906,0.024756409763594847,-0.024733768658147914,-0.004475962074783991
504713000000,235,504710000000,BR_wheel_link,-0.28989330537684876,0.0003891704212865277,-1.554751022060275,-0.010883343763515267,0.022940184444873703,-0.0034253403203599758
504713000000,236,504711000000,BR_wheel_link,0.1592747571355269,0.23132191096514362,-0.2198255732422325,0.009751944851048161,-0.005136424274291954,0.0008392899673519194
504713000000,237,504712000000,BR_wheel_link,0.10179456177806413,0.1089500130625289,-0.20861955621803424,-0.017933790395878543,-0.0025837780498299207,0.002307870176345594
504713000000,238,504713000000,BR_wheel_link,0.035688700581707214,0.32199613086508244,-0.6701178632291809,0.020993148970821128,-0.007073730117262877,-0.0025633911772617946
504713000000,239,504714000000,BR_wheel_link,-0.2441757327998016,-0.010346354176216904,-1.264312472868153,-0.017806739429873764,0.009753664318760959,-0.005673667988636758
504713000000,240,504715000000,BR_wheel_link,0.13283302543582606,0.2190963985801845,-0.21895946739849043,0.00908993526860344,-0.004260726512702923,0.0008702604112397348
504715000000,241,504716000000,BR_wheel_link,0.08050772403156764,0.1361615458459168,-0.24153248401378985,-0.015341040250682333,0.00047312006428952384,0.004475585783240893
504715000000,242,504717000000,BR_wheel_link,0.10111294077130416,0.3935541209162124,-0.8159191093718194,0.025483813124732406,-0.009887269848616704,-0.0007524436086322947
504718000000,243,504718000000,BR_wheel_link,-0.2995358032012946,-0.06274149747600717,-1.3328315089408027,-0.019217743811647203,0.013909203788446838,-0.004160922702627287
504719000000,244,504719000000,BR_wheel_link,0.14007910399757795,0.2252275505134675,-0.22720621558003112,0.009441348792831327,-0.004510978995583989,0.0009118182122745387
504720000000,245,504720000000,BR_wheel_link,0.04835204234815896,0.1622665975149377,-0.32703778551318163,-0.014497542022286996,0.001870456190059518,0.004402903031204615
504721000000,246,504721000000,BR_wheel_link,0.1480924847925337,0.3773393907825568,-0.7751733823898834,0.024731280903004742,-0.01107746929812298,0.0001364316668013211
504722000000,247,504722000000,BR_wheel_link,-0.2228771401480902,-0.122500519846785,-0.5532628328932311,-0.031101163041382697,0.013714076634145847,-0.0004465045950659693
504723000000,248,504723000000,BR_wheel_link,0.21814194374461232,0.4745018733776437,-0.9933101395982469,0.03189061474639238,-0.015368538625022275,0.0008470138292751518
504724000000,249,504724000000,BR_wheel_link,-0.3384296412298305,-0.18760184935879387,-0.7073126352644044,-0.025874269835786272,0.019306421850032188,-0.003781850440436406
504725000000,250,504725000000,BR_wheel_link,0.2777056752757668,0.42580360665240397,-0.79151230121889,0.026768059612191912,-0.014720490578672179,0.0026524165054440606
504726000000,251,504726000000,BR_wheel_link,-0.1687887848927078,-0.13127081418338088,-0.44267422148617797,-0.02815663484474753,0.011499941563398381,-0.0006795660619413814
504727000000,252,504727000000,BR_wheel_link,0.14725211404189764,0.35364078792429243,-0.715938884118286,0.023156876558609735,-0.01057425015557989,8.991000118117648e-05
504728000000,253,504728000000,BR_wheel_link,-2.484162882579964,3.2372268897860295,26.801757354070524,-0.438404669882145,0.2665405802138635,-0.06583172886346912
504729000000,254,504729000000,BR_wheel_link,-0.05578787386245081,-0.012560023352332184,0.01471329969680868,-0.002864206671029269,0.00680994412550708,-0.0015206386593549356
504730000000,255,504730000000,BR_wheel_link,-0.005193782281373221,-0.06656984282630311,0.2852124165508205,-0.009842860830125059,-0.010542957602871808,-0.0017873292664896479
504731000000,256,504731000000,BR_wheel_link,-3.949142218340728,1.5413663398060442,11.814605563630302,-0.22247339299902325,0.41876262469441483,-0.10182571435468768
504732000000,257,504732000000,BR_wheel_link,0.048810397074956144,-0.3547759296645916,1.1279810493369373,-0.031667650054061816,-0.0037267959602091394,-0.006193557132759464
504733000000,258,504733000000,BR_wheel_link,-2.59673943412834,2.7347766369290434,12.011865063374803,-0.1188452735095251,0.2658740836354888,-0.06359218804066835
504734000000,259,504734000000,BR_wheel_link,1.4084341317612377,-2.608430086635779,9.412799373598828,-0.5630547218981132,-0.11444892975554538,0.03898904311197726
504735000000,260,504735000000,BR_wheel_link,0.12874420489718463,-0.15058737723372226,-0.14459403335832838,-0.010117020254277357,-0.014387787169346614,0.004242225148730663
504736000000,261,504736000000,BR_wheel_link,-1.3923126247719848,-1.4322011722103878,5.769202309609316,-0.3430269758181302,0.14658529957713193,-0.03087968604316201
504737000000,262,504737000000,BR_wheel_link,0.06409407183575268,-0.38198145583250465,0.8127713078055774,-0.034804351862390656,-0.0178338106524585,-0.008610302794122936
504738000000,263,504738000000,BR_wheel_link,-1.521162979157408,2.276914883613207,11.4202447204867,-0.1472395925348837,0.14685300117695865,-0.034604135197807626
504739000000,264,504739000000,BR_wheel_link,1.6966357785193704,-4.7404768836387055,6.586075496045263,-0.7082060373883776,-0.1506702254979428,0.045239845433499334
504740000000,265,504740000000,BR_wheel_link,0.13770747402274797,-0.008312572415058034,-0.20865544514346568,0.006428163464927174,-0.016201099748048065,0.0041280997171225745
504741000000,266,504741000000,BR_wheel_link,-0.40265056921829556,-1.3848333537069437,4.753748229535448,-0.3219747184997035,0.05240362807338969,-0.00893810546671158
504742000000,267,504742000000,BR_wheel_link,0.1513806819496486,-0.37080453175548933,0.7861281164686156,-0.032822019484945425,-0.027985718608445728,-0.004967293907288058
504743000000,268,504743000000,BR_wheel_link,-0.6127969348738755,2.355379364707273,11.306818155635817,-0.12983222078864537,0.043781302076089185,-0.01006506294512803
504744000000,269,504744000000,BR_wheel_link,1.7648307963172989,-4.014639875420813,5.370869440851992,-0.5888702846012104,-0.16917285114098193,0.04687971577405244
504745000000,270,504745000000,BR_wheel_link,0.11053575818553313,0.04652596874950721,-0.1816916725663713,0.011983643403073974,-0.012632897569988,0.0033529805175402955
504746000000,271,504746000000,BR_wheel_link,-0.2589233773789304,0.14929492843919534,6.184710613574769,-0.2015224602838291,0.023197008002007982,-0.0028379808081086463
504747000000,272,504747000000,BR_wheel_link,0.12763459281544506,-0.16846486678113834,0.18978811900992532,-0.041813270987407086,-0.009695193065855558,-0.00024430631337011427
504748000000,273,504748000000,BR_wheel_link,-0.9809248058777977,1.1194052896920532,8.215613256435907,-0.17112040011568083,0.0975962427527298,-0.02147349490569623
504749000000,274,504749000000,BR_wheel_link,0.27786700035373507,0.04578908440001027,0.49928371628870516,-0.02785981750854545,-0.014896764461415185,0.0032990758013136867
504751000000,275,504750000000,BR_wheel_link,-0.3579906734740519,2.375364731787811,8.55708609252888,-0.03213667295142358,0.01910275627659455,-0.005069112843488882
504751000000,276,504751000000,BR_wheel_link,1.9793678988670662,-3.5153938816870944,4.9390593914677865,-0.5179980049295345,-0.19770354283085467,0.05031667984383019
504752000000,277,504752000000,BR_wheel_link,0.11593529441972597,-0.052319676361160306,-0.16004185971861568,-3.1840876851211425e-05,-0.012932248278424844,0.003491031572881077
504753000000,278,504753000000,BR_wheel_link,-0.8663950371548086,-1.0563952638431169,5.759354397314317,-0.317659637876257,0.10239278814375304,-0.021767895059373044
504754000000,279,504754000000,BR_wheel_link,0.13259686108432414,-0.3628681776512678,0.8312139861178123,-0.03159484308056387,-0.025432414904022798,-0.006209693893115686
504755000000,280,504755000000,BR_wheel_link,-1.4789474183577052,0.35350048032767356,10.163226712030406,-0.31491360521007983,0.15455660600681792,-0.03405108497870746
504756000000,281,504756000000,BR_wheel_link,0.09997403557782336,-0.32887464651565884,0.8908066505348615,-0.032206103686803746,-0.01860826683913932,-0.004485453722301521
504757000000,282,504757000000,BR_wheel_link,-0.9751511370100044,1.7602556037919252,9.948531777330015,-0.15121822939894888,0.09025407460435687,-0.020615059819490113
504758000000,283,504758000000,BR_wheel_link,0.060452876841780086,-0.10489412341062954,0.20653059781515798,-0.037874832754008575,-0.0010842944557789731,0.0019057242997557507
504759000000,284,504759000000,BR_wheel_link,-0.8707935002631394,-0.20572840693236594,5.26682904073764,-0.21915085525396422,0.09554686516043708,-0.01957842331561737
504760000000,285,504760000000,BR_wheel_link,0.19671367717815186,0.0291697197573952,0.25404267037988343,-0.029009566436126434,-0.011003524146101607,0.0036222329871626645
504761000000,286,504761000000,BR_wheel_link,-0.4043379868209189,1.628607447370893,7.159377841471983,-0.0695266255723403,0.03052162678585973,-0.006885718086487161
504762000000,287,504762000000,BR_wheel_link,0.09185936755262025,-0.06284047447937341,0.19139455391276305,-0.02808859141866442,-0.007637545327901998,-0.00010262690780163918
504763000000,288,504763000000,BR_wheel_link,-0.8558075917260216,1.32899360789339,6.822909115424741,-0.09408649722184022,0.08380790420721679,-0.0193381472502688
504764000000,289,504764000000,BR_wheel_link,0.1495342570605248,-0.0020407474821479837,0.28750307378811457,-0.025533324978941965,-0.009084249830022888,0.0009139643005778464
504765000000,290,504765000000,BR_wheel_link,-0.9364185651855286,2.2677630422652055,8.017865982578707,-0.02697392418622226,0.08670006028703242,-0.02135059624484694
504766000000,291,504766000000,BR_wheel_link,1.686999241530165,-3.3287827312824936,6.684228112506267,-0.5526077529165373,-0.16098675993125403,0.04268990131338695
504767000000,292,504767000000,BR_wheel_link,0.11577889622857562,-0.15861609813337435,-0.17042579092930832,-0.011943440619912994,-0.012833163915943096,0.003424938867652051
504768000000,293,504768000000,BR_wheel_link,-1.4259956847965078,-1.03565342942925,6.317925391171804,-0.31759991306363344,0.1536226526933961,-0.03452537914260581
504769000000,294,504769000000,BR_wheel_link,0.085468174886976,-0.35235583452997865,0.8323040908527406,-0.030277480147064786,-0.020913372683184855,-0.008618138976670051
504770000000,295,504770000000,BR_wheel_link,-2.0183171004765144,0.9575318804866921,11.021610186146678,-0.26864565594416945,0.2086504232172494,-0.04876821508839126
504771000000,296,504771000000,BR_wheel_link,0.08016626668069231,-0.3129439845973674,0.9710430492857891,-0.03163345959938496,-0.01558599707596213,-0.005259182429112075
504772000000,297,504772000000,BR_wheel_link,-1.379036998331344,2.2662425708131355,10.59635893555489,-0.1154526808223626,0.13335214813162094,-0.03171304670778898
504773000000,298,504773000000,BR_wheel_link,0.036428986916276426,-0.10527598440916947,0.24002557761677037,-0.03720649182774459,0.0014021596351215734,0.0008299205507992036
504774000000,299,504774000000,BR_wheel_link,-1.26874423104294,0.2781707850128313,5.963630804062044,-0.18788937116704768,0.13780727334168913,-0.03038697360227907
504775000000,300,504775000000,BR_wheel_link,0.17858245571094108,0.03432876560857803,0.2851180767394922,-0.028237538332057516,-0.008775587769050339,0.003135511830815058
504776000000,301,504776000000,BR_wheel_link,-0.5537011211371753,1.6856785164461345,7.071708921264859,-0.05928004530018858,0.047716377869556244,-0.011210206945733839
504777000000,302,504777000000,BR_wheel_link,0.08206319589058976,-0.05639247869877328,0.18882870756660908,-0.027721443792439272,-0.006794323954229813,-0.0001798091533806007
504778000000,303,504778000000,BR_wheel_link,-0.9208646637158976,1.4336986326206942,6.833643877415639,-0.08148691426418903,0.09105800919825625,-0.021311103578893167
504779000000,304,504779000000,BR_wheel_link,0.1417320863300333,0.0027336381559596792,0.28328529692736365,-0.025437555693006483,-0.008533750880972916,0.0009606641371972534
504780000000,305,504780000000,BR_wheel_link,-1.0035662389485411,2.418027366752653,8.108515720600977,-0.011993534985690606,0.09393771434513071,-0.02338015125952557
504781000000,306,504781000000,BR_wheel_link,0.11112025526658845,-0.01988174666195957,0.31560497264467435,-0.024765814560453563,-0.0065166816223622345,-0.0001526238757320348
504782000000,307,504782000000,BR_wheel_link,-1.1519949155760547,2.2327162029395464,7.820759639349095,-0.02377968367849071,0.11212732410710723,-0.02751859590656417
504783000000,308,504783000000,BR_wheel_link,0.12862385112846692,0.003485801104886492,0.33501851717127007,-0.023999587411178788,-0.006767903247359038,0.0004123536814755692
504784000000,309,504784000000,BR_wheel_link,-1.1582822249654137,2.4868075589231764,8.088231333242703,-0.0034449426802452,0.11126704009169389,-0.027692876996602327
504785000000,310,504785000000,BR_wheel_link,0.11348644918629672,-0.006623119384493545,0.3308462188451404,-0.023934129021536986,-0.005922644188919262,1.0767978789738997e-05
504786000000,311,504786000000,BR_wheel_link,-1.2321652626223032,2.4295349841733733,8.00123985024458,-0.007172666203193144,0.12011525393987713,-0.02974678506126356
504787000000,312,504787000000,BR_wheel_link,0.11928573285113386,0.0022080915459241346,0.33912533667320227,-0.02366645864937112,-0.005932298758331511,0.00020495332700117604
504788000000,313,504788000000,BR_wheel_link,-1.2561385190017724,2.5637340800223303,8.15614693092413,0.003041694646978871,0.12203103678913402,-0.030403248562877325
504789000000,314,504789000000,BR_wheel_link,0.11409755513612092,0.0001678675157527898,0.3421600475018529,-0.023583116395043326,-0.0055667154854685905,8.073740706480395e-05
504790000000,315,504790000000,BR_wheel_link,-1.2894399567625652,2.5642437365290083,8.140674057968978,0.0036586176021350253,0.12588969297964414,-0.03134123968880277
504791000000,316,504791000000,BR_wheel_link,0.1162900413468956,0.004587540021710232,0.3469909387417084,-0.023442367388673217,-0.005559470682343585,0.00017849134908357912
504792000000,317,504792000000,BR_wheel_link,-1.2987433411861589,2.626465217434426,8.200763981280058,0.00888370277111758,0.12661970190902402,-0.031615492560815334
504793000000,318,504793000000,BR_wheel_link,0.11440495146897216,0.004771450761130461,0.34890414732951314,-0.0233924098161038,-0.005432093228081915,0.0001592569320347857
504794000000,319,504794000000,BR_wheel_link,-1.3117152462243298,2.6403094490427916,8.20198645920259,0.01053286603540049,0.12808341754234728,-0.03199773915345845
504795000000,320,504795000000,BR_wheel_link,0.11534135097402215,0.007323488067210213,0.3517986601787816,-0.023325712061818604,-0.00544031719364938,0.0002220592595479333
504796000000,321,504796000000,BR_wheel_link,-1.3166396794634911,2.679148521153559,8.235063430386019,0.013995197787124235,0.128469745183381,-0.03215628525364517
504797000000,322,504797000000,BR_wheel_link,0.11484842813807926,0.008335558960849053,0.35406801543583866,-0.023291322626643927,-0.005403729729006376,0.00024175156023228408
504798000000,323,504798000000,BR_wheel_link,-1.32294479605733,2.700168993935513,8.246640255554409,0.016132815616542645,0.12912944389871722,-0.03235520750412341
504799000000,324,504799000000,BR_wheel_link,0.11536900935255365,0.010215793348290043,0.356659280268113,-0.023251959777357487,-0.00541447812815204,0.000291282664962343
504801000000,325,504800000000,BR_wheel_link,-1.3262848449940559,2.729692299446078,8.268743674361904,0.018898286690898165,0.12939745169412215,-0.032472190066189024
504801000000,326,504801000000,BR_wheel_link,0.1153389732878608,0.011515635514171979,0.3589481636108163,-0.023225343568343944,-0.005407191104585724,0.00032396263893292915
504802000000,327,504802000000,BR_wheel_link,-1.3303114410306152,2.752520339639392,8.282750610919773,0.02116549306064075,0.1297872881926529,-0.03260894565520474
504803000000,328,504803000000,BR_wheel_link,0.1156449339853255,0.013105847568640853,0.36132405638333764,-0.02319794224917799,-0.005414212577036325,0.0003664551273244471
504804000000,329,504804000000,BR_wheel_link,-1.3336565931652127,2.77851117337233,8.300799852148891,0.023659616676795468,0.13007941753288957,-0.03272672095688623
504805000000,330,504805000000,BR_wheel_link,0.11572792774586446,0.014472779377231945,0.3636058074157915,-0.02317515822111592,-0.005412145309376349,0.00040162252198308775
504806000000,331,504806000000,BR_wheel_link,-1.3376439981828205,2.8022582995329453,8.316282469780965,0.025979622552905007,0.13045916337408991,-0.03286231236567094
504807000000,332,504807000000,BR_wheel_link,0.11591565261891047,0.015945806722567228,0.3659331149956276,-0.0231514890593799,-0.005412975658392959,0.000439573310332867
504808000000,333,504808000000,BR_wheel_link,-1.3416371522444879,2.827342312167223,8.333383275765275,0.028397424181484728,0.13083118694589047,-0.03299799899146415
504809000000,334,504809000000,BR_wheel_link,0.11602048793814584,0.01736556514485329,0.3682147701148548,-0.02312864388369243,-0.005408767070302177,0.0004748737066019881
504810000000,335,504810000000,BR_wheel_link,-1.3459435378746625,2.8516834842398833,8.349403684067557,0.030765222849856215,0.13124392530780407,-0.033142527646108054
504811000000,336,504811000000,BR_wheel_link,0.1161471628121393,0.01881838775160112,0.3705034190628934,-0.023105081295809845,-0.005404379372646435,0.0005106717570492357
504812000000,337,504812000000,BR_wheel_link,-1.3503025805270046,2.876607768418049,8.365973348504365,0.03318094371174045,0.13165926378924295,-0.03328860709778032
504813000000,338,504813000000,BR_wheel_link,0.11190964689225005,0.023098514138971654,0.36645336609393725,-0.02299793099488541,-0.005394581620048754,0.0005333036140446414
504814000000,339,504814000000,BR_wheel_link,-1.3640407885038166,2.9044367473879844,8.364123255247899,0.03654491776813108,0.1331270702739805,-0.03370490200939356
504815000000,340,504815000000,BR_wheel_link,0.03365603619198474,0.037489412837827724,0.26555609672866354,-0.02130898238807717,-0.0070389404727959366,-0.0022326922342066017
504816000000,341,504816000000,BR_wheel_link,-1.4175495027326495,2.808336638660388,7.969841585848528,0.0393350814287185,0.140286523389183,-0.03523329978772892
504817000000,342,504817000000,BR_wheel_link,0.014332805700039555,0.04657518452029274,0.22624571378398498,-0.020491924691844958,-0.00460875110072889,-0.0015389916056009595
504818000000,343,504818000000,BR_wheel_link,-1.25282849172516,2.0580004871312236,6.64478000060108,-0.00038766127474003376,0.12680666634547488,-0.031042453938615957
504819000000,344,504819000000,BR_wheel_link,0.18255983803231274,-0.05538079714405018,0.5908705389093895,-0.03159677016694292,-0.005316278851383473,0.004477239821328792
504820000000,345,504820000000,BR_wheel_link,-1.7271452573351718,3.712247352114428,10.24610745300227,0.05766924018049177,0.1672914220387275,-0.042386178540454685
504821000000,346,504821000000,BR_wheel_link,0.1791249740580677,0.083516015790985,0.5182193393189196,-0.02004543646274709,-0.00626825476517133,0.002671656641974659
504822000000,347,504822000000,BR_wheel_link,-1.3740816722756153,3.767752126544422,9.310792411009196,0.10417839351586132,0.1290250310986477,-0.03408444929999978
504823000000,348,504823000000,BR_wheel_link,0.08526642899661857,-0.007034679484123514,0.39595908238008803,-0.02244913624160575,-0.0036698023755742416,-0.0005668551713090204
504824000000,349,504824000000,BR_wheel_link,-1.5073731678743258,2.8092413292510554,8.206496906287125,0.031181641438154634,0.1503559893012788,-0.037780447605546115
504825000000,350,504825000000,BR_wheel_link,0.12340484184823106,0.03229090222548857,0.3853281652303452,-0.022395310592110584,-0.0054470992577959725,0.000616349075541594
504826000000,351,504826000000,BR_wheel_link,-1.3954082775938357,3.1765541792784067,8.620492113302221,0.05983848429459934,0.13542647393084872,-0.034718738256507405
504827000000,352,504827000000,BR_wheel_link,0.10097416097769993,0.011305532007277214,0.37061698256118925,-0.023020779561323177,-0.004528028741766676,0.00012234285006413584
504828000000,353,504828000000,BR_wheel_link,-1.4096358676304543,2.8688326442173917,8.234693900056415,0.037683745529913465,0.1390945387707903,-0.03515807620106327
