%time,field.header.seq,field.header.stamp,field.header.frame_id,field.orientation.x,field.orientation.y,field.orientation.z,field.orientation.w,field.orientation_covariance0,field.orientation_covariance1,field.orientation_covariance2,field.orientation_covariance3,field.orientation_covariance4,field.orientation_covariance5,field.orientation_covariance6,field.orientation_covariance7,field.orientation_covariance8,field.angular_velocity.x,field.angular_velocity.y,field.angular_velocity.z,field.angular_velocity_covariance0,field.angular_velocity_covariance1,field.angular_velocity_covariance2,field.angular_velocity_covariance3,field.angular_velocity_covariance4,field.angular_velocity_covariance5,field.angular_velocity_covariance6,field.angular_velocity_covariance7,field.angular_velocity_covariance8,field.linear_acceleration.x,field.linear_acceleration.y,field.linear_acceleration.z,field.linear_acceleration_covariance0,field.linear_acceleration_covariance1,field.linear_acceleration_covariance2,field.linear_acceleration_covariance3,field.linear_acceleration_covariance4,field.linear_acceleration_covariance5,field.linear_acceleration_covariance6,field.linear_acceleration_covariance7,field.linear_acceleration_covariance8
504477000000,0,504476000000,base_link,-0.12295046919659687,-0.12285056013867993,0.6971909971236746,0.6954966826144073,0.0,0.0,0.0,0.0,0.0,0.0,0.0,0.0,0.0,-0.015568416547899422,-0.005726982095866465,0.0049947504101242254,0.0,0.0,0.0,0.0,0.0,0.0,0.0,0.0,0.0,-0.25652191479344355,-3.9315462789576445,9.83799604935793,0.0,0.0,0.0,0.0,0.0,0.0,0.0,0.0,0.0
504479000000,1,504478000000,base_link,-0.12294831170722649,-0.12284543872418038,0.6971910236592074,0.6954979420257351,0.0,0.0,0.0,0.0,0.0,0.0,0.0,0.0,0.0,-0.01573137523139437,0.016671161851631113,-0.0011545521377568243,0.0,0.0,0.0,0.0,0.0,0.0,0.0,0.0,0.0,1.8541286972131648,-2.7446460577129335,20.530528762178825,0.0,0.0,0.0,0.0,0.0,0.0,0.0,0.0,0.0
504480000000,2,504479000000,base_link,-0.12294781211989232,-0.12284878104295294,0.6971898739630957,0.6954985924748626,0.0,0.0,0.0,0.0,0.0,0.0,0.0,0.0,0.0,-0.004093916734361611,-0.004908748951151484,-0.0034511781100214182,0.0,0.0,0.0,0.0,0.0,0.0,0.0,0.0,0.0,-0.9629501782244794,-2.03385457090981,4.00531486699362,0.0,0.0,0.0,0.0,0.0,0.0,0.0,0.0,0.0
504481000000,3,504480000000,base_link,-0.12294579624482593,-0.12284294739483292,0.6971917161895163,0.6954981325192708,0.0,0.0,0.0,0.0,0.0,0.0,0.0,0.0,0.0,0.011278897401433605,0.004737861080795789,0.004141872058139328,0.0,0.0,0.0,0.0,0.0,0.0,0.0,0.0,0.0,0.23043788839386847,-5.617793956631576,7.821564222115189,0.0,0.0,0.0,0.0,0.0,0.0,0.0,0.0,0.0
504482000000,4,504481000000,base_link,-0.12294951894487625,-0.12285005905804262,0.6971928497252475,0.6954950819902666,0.0,0.0,0.0,0.0,0.0,0.0,0.0,0.0,0.0,-0.015566110932757372,-0.005729408741932631,0.004995892174883441,0.0,0.0,0.0,0.0,0.0,0.0,0.0,0.0,0.0,-0.744306987150013,-2.2464673065730487,11.853197679300493,0.0,0.0,0.0,0.0,0.0,0.0,0.0,0.0,0.0
504483000000,5,504482000000,base_link,-0.1229490458080271,-0.1228449010648999,0.6971949496109067,0.6954939716879621,0.0,0.0,0.0,0.0,0.0,0.0,0.0,0.0,0.0,0.00809658238595966,0.00572547736802948,0.005624005968627334,0.0,0.0,0.0,0.0,0.0,0.0,0.0,0.0,0.0,0.776511013693588,-5.102718019353022,7.439426660073028,0.0,0.0,0.0,0.0,0.0,0.0,0.0,0.0,0.0
504484000000,6,504483000000,base_link,-0.1229490458080271,-0.1228449010648999,0.6971949496109067,0.6954939716879621,0.0,0.0,0.0,0.0,0.0,0.0,0.0,0.0,0.0,0.00809658238595966,0.00572547736802948,0.005624005968627334,0.0,0.0,0.0,0.0,0.0,0.0,0.0,0.0,0.0,0.776511013693588,-5.102718019353022,7.439426660073028,0.0,0.0,0.0,0.0,0.0,0.0,0.0,0.0,0.0
504486000000,7,504485000000,base_link,-0.12294687128752377,-0.12284827132718801,0.6971917262676216,0.6954969920111119,0.0,0.0,0.0,0.0,0.0,0.0,0.0,0.0,0.0,-0.004096932372558203,-0.004904961627111029,-0.003452300972079417,0.0,0.0,0.0,0.0,0.0,0.0,0.0,0.0,0.0,-0.9637396409916467,-2.034023968637131,4.006813604340476,0.0,0.0,0.0,0.0,0.0,0.0,0.0,0.0,0.0
504487000000,8,504486000000,base_link,-0.12294486064036686,-0.1228424356592401,0.6971935680846295,0.6954965318855655,0.0,0.0,0.0,0.0,0.0,0.0,0.0,0.0,0.0,0.011274314597772271,0.004747997077838919,0.004143306390717315,0.0,0.0,0.0,0.0,0.0,0.0,0.0,0.0,0.0,0.23072932438026128,-5.618713268592019,7.823829057338969,0.0,0.0,0.0,0.0,0.0,0.0,0.0,0.0,0.0
504488000000,9,504487000000,base_link,-0.12294858175363937,-0.12284954717207812,0.6971947022884687,0.6954934809940907,0.0,0.0,0.0,0.0,0.0,0.0,0.0,0.0,0.0,-0.015563629666057725,-0.00573162487280276,0.00499699325913789,0.0,0.0,0.0,0.0,0.0,0.0,0.0,0.0,0.0,-0.7453318788240495,-2.2467996497771248,11.84960745352858,0.0,0.0,0.0,0.0,0.0,0.0,0.0,0.0,0.0
504489000000,10,504488000000,base_link,-0.12294811134499413,-0.12284438397700703,0.6971968022353636,0.695492371054343,0.0,0.0,0.0,0.0,0.0,0.0,0.0,0.0,0.0,0.008100175120442376,0.005736576299875106,0.005625537318097646,0.0,0.0,0.0,0.0,0.0,0.0,0.0,0.0,0.0,0.7770454182870745,-5.104273493583354,7.442444208364601,0.0,0.0,0.0,0.0,0.0,0.0,0.0,0.0,0.0
504490000000,11,504489000000,base_link,-0.12293398566413244,-0.12284355056153466,0.697197426276443,0.6954943896593778,0.0,0.0,0.0,0.0,0.0,0.0,0.0,0.0,0.0,0.021460420245855674,-0.018194991092271656,-0.005212278972056891,0.0,0.0,0.0,0.0,0.0,0.0,0.0,0.0,0.0,-1.1857009167194974,-2.3823879543585025,3.599232189291638,0.0,0.0,0.0,0.0,0.0,0.0,0.0,0.0,0.0
504491000000,12,504490000000,base_link,-0.12294643840807226,-0.12284440919235921,0.6971947298121172,0.695494739832847,0.0,0.0,0.0,0.0,0.0,0.0,0.0,0.0,0.0,-0.01574902344497255,0.016679263422066447,-0.0011508650642206208,0.0,0.0,0.0,0.0,0.0,0.0,0.0,0.0,0.0,1.8560689268305084,-2.7390271366328096,20.52325863782584,0.0,0.0,0.0,0.0,0.0,0.0,0.0,0.0,0.0
504492000000,13,504491000000,base_link,-0.1229459435177694,-0.12284775138458207,0.6971935785368758,0.6954953910697199,0.0,0.0,0.0,0.0,0.0,0.0,0.0,0.0,0.0,-0.004100473392479043,-0.004901407321362145,-0.003453270969639908,0.0,0.0,0.0,0.0,0.0,0.0,0.0,0.0,0.0,-0.9644607760675314,-2.034100022447356,4.008101571353391,0.0,0.0,0.0,0.0,0.0,0.0,0.0,0.0,0.0
504493000000,14,504492000000,base_link,-0.12294393812177135,-0.12284191348516584,0.6971954198117438,0.6954949309405061,0.0,0.0,0.0,0.0,0.0,0.0,0.0,0.0,0.0,0.01127000291890627,0.004758533362777754,0.004144382065280724,0.0,0.0,0.0,0.0,0.0,0.0,0.0,0.0,0.0,0.23112540117317493,-5.619616447316023,7.826102367189012,0.0,0.0,0.0,0.0,0.0,0.0,0.0,0.0,0.0
504494000000,15,504493000000,base_link,-0.12294765755212732,-0.12284902469005471,0.6971965546543746,0.6954918797608042,0.0,0.0,0.0,0.0,0.0,0.0,0.0,0.0,0.0,-0.015560784020083611,-0.0057337304216811885,0.004997964953338384,0.0,0.0,0.0,0.0,0.0,0.0,0.0,0.0,0.0,-0.7463048628078093,-2.247095876919325,11.845945340367301,0.0,0.0,0.0,0.0,0.0,0.0,0.0,0.0,0.0
504495000000,16,504494000000,base_link,-0.12294718970565109,-0.1228438561224044,0.6971986546259421,0.6954907702796903,0.0,0.0,0.0,0.0,0.0,0.0,0.0,0.0,0.0,0.008104251420098517,0.005747713624429418,0.0056268852276696694,0.0,0.0,0.0,0.0,0.0,0.0,0.0,0.0,0.0,0.7775876109011898,-5.105805043585458,7.445436615374037,0.0,0.0,0.0,0.0,0.0,0.0,0.0,0.0,0.0
504496000000,17,504495000000,base_link,-0.12294718970565109,-0.1228438561224044,0.6971986546259421,0.6954907702796903,0.0,0.0,0.0,0.0,0.0,0.0,0.0,0.0,0.0,0.008104251420098517,0.005747713624429418,0.0056268852276696694,0.0,0.0,0.0,0.0,0.0,0.0,0.0,0.0,0.0,0.7775876109011898,-5.105805043585458,7.445436615374037,0.0,0.0,0.0,0.0,0.0,0.0,0.0,0.0,0.0
504497000000,18,504496000000,base_link,-0.12294552110959055,-0.12284387884080375,0.6971965824735004,0.6954931384691793,0.0,0.0,0.0,0.0,0.0,0.0,0.0,0.0,0.0,-0.015757987874593114,0.016682634461489456,-0.0011491678093284731,0.0,0.0,0.0,0.0,0.0,0.0,0.0,0.0,0.0,1.8567908532565591,-2.7364481834029792,20.519971833898104,0.0,0.0,0.0,0.0,0.0,0.0,0.0,0.0,0.0
504498000000,19,504497000000,base_link,-0.12294502875651202,-0.12284722123690674,0.6971954304523724,0.6954937899756991,0.0,0.0,0.0,0.0,0.0,0.0,0.0,0.0,0.0,-0.00410440858732763,-0.004897888199149549,-0.003454103228583842,0.0,0.0,0.0,0.0,0.0,0.0,0.0,0.0,0.0,-0.9651320255496343,-2.0341125835763076,4.009264044119856,0.0,0.0,0.0,0.0,0.0,0.0,0.0,0.0,0.0
504499000000,20,504498000000,base_link,-0.1229430286556953,-0.12284138091420704,0.697197271116269,0.6954933299378818,0.0,0.0,0.0,0.0,0.0,0.0,0.0,0.0,0.0,0.011265908390178445,0.004769420900941424,0.004145275407753269,0.0,0.0,0.0,0.0,0.0,0.0,0.0,0.0,0.0,0.23158618444533507,-5.6204960150437495,7.828367895376453,0.0,0.0,0.0,0.0,0.0,0.0,0.0,0.0,0.0
504500000000,21,504499000000,base_link,-0.12294674634769139,-0.12284849164224546,0.6971984065781142,0.6954902785292402,0.0,0.0,0.0,0.0,0.0,0.0,0.0,0.0,0.0,-0.015557616103566003,-0.00573565897695817,0.004998854399358273,0.0,0.0,0.0,0.0,0.0,0.0,0.0,0.0,0.0,-0.7472428184963404,-2.247364993761172,11.842242648834155,0.0,0.0,0.0,0.0,0.0,0.0,0.0,0.0,0.0
504501000000,22,504500000000,base_link,-0.12294628093430746,-0.12284331756541238,0.697200506570746,0.6954891695572555,0.0,0.0,0.0,0.0,0.0,0.0,0.0,0.0,0.0,0.008108709262695104,0.00575887421594499,0.005628159776462701,0.0,0.0,0.0,0.0,0.0,0.0,0.0,0.0,0.0,0.7781251840929196,-5.107313698364877,7.448402838266368,0.0,0.0,0.0,0.0,0.0,0.0,0.0,0.0,0.0
504502000000,23,504501000000,base_link,-0.12293215909110769,-0.12284247869101864,0.6972011304171158,0.6954911886108559,0.0,0.0,0.0,0.0,0.0,0.0,0.0,0.0,0.0,0.021462663697421936,-0.01818200052964334,-0.005210881928073573,0.0,0.0,0.0,0.0,0.0,0.0,0.0,0.0,0.0,-1.1858729105659351,-2.3821025940410188,3.600315673662026,0.0,0.0,0.0,0.0,0.0,0.0,0.0,0.0,0.0
504503000000,24,504502000000,base_link,-0.12294461672180805,-0.12284333812598879,0.69719843461111,0.6954915371685049,0.0,0.0,0.0,0.0,0.0,0.0,0.0,0.0,0.0,-0.015767034107232902,0.016685551279567484,-0.0011475319400070755,0.0,0.0,0.0,0.0,0.0,0.0,0.0,0.0,0.0,1.8573425484864443,-2.7340247491308114,20.516925841957363,0.0,0.0,0.0,0.0,0.0,0.0,0.0,0.0,0.0
504504000000,25,504503000000,base_link,-0.12294412702493979,-0.12284668086349938,0.6971972818555552,0.6954921888879289,0.0,0.0,0.0,0.0,0.0,0.0,0.0,0.0,0.0,-0.0041087137121592985,-0.004894412656970059,-0.0034548453035754007,0.0,0.0,0.0,0.0,0.0,0.0,0.0,0.0,0.0,-0.9657513403966611,-2.034050079029617,4.010261799795753,0.0,0.0,0.0,0.0,0.0,0.0,0.0,0.0,0.0
504505000000,26,504504000000,base_link,-0.12294213226469407,-0.12284083792421441,0.6971991218324057,0.695491729043854,0.0,0.0,0.0,0.0,0.0,0.0,0.0,0.0,0.0,0.0112620224141362,0.004780701641043996,0.004145991152006539,0.0,0.0,0.0,0.0,0.0,0.0,0.0,0.0,0.0,0.23210949158215943,-5.621353815306379,7.8306268381203274,0.0,0.0,0.0,0.0,0.0,0.0,0.0,0.0,0.0
504506000000,27,504505000000,base_link,-0.12294584816425254,-0.12284794801924268,0.6972002578922936,0.6954886774646684,0.0,0.0,0.0,0.0,0.0,0.0,0.0,0.0,0.0,-0.015554146162440106,-0.00573742616027442,0.0049996578766472516,0.0,0.0,0.0,0.0,0.0,0.0,0.0,0.0,0.0,-0.7481411694209007,-2.2476058164895827,11.838504098410098,0.0,0.0,0.0,0.0,0.0,0.0,0.0,0.0,0.0
504507000000,28,504506000000,base_link,-0.12294584816425254,-0.12284794801924268,0.6972002578922936,0.6954886774646684,0.0,0.0,0.0,0.0,0.0,0.0,0.0,0.0,0.0,-0.015554146162440106,-0.00573742616027442,0.0049996578766472516,0.0,0.0,0.0,0.0,0.0,0.0,0.0,0.0,0.0,-0.7481411694209007,-2.2476058164895827,11.838504098410098,0.0,0.0,0.0,0.0,0.0,0.0,0.0,0.0,0.0
504508000000,29,504507000000,base_link,-0.12293126488715882,-0.12284192651215207,0.6972029816362765,0.6954895884206408,0.0,0.0,0.0,0.0,0.0,0.0,0.0,0.0,0.0,0.02146440880064507,-0.018175544030061847,-0.005210320844652944,0.0,0.0,0.0,0.0,0.0,0.0,0.0,0.0,0.0,-1.185950632922848,-2.3819522990807305,3.600850018565077,0.0,0.0,0.0,0.0,0.0,0.0,0.0,0.0,0.0
504508000000,30,504508000000,base_link,-0.12294372520266943,-0.1228427871199483,0.697200286045139,0.6954899361058148,0.0,0.0,0.0,0.0,0.0,0.0,0.0,0.0,0.0,-0.015776171497844323,0.01668784591098216,-0.0011459699155469425,0.0,0.0,0.0,0.0,0.0,0.0,0.0,0.0,0.0,1.8576884519973977,-2.731795297669967,20.514172834152717,0.0,0.0,0.0,0.0,0.0,0.0,0.0,0.0,0.0
504508000000,31,504509000000,base_link,-0.12294323829929417,-0.12284613038774596,0.6971991325551806,0.695490587980559,0.0,0.0,0.0,0.0,0.0,0.0,0.0,0.0,0.0,-0.0041134888689052405,-0.004891024027071518,-0.0034555200292271343,0.0,0.0,0.0,0.0,0.0,0.0,0.0,0.0,0.0,-0.9663065287640702,-2.0338928099524516,4.011041535593609,0.0,0.0,0.0,0.0,0.0,0.0,0.0,0.0,0.0
504511000000,32,504510000000,base_link,-0.12294124891566911,-0.12284028463308491,0.6972009717277278,0.69549012847648,0.0,0.0,0.0,0.0,0.0,0.0,0.0,0.0,0.0,0.011258370708439719,0.004792373916402573,0.004146397691593381,0.0,0.0,0.0,0.0,0.0,0.0,0.0,0.0,0.0,0.2327189824599717,-5.622191457458703,7.832885741954502,0.0,0.0,0.0,0.0,0.0,0.0,0.0,0.0,0.0
504511000000,33,504511000000,base_link,-0.122944962944279,-0.12284739393490472,0.6972021083524673,0.6954870768022269,0.0,0.0,0.0,0.0,0.0,0.0,0.0,0.0,0.0,-0.015550333347927697,-0.005739053301918834,0.005000329824447602,0.0,0.0,0.0,0.0,0.0,0.0,0.0,0.0,0.0,-0.7489937869565966,-2.247814023342805,11.834705939966144,0.0,0.0,0.0,0.0,0.0,0.0,0.0,0.0,0.0
504511000000,34,504512000000,base_link,-0.122944962944279,-0.12284739393490472,0.6972021083524673,0.6954870768022269,0.0,0.0,0.0,0.0,0.0,0.0,0.0,0.0,0.0,-0.015550333347927697,-0.005739053301918834,0.005000329824447602,0.0,0.0,0.0,0.0,0.0,0.0,0.0,0.0,0.0,-0.7489937869565966,-2.247814023342805,11.834705939966144,0.0,0.0,0.0,0.0,0.0,0.0,0.0,0.0,0.0
504511000000,35,504514000000,base_link,-0.1229303833135077,-0.12284136354299549,0.6972048319636934,0.6954879887875632,0.0,0.0,0.0,0.0,0.0,0.0,0.0,0.0,0.0,0.02146665663639234,-0.018169089409272962,-0.005209897164470468,0.0,0.0,0.0,0.0,0.0,0.0,0.0,0.0,0.0,-0.2033312077624248,-3.7459446874979423,5.52786343391108,0.0,0.0,0.0,0.0,0.0,0.0,0.0,0.0,0.0
504515000000,36,504515000000,base_link,-0.12294284641327473,-0.12284222591119513,0.6972021365103183,0.6954883355559837,0.0,0.0,0.0,0.0,0.0,0.0,0.0,0.0,0.0,-0.0157853307313436,0.016689317781507663,-0.0011445046571524529,0.0,0.0,0.0,0.0,0.0,0.0,0.0,0.0,0.0,1.8577860832972581,-2.729799041086838,20.511795451385932,0.0,0.0,0.0,0.0,0.0,0.0,0.0,0.0,0.0
504517000000,37,504516000000,base_link,-0.12294236246074855,-0.12284556991855371,0.6972009822684837,0.695488987538852,0.0,0.0,0.0,0.0,0.0,0.0,0.0,0.0,0.0,-0.004118792436329656,-0.004887716080790505,-0.0034561663233843116,0.0,0.0,0.0,0.0,0.0,0.0,0.0,0.0,0.0,-0.9667824737059415,-2.033608881538094,4.011524693731504,0.0,0.0,0.0,0.0,0.0,0.0,0.0,0.0,0.0
504519000000,38,504518000000,base_link,-0.12294363159139211,-0.12284163797394448,0.697206057595492,0.6954843698338231,0.0,0.0,0.0,0.0,0.0,0.0,0.0,0.0,0.0,0.0081245772861518,0.005792447280577652,0.005631270928288862,0.0,0.0,0.0,0.0,0.0,0.0,0.0,0.0,0.0,0.7797308343577468,-5.1116864634286765,7.4571307509929206,0.0,0.0,0.0,0.0,0.0,0.0,0.0,0.0,0.0
504520000000,39,504519000000,base_link,-0.12292951420130563,-0.1228407898176756,0.6972066810782744,0.6954863900573598,0.0,0.0,0.0,0.0,0.0,0.0,0.0,0.0,0.0,0.021469471863396743,-0.018162671721302103,-0.0052096280029689315,0.0,0.0,0.0,0.0,0.0,0.0,0.0,0.0,0.0,-1.1860827695845173,-2.381630618342421,3.6018979636956248,0.0,0.0,0.0,0.0,0.0,0.0,0.0,0.0,0.0
504521000000,40,504520000000,base_link,-0.12292951420130563,-0.1228407898176756,0.6972066810782744,0.6954863900573598,0.0,0.0,0.0,0.0,0.0,0.0,0.0,0.0,0.0,0.021469471863396743,-0.018162671721302103,-0.0052096280029689315,0.0,0.0,0.0,0.0,0.0,0.0,0.0,0.0,0.0,-1.1860827695845173,-2.381630618342421,3.6018979636956248,0.0,0.0,0.0,0.0,0.0,0.0,0.0,0.0,0.0
504523000000,41,504522000000,base_link,-0.12293952069351126,-0.12283914719661813,0.6972046678007863,0.6954869296862829,0.0,0.0,0.0,0.0,0.0,0.0,0.0,0.0,0.0,0.011251845422493287,0.004817201519246902,0.004146089809893397,0.0,0.0,0.0,0.0,0.0,0.0,0.0,0.0,0.0,0.23424228950712112,-5.623819586342891,7.837424995096004,0.0,0.0,0.0,0.0,0.0,0.0,0.0,0.0,0.0
504524000000,42,504523000000,base_link,-0.12293952069351126,-0.12283914719661813,0.6972046678007863,0.6954869296862829,0.0,0.0,0.0,0.0,0.0,0.0,0.0,0.0,0.0,0.011251845422493287,0.004817201519246902,0.004146089809893397,0.0,0.0,0.0,0.0,0.0,0.0,0.0,0.0,0.0,0.23424228950712112,-5.623819586342891,7.837424995096004,0.0,0.0,0.0,0.0,0.0,0.0,0.0,0.0,0.0
504525000000,43,504524000000,base_link,-0.1229427736852212,-0.12284105689687987,0.697207905327904,0.6954827718120115,0.0,0.0,0.0,0.0,0.0,0.0,0.0,0.0,0.0,0.008130628064169712,0.005803499446899844,0.005632048344197598,0.0,0.0,0.0,0.0,0.0,0.0,0.0,0.0,0.0,0.7802395408633214,-5.113054949211449,7.459935072989393,0.0,0.0,0.0,0.0,0.0,0.0,0.0,0.0,0.0
504526000000,44,504525000000,base_link,-0.1229427736852212,-0.12284105689687987,0.697207905327904,0.6954827718120115,0.0,0.0,0.0,0.0,0.0,0.0,0.0,0.0,0.0,0.008130628064169712,0.005803499446899844,0.005632048344197598,0.0,0.0,0.0,0.0,0.0,0.0,0.0,0.0,0.0,0.7802395408633214,-5.113054949211449,7.459935072989393,0.0,0.0,0.0,0.0,0.0,0.0,0.0,0.0,0.0
504527000000,45,504526000000,base_link,-0.12292865737190616,-0.12284020540957638,0.6972085286781219,0.6954847925513269,0.0,0.0,0.0,0.0,0.0,0.0,0.0,0.0,0.0,0.02147266711858935,-0.01815643374212446,-0.005209442482850571,0.0,0.0,0.0,0.0,0.0,0.0,0.0,0.0,0.0,-1.1861412031111755,-2.3814601452833886,3.6024142146033276,0.0,0.0,0.0,0.0,0.0,0.0,0.0,0.0,0.0
504528000000,46,504527000000,base_link,-0.12294058423674137,-0.12284433700205762,0.6972046395381534,0.6954858533575844,0.0,0.0,0.0,0.0,0.0,0.0,0.0,0.0,0.0,-0.00392261809303906,-0.004831328566944505,-0.0035949154868388945,0.0,0.0,0.0,0.0,0.0,0.0,0.0,0.0,0.0,-0.970455210616245,-2.0268081705162726,3.9910588847834845,0.0,0.0,0.0,0.0,0.0,0.0,0.0,0.0,0.0
504529000000,47,504528000000,base_link,-0.12294058423674137,-0.12284433700205762,0.6972046395381534,0.6954858533575844,0.0,0.0,0.0,0.0,0.0,0.0,0.0,0.0,0.0,-0.00392261809303906,-0.004831328566944505,-0.0035949154868388945,0.0,0.0,0.0,0.0,0.0,0.0,0.0,0.0,0.0,-0.970455210616245,-2.0268081705162726,3.9910588847834845,0.0,0.0,0.0,0.0,0.0,0.0,0.0,0.0,0.0
504531000000,48,504530000000,base_link,-0.12294028560863768,-0.12284219935645088,0.6972084215677538,0.6954824923222283,0.0,0.0,0.0,0.0,0.0,0.0,0.0,0.0,0.0,-0.01122579566521377,0.018379828550420516,0.0019435335695545427,0.0,0.0,0.0,0.0,0.0,0.0,0.0,0.0,0.0,1.8938114406590938,-3.406044997766748,18.988416391457307,0.0,0.0,0.0,0.0,0.0,0.0,0.0,0.0,0.0
504532000000,49,504531000000,base_link,-0.12294013737861667,-0.12284525188618867,0.697207969381821,0.6954824326615474,0.0,0.0,0.0,0.0,0.0,0.0,0.0,0.0,0.0,-0.004176702954356963,-0.004356760137111223,-0.0013319946566113148,0.0,0.0,0.0,0.0,0.0,0.0,0.0,0.0,0.0,-0.9989953220953213,-2.2861239174412824,4.437594361512158,0.0,0.0,0.0,0.0,0.0,0.0,0.0,0.0,0.0
504533000000,50,504532000000,base_link,-0.12293836517004247,-0.1228391855212927,0.6972100393197965,0.6954817423494815,0.0,0.0,0.0,0.0,0.0,0.0,0.0,0.0,0.0,0.011263928497261828,0.00528855376410188,0.004896772837728204,0.0,0.0,0.0,0.0,0.0,0.0,0.0,0.0,0.0,0.2829400138783662,-5.656790105551943,7.885827821831887,0.0,0.0,0.0,0.0,0.0,0.0,0.0,0.0,0.0
504534000000,51,504533000000,base_link,-0.12294197042878079,-0.1228460277698566,0.6972113120356461,0.6954786206187719,0.0,0.0,0.0,0.0,0.0,0.0,0.0,0.0,0.0,-0.015010473134988444,-0.005569703643145746,0.00532627349269379,0.0,0.0,0.0,0.0,0.0,0.0,0.0,0.0,0.0,-0.8269585535710705,-2.3279209756345423,11.713734869706114,0.0,0.0,0.0,0.0,0.0,0.0,0.0,0.0,0.0
504535000000,52,504534000000,base_link,-0.12294151667756142,-0.1228404141351594,0.6972134560304866,0.6954775430322307,0.0,0.0,0.0,0.0,0.0,0.0,0.0,0.0,0.0,0.00872438546652683,0.006383296369838131,0.005756724561337629,0.0,0.0,0.0,0.0,0.0,0.0,0.0,0.0,0.0,0.7996986616270279,-5.184430059705743,7.555260961243392,0.0,0.0,0.0,0.0,0.0,0.0,0.0,0.0,0.0
504535000000,53,504535000000,base_link,-0.12292740490108646,-0.12283914553946364,0.6972141121022958,0.695479603822302,0.0,0.0,0.0,0.0,0.0,0.0,0.0,0.0,0.0,0.022065727994596187,-0.01756830096090058,-0.005116113940382383,0.0,0.0,0.0,0.0,0.0,0.0,0.0,0.0,0.0,-1.2014956853768537,-2.3961763877727553,3.6250109369383656,0.0,0.0,0.0,0.0,0.0,0.0,0.0,0.0,0.0
504537000000,54,504536000000,base_link,-0.12293998610950208,-0.12284018045734055,0.6972113771109635,0.6954799389685064,0.0,0.0,0.0,0.0,0.0,0.0,0.0,0.0,0.0,-0.0159399810937862,0.016601291331617776,-0.001170494949035857,0.0,0.0,0.0,0.0,0.0,0.0,0.0,0.0,0.0,1.7985151068581549,-2.6812946778908096,20.521788070690857,0.0,0.0,0.0,0.0,0.0,0.0,0.0,0.0,0.0
504538000000,55,504537000000,base_link,-0.12293945338111106,-0.12284329612529873,0.6972102087697924,0.6954806540706998,0.0,0.0,0.0,0.0,0.0,0.0,0.0,0.0,0.0,-0.003721197087377567,-0.004619689859391367,-0.0035193457183453347,0.0,0.0,0.0,0.0,0.0,0.0,0.0,0.0,0.0,-1.0033845660159355,-2.028942288787179,4.01743105628484,0.0,0.0,0.0,0.0,0.0,0.0,0.0,0.0,0.0
504539000000,56,504538000000,base_link,-0.12294014252261354,-0.12284147732632429,0.6972134148867125,0.6954776394010198,0.0,0.0,0.0,0.0,0.0,0.0,0.0,0.0,0.0,0.0016062412765134692,0.0019615599280186726,0.009283413039109779,0.0,0.0,0.0,0.0,0.0,0.0,0.0,0.0,0.0,0.4248606769954568,-5.323407967041952,9.945704532030417,0.0,0.0,0.0,0.0,0.0,0.0,0.0,0.0,0.0
504540000000,57,504539000000,base_link,-0.12292919494673611,-0.12284413436582833,0.6972152410829716,0.6954772744549397,0.0,0.0,0.0,0.0,0.0,0.0,0.0,0.0,0.0,0.011881464575630978,-0.01950011052672175,-0.000293906706478741,0.0,0.0,0.0,0.0,0.0,0.0,0.0,0.0,0.0,-1.232161180629192,-2.343819323439246,3.3707408709541813,0.0,0.0,0.0,0.0,0.0,0.0,0.0,0.0,0.0
504541000000,58,504540000000,base_link,-0.12293952008668682,-0.12284131182386021,0.6972141316234582,0.6954770601355555,0.0,0.0,0.0,0.0,0.0,0.0,0.0,0.0,0.0,-0.010750811477292852,0.018544667380128867,0.0019847401948221944,0.0,0.0,0.0,0.0,0.0,0.0,0.0,0.0,0.0,1.8982998113069938,-3.4025918791808505,18.972347025753805,0.0,0.0,0.0,0.0,0.0,0.0,0.0,0.0,0.0
504542000000,59,504541000000,base_link,-0.122939323476571,-0.12284416663434607,0.6972137274306066,0.6954769958448344,0.0,0.0,0.0,0.0,0.0,0.0,0.0,0.0,0.0,-0.0038231118820902465,-0.004162134614195851,-0.001222015887749011,0.0,0.0,0.0,0.0,0.0,0.0,0.0,0.0,0.0,-1.0055395590576715,-2.292973870987221,4.455738653567873,0.0,0.0,0.0,0.0,0.0,0.0,0.0,0.0,0.0
504543000000,60,504542000000,base_link,-0.122939323476571,-0.12284416663434607,0.6972137274306066,0.6954769958448344,0.0,0.0,0.0,0.0,0.0,0.0,0.0,0.0,0.0,-0.0038231118820902465,-0.004162134614195851,-0.001222015887749011,0.0,0.0,0.0,0.0,0.0,0.0,0.0,0.0,0.0,-1.0055395590576715,-2.292973870987221,4.455738653567873,0.0,0.0,0.0,0.0,0.0,0.0,0.0,0.0,0.0
504545000000,61,504544000000,base_link,-0.12294060031422557,-0.12283928286649895,0.6972191927568003,0.6954721537421739,0.0,0.0,0.0,0.0,0.0,0.0,0.0,0.0,0.0,0.008654796704008622,0.0061896569295512875,0.005658010704411043,0.0,0.0,0.0,0.0,0.0,0.0,0.0,0.0,0.0,0.7865491263206734,-5.140146777241761,7.49981462556903,0.0,0.0,0.0,0.0,0.0,0.0,0.0,0.0,0.0
504546000000,62,504545000000,base_link,-0.1229264690398312,-0.1228380572543312,0.6972198594130415,0.6954741997654836,0.0,0.0,0.0,0.0,0.0,0.0,0.0,0.0,0.0,0.022031736733010662,-0.01766168678046686,-0.005096160670079411,0.0,0.0,0.0,0.0,0.0,0.0,0.0,0.0,0.0,-1.2100349330907059,-2.3958344277293757,3.627473611697365,0.0,0.0,0.0,0.0,0.0,0.0,0.0,0.0,0.0
504546000000,63,504546000000,base_link,-0.1229264690398312,-0.1228380572543312,0.6972198594130415,0.6954741997654836,0.0,0.0,0.0,0.0,0.0,0.0,0.0,0.0,0.0,0.022031736733010662,-0.01766168678046686,-0.005096160670079411,0.0,0.0,0.0,0.0,0.0,0.0,0.0,0.0,0.0,-1.2100349330907059,-2.3958344277293757,3.627473611697365,0.0,0.0,0.0,0.0,0.0,0.0,0.0,0.0,0.0
504548000000,64,504547000000,base_link,-0.1229194603622934,-0.12280115542264804,0.6972176260491596,0.6954841942254903,0.0,0.0,0.0,0.0,0.0,0.0,0.0,0.0,0.0,0.06744444437660195,-0.012693942769992281,-0.013761430791300551,0.0,0.0,0.0,0.0,0.0,0.0,0.0,0.0,0.0,-1.9101104021080682,-4.539882485839049,9.023452561563094,0.0,0.0,0.0,0.0,0.0,0.0,0.0,0.0,0.0
504549000000,65,504548000000,base_link,-0.12296514543789885,-0.12281168232313654,0.6972081167668366,0.6954837924832173,0.0,0.0,0.0,0.0,0.0,0.0,0.0,0.0,0.0,-0.06196003322635081,0.039243496248679274,-0.0027790870704399112,0.0,0.0,0.0,0.0,0.0,0.0,0.0,0.0,0.0,1.6619078995687513,1.235033738771258,6.514746719467865,0.0,0.0,0.0,0.0,0.0,0.0,0.0,0.0,0.0
504550000000,66,504549000000,base_link,-0.12290952442156912,-0.12280466318164704,0.6972116536823134,0.695491318045653,0.0,0.0,0.0,0.0,0.0,0.0,0.0,0.0,0.0,0.04927085827880884,-0.027434954699649287,0.0009360417387635962,0.0,0.0,0.0,0.0,0.0,0.0,0.0,0.0,0.0,-2.7970520397074856,-6.238576980742281,12.295913567385181,0.0,0.0,0.0,0.0,0.0,0.0,0.0,0.0,0.0
504551000000,67,504551000000,base_link,-0.1229668514885104,-0.1228236172604476,0.6972027043606667,0.6954868090123884,0.0,0.0,0.0,0.0,0.0,0.0,0.0,0.0,0.0,-0.07019605250359044,0.028881184173198793,0.00620827581554511,0.0,0.0,0.0,0.0,0.0,0.0,0.0,0.0,0.0,1.354861222291875,1.4448790144593424,6.4801950872330725,0.0,0.0,0.0,0.0,0.0,0.0,0.0,0.0,0.0
504555000000,68,504553000000,base_link,-0.122923367804056,-0.12281361881695925,0.6972280141991184,0.6954708886047967,0.0,0.0,0.0,0.0,0.0,0.0,0.0,0.0,0.0,0.038026096647571665,-0.01705372485088172,0.01972402598655014,0.0,0.0,0.0,0.0,0.0,0.0,0.0,0.0,0.0,-1.7988092784605194,-7.539028202842346,13.17023304882905,0.0,0.0,0.0,0.0,0.0,0.0,0.0,0.0,0.0
504555000000,69,504554000000,base_link,-0.122923367804056,-0.12281361881695925,0.6972280141991184,0.6954708886047967,0.0,0.0,0.0,0.0,0.0,0.0,0.0,0.0,0.0,0.038026096647571665,-0.01705372485088172,0.01972402598655014,0.0,0.0,0.0,0.0,0.0,0.0,0.0,0.0,0.0,-1.7988092784605194,-7.539028202842346,13.17023304882905,0.0,0.0,0.0,0.0,0.0,0.0,0.0,0.0,0.0
504555000000,70,504555000000,base_link,-0.12296101357924212,-0.12282350476703516,0.6972289157785504,0.695461583999127,0.0,0.0,0.0,0.0,0.0,0.0,0.0,0.0,0.0,-0.05665120917435584,0.02862353072116847,0.021929087926724822,0.0,0.0,0.0,0.0,0.0,0.0,0.0,0.0,0.0,1.111083330806807,1.2100052429615555,5.296425074496092,0.0,0.0,0.0,0.0,0.0,0.0,0.0,0.0,0.0
504557000000,71,504556000000,base_link,-0.12295598093593285,-0.12281490061915849,0.6972471860513736,0.6954456761540976,0.0,0.0,0.0,0.0,0.0,0.0,0.0,0.0,0.0,-0.03285931544263107,0.034063811869286656,0.02181785525171564,0.0,0.0,0.0,0.0,0.0,0.0,0.0,0.0,0.0,2.473045239222179,-0.1996746643124392,7.166188240667489,0.0,0.0,0.0,0.0,0.0,0.0,0.0,0.0,0.0
504558000000,72,504557000000,base_link,-0.1229297926430078,-0.1228133083811438,0.6972526275193198,0.6954451313961656,0.0,0.0,0.0,0.0,0.0,0.0,0.0,0.0,0.0,0.03757827555337768,-0.0328023168692765,0.0038013446993344626,0.0,0.0,0.0,0.0,0.0,0.0,0.0,0.0,0.0,-2.2661335397705176,-4.615690163535242,8.670252228243884,0.0,0.0,0.0,0.0,0.0,0.0,0.0,0.0,0.0
504559000000,73,504558000000,base_link,-0.12295862531518542,-0.12281279559653462,0.6972523258865435,0.6954404271712776,0.0,0.0,0.0,0.0,0.0,0.0,0.0,0.0,0.0,-0.03517920853824506,0.03711950591384121,0.014907614934224492,0.0,0.0,0.0,0.0,0.0,0.0,0.0,0.0,0.0,2.747341968449501,-0.7779271274707242,9.42386254563761,0.0,0.0,0.0,0.0,0.0,0.0,0.0,0.0,0.0
504560000000,74,504559000000,base_link,-0.12292897707636365,-0.1228097636751049,0.6972561692943556,0.6954423505381195,0.0,0.0,0.0,0.0,0.0,0.0,0.0,0.0,0.0,0.039250933707691935,-0.03200034925964506,-0.002909193210463307,0.0,0.0,0.0,0.0,0.0,0.0,0.0,0.0,0.0,-2.411684793589705,-4.648293918947631,8.84850230279485,0.0,0.0,0.0,0.0,0.0,0.0,0.0,0.0,0.0
504561000000,75,504560000000,base_link,-0.12296681457271712,-0.12283032554319805,0.6972505560444338,0.695437657692276,0.0,0.0,0.0,0.0,0.0,0.0,0.0,0.0,0.0,-0.0764696868547533,0.01960312086727014,0.003497461347727439,0.0,0.0,0.0,0.0,0.0,0.0,0.0,0.0,0.0,1.17633163134946,1.1028327874670691,5.845597649032943,0.0,0.0,0.0,0.0,0.0,0.0,0.0,0.0,0.0
504562000000,76,504561000000,base_link,-0.12293566220265825,-0.122817367022355,0.6972615471094312,0.6954344341769771,0.0,0.0,0.0,0.0,0.0,0.0,0.0,0.0,0.0,0.04308721618190302,-0.0006992964647184637,0.0073940559527531,0.0,0.0,0.0,0.0,0.0,0.0,0.0,0.0,0.0,-1.07822884702781,-9.119158899110714,16.282250330968594,0.0,0.0,0.0,0.0,0.0,0.0,0.0,0.0,0.0
504563000000,77,504562000000,base_link,-0.12295758580575729,-0.12281490665281944,0.6972645595873056,0.695427972359611,0.0,0.0,0.0,0.0,0.0,0.0,0.0,0.0,0.0,-0.02790366765597197,0.031643441515166786,0.01918511303469607,0.0,0.0,0.0,0.0,0.0,0.0,0.0,0.0,0.0,2.2435977514487018,-1.3452330282871197,5.748097955144276,0.0,0.0,0.0,0.0,0.0,0.0,0.0,0.0,0.0
504564000000,78,504563000000,base_link,-0.12295758580575729,-0.12281490665281944,0.6972645595873056,0.695427972359611,0.0,0.0,0.0,0.0,0.0,0.0,0.0,0.0,0.0,-0.02790366765597197,0.031643441515166786,0.01918511303469607,0.0,0.0,0.0,0.0,0.0,0.0,0.0,0.0,0.0,2.2435977514487018,-1.3452330282871197,5.748097955144276,0.0,0.0,0.0,0.0,0.0,0.0,0.0,0.0,0.0
504566000000,79,504565000000,base_link,-0.12293824582771433,-0.12281518164129115,0.6972774014125456,0.6954184670761836,0.0,0.0,0.0,0.0,0.0,0.0,0.0,0.0,0.0,0.04455933509916179,-0.0007968705500447822,0.009092781146233037,0.0,0.0,0.0,0.0,0.0,0.0,0.0,0.0,0.0,-0.9116500628334936,-9.063546653773496,16.16724496660107,0.0,0.0,0.0,0.0,0.0,0.0,0.0,0.0,0.0
504567000000,80,504566000000,base_link,-0.12295984246684367,-0.12281214162711061,0.6972804874796523,0.6954120913455776,0.0,0.0,0.0,0.0,0.0,0.0,0.0,0.0,0.0,-0.026607684741309624,0.03200060588072105,0.019196906225266326,0.0,0.0,0.0,0.0,0.0,0.0,0.0,0.0,0.0,2.2071446663001653,-1.2589700801290418,5.728652731595756,0.0,0.0,0.0,0.0,0.0,0.0,0.0,0.0,0.0
504568000000,81,504567000000,base_link,-0.12293419107023973,-0.12280864293369748,0.6972861319052865,0.6954115847030828,0.0,0.0,0.0,0.0,0.0,0.0,0.0,0.0,0.0,0.041213550528011206,-0.031658389165824787,0.0035030948747208955,0.0,0.0,0.0,0.0,0.0,0.0,0.0,0.0,0.0,-2.3910168950635633,-4.849484644661918,8.86003355377001,0.0,0.0,0.0,0.0,0.0,0.0,0.0,0.0,0.0
504569000000,82,504568000000,base_link,-0.12297111373496382,-0.12282622613801253,0.697281950229406,0.6954061440940488,0.0,0.0,0.0,0.0,0.0,0.0,0.0,0.0,0.0,-0.0727162908063153,0.023132385389198682,0.006911201955819433,0.0,0.0,0.0,0.0,0.0,0.0,0.0,0.0,0.0,1.098579804709917,1.263726686089461,6.0037443698611614,0.0,0.0,0.0,0.0,0.0,0.0,0.0,0.0,0.0
504570000000,83,504569000000,base_link,-0.12293966419419886,-0.12281141727681934,0.6972931678358895,0.6954030722132789,0.0,0.0,0.0,0.0,0.0,0.0,0.0,0.0,0.0,0.04563934997182305,-0.0007319093486914847,0.008622948601843783,0.0,0.0,0.0,0.0,0.0,0.0,0.0,0.0,0.0,-0.885913625490472,-9.016745787338259,16.12023964125082,0.0,0.0,0.0,0.0,0.0,0.0,0.0,0.0,0.0
504571000000,84,504570000000,base_link,-0.12296208057500786,-0.12280843311673102,0.6972956214077317,0.6953971756210142,0.0,0.0,0.0,0.0,0.0,0.0,0.0,0.0,0.0,-0.027860006522016305,0.033338368362029844,0.017847512514136805,0.0,0.0,0.0,0.0,0.0,0.0,0.0,0.0,0.0,2.267308108048323,-1.1309661166524694,5.90959652280155,0.0,0.0,0.0,0.0,0.0,0.0,0.0,0.0,0.0
504572000000,85,504571000000,base_link,-0.12296208057500786,-0.12280843311673102,0.6972956214077317,0.6953971756210142,0.0,0.0,0.0,0.0,0.0,0.0,0.0,0.0,0.0,-0.027860006522016305,0.033338368362029844,0.017847512514136805,0.0,0.0,0.0,0.0,0.0,0.0,0.0,0.0,0.0,2.267308108048323,-1.1309661166524694,5.90959652280155,0.0,0.0,0.0,0.0,0.0,0.0,0.0,0.0,0.0
504573000000,86,504572000000,base_link,-0.12297284839053957,-0.12282281317977653,0.6972956082628199,0.6953927450144323,0.0,0.0,0.0,0.0,0.0,0.0,0.0,0.0,0.0,-0.07274100985025254,0.02321636750807562,0.005141070283720645,0.0,0.0,0.0,0.0,0.0,0.0,0.0,0.0,0.0,1.1029853359560422,1.2633807580834846,6.014095642037653,0.0,0.0,0.0,0.0,0.0,0.0,0.0,0.0,0.0
504574000000,87,504573000000,base_link,-0.12294100097950926,-0.1228079969986653,0.6973067394399157,0.6953898311616338,0.0,0.0,0.0,0.0,0.0,0.0,0.0,0.0,0.0,0.045937543075440325,-0.0006184759625337613,0.007985343718455988,0.0,0.0,0.0,0.0,0.0,0.0,0.0,0.0,0.0,-0.9465972158919115,-8.989006378644099,16.099902574291956,0.0,0.0,0.0,0.0,0.0,0.0,0.0,0.0,0.0
504575000000,88,504575000000,base_link,-0.12296371754868698,-0.1228050156823366,0.6973088991268626,0.6953841754658721,0.0,0.0,0.0,0.0,0.0,0.0,0.0,0.0,0.0,-0.028291238067326724,0.033884174289644214,0.017188027632506257,0.0,0.0,0.0,0.0,0.0,0.0,0.0,0.0,0.0,2.273216663587051,-1.0989189983760297,5.953280499557467,0.0,0.0,0.0,0.0,0.0,0.0,0.0,0.0,0.0
504577000000,89,504576000000,base_link,-0.12297434142282256,-0.1228194740211922,0.6973081890546852,0.6953804553120949,0.0,0.0,0.0,0.0,0.0,0.0,0.0,0.0,0.0,-0.07278014352381013,0.02334295606456353,0.0043094382209656,0.0,0.0,0.0,0.0,0.0,0.0,0.0,0.0,0.0,1.104965593190176,1.2649005142317558,6.027186914054047,0.0,0.0,0.0,0.0,0.0,0.0,0.0,0.0,0.0
504578000000,90,504577000000,base_link,-0.12294223951630778,-0.12280466700169791,0.6973193648340212,0.6953775398535633,0.0,0.0,0.0,0.0,0.0,0.0,0.0,0.0,0.0,0.046102548997767494,-0.0005601230019959998,0.007840038429882347,0.0,0.0,0.0,0.0,0.0,0.0,0.0,0.0,0.0,-0.996119575285119,-8.978316618714084,16.097003961098725,0.0,0.0,0.0,0.0,0.0,0.0,0.0,0.0,0.0
504579000000,91,504578000000,base_link,-0.12294223951630778,-0.12280466700169791,0.6973193648340212,0.6953775398535633,0.0,0.0,0.0,0.0,0.0,0.0,0.0,0.0,0.0,0.046102548997767494,-0.0005601230019959998,0.007840038429882347,0.0,0.0,0.0,0.0,0.0,0.0,0.0,0.0,0.0,-0.996119575285119,-8.978316618714084,16.097003961098725,0.0,0.0,0.0,0.0,0.0,0.0,0.0,0.0,0.0
504581000000,92,504580000000,base_link,-0.12296337862566567,-0.12285633264214683,0.6973360923582528,0.6953479009396704,0.0,0.0,0.0,0.0,0.0,0.0,0.0,0.0,0.0,-0.05866233499577311,-0.04554519456039288,0.0027386413542675276,0.0,0.0,0.0,0.0,0.0,0.0,0.0,0.0,0.0,-2.5951506525585524,-3.8498858631305763,3.9404022661380047,0.0,0.0,0.0,0.0,0.0,0.0,0.0,0.0,0.0
504581000000,93,504581000000,base_link,-0.12296337862566567,-0.12285633264214683,0.6973360923582528,0.6953479009396704,0.0,0.0,0.0,0.0,0.0,0.0,0.0,0.0,0.0,-0.05866233499577311,-0.04554519456039288,0.0027386413542675276,0.0,0.0,0.0,0.0,0.0,0.0,0.0,0.0,0.0,-2.5951506525585524,-3.8498858631305763,3.9404022661380047,0.0,0.0,0.0,0.0,0.0,0.0,0.0,0.0,0.0
504585000000,94,504584000000,base_link,-0.12313849280551227,-0.12300017444880085,0.6973849114930802,0.6952425144486921,0.0,0.0,0.0,0.0,0.0,0.0,0.0,0.0,0.0,-0.1528396551959747,-0.03572554875717777,0.05435069487581852,0.0,0.0,0.0,0.0,0.0,0.0,0.0,0.0,0.0,-0.4629761295733368,-14.470113307178357,18.525279888442682,0.0,0.0,0.0,0.0,0.0,0.0,0.0,0.0,0.0
504586000000,95,504585000000,base_link,-0.12319985640842877,-0.12305169563769024,0.697401482012704,0.6952059036487794,0.0,0.0,0.0,0.0,0.0,0.0,0.0,0.0,0.0,-0.1621254191942412,0.0008614464521257276,0.07651168056580011,0.0,0.0,0.0,0.0,0.0,0.0,0.0,0.0,0.0,2.1767019201871083,-5.018953530965797,6.054042166397937,0.0,0.0,0.0,0.0,0.0,0.0,0.0,0.0,0.0
504587000000,96,504586000000,base_link,-0.12325817565684391,-0.1231143714337374,0.6974076686345038,0.6951782630448167,0.0,0.0,0.0,0.0,0.0,0.0,0.0,0.0,0.0,-0.17379188763428938,-0.014128365711308294,0.04607029209689642,0.0,0.0,0.0,0.0,0.0,0.0,0.0,0.0,0.0,0.21031649187078472,-10.924827805004183,13.73466674945,0.0,0.0,0.0,0.0,0.0,0.0,0.0,0.0,0.0
504588000000,97,504587000000,base_link,-0.12332429383923905,-0.12316699973959302,0.6974163195126692,0.6951485352078377,0.0,0.0,0.0,0.0,0.0,0.0,0.0,0.0,0.0,-0.1705327314948195,0.009598248201362986,0.056799129844154854,0.0,0.0,0.0,0.0,0.0,0.0,0.0,0.0,0.0,2.075437117170114,-3.6490399233533894,4.783322574125756,0.0,0.0,0.0,0.0,0.0,0.0,0.0,0.0,0.0
504589000000,98,504588000000,base_link,-0.12337253818403428,-0.12322709725387264,0.6974247019671816,0.6951209135182177,0.0,0.0,0.0,0.0,0.0,0.0,0.0,0.0,0.0,-0.1556298692887288,-0.025148492003495337,0.0472469186298523,0.0,0.0,0.0,0.0,0.0,0.0,0.0,0.0,0.0,-0.36466117216422844,-8.406029533408063,11.455349332074178,0.0,0.0,0.0,0.0,0.0,0.0,0.0,0.0,0.0
504590000000,99,504589000000,base_link,-0.12342945837785613,-0.12328161329866398,0.6974309826062292,0.6950948403836252,0.0,0.0,0.0,0.0,0.0,0.0,0.0,0.0,0.0,-0.16005476734325758,-0.004371537278928125,0.045683723068537976,0.0,0.0,0.0,0.0,0.0,0.0,0.0,0.0,0.0,0.008701805698388743,-5.975056295498049,7.535382442940318,0.0,0.0,0.0,0.0,0.0,0.0,0.0,0.0,0.0
504590000000,100,504590000000,base_link,-0.12348907829475524,-0.12332442350358454,0.6974398652706756,0.6950677437780021,0.0,0.0,0.0,0.0,0.0,0.0,0.0,0.0,0.0,-0.14709611089171168,0.014773529911609323,0.05427662092503644,0.0,0.0,0.0,0.0,0.0,0.0,0.0,0.0,0.0,1.850209554883488,-2.8035663952291845,4.081704451745326,0.0,0.0,0.0,0.0,0.0,0.0,0.0,0.0,0.0
504592000000,101,504591000000,base_link,-0.12352715426638662,-0.12337416149196741,0.6974498993575954,0.6950420824101821,0.0,0.0,0.0,0.0,0.0,0.0,0.0,0.0,0.0,-0.12616428144430286,-0.024839386465523715,0.04685072841263796,0.0,0.0,0.0,0.0,0.0,0.0,0.0,0.0,0.0,-1.050245349048899,-8.259944554672918,11.478937295824629,0.0,0.0,0.0,0.0,0.0,0.0,0.0,0.0,0.0
504593000000,102,504592000000,base_link,-0.12352715426638662,-0.12337416149196741,0.6974498993575954,0.6950420824101821,0.0,0.0,0.0,0.0,0.0,0.0,0.0,0.0,0.0,-0.12616428144430286,-0.024839386465523715,0.04685072841263796,0.0,0.0,0.0,0.0,0.0,0.0,0.0,0.0,0.0,-1.050245349048899,-8.259944554672918,11.478937295824629,0.0,0.0,0.0,0.0,0.0,0.0,0.0,0.0,0.0
504595000000,103,504594000000,base_link,-0.12362193631484028,-0.1234487524952185,0.697470282175749,0.694991530776329,0.0,0.0,0.0,0.0,0.0,0.0,0.0,0.0,0.0,-0.11515023143400313,0.01569562242810569,0.056635806521402446,0.0,0.0,0.0,0.0,0.0,0.0,0.0,0.0,0.0,0.9076467053843993,-4.058090538476346,5.40745931434112,0.0,0.0,0.0,0.0,0.0,0.0,0.0,0.0,0.0
504597000000,104,504596000000,base_link,-0.12371924066164339,-0.1235377556425663,0.6975099010930664,0.6949186357394976,0.0,0.0,0.0,0.0,0.0,0.0,0.0,0.0,0.0,-0.08187759818750044,0.015663336720355997,0.05987895177260383,0.0,0.0,0.0,0.0,0.0,0.0,0.0,0.0,0.0,1.5873473431926524,-2.6674372947250746,3.8745054994602413,0.0,0.0,0.0,0.0,0.0,0.0,0.0,0.0,0.0
504598000000,105,504597000000,base_link,-0.12371924066164339,-0.1235377556425663,0.6975099010930664,0.6949186357394976,0.0,0.0,0.0,0.0,0.0,0.0,0.0,0.0,0.0,-0.08187759818750044,0.015663336720355997,0.05987895177260383,0.0,0.0,0.0,0.0,0.0,0.0,0.0,0.0,0.0,1.5873473431926524,-2.6674372947250746,3.8745054994602413,0.0,0.0,0.0,0.0,0.0,0.0,0.0,0.0,0.0
504599000000,106,504598000000,base_link,-0.12375514712104671,-0.1235840956477754,0.6975409934222621,0.6948727922141243,0.0,0.0,0.0,0.0,0.0,0.0,0.0,0.0,0.0,-0.06092786285228105,-0.006185685068150815,0.0529075972103283,0.0,0.0,0.0,0.0,0.0,0.0,0.0,0.0,0.0,-0.029245637248065504,-5.508399260755484,6.903620082152283,0.0,0.0,0.0,0.0,0.0,0.0,0.0,0.0,0.0
504600000000,107,504599000000,base_link,-0.12378111929466247,-0.12359180819297355,0.6975590019287934,0.6948487161115415,0.0,0.0,0.0,0.0,0.0,0.0,0.0,0.0,0.0,-0.04836219033941882,0.015106772552484559,0.06312595164171314,0.0,0.0,0.0,0.0,0.0,0.0,0.0,0.0,0.0,1.5694818497007326,-2.671719176832823,3.8679453394052654,0.0,0.0,0.0,0.0,0.0,0.0,0.0,0.0,0.0
504601000000,108,504600000000,base_link,-0.12378319209059391,-0.12360666861515864,0.6975781043654221,0.6948265259326747,0.0,0.0,0.0,0.0,0.0,0.0,0.0,0.0,0.0,-0.024375336800295154,-0.02797374207464856,0.05433802457050704,0.0,0.0,0.0,0.0,0.0,0.0,0.0,0.0,0.0,-1.613154758276827,-8.377946281198462,11.67900744332261,0.0,0.0,0.0,0.0,0.0,0.0,0.0,0.0,0.0
504602000000,109,504601000000,base_link,-0.1237938318246573,-0.12361518471842123,0.6975962246756221,0.6948049227139356,0.0,0.0,0.0,0.0,0.0,0.0,0.0,0.0,0.0,-0.027534575800901545,-0.006817280297020988,0.05584960657495915,0.0,0.0,0.0,0.0,0.0,0.0,0.0,0.0,0.0,0.01387550619044764,-5.432842539272368,6.810338430941081,0.0,0.0,0.0,0.0,0.0,0.0,0.0,0.0,0.0
504603000000,110,504602000000,base_link,-0.1238081304455089,-0.12361129548812083,0.6976173525438865,0.6947818534568928,0.0,0.0,0.0,0.0,0.0,0.0,0.0,0.0,0.0,-0.014931389050834208,0.01441950617869862,0.06604354787314343,0.0,0.0,0.0,0.0,0.0,0.0,0.0,0.0,0.0,1.5771525605104109,-2.678696051949363,3.8706981240829865,0.0,0.0,0.0,0.0,0.0,0.0,0.0,0.0,0.0
504604000000,111,504603000000,base_link,-0.12379892432302321,-0.1236148874905257,0.6976393246282002,0.6947607924023028,0.0,0.0,0.0,0.0,0.0,0.0,0.0,0.0,0.0,0.008007084699970952,-0.028483312777902225,0.056750782796244625,0.0,0.0,0.0,0.0,0.0,0.0,0.0,0.0,0.0,-1.5824042142393189,-8.51488318975451,11.794390030566639,0.0,0.0,0.0,0.0,0.0,0.0,0.0,0.0,0.0
504605000000,112,504604000000,base_link,-0.12379808369028358,-0.12361188245857269,0.6976603937076366,0.6947403198615777,0.0,0.0,0.0,0.0,0.0,0.0,0.0,0.0,0.0,0.005502239527104172,-0.007275784964989452,0.058383535302043675,0.0,0.0,0.0,0.0,0.0,0.0,0.0,0.0,0.0,0.06856435579761089,-5.358555222081867,6.72517449267945,0.0,0.0,0.0,0.0,0.0,0.0,0.0,0.0,0.0
504606000000,113,504605000000,base_link,-0.1237963470032904,-0.12360907010999354,0.697676516325258,0.6947249389675281,0.0,0.0,0.0,0.0,0.0,0.0,0.0,0.0,0.0,0.006515066350290942,-0.006309813000276493,0.04413033641898827,0.0,0.0,0.0,0.0,0.0,0.0,0.0,0.0,0.0,-0.4231593639956278,-6.701337375023419,8.625812537222732,0.0,0.0,0.0,0.0,0.0,0.0,0.0,0.0,0.0
504607000000,114,504606000000,base_link,-0.12379213701179477,-0.12360478288704808,0.6976899754183945,0.6947129354360541,0.0,0.0,0.0,0.0,0.0,0.0,0.0,0.0,0.0,0.012187359881328066,-0.006217281891504632,0.035470557711185,0.0,0.0,0.0,0.0,0.0,0.0,0.0,0.0,0.0,-0.8268119561833618,-6.388356048484013,8.368781247553745,0.0,0.0,0.0,0.0,0.0,0.0,0.0,0.0,0.0
504608000000,115,504607000000,base_link,-0.12378474330734422,-0.12359815049499692,0.6977021846474181,0.6947031711866379,0.0,0.0,0.0,0.0,0.0,0.0,0.0,0.0,0.0,0.020128721210473807,-0.006538351389900924,0.030402901276431887,0.0,0.0,0.0,0.0,0.0,0.0,0.0,0.0,0.0,-1.011282854952952,-5.9968183494508445,7.954360574014521,0.0,0.0,0.0,0.0,0.0,0.0,0.0,0.0,0.0
504609000000,116,504608000000,base_link,-0.12377380197315974,-0.12358880099496924,0.6977137414640003,0.6946951771720034,0.0,0.0,0.0,0.0,0.0,0.0,0.0,0.0,0.0,0.02912649264228822,-0.007114547029058343,0.026821997263322548,0.0,0.0,0.0,0.0,0.0,0.0,0.0,0.0,0.0,-1.1014075361510471,-5.854049239945644,7.809876728267167,0.0,0.0,0.0,0.0,0.0,0.0,0.0,0.0,0.0
504612000000,117,504609000000,base_link,-0.12377380197315974,-0.12358880099496924,0.6977137414640003,0.6946951771720034,0.0,0.0,0.0,0.0,0.0,0.0,0.0,0.0,0.0,0.02912649264228822,-0.007114547029058343,0.026821997263322548,0.0,0.0,0.0,0.0,0.0,0.0,0.0,0.0,0.0,-1.1014075361510471,-5.854049239945644,7.809876728267167,0.0,0.0,0.0,0.0,0.0,0.0,0.0,0.0,0.0
504614000000,118,504613000000,base_link,-0.12366064131140034,-0.12349333665691231,0.697767043016653,0.6946787712832401,0.0,0.0,0.0,0.0,0.0,0.0,0.0,0.0,0.0,0.08100653471234115,-0.009214529077231179,0.013537842622214009,0.0,0.0,0.0,0.0,0.0,0.0,0.0,0.0,0.0,-0.677338963930487,-5.577158184120728,7.4903523407806585,0.0,0.0,0.0,0.0,0.0,0.0,0.0,0.0,0.0
504615000000,119,504614000000,base_link,-0.12362621388914462,-0.12346393917970061,0.6977772275687776,0.6946798943744502,0.0,0.0,0.0,0.0,0.0,0.0,0.0,0.0,0.0,0.09165086256930396,-0.009442505089620044,0.01135016749105089,0.0,0.0,0.0,0.0,0.0,0.0,0.0,0.0,0.0,-0.5814110573126873,-5.577583253235468,7.485896518063828,0.0,0.0,0.0,0.0,0.0,0.0,0.0,0.0,0.0
504616000000,120,504615000000,base_link,-0.12358790035291987,-0.1234310090536787,0.6977873846214199,0.6946823610496716,0.0,0.0,0.0,0.0,0.0,0.0,0.0,0.0,0.0,0.1023055045091586,-0.009619099648998305,0.009350779228807095,0.0,0.0,0.0,0.0,0.0,0.0,0.0,0.0,0.0,-0.48973024216182637,-5.5791287279605015,7.4825703457142865,0.0,0.0,0.0,0.0,0.0,0.0,0.0,0.0,0.0
504617000000,121,504616000000,base_link,-0.12354572619655728,-0.1233945162020633,0.697797582198049,0.6946861026308077,0.0,0.0,0.0,0.0,0.0,0.0,0.0,0.0,0.0,0.1129665071078942,-0.009752248134386111,0.007555430980525206,0.0,0.0,0.0,0.0,0.0,0.0,0.0,0.0,0.0,-0.4039693593765462,-5.581104700857475,7.4797265933960535,0.0,0.0,0.0,0.0,0.0,0.0,0.0,0.0,0.0
504618000000,122,504617000000,base_link,-0.12349971483694087,-0.12335443276427693,0.6978078916605078,0.694691046933034,0.0,0.0,0.0,0.0,0.0,0.0,0.0,0.0,0.0,0.1236336227076961,-0.00984959666451525,0.005972590189201291,0.0,0.0,0.0,0.0,0.0,0.0,0.0,0.0,0.0,-0.32524771043654144,-5.5828284550117875,7.4766467686823,0.0,0.0,0.0,0.0,0.0,0.0,0.0,0.0,0.0
504619000000,123,504618000000,base_link,-0.1234498869055638,-0.1233107329145906,0.6978183853441942,0.6946971207991954,0.0,0.0,0.0,0.0,0.0,0.0,0.0,0.0,0.0,0.13430788395204712,-0.009918315007566132,0.004603772547777087,0.0,0.0,0.0,0.0,0.0,0.0,0.0,0.0,0.0,-0.2542911982460978,-5.5841430855436,7.473185387848629,0.0,0.0,0.0,0.0,0.0,0.0,0.0,0.0,0.0
504620000000,124,504619000000,base_link,-0.12339625986218426,-0.12326339281714005,0.6978291344429021,0.6947042523015832,0.0,0.0,0.0,0.0,0.0,0.0,0.0,0.0,0.0,0.14499094517063393,-0.009964981799546732,0.0034443989295479364,0.0,0.0,0.0,0.0,0.0,0.0,0.0,0.0,0.0,-0.19151954258921744,-5.584964076132401,7.4692611213229645,0.0,0.0,0.0,0.0,0.0,0.0,0.0,0.0,0.0
504621000000,125,504620000000,base_link,-0.12333884820969569,-0.12321239094374184,0.6978402072171151,0.694712372447336,0.0,0.0,0.0,0.0,0.0,0.0,0.0,0.0,0.0,0.15568369722420555,-0.009995453499249171,0.002484996122325913,0.0,0.0,0.0,0.0,0.0,0.0,0.0,0.0,0.0,-0.1369382306682846,-5.585453040762933,7.465049767655049,0.0,0.0,0.0,0.0,0.0,0.0,0.0,0.0,0.0
504622000000,126,504621000000,base_link,-0.12327766317108461,-0.12315770778809688,0.6978516676696452,0.6947214166168719,0.0,0.0,0.0,0.0,0.0,0.0,0.0,0.0,0.0,0.16638790758335303,-0.010014959046575816,0.001712235285214669,0.0,0.0,0.0,0.0,0.0,0.0,0.0,0.0,0.0,-0.090553679743968,-5.5854769762616705,7.46041362709678,0.0,0.0,0.0,0.0,0.0,0.0,0.0,0.0,0.0
504623000000,127,504622000000,base_link,-0.12327766317108461,-0.12315770778809688,0.6978516676696452,0.6947214166168719,0.0,0.0,0.0,0.0,0.0,0.0,0.0,0.0,0.0,0.16638790758335303,-0.010014959046575816,0.001712235285214669,0.0,0.0,0.0,0.0,0.0,0.0,0.0,0.0,0.0,-0.090553679743968,-5.5854769762616705,7.46041362709678,0.0,0.0,0.0,0.0,0.0,0.0,0.0,0.0,0.0
504625000000,128,504624000000,base_link,-0.12328273498725346,-0.12302998140885862,0.6978513813753532,0.6947434349751783,0.0,0.0,0.0,0.0,0.0,0.0,0.0,0.0,0.0,0.034238295294799534,0.07296760834129379,0.001383979689661351,0.0,0.0,0.0,0.0,0.0,0.0,0.0,0.0,0.0,0.20626826422667233,0.2670715773130956,0.06824378393019614,0.0,0.0,0.0,0.0,0.0,0.0,0.0,0.0,0.0
504626000000,129,504625000000,base_link,-0.12325793773634378,-0.12298889604873353,0.6978522783669083,0.6947542082001466,0.0,0.0,0.0,0.0,0.0,0.0,0.0,0.0,0.0,0.09467598600242239,0.024908090694352,-0.00976073840475526,0.0,0.0,0.0,0.0,0.0,0.0,0.0,0.0,0.0,-0.4913668283925063,-1.8231537330247913,4.5082243881131046,0.0,0.0,0.0,0.0,0.0,0.0,0.0,0.0,0.0
504627000000,130,504626000000,base_link,-0.12328531797668978,-0.12296605015418935,0.6978457901574396,0.6947599110774907,0.0,0.0,0.0,0.0,0.0,0.0,0.0,0.0,0.0,0.003938386514504379,0.06651723834981987,-0.00574023462414896,0.0,0.0,0.0,0.0,0.0,0.0,0.0,0.0,0.0,2.8247011518856437,2.4984373251741965,23.476936452735202,0.0,0.0,0.0,0.0,0.0,0.0,0.0,0.0,0.0
504628000000,131,504627000000,base_link,-0.12330403987144961,-0.12294137340312515,0.6978406140840162,0.6947661547542286,0.0,0.0,0.0,0.0,0.0,0.0,0.0,0.0,0.0,0.008693234552762115,0.06323061391589573,-0.005217626575550299,0.0,0.0,0.0,0.0,0.0,0.0,0.0,0.0,0.0,0.12524558190008905,0.09934087863900132,-0.05241278562630214,0.0,0.0,0.0,0.0,0.0,0.0,0.0,0.0,0.0
504629000000,132,504628000000,base_link,-0.12328002842860061,-0.12291199977724011,0.6978388232975669,0.6947774115499656,0.0,0.0,0.0,0.0,0.0,0.0,0.0,0.0,0.0,0.07669711104403054,0.010513088148612314,-0.016859053449956727,0.0,0.0,0.0,0.0,0.0,0.0,0.0,0.0,0.0,-1.2157732233101668,-2.6805061851021934,5.856779559573635,0.0,0.0,0.0,0.0,0.0,0.0,0.0,0.0,0.0
504630000000,133,504629000000,base_link,-0.12330615907076158,-0.12290174604818807,0.6978316890422124,0.694781754022093,0.0,0.0,0.0,0.0,0.0,0.0,0.0,0.0,0.0,-0.008325559954253405,0.04426601267589546,-0.007715429236349383,0.0,0.0,0.0,0.0,0.0,0.0,0.0,0.0,0.0,1.6053084642145303,0.9418090433948918,20.825978277273904,0.0,0.0,0.0,0.0,0.0,0.0,0.0,0.0,0.0
504631000000,134,504630000000,base_link,-0.12332375310982448,-0.12288992244173472,0.6978260287770393,0.694786407784751,0.0,0.0,0.0,0.0,0.0,0.0,0.0,0.0,0.0,-0.008189897867708094,0.04352481029305634,-0.007119860806310469,0.0,0.0,0.0,0.0,0.0,0.0,0.0,0.0,0.0,0.061942406807868666,0.030229338469779155,-0.011662319247387032,0.0,0.0,0.0,0.0,0.0,0.0,0.0,0.0,0.0
504632000000,135,504631000000,base_link,-0.12329925131699246,-0.12287297026008631,0.6978239316627629,0.6947958608129849,0.0,0.0,0.0,0.0,0.0,0.0,0.0,0.0,0.0,0.059523040017718035,-0.007798849660749247,-0.017947709899209213,0.0,0.0,0.0,0.0,0.0,0.0,0.0,0.0,0.0,-1.8946179905116491,-3.3248136973540476,6.654056876239798,0.0,0.0,0.0,0.0,0.0,0.0,0.0,0.0,0.0
504633000000,136,504632000000,base_link,-0.12332675562077351,-0.12287484901269904,0.6978169065568773,0.6947977027535069,0.0,0.0,0.0,0.0,0.0,0.0,0.0,0.0,0.0,-0.026754210286022668,0.027195202942025654,-0.007043504882348683,0.0,0.0,0.0,0.0,0.0,0.0,0.0,0.0,0.0,0.40057102066527817,-0.2854787757734867,20.68767180240908,0.0,0.0,0.0,0.0,0.0,0.0,0.0,0.0,0.0
504634000000,137,504633000000,base_link,-0.12334524398650425,-0.12287546699309329,0.6978113392041629,0.6947999030477996,0.0,0.0,0.0,0.0,0.0,0.0,0.0,0.0,0.0,-0.027379287349302884,0.02685817440491075,-0.006416089606486365,0.0,0.0,0.0,0.0,0.0,0.0,0.0,0.0,0.0,0.010129637240494871,-0.025085486567501647,-0.006469166790740388,0.0,0.0,0.0,0.0,0.0,0.0,0.0,0.0,0.0
504635000000,138,504634000000,base_link,-0.12332050384349438,-0.12287052837122628,0.697809558344236,0.694806956551951,0.0,0.0,0.0,0.0,0.0,0.0,0.0,0.0,0.0,0.04257415378825188,-0.025492367931234057,-0.01718008772278136,0.0,0.0,0.0,0.0,0.0,0.0,0.0,0.0,0.0,-2.358969539935947,-3.8251840578781953,7.359385681547034,0.0,0.0,0.0,0.0,0.0,0.0,0.0,0.0,0.0
504635000000,139,504635000000,base_link,-0.12334668880028084,-0.12288425590174705,0.6978031788064095,0.6948062878681733,0.0,0.0,0.0,0.0,0.0,0.0,0.0,0.0,0.0,-0.044058122631988494,0.00972944797322076,-0.005571550449371419,0.0,0.0,0.0,0.0,0.0,0.0,0.0,0.0,0.0,-0.3634419367807701,-1.084184691304531,20.067334596255325,0.0,0.0,0.0,0.0,0.0,0.0,0.0,0.0,0.0
504637000000,140,504636000000,base_link,-0.12336548130373383,-0.12289696828820404,0.6977980842427652,0.694805819517506,0.0,0.0,0.0,0.0,0.0,0.0,0.0,0.0,0.0,-0.04522340883303043,0.00970333447511329,-0.00494329248607703,0.0,0.0,0.0,0.0,0.0,0.0,0.0,0.0,0.0,-0.022979491777474936,-0.05845305506466669,-0.003136793862072551,0.0,0.0,0.0,0.0,0.0,0.0,0.0,0.0,0.0
504638000000,141,504637000000,base_link,-0.12334057415999539,-0.12290401867526413,0.697796824500455,0.6948102594783948,0.0,0.0,0.0,0.0,0.0,0.0,0.0,0.0,0.0,0.025558176467682395,-0.043155196088532605,-0.015808104561880136,0.0,0.0,0.0,0.0,0.0,0.0,0.0,0.0,0.0,-2.647336000198779,-4.14797528107795,7.787379642026801,0.0,0.0,0.0,0.0,0.0,0.0,0.0,0.0,0.0
504639000000,142,504638000000,base_link,-0.1233657584956809,-0.12292957220478448,0.6977910978592733,0.6948070190036107,0.0,0.0,0.0,0.0,0.0,0.0,0.0,0.0,0.0,-0.06116523030305274,-0.007981484795309812,-0.004153613263774271,0.0,0.0,0.0,0.0,0.0,0.0,0.0,0.0,0.0,-0.8158002475430784,-1.5755607005219552,19.679602882234907,0.0,0.0,0.0,0.0,0.0,0.0,0.0,0.0,0.0
504640000000,143,504639000000,base_link,-0.12337193790565822,-0.12295306320165078,0.697787992993536,0.694804883417486,0.0,0.0,0.0,0.0,0.0,0.0,0.0,0.0,0.0,-0.042684928776987124,-0.023735152475175797,-0.005653492156910119,0.0,0.0,0.0,0.0,0.0,0.0,0.0,0.0,0.0,-1.5564396175722532,-2.144008746316114,3.842426063154866,0.0,0.0,0.0,0.0,0.0,0.0,0.0,0.0,0.0
504641000000,144,504640000000,base_link,-0.12337193790565822,-0.12295306320165078,0.697787992993536,0.694804883417486,0.0,0.0,0.0,0.0,0.0,0.0,0.0,0.0,0.0,-0.042684928776987124,-0.023735152475175797,-0.005653492156910119,0.0,0.0,0.0,0.0,0.0,0.0,0.0,0.0,0.0,-1.5564396175722532,-2.144008746316114,3.842426063154866,0.0,0.0,0.0,0.0,0.0,0.0,0.0,0.0,0.0
504644000000,145,504642000000,base_link,-0.123389950931478,-0.123049317317614,0.6977798853688338,0.6947927871613622,0.0,0.0,0.0,0.0,0.0,0.0,0.0,0.0,0.0,-0.06073904441289701,-0.04330012050735709,-0.001265965376398526,0.0,0.0,0.0,0.0,0.0,0.0,0.0,0.0,0.0,-1.615796208618887,-2.3718975904605295,4.3640377018311245,0.0,0.0,0.0,0.0,0.0,0.0,0.0,0.0,0.0
504644000000,146,504643000000,base_link,-0.12338526716536359,-0.12308645824639824,0.6977781286684233,0.6947888044541901,0.0,0.0,0.0,0.0,0.0,0.0,0.0,0.0,0.0,-0.0467388662125175,-0.058693743018470315,-0.007201313078715508,0.0,0.0,0.0,0.0,0.0,0.0,0.0,0.0,0.0,-2.1011276317694776,-2.80499280328125,4.022622205526851,0.0,0.0,0.0,0.0,0.0,0.0,0.0,0.0,0.0
504645000000,147,504644000000,base_link,-0.1234014737143553,-0.12313451508680061,0.6977756661544928,0.6947798839935694,0.0,0.0,0.0,0.0,0.0,0.0,0.0,0.0,0.0,-0.09239182774554351,-0.04574774532296283,0.0011558610542364636,0.0,0.0,0.0,0.0,0.0,0.0,0.0,0.0,0.0,-1.0097789878249614,-2.019335382788659,18.919741408624994,0.0,0.0,0.0,0.0,0.0,0.0,0.0,0.0,0.0
504646000000,148,504645000000,base_link,-0.12340746446440783,-0.12318370214324773,0.6977750151444936,0.6947707546240353,0.0,0.0,0.0,0.0,0.0,0.0,0.0,0.0,0.0,-0.07938178109535826,-0.062076291637217035,0.0011725946569440086,0.0,0.0,0.0,0.0,0.0,0.0,0.0,0.0,0.0,-1.6040548852712386,-2.412399696836174,4.521485087971813,0.0,0.0,0.0,0.0,0.0,0.0,0.0,0.0,0.0
504647000000,149,504646000000,base_link,-0.12340746446440783,-0.12318370214324773,0.6977750151444936,0.6947707546240353,0.0,0.0,0.0,0.0,0.0,0.0,0.0,0.0,0.0,-0.07938178109535826,-0.062076291637217035,0.0011725946569440086,0.0,0.0,0.0,0.0,0.0,0.0,0.0,0.0,0.0,-1.6040548852712386,-2.412399696836174,4.521485087971813,0.0,0.0,0.0,0.0,0.0,0.0,0.0,0.0,0.0
504648000000,150,504647000000,base_link,-0.12341833211935391,-0.12329458169139339,0.6977720812274587,0.6947521026106519,0.0,0.0,0.0,0.0,0.0,0.0,0.0,0.0,0.0,-0.11025102908604162,-0.06455518657554364,0.002189305054747631,0.0,0.0,0.0,0.0,0.0,0.0,0.0,0.0,0.0,-0.8451595944382163,-1.828964272238343,19.025193757204157,0.0,0.0,0.0,0.0,0.0,0.0,0.0,0.0,0.0
504649000000,151,504648000000,base_link,-0.12342410327847413,-0.12335702231168272,0.6977720254404233,0.6947400494350884,0.0,0.0,0.0,0.0,0.0,0.0,0.0,0.0,0.0,-0.09814723849575752,-0.08166663794645393,0.00275442222875431,0.0,0.0,0.0,0.0,0.0,0.0,0.0,0.0,0.0,-1.4724757315211943,-2.3545741501161013,4.448737132934342,0.0,0.0,0.0,0.0,0.0,0.0,0.0,0.0,0.0
504650000000,152,504649000000,base_link,-0.12341867942501195,-0.12342038078735373,0.6977717456466564,0.6947300412048616,0.0,0.0,0.0,0.0,0.0,0.0,0.0,0.0,0.0,-0.08342254198480753,-0.09800483168957856,-0.0033999442655290174,0.0,0.0,0.0,0.0,0.0,0.0,0.0,0.0,0.0,-1.9787224759559776,-2.721400233882534,3.929181311027792,0.0,0.0,0.0,0.0,0.0,0.0,0.0,0.0,0.0
504651000000,153,504651000000,base_link,-0.1234344858701367,-0.12349408161838764,0.6977699149678406,0.6947159745313033,0.0,0.0,0.0,0.0,0.0,0.0,0.0,0.0,0.0,-0.12873768462476282,-0.08336450504556595,0.002795512284095133,0.0,0.0,0.0,0.0,0.0,0.0,0.0,0.0,0.0,-0.7112470035099023,-1.6651118831166918,19.205519255420228,0.0,0.0,0.0,0.0,0.0,0.0,0.0,0.0,0.0
504652000000,154,504652000000,base_link,-0.12343134444554898,-0.12355380750405716,0.6977797708618256,0.6946960135452288,0.0,0.0,0.0,0.0,0.0,0.0,0.0,0.0,0.0,0.010358008094643831,-0.013298845606406297,0.017822630366512583,0.0,0.0,0.0,0.0,0.0,0.0,0.0,0.0,0.0,3.4317256601314696,-5.86208956543738,11.636329648302933,0.0,0.0,0.0,0.0,0.0,0.0,0.0,0.0,0.0
504654000000,155,504653000000,base_link,-0.12343761152225102,-0.12356721816636232,0.6977905901520862,0.694681647196406,0.0,0.0,0.0,0.0,0.0,0.0,0.0,0.0,0.0,-0.028302804584611076,-0.01609638732291297,0.033371372295512625,0.0,0.0,0.0,0.0,0.0,0.0,0.0,0.0,0.0,5.902934678772534,-5.288188801972957,7.610358955861513,0.0,0.0,0.0,0.0,0.0,0.0,0.0,0.0,0.0
504655000000,156,504654000000,base_link,-0.12343761152225102,-0.12356721816636232,0.6977905901520862,0.694681647196406,0.0,0.0,0.0,0.0,0.0,0.0,0.0,0.0,0.0,-0.028302804584611076,-0.01609638732291297,0.033371372295512625,0.0,0.0,0.0,0.0,0.0,0.0,0.0,0.0,0.0,5.902934678772534,-5.288188801972957,7.610358955861513,0.0,0.0,0.0,0.0,0.0,0.0,0.0,0.0,0.0
504656000000,157,504655000000,base_link,-0.12344196985121192,-0.12357431072779591,0.6978022184319049,0.694667930567487,0.0,0.0,0.0,0.0,0.0,0.0,0.0,0.0,0.0,-0.0164654365723082,-0.010031727040062659,0.03462487948946364,0.0,0.0,0.0,0.0,0.0,0.0,0.0,0.0,0.0,3.7184166521792457,-4.108324382210764,5.438425847155646,0.0,0.0,0.0,0.0,0.0,0.0,0.0,0.0,0.0
504657000000,158,504656000000,base_link,-0.12348332777321483,-0.12357923360111112,0.6978217034018646,0.6946401306042828,0.0,0.0,0.0,0.0,0.0,0.0,0.0,0.0,0.0,-0.026619741496827196,0.024892388165774715,0.034771199239371456,0.0,0.0,0.0,0.0,0.0,0.0,0.0,0.0,0.0,4.18846218994821,-3.8344256027069172,6.393066226358149,0.0,0.0,0.0,0.0,0.0,0.0,0.0,0.0,0.0
504658000000,159,504657000000,base_link,-0.12348681860602495,-0.12358836790484617,0.6978234619209551,0.6946361183683385,0.0,0.0,0.0,0.0,0.0,0.0,0.0,0.0,0.0,-0.018152034509182416,-0.009244141144496417,0.006651287186735308,0.0,0.0,0.0,0.0,0.0,0.0,0.0,0.0,0.0,0.8856821600211839,-9.97674675869556,12.644695055945025,0.0,0.0,0.0,0.0,0.0,0.0,0.0,0.0,0.0
504659000000,160,504658000000,base_link,-0.12348681860602495,-0.12358836790484617,0.6978234619209551,0.6946361183683385,0.0,0.0,0.0,0.0,0.0,0.0,0.0,0.0,0.0,-0.018152034509182416,-0.009244141144496417,0.006651287186735308,0.0,0.0,0.0,0.0,0.0,0.0,0.0,0.0,0.0,0.8856821600211839,-9.97674675869556,12.644695055945025,0.0,0.0,0.0,0.0,0.0,0.0,0.0,0.0,0.0
504661000000,161,504660000000,base_link,-0.12350809053254831,-0.12362311843536304,0.697824193140276,0.6946254182143374,0.0,0.0,0.0,0.0,0.0,0.0,0.0,0.0,0.0,-0.023415921539230347,-0.006289393127232241,0.00275922985555608,0.0,0.0,0.0,0.0,0.0,0.0,0.0,0.0,0.0,-0.7710919151475271,-5.140554652362345,8.72916900801666,0.0,0.0,0.0,0.0,0.0,0.0,0.0,0.0,0.0
504662000000,162,504661000000,base_link,-0.12351030890083896,-0.12362771295666554,0.6978255718579354,0.6946228209938609,0.0,0.0,0.0,0.0,0.0,0.0,0.0,0.0,0.0,-0.00979443646251359,-0.004269607093749974,0.004953687197057777,0.0,0.0,0.0,0.0,0.0,0.0,0.0,0.0,0.0,-0.21938040607938225,-4.516924569400188,6.033809098763218,0.0,0.0,0.0,0.0,0.0,0.0,0.0,0.0,0.0
504663000000,163,504662000000,base_link,-0.1235220601845223,-0.12363626228481693,0.6978252306220343,0.6946195525633554,0.0,0.0,0.0,0.0,0.0,0.0,0.0,0.0,0.0,-0.029159255854272467,0.003788575211968787,0.004879311774836171,0.0,0.0,0.0,0.0,0.0,0.0,0.0,0.0,0.0,-1.1753424216739319,-2.53170273983187,13.424178353343793,0.0,0.0,0.0,0.0,0.0,0.0,0.0,0.0,0.0
504664000000,164,504663000000,base_link,-0.12352999971827183,-0.12364760317712141,0.6978255075498387,0.6946158437661545,0.0,0.0,0.0,0.0,0.0,0.0,0.0,0.0,0.0,-0.027703697067256908,-0.005657722843878669,0.0047256950577291845,0.0,0.0,0.0,0.0,0.0,0.0,0.0,0.0,0.0,-2.0546191967583125,-2.782827662835854,7.519130071237862,0.0,0.0,0.0,0.0,0.0,0.0,0.0,0.0,0.0
504665000000,165,504664000000,base_link,-0.12353713907475604,-0.1236629202055531,0.6978258061533614,0.6946115473427364,0.0,0.0,0.0,0.0,0.0,0.0,0.0,0.0,0.0,-0.03228297034753479,-0.012451249441822587,0.004392428452710681,0.0,0.0,0.0,0.0,0.0,0.0,0.0,0.0,0.0,-1.7770611115647008,-2.688847332135567,9.145582124148605,0.0,0.0,0.0,0.0,0.0,0.0,0.0,0.0,0.0
504666000000,166,504665000000,base_link,-0.12354388231029234,-0.12367454467471257,0.6978264483971086,0.6946076331719085,0.0,0.0,0.0,0.0,0.0,0.0,0.0,0.0,0.0,-0.026399931532974735,-0.00786447453517691,0.005150415423518309,0.0,0.0,0.0,0.0,0.0,0.0,0.0,0.0,0.0,0.40454667612332074,-5.141586203819964,9.723036084975451,0.0,0.0,0.0,0.0,0.0,0.0,0.0,0.0,0.0
504667000000,167,504666000000,base_link,-0.12355067516906229,-0.1236907117767306,0.6978266808317711,0.6946033126934741,0.0,0.0,0.0,0.0,0.0,0.0,0.0,0.0,0.0,-0.03301035057961622,-0.014105331151809508,0.004038295525735058,0.0,0.0,0.0,0.0,0.0,0.0,0.0,0.0,0.0,-1.3390838613438651,-2.307621646704108,8.385301997380814,0.0,0.0,0.0,0.0,0.0,0.0,0.0,0.0,0.0
504668000000,168,504667000000,base_link,-0.12355644304438307,-0.12369988902276172,0.6978267876404896,0.6946005451259966,0.0,0.0,0.0,0.0,0.0,0.0,0.0,0.0,0.0,-0.021481959710305837,-0.005411590468043331,0.0031697465453350924,0.0,0.0,0.0,0.0,0.0,0.0,0.0,0.0,0.0,1.0202895107742493,-5.083748274191988,9.911736261543174,0.0,0.0,0.0,0.0,0.0,0.0,0.0,0.0,0.0
