%time,field.header.seq,field.header.stamp,field.header.frame_id,field.name0,field.name1,field.name2,field.name3,field.position0,field.position1,field.position2,field.position3,field.velocity0,field.velocity1,field.velocity2,field.velocity3,field.effort0,field.effort1,field.effort2,field.effort3
504476000000,4743,504476000000,,BL_TO_BASELINK,BR_TO_BASELINK,FL_TO_BASELINK,FR_TO_BASELINK,-0.03316124344610927,0.0008879734108449,-0.2048783538450767,-0.2245753073813601,-0.015536695758735702,0.00024416703649055536,0.0001398532623767667,-0.039611876200002706,0.0,0.0,0.0,0.0
504477000000,4744,504477000000,,BL_TO_BASELINK,BR_TO_BASELINK,FL_TO_BASELINK,FR_TO_BASELINK,-0.03316133681208555,0.000887623968758966,-0.20491737014583755,-0.22463548053613192,-9.338011826814929e-05,-0.00034944965419464544,-0.039019028873339204,-0.06018932822905773,0.0,0.0,0.0,0.0
504478000000,4745,504478000000,,BL_TO_BASELINK,BR_TO_BASELINK,FL_TO_BASELINK,FR_TO_BASELINK,-0.03316139362307169,0.0008874525199571437,-0.20491769676203653,-0.2247100216741087,-5.681516984564275e-05,-0.00017142833457343964,-0.00032916914059260075,-0.07452853012338136,0.0,0.0,0.0,0.0
504479000000,4746,504479000000,,BL_TO_BASELINK,BR_TO_BASELINK,FL_TO_BASELINK,FR_TO_BASELINK,-0.03317860944506634,0.0008873627566368114,-0.20493852090995723,-0.22474010074162631,-0.020024114385004184,-0.00013893033403765062,-0.023596492837431593,-0.03339269943487164,0.0,0.0,0.0,0.0
504480000000,4747,504480000000,,BL_TO_BASELINK,BR_TO_BASELINK,FL_TO_BASELINK,FR_TO_BASELINK,-0.03317294334474763,0.0008864686470628769,-0.20493944176013734,-0.22479418006763918,0.005735169118437933,-0.0008936776703666657,-0.0009232943152759675,-0.05406248830482409,0.0,0.0,0.0,0.0
504481000000,4748,504481000000,,BL_TO_BASELINK,BR_TO_BASELINK,FL_TO_BASELINK,FR_TO_BASELINK,-0.03317304373036922,0.000886085810189563,-0.20498802820385542,-0.22486146219214742,-0.00010145964900205168,-0.00038277874805913055,-0.04858815143392552,-0.06728803283824193,0.0,0.0,0.0,0.0
504482000000,4749,504482000000,,BL_TO_BASELINK,BR_TO_BASELINK,FL_TO_BASELINK,FR_TO_BASELINK,-0.033188590525285555,0.0008863296639871621,-0.20498788610826946,-0.22490109077208498,-0.015549651811685293,0.00024395042622432118,0.00013963704472527184,-0.03962886486096442,0.0,0.0,0.0,0.0
504483000000,4750,504483000000,,BL_TO_BASELINK,BR_TO_BASELINK,FL_TO_BASELINK,FR_TO_BASELINK,-0.0331886839402733,0.0008859800550196084,-0.20502690641172716,-0.22496127261233578,-9.342872534674057e-05,-0.00034961668667157515,-0.039023045691365166,-0.06019805453114027,0.0,0.0,0.0,0.0
504484000000,4751,504484000000,,BL_TO_BASELINK,BR_TO_BASELINK,FL_TO_BASELINK,FR_TO_BASELINK,-0.033188740770603964,0.0008858085658927095,-0.20502723309598903,-0.22503581850685261,-5.683419933310771e-05,-0.00017146865563357969,-0.0003292372504508957,-0.07453330420958416,0.0,0.0,0.0,0.0
504486000000,4752,504485000000,,BL_TO_BASELINK,BR_TO_BASELINK,FL_TO_BASELINK,FR_TO_BASELINK,-0.03320597019182525,0.0008857211718718005,-0.20504806930898223,-0.22506591940610843,-0.02003234110634675,-0.0001363003693983858,-0.023603320333444703,-0.0334077806534781,0.0,0.0,0.0,0.0
504486000000,4753,504486000000,,BL_TO_BASELINK,BR_TO_BASELINK,FL_TO_BASELINK,FR_TO_BASELINK,-0.033200300905877,0.0008848266222019063,-0.20504899056809744,-0.22512001286781835,0.005738405573524376,-0.0008941189746088842,-0.0009237033814097732,-0.054076651281368626,0.0,0.0,0.0,0.0
504487000000,4754,504487000000,,BL_TO_BASELINK,BR_TO_BASELINK,FL_TO_BASELINK,FR_TO_BASELINK,-0.0332004013397853,0.0008844436005341905,-0.20509758305016756,-0.22518730502309392,-0.00010150095759784046,-0.00038296364495340497,-0.04859419315626776,-0.0672980616723953,0.0,0.0,0.0,0.0
504488000000,4755,504488000000,,BL_TO_BASELINK,BR_TO_BASELINK,FL_TO_BASELINK,FR_TO_BASELINK,-0.03321596087402412,0.0008846872389991489,-0.20509744116978101,-0.22522695009166593,-0.015562374456563251,0.00024373496314044826,0.00013942230293258195,-0.0396453487394752,0.0,0.0,0.0,0.0
504489000000,4756,504489000000,,BL_TO_BASELINK,BR_TO_BASELINK,FL_TO_BASELINK,FR_TO_BASELINK,-0.03321605433731101,0.0008843374658606962,-0.20513646548636633,-0.22528714035799435,-9.347664957404939e-05,-0.00034978100115566884,-0.03902707285276123,-0.0602065211421878,0.0,0.0,0.0,0.0
504490000000,4757,504490000000,,BL_TO_BASELINK,BR_TO_BASELINK,FL_TO_BASELINK,FR_TO_BASELINK,-0.03321611118687251,0.000884165936659187,-0.2051367922381493,-0.22536169088998914,-5.685313920457055e-05,-0.0001715087255762665,-0.0003293048479933794,-0.074537959209824,0.0,0.0,0.0,0.0
504491000000,4758,504491000000,,BL_TO_BASELINK,BR_TO_BASELINK,FL_TO_BASELINK,FR_TO_BASELINK,-0.03323335190336252,0.0008840806111312105,-0.20515763821162647,-0.22539181127956365,-0.02003831216293224,-0.00013406395702321786,-0.02360788636238287,-0.033420723170902805,0.0,0.0,0.0,0.0
504492000000,4759,504492000000,,BL_TO_BASELINK,BR_TO_BASELINK,FL_TO_BASELINK,FR_TO_BASELINK,-0.03322767976527352,0.0008831856705224794,-0.20515855983254117,-0.22544591685801318,0.005741303827994391,-0.0008945110179787597,-0.0009240652714015861,-0.05408879385554586,0.0,0.0,0.0,0.0
504493000000,4760,504493000000,,BL_TO_BASELINK,BR_TO_BASELINK,FL_TO_BASELINK,FR_TO_BASELINK,-0.03322778024692319,0.0008828024602376416,-0.2052071578398751,-0.2255132176878858,-0.00010154203112419137,-0.0003831523443794914,-0.04859972194223031,-0.06730673462091073,0.0,0.0,0.0,0.0
504494000000,4761,504494000000,,BL_TO_BASELINK,BR_TO_BASELINK,FL_TO_BASELINK,FR_TO_BASELINK,-0.03324335224298913,0.000883045885174738,-0.20520701617246218,-0.2255528784469485,-0.015574819927633233,0.00024352131924602893,0.00013920968827916581,-0.039661034452820494,0.0,0.0,0.0,0.0
504495000000,4762,504495000000,,BL_TO_BASELINK,BR_TO_BASELINK,FL_TO_BASELINK,FR_TO_BASELINK,-0.03324344575402982,0.0008826959498371423,-0.20524604458198858,-0.22561307663318342,-9.35240643195178e-05,-0.000349943336735002,-0.03903117981845582,-0.060214481530400196,0.0,0.0,0.0,0.0
504496000000,4763,504496000000,,BL_TO_BASELINK,BR_TO_BASELINK,FL_TO_BASELINK,FR_TO_BASELINK,-0.03324350262264275,0.0008825243812573547,-0.20524637140007052,-0.22568763147560222,-5.687192295361285e-05,-0.0001715480861595002,-0.00032937127608516706,-0.07454228726020372,0.0,0.0,0.0,0.0
504497000000,4764,504497000000,,BL_TO_BASELINK,BR_TO_BASELINK,FL_TO_BASELINK,FR_TO_BASELINK,-0.03326075172105902,0.0008824407884517882,-0.2052672242672795,-0.22571776812747135,-0.020042827399468704,-0.00013207097410092294,-0.02361101468157301,-0.03343195424210326,0.0,0.0,0.0,0.0
504498000000,4765,504498000000,,BL_TO_BASELINK,BR_TO_BASELINK,FL_TO_BASELINK,FR_TO_BASELINK,-0.03325507700533237,0.0008815454981814241,-0.20526814620986578,-0.22577188409280158,0.005743923006632814,-0.0008948616220910014,-0.0009243869550426779,-0.0540992033321153,0.0,0.0,0.0,0.0
504499000000,4766,504499000000,,BL_TO_BASELINK,BR_TO_BASELINK,FL_TO_BASELINK,FR_TO_BASELINK,-0.03325517753733109,0.0008811621177642337,-0.20531674925205046,-0.22583919256522567,-0.00010158455822531672,-0.0003833313732009222,-0.04860477621247869,-0.06731436270130475,0.0,0.0,0.0,0.0
504500000000,4767,504500000000,,BL_TO_BASELINK,BR_TO_BASELINK,FL_TO_BASELINK,FR_TO_BASELINK,-0.033270761823285255,0.0008814053320174153,-0.2053166077944697,-0.225878868390752,-0.01558709384325991,0.0002433105393023216,0.00013900013565571953,-0.039676096000119745,0.0,0.0,0.0,0.0
504501000000,4768,504501000000,,BL_TO_BASELINK,BR_TO_BASELINK,FL_TO_BASELINK,FR_TO_BASELINK,-0.03327085538153973,0.000881055236424011,-0.20535564034036025,-0.22593907415452552,-9.357096820724817e-05,-0.00035010371437654234,-0.039035330202495715,-0.06022209933823978,0.0,0.0,0.0,0.0
504502000000,4769,504502000000,,BL_TO_BASELINK,BR_TO_BASELINK,FL_TO_BASELINK,FR_TO_BASELINK,-0.033270912269108166,0.0008808836288816124,-0.20535596722405902,-0.22601363310863132,-5.689063240327252e-05,-0.00017158702817333948,-0.0003294370552233833,-0.07454641661925719,0.0,0.0,0.0,0.0
504503000000,4770,504503000000,,BL_TO_BASELINK,BR_TO_BASELINK,FL_TO_BASELINK,FR_TO_BASELINK,-0.03328816732917694,0.0008808014635723893,-0.2053768245739045,-0.22604378338879894,-0.020045634624235503,-0.00013039719387577045,-0.023612448985142205,-0.033441417237963046,0.0,0.0,0.0,0.0
504504000000,4771,504504000000,,BL_TO_BASELINK,BR_TO_BASELINK,FL_TO_BASELINK,FR_TO_BASELINK,-0.03328249031387909,0.0008799058650756919,-0.20537774679819965,-0.2260979080259018,0.0057462597549160326,-0.0008951706484488691,-0.000924668580660328,-0.05410789504448698,0.0,0.0,0.0,0.0
504505000000,4772,504505000000,,BL_TO_BASELINK,BR_TO_BASELINK,FL_TO_BASELINK,FR_TO_BASELINK,-0.033282590900603815,0.0008795223429460819,-0.2054263543922863,-0.2261652231077056,-0.00010163319194654574,-0.00038347307148460345,-0.048609331876328085,-0.06732097076527145,0.0,0.0,0.0,0.0
504506000000,4773,504506000000,,BL_TO_BASELINK,BR_TO_BASELINK,FL_TO_BASELINK,FR_TO_BASELINK,-0.03329818727184897,0.000879765349313999,-0.2054262131415978,-0.22620491335196657,-0.015599163473783395,0.00024310256857769906,0.0001387934522611156,-0.0396905098015331,0.0,0.0,0.0,0.0
504508000000,4774,504507000000,,BL_TO_BASELINK,BR_TO_BASELINK,FL_TO_BASELINK,FR_TO_BASELINK,-0.033298280876745245,0.0008794150955679925,-0.20546524987448223,-0.22626512632289053,-9.361732743948942e-05,-0.0003502619831527798,-0.03903953119793344,-0.06022934653720428,0.0,0.0,0.0,0.0
504508000000,4775,504508000000,,BL_TO_BASELINK,BR_TO_BASELINK,FL_TO_BASELINK,FR_TO_BASELINK,-0.03329833778316793,0.0008792434495425994,-0.20546557682302158,-0.2263396891579399,-5.6909257250357254e-05,-0.00017162548060400615,-0.0003295020845555108,-0.07455031529932778,0.0,0.0,0.0,0.0
504508000000,4776,504509000000,,BL_TO_BASELINK,BR_TO_BASELINK,FL_TO_BASELINK,FR_TO_BASELINK,-0.03331559614305046,0.0008791623259387649,-0.20548643608515071,-0.2263698503314009,-0.020046439786490657,-0.00012913194748902582,-0.023611876243973772,-0.033448817206949394,0.0,0.0,0.0,0.0
504510000000,4777,504510000000,,BL_TO_BASELINK,BR_TO_BASELINK,FL_TO_BASELINK,FR_TO_BASELINK,-0.03330991716758813,0.0008782664694404474,-0.2054873585430279,-0.22642398162167776,0.005748252018664293,-0.0008954293059164368,-0.0009249019858038358,-0.05411456561956811,0.0,0.0,0.0,0.0
504511000000,4778,504511000000,,BL_TO_BASELINK,BR_TO_BASELINK,FL_TO_BASELINK,FR_TO_BASELINK,-0.03331001780898912,0.0008778828059714527,-0.20553597018896852,-0.22649130200592804,-0.00010168208152557846,-0.00038361437178567083,-0.04861338765029795,-0.06732627204826444,0.0,0.0,0.0,0.0
504511000000,4779,504512000000,,BL_TO_BASELINK,BR_TO_BASELINK,FL_TO_BASELINK,FR_TO_BASELINK,-0.033325626059686364,0.0008781256079934963,-0.20553582914130164,-0.2265310058888188,-0.015611027597593868,0.00024289815806786616,0.0001385905711850429,-0.03970414341775578,0.0,0.0,0.0,0.0
504511000000,4780,504513000000,,BL_TO_BASELINK,BR_TO_BASELINK,FL_TO_BASELINK,FR_TO_BASELINK,-0.03332571971068621,0.0008777751979991422,-0.2055748701275837,-0.22659122561635403,-9.366318012025802e-05,-0.0003504183380181273,-0.03904379860499,-0.06023614303956658,0.0,0.0,0.0,0.0
504511000000,4781,504514000000,,BL_TO_BASELINK,BR_TO_BASELINK,FL_TO_BASELINK,FR_TO_BASELINK,-0.0333257766358388,0.0008776035140947158,-0.20557519714000438,-0.22666579204546178,-5.6927777471526414e-05,-0.0001716633186995553,-0.00032956618028613313,-0.07455392719317895,0.0,0.0,0.0,0.0
504515000000,4782,504515000000,,BL_TO_BASELINK,BR_TO_BASELINK,FL_TO_BASELINK,FR_TO_BASELINK,-0.03334303537722949,0.0008775229300699294,-0.20559605565172223,-0.22669596130730607,-0.020044939037550485,-0.00012839612956636048,-0.023609359123691602,-0.03345439224428115,0.0,0.0,0.0,0.0
504516000000,4783,504516000000,,BL_TO_BASELINK,BR_TO_BASELINK,FL_TO_BASELINK,FR_TO_BASELINK,-0.03333735484424327,0.0008766268746285277,-0.20559697828684254,-0.22675009688409187,0.005749835746491178,-0.000895628737929313,-0.0009250789344745743,-0.054118866714235346,0.0,0.0,0.0,0.0
504517000000,4784,504517000000,,BL_TO_BASELINK,BR_TO_BASELINK,FL_TO_BASELINK,FR_TO_BASELINK,-0.03333745554042178,0.0008762430697561996,-0.20564559340128152,-0.22681742099926172,-0.00010173142822345049,-0.0003837557021569935,-0.0486168602799002,-0.06733000202276299,0.0,0.0,0.0,0.0
504518000000,4785,504518000000,,BL_TO_BASELINK,BR_TO_BASELINK,FL_TO_BASELINK,FR_TO_BASELINK,-0.03335307540338217,0.0008764856716174663,-0.20564545255203281,-0.22685713756886283,-0.015622624953334267,0.00024269795367463237,0.00013839221494427352,-0.0397168250370271,0.0,0.0,0.0,0.0
504519000000,4786,504519000000,,BL_TO_BASELINK,BR_TO_BASELINK,FL_TO_BASELINK,FR_TO_BASELINK,-0.03335316909973951,0.0008761351081139068,-0.20568449787251009,-0.22691736351647673,-9.370831332186635e-05,-0.00035057193460366794,-0.039048146787524204,-0.060242402787712424,0.0,0.0,0.0,0.0
504520000000,4787,504520000000,,BL_TO_BASELINK,BR_TO_BASELINK,FL_TO_BASELINK,FR_TO_BASELINK,-0.033353226043467465,0.0008759633870338845,-0.20568482494767348,-0.22699193321171318,-5.694616337783426e-05,-0.00017170044730959247,-0.00032962916478303933,-0.07455721126780208,0.0,0.0,0.0,0.0
504521000000,4788,504521000000,,BL_TO_BASELINK,BR_TO_BASELINK,FL_TO_BASELINK,FR_TO_BASELINK,-0.033370482690522785,0.0008758826840020717,-0.20570568016904023,-0.22702210783709287,-0.020041866966567852,-0.0001283854385619558,-0.0236050017005535,-0.03345779387801137,0.0,0.0,0.0,0.0
504522000000,4789,504522000000,,BL_TO_BASELINK,BR_TO_BASELINK,FL_TO_BASELINK,FR_TO_BASELINK,-0.0333648009711931,0.00087498648293316,-0.2057066029311363,-0.22707624553258032,0.005751042577948187,-0.0008957746687868699,-0.0009252054849355172,-0.05412099616366824,0.0,0.0,0.0,0.0
504523000000,4790,504523000000,,BL_TO_BASELINK,BR_TO_BASELINK,FL_TO_BASELINK,FR_TO_BASELINK,-0.03336490172246176,0.0008746025356858311,-0.2057552209621969,-0.22714357187237955,-0.00010178148035570357,-0.00038389796769962986,-0.04861978129037823,-0.0673322259330584,0.0,0.0,0.0,0.0
504524000000,4791,504524000000,,BL_TO_BASELINK,BR_TO_BASELINK,FL_TO_BASELINK,FR_TO_BASELINK,-0.0333805327978256,0.0008748449412676607,-0.20575508030689527,-0.22718330009112808,-0.015633823023124792,0.00024250167779225722,0.0001381982552138509,-0.03972846909639856,0.0,0.0,0.0,0.0
504525000000,4792,504525000000,,BL_TO_BASELINK,BR_TO_BASELINK,FL_TO_BASELINK,FR_TO_BASELINK,-0.03338062653819929,0.0008744942294081071,-0.20579413002102598,-0.2272435317568915,-9.375213211764225e-05,-0.0003507203683948629,-0.03905255428357336,-0.06024816008431767,0.0,0.0,0.0,0.0
504526000000,4793,504526000000,,BL_TO_BASELINK,BR_TO_BASELINK,FL_TO_BASELINK,FR_TO_BASELINK,-0.03338068350033918,0.0008743224716623033,-0.2057944571579835,-0.22731810447660106,-5.696440609022704e-05,-0.00017173704682558327,-0.0003296912050723931,-0.07456025372035349,0.0,0.0,0.0,0.0
504527000000,4794,504527000000,,BL_TO_BASELINK,BR_TO_BASELINK,FL_TO_BASELINK,FR_TO_BASELINK,-0.03339793713770067,0.0008742417644436173,-0.2058153095411459,-0.2273482840281238,-0.020039026544706094,-0.00012837733046414113,-0.023602159409061744,-0.033464464784456215,0.0,0.0,0.0,0.0
504528000000,4795,504528000000,,BL_TO_BASELINK,BR_TO_BASELINK,FL_TO_BASELINK,FR_TO_BASELINK,-0.03339219013592398,0.0008733348846368116,-0.20581624246234576,-0.2274026128598523,0.005817880920766033,-0.0009065219858414644,-0.0009354220971609277,-0.05431213713734029,0.0,0.0,0.0,0.0
504529000000,4796,504529000000,,BL_TO_BASELINK,BR_TO_BASELINK,FL_TO_BASELINK,FR_TO_BASELINK,-0.03342116247440252,0.0008690261561996593,-0.20584778193092035,-0.22746482808756685,-0.02891877860109713,-0.004276585200871846,-0.03150702393695157,-0.06218911772096008,0.0,0.0,0.0,0.0
504530000000,4797,504530000000,,BL_TO_BASELINK,BR_TO_BASELINK,FL_TO_BASELINK,FR_TO_BASELINK,-0.03342121652000607,0.000868858923962712,-0.20584809663978199,-0.22753745322064578,-5.4146506663802635e-05,-0.00016696384546242317,-0.00031726986319122186,-0.07261242287425164,0.0,0.0,0.0,0.0
504531000000,4798,504531000000,,BL_TO_BASELINK,BR_TO_BASELINK,FL_TO_BASELINK,FR_TO_BASELINK,-0.03344778691324102,0.0008685559055061631,-0.20587644374879233,-0.22758235373312186,-0.02656892556651347,-0.00030281283192585065,-0.028345953934281333,-0.04491194467320799,0.0,0.0,0.0,0.0
504532000000,4799,504532000000,,BL_TO_BASELINK,BR_TO_BASELINK,FL_TO_BASELINK,FR_TO_BASELINK,-0.03344166671796511,0.0008675974850289592,-0.20587743085627785,-0.22763981683945023,0.006196538158911852,-0.0009583291711174457,-0.000990450335064257,-0.057458054513127604,0.0,0.0,0.0,0.0
504533000000,4800,504533000000,,BL_TO_BASELINK,BR_TO_BASELINK,FL_TO_BASELINK,FR_TO_BASELINK,-0.03344176853908021,0.0008672133753959699,-0.20592567569858566,-0.22770902959357553,-0.00010261332277510665,-0.00038394979349456494,-0.04824646379720187,-0.06921880101474498,0.0,0.0,0.0,0.0
504534000000,4801,504534000000,,BL_TO_BASELINK,BR_TO_BASELINK,FL_TO_BASELINK,FR_TO_BASELINK,-0.033458449448850125,0.0008674555600505229,-0.20592553658446988,-0.22775030420688136,-0.016683345783201898,0.00024242209023011933,0.00013632467140670818,-0.04127477044704488,0.0,0.0,0.0,0.0
504535000000,4802,504535000000,,BL_TO_BASELINK,BR_TO_BASELINK,FL_TO_BASELINK,FR_TO_BASELINK,-0.033458544604061835,0.0008670995496080636,-0.2059636719972211,-0.22781141981218322,-9.517840648360504e-05,-0.0003559829141317958,-0.03813224634157524,-0.06113309743481357,0.0,0.0,0.0,0.0
504536000000,4803,504536000000,,BL_TO_BASELINK,BR_TO_BASELINK,FL_TO_BASELINK,FR_TO_BASELINK,-0.03345860190141803,0.000866926255713274,-0.20596400129087655,-0.2278866346884021,-5.730459897980433e-05,-0.0001732274573634611,-0.0003321191321306524,-0.0752021256872081,0.0,0.0,0.0,0.0
504537000000,4804,504537000000,,BL_TO_BASELINK,BR_TO_BASELINK,FL_TO_BASELINK,FR_TO_BASELINK,-0.03347539254342902,0.0008668617868101691,-0.20598390411760903,-0.22791626279306865,-0.01979061749032026,-0.00011631716939049241,-0.022863285327046918,-0.033179951737282457,0.0,0.0,0.0,0.0
504538000000,4805,504538000000,,BL_TO_BASELINK,BR_TO_BASELINK,FL_TO_BASELINK,FR_TO_BASELINK,-0.033469575945509256,0.0008659460368276584,-0.2059848434548961,-0.22797072310159816,0.005888347027637282,-0.0009153624415777057,-0.0009419778512967224,-0.05444267774056074,0.0,0.0,0.0,0.0
504539000000,4806,504539000000,,BL_TO_BASELINK,BR_TO_BASELINK,FL_TO_BASELINK,FR_TO_BASELINK,-0.0334965481802838,0.0008631235948888261,-0.20601464237769207,-0.22803136544213043,-0.026942748219938174,-0.0028050953085569947,-0.02978133075101802,-0.06063108461219359,0.0,0.0,0.0,0.0
504540000000,4807,504540000000,,BL_TO_BASELINK,BR_TO_BASELINK,FL_TO_BASELINK,FR_TO_BASELINK,-0.0334966020297065,0.0008629563262969597,-0.206014956284168,-0.2281040281718374,-5.387353542349836e-05,-0.00016702299545337355,-0.0003165850404502832,-0.072649913438433,0.0,0.0,0.0,0.0
504541000000,4808,504541000000,,BL_TO_BASELINK,BR_TO_BASELINK,FL_TO_BASELINK,FR_TO_BASELINK,-0.033523231610185,0.0008626549121251159,-0.20604305951227886,-0.22814914045407786,-0.02662881054531925,-0.00030130507874389506,-0.02810189781233268,-0.04512405330562456,0.0,0.0,0.0,0.0
504542000000,4809,504542000000,,BL_TO_BASELINK,BR_TO_BASELINK,FL_TO_BASELINK,FR_TO_BASELINK,-0.03351708777045026,0.0008616931589093824,-0.20604404913770047,-0.2282066570188368,0.006220898560623127,-0.0009616301539850727,-0.0009931163011083202,-0.05751173463357182,0.0,0.0,0.0,0.0
504543000000,4810,504543000000,,BL_TO_BASELINK,BR_TO_BASELINK,FL_TO_BASELINK,FR_TO_BASELINK,-0.03351718919932445,0.0008613112351172347,-0.20609218056729262,-0.2282759263887959,-0.00010205959173514509,-0.0003817445458648514,-0.04813294954247694,-0.06927548806992194,0.0,0.0,0.0,0.0
504544000000,4811,504544000000,,BL_TO_BASELINK,BR_TO_BASELINK,FL_TO_BASELINK,FR_TO_BASELINK,-0.033533540044240695,0.000861551630186419,-0.20609204239628198,-0.2283169736296129,-0.016352719511726045,0.00024062480536788007,0.00013526927133841044,-0.04104762323845838,0.0,0.0,0.0,0.0
504545000000,4812,504545000000,,BL_TO_BASELINK,BR_TO_BASELINK,FL_TO_BASELINK,FR_TO_BASELINK,-0.03353363437999057,0.0008611990512532586,-0.2061309411223693,-0.22837796274107003,-9.437006534085586e-05,-0.0003525400655210436,-0.03890160204260749,-0.06100629087796359,0.0,0.0,0.0,0.0
504546000000,4813,504546000000,,BL_TO_BASELINK,BR_TO_BASELINK,FL_TO_BASELINK,FR_TO_BASELINK,-0.033533691500455376,0.0008610257073256022,-0.20613126991654696,-0.22845319784234785,-5.713479185265671e-05,-0.00017327624127556548,-0.0003316914613031817,-0.07522225139516882,0.0,0.0,0.0,0.0
504548000000,4814,504547000000,,BL_TO_BASELINK,BR_TO_BASELINK,FL_TO_BASELINK,FR_TO_BASELINK,-0.03355377768098933,0.0008620773487990618,-0.20615343495358118,-0.22845330817966225,-0.02285741758716315,0.0010227256843873475,-0.024989097855114346,-0.00012153258296857504,0.0,0.0,0.0,0.0
504548000000,4815,504548000000,,BL_TO_BASELINK,BR_TO_BASELINK,FL_TO_BASELINK,FR_TO_BASELINK,-0.03355387836842283,0.0008617392274530289,-0.20615409092819448,-0.22859919454615518,-0.00011404842025951323,-0.0003079775299492382,-0.0006207660054223935,-0.13203351013207018,0.0,0.0,0.0,0.0
504549000000,4816,504549000000,,BL_TO_BASELINK,BR_TO_BASELINK,FL_TO_BASELINK,FR_TO_BASELINK,-0.03352526087916363,0.0008617541932682826,-0.20615410507049248,-0.22859921422006035,0.00913632100089988,0.00013456401394604245,8.767036578297832e-05,3.099137313851419e-05,0.0,0.0,0.0,0.0
504550000000,4817,504550000000,,BL_TO_BASELINK,BR_TO_BASELINK,FL_TO_BASELINK,FR_TO_BASELINK,-0.03352532268707176,0.000861363792923342,-0.20615479744347454,-0.228770829695633,-8.97139856146853e-05,-0.0003669257408615914,-0.00797387670238977,-0.1341698031889507,0.0,0.0,0.0,0.0
504551000000,4818,504551000000,,BL_TO_BASELINK,BR_TO_BASELINK,FL_TO_BASELINK,FR_TO_BASELINK,-0.033466372258767585,0.0008611185403637478,-0.206155040557217,-0.22877096445220868,0.018446897134359104,-3.827002077905206e-06,-2.378600030120137e-05,-3.1528053301893566e-05,0.0,0.0,0.0,0.0
504551000000,4819,504552000000,,BL_TO_BASELINK,BR_TO_BASELINK,FL_TO_BASELINK,FR_TO_BASELINK,-0.033466415407601424,0.0008606749455353224,-0.20615874127180867,-0.228957064806246,-0.0001617675829448592,-0.0005927596326087275,-0.10584955660993423,-0.14081199941632971,0.0,0.0,0.0,0.0
504551000000,4820,504553000000,,BL_TO_BASELINK,BR_TO_BASELINK,FL_TO_BASELINK,FR_TO_BASELINK,-0.0334352440653376,0.000860618717567263,-0.20615881798199887,-0.22895709031006195,0.013136616462922426,5.219995561247387e-05,2.3077914978748837e-05,-4.459014919196147e-06,0.0,0.0,0.0,0.0
504551000000,4821,504554000000,,BL_TO_BASELINK,BR_TO_BASELINK,FL_TO_BASELINK,FR_TO_BASELINK,-0.03343527341757735,0.0008602127264225601,-0.20616182058040522,-0.2291274040489748,-0.0001462907339513861,-0.0005328799007922602,-0.0835123660555785,-0.13970221805956445,0.0,0.0,0.0,0.0
504551000000,4822,504555000000,,BL_TO_BASELINK,BR_TO_BASELINK,FL_TO_BASELINK,FR_TO_BASELINK,-0.033401634940232405,0.000860071258074413,-0.2061619609324019,-0.2291274659499054,0.021749446816976166,-7.086353337850543e-05,-7.668550420499715e-05,-6.043542470485219e-05,0.0,0.0,0.0,0.0
504556000000,4823,504556000000,,BL_TO_BASELINK,BR_TO_BASELINK,FL_TO_BASELINK,FR_TO_BASELINK,-0.033401722089673846,0.000859472323000432,-0.20625232972022367,-0.22928791984218844,-0.00014958350857224856,-0.0005392251469710715,-0.08572765974628402,-0.1430326160824929,0.0,0.0,0.0,0.0
504557000000,4824,504557000000,,BL_TO_BASELINK,BR_TO_BASELINK,FL_TO_BASELINK,FR_TO_BASELINK,-0.0334039598572593,0.0008598561059871557,-0.20626362200692938,-0.22928795435738802,-0.002268730381542565,0.0003827618061668786,-0.011352405589258423,-6.672331293139377e-05,0.0,0.0,0.0,0.0
504558000000,4825,504558000000,,BL_TO_BASELINK,BR_TO_BASELINK,FL_TO_BASELINK,FR_TO_BASELINK,-0.033404010968587805,0.0008595043408883285,-0.2062666956106849,-0.22942728898127296,-0.0001000886283257646,-0.0003412113513952056,-0.003984938612279824,-0.1378121412169352,0.0,0.0,0.0,0.0
504559000000,4826,504559000000,,BL_TO_BASELINK,BR_TO_BASELINK,FL_TO_BASELINK,FR_TO_BASELINK,-0.03341598739678542,0.0008600523299220342,-0.20628475821371062,-0.22942734326180325,-0.01593025319859534,0.0005069990162595711,-0.022100934574293907,-8.737276222953866e-05,0.0,0.0,0.0,0.0
504560000000,4827,504560000000,,BL_TO_BASELINK,BR_TO_BASELINK,FL_TO_BASELINK,FR_TO_BASELINK,-0.033416045846268894,0.0008597102630103493,-0.20628541149339874,-0.2295757411374657,-0.00011007468564262768,-0.000326439065965585,-0.0006301367596620797,-0.14119280254454883,0.0,0.0,0.0,0.0
504561000000,4828,504561000000,,BL_TO_BASELINK,BR_TO_BASELINK,FL_TO_BASELINK,FR_TO_BASELINK,-0.033401002332100305,0.0008597324948569351,-0.20628541140094825,-0.22957571841847102,0.007414732422175871,6.846959387092622e-05,4.1500033793023805e-05,1.1071034523982282e-05,0.0,0.0,0.0,0.0
504561000000,4829,504562000000,,BL_TO_BASELINK,BR_TO_BASELINK,FL_TO_BASELINK,FR_TO_BASELINK,-0.033401146837269025,0.0008590106273134168,-0.20641223160851752,-0.22974771091682822,-0.00017310304574707364,-0.0006319699950518426,-0.11674202291368768,-0.14736508601202652,0.0,0.0,0.0,0.0
504563000000,4830,504563000000,,BL_TO_BASELINK,BR_TO_BASELINK,FL_TO_BASELINK,FR_TO_BASELINK,-0.033419817314713995,0.0008593289108445035,-0.20644127827057446,-0.22974776000921882,-0.018592564912673987,0.00031706859957683284,-0.028973971056295563,-8.0726472253205e-05,0.0,0.0,0.0,0.0
504564000000,4831,504564000000,,BL_TO_BASELINK,BR_TO_BASELINK,FL_TO_BASELINK,FR_TO_BASELINK,-0.03341988503740545,0.0008589715683120502,-0.20644586008530474,-0.229891408379161,-0.00010251279788561773,-0.000357008553842339,-0.004791517753423596,-0.14327109881560107,0.0,0.0,0.0,0.0
504565000000,4832,504565000000,,BL_TO_BASELINK,BR_TO_BASELINK,FL_TO_BASELINK,FR_TO_BASELINK,-0.033404086823204615,0.0008589586607490318,-0.206445886468833,-0.22989140567594823,0.011159892421842281,1.5135305466901228e-05,-1.6450905784143321e-06,-1.3307276667040568e-05,0.0,0.0,0.0,0.0
504567000000,4833,504567000000,,BL_TO_BASELINK,BR_TO_BASELINK,FL_TO_BASELINK,FR_TO_BASELINK,-0.03342138965931074,0.0008585379338565957,-0.20660291975986844,-0.23006231090823626,-0.01713882901244055,0.00029524114867052545,-0.029588896053047247,-7.479280869358146e-05,0.0,0.0,0.0,0.0
504568000000,4834,504568000000,,BL_TO_BASELINK,BR_TO_BASELINK,FL_TO_BASELINK,FR_TO_BASELINK,-0.03342146796385226,0.0008581813510115666,-0.20660776219356514,-0.2302044451821228,-0.00010219109364704299,-0.0003561707083426721,-0.005082748495888113,-0.14167995595569358,0.0,0.0,0.0,0.0
504569000000,4835,504569000000,,BL_TO_BASELINK,BR_TO_BASELINK,FL_TO_BASELINK,FR_TO_BASELINK,-0.03340341698767624,0.000858149240432482,-0.20660780494606534,-0.23020445753929586,0.012332309165454379,2.5063514856732416e-06,-1.2194039227739206e-05,-1.945895427264699e-05,0.0,0.0,0.0,0.0
504570000000,4836,504570000000,,BL_TO_BASELINK,BR_TO_BASELINK,FL_TO_BASELINK,FR_TO_BASELINK,-0.03340358388247644,0.0008574342131524304,-0.20673537409526865,-0.23037394402911993,-0.00017149008390429654,-0.0006229325358678636,-0.11629081237979527,-0.14504176954169662,0.0,0.0,0.0,0.0
504571000000,4837,504571000000,,BL_TO_BASELINK,BR_TO_BASELINK,FL_TO_BASELINK,FR_TO_BASELINK,-0.03341834765943119,0.0008577228324888608,-0.20676358852858634,-0.23037399571867212,-0.014730891195794484,0.0002875447750319178,-0.028189024601038837,-7.43867121700513e-05,0.0,0.0,0.0,0.0
504572000000,4838,504572000000,,BL_TO_BASELINK,BR_TO_BASELINK,FL_TO_BASELINK,FR_TO_BASELINK,-0.033418427362963854,0.0008573745344229167,-0.20676768069150953,-0.2305139883812508,-0.0001002172457600925,-0.00034757174825676695,-0.004578763895273785,-0.1390158502238435,0.0,0.0,0.0,0.0
504573000000,4839,504573000000,,BL_TO_BASELINK,BR_TO_BASELINK,FL_TO_BASELINK,FR_TO_BASELINK,-0.03339974101785259,0.0008573406859717636,-0.20676772536917198,-0.23051400342985318,0.012012746246653258,6.412396093377626e-06,-8.992985916167484e-06,-1.7540334930524204e-05,0.0,0.0,0.0,0.0
504574000000,4840,504574000000,,BL_TO_BASELINK,BR_TO_BASELINK,FL_TO_BASELINK,FR_TO_BASELINK,-0.03339990880255428,0.0008566252362562921,-0.20689578258607888,-0.23068245711382573,-0.00017079567873681117,-0.0006220369557681793,-0.11670197803196317,-0.143556138040877,0.0,0.0,0.0,0.0
504575000000,4841,504575000000,,BL_TO_BASELINK,BR_TO_BASELINK,FL_TO_BASELINK,FR_TO_BASELINK,-0.03341377097517295,0.0008569007764558378,-0.2069235650752379,-0.2306825094404985,-0.013801398686312541,0.0002744166218454115,-0.027730609310968057,-7.457409681217372e-05,0.0,0.0,0.0,0.0
504576000000,4842,504576000000,,BL_TO_BASELINK,BR_TO_BASELINK,FL_TO_BASELINK,FR_TO_BASELINK,-0.033413850800343425,0.0008565561476325811,-0.2069271941307349,-0.23082161781191957,-9.928617259837708e-05,-0.00034312505319841063,-0.0042193651919614356,-0.13792336152364276,0.0,0.0,0.0,0.0
504577000000,4843,504577000000,,BL_TO_BASELINK,BR_TO_BASELINK,FL_TO_BASELINK,FR_TO_BASELINK,-0.03339476587100254,0.0008565208690258785,-0.20692724035204435,-0.23082163360046337,0.011866839984373316,8.200223942697593e-06,-7.529647426327002e-06,-1.6666428177686265e-05,0.0,0.0,0.0,0.0
504578000000,4844,504578000000,,BL_TO_BASELINK,BR_TO_BASELINK,FL_TO_BASELINK,FR_TO_BASELINK,-0.033394933565760176,0.000855804532519322,-0.20705543147186134,-0.23098988185812175,-0.00017055464248545704,-0.000622154692938498,-0.11680458294428092,-0.14304925138779362,0.0,0.0,0.0,0.0
504579000000,4845,504579000000,,BL_TO_BASELINK,BR_TO_BASELINK,FL_TO_BASELINK,FR_TO_BASELINK,-0.03318641081019713,0.001054405581919049,-0.20697358678986166,-0.23078991350980704,0.208623895432486,0.19859937111341042,0.08184131278394116,0.1999451833107582,0.0,0.0,0.0,0.0
504580000000,4846,504580000000,,BL_TO_BASELINK,BR_TO_BASELINK,FL_TO_BASELINK,FR_TO_BASELINK,-0.03274867396894798,0.0014478524286500871,-0.20660804911616193,-0.23068776909215405,0.4429526094338277,0.39326816085052146,0.36707418053356766,0.10035330349524911,0.0,0.0,0.0,0.0
504581000000,4847,504581000000,,BL_TO_BASELINK,BR_TO_BASELINK,FL_TO_BASELINK,FR_TO_BASELINK,-0.03214872068472818,0.0020476017208856945,-0.2060084062597154,-0.23011181912201106,0.5999444334096405,0.599750191982577,0.5996428373359319,0.5757068812003485,0.0,0.0,0.0,0.0
504581000000,4848,504582000000,,BL_TO_BASELINK,BR_TO_BASELINK,FL_TO_BASELINK,FR_TO_BASELINK,-0.03134905354376638,0.002846327165161533,-0.2055775683939327,-0.22931033781155197,0.7995831284596155,0.7985720259535645,0.4238413549813317,0.8018097089386407,0.0,0.0,0.0,0.0
504583000000,4849,504583000000,,BL_TO_BASELINK,BR_TO_BASELINK,FL_TO_BASELINK,FR_TO_BASELINK,-0.03041735859896022,0.0037766419357563308,-0.20472403469513267,-0.22880454407640194,0.9306456220434628,0.9282955862945709,0.8767655989415737,0.4799774526590133,0.0,0.0,0.0,0.0
504584000000,4850,504584000000,,BL_TO_BASELINK,BR_TO_BASELINK,FL_TO_BASELINK,FR_TO_BASELINK,-0.02948526350702263,0.0047080985030003575,-0.20393163551026827,-0.22787121955278522,0.9320928764561573,0.931456808733069,0.7924210829156715,0.9332865146633759,0.0,0.0,0.0,0.0
504585000000,4851,504585000000,,BL_TO_BASELINK,BR_TO_BASELINK,FL_TO_BASELINK,FR_TO_BASELINK,-0.02855326647762002,0.0056392698268066255,-0.20319111516394806,-0.22723759108382957,0.9319954881679945,0.9311713358875229,0.7405029409760622,0.633606499369538,0.0,0.0,0.0,0.0
504586000000,4852,504586000000,,BL_TO_BASELINK,BR_TO_BASELINK,FL_TO_BASELINK,FR_TO_BASELINK,-0.027621061744285136,0.006571143888431941,-0.20241166378482944,-0.22630476358751217,0.932203832166145,0.9318741713223762,0.7795046044186863,0.9328004659055376,0.0,0.0,0.0,0.0
504587000000,4853,504587000000,,BL_TO_BASELINK,BR_TO_BASELINK,FL_TO_BASELINK,FR_TO_BASELINK,-0.0266888608475071,0.007502960607032705,-0.20159704438768156,-0.22557508731935894,0.9322002519450479,0.9318166605985655,0.8146077723869652,0.7296737469517298,0.0,0.0,0.0,0.0
504588000000,4854,504588000000,,BL_TO_BASELINK,BR_TO_BASELINK,FL_TO_BASELINK,FR_TO_BASELINK,-0.025756617274817373,0.008434980778029733,-0.2007733162989389,-0.22464244163111236,0.9322431981324543,0.9320202379801681,0.8237596310588726,0.9326274965216143,0.0,0.0,0.0,0.0
504589000000,4855,504589000000,,BL_TO_BASELINK,BR_TO_BASELINK,FL_TO_BASELINK,FR_TO_BASELINK,-0.024824814106931825,0.009365766587152713,-0.19994261329768026,-0.22390113283482993,0.9317994823323372,0.9307834366088776,0.8306380270121885,0.741281345175787,0.0,0.0,0.0,0.0
504590000000,4856,504590000000,,BL_TO_BASELINK,BR_TO_BASELINK,FL_TO_BASELINK,FR_TO_BASELINK,-0.023892608253471614,0.01029766281013167,-0.1990906235362564,-0.2229924233702283,0.9322057318523895,0.9318962934224261,0.8519815074751611,0.9083869486245906,0.0,0.0,0.0,0.0
504591000000,4857,504591000000,,BL_TO_BASELINK,BR_TO_BASELINK,FL_TO_BASELINK,FR_TO_BASELINK,-0.02296034638630129,0.011229754230107858,-0.19824935358762819,-0.22205985468206713,0.932261813714687,0.9320914822974132,0.8412947944254933,0.9325498585861162,0.0,0.0,0.0,0.0
504592000000,4858,504592000000,,BL_TO_BASELINK,BR_TO_BASELINK,FL_TO_BASELINK,FR_TO_BASELINK,-0.02202820365081859,0.012161432070371347,-0.1974092136679051,-0.2213033097488868,0.9321426626547411,0.931677798025036,0.8400796322436666,0.7565478667679102,0.0,0.0,0.0,0.0
504593000000,4859,504593000000,,BL_TO_BASELINK,BR_TO_BASELINK,FL_TO_BASELINK,FR_TO_BASELINK,-0.021095985830658748,0.013093369965648805,-0.19655206718395402,-0.2203889841337432,0.9322178151253582,0.9319379239552689,0.8571332971673808,0.9140791712254139,0.0,0.0,0.0,0.0
504593000000,4860,504594000000,,BL_TO_BASELINK,BR_TO_BASELINK,FL_TO_BASELINK,FR_TO_BASELINK,-0.02016372270605249,0.014025467035432726,-0.19570633741381105,-0.21945641519321235,0.9322631483900942,0.9320971204390254,0.8457509316329477,0.932546963621043,0.0,0.0,0.0,0.0
504595000000,4861,504595000000,,BL_TO_BASELINK,BR_TO_BASELINK,FL_TO_BASELINK,FR_TO_BASELINK,-0.01923158709926831,0.01495712481204059,-0.1948673535109524,-0.21870383304574403,0.9321355694188166,0.9316576646283989,0.8389199881694043,0.7525866901208483,0.0,0.0,0.0,0.0
504596000000,4862,504596000000,,BL_TO_BASELINK,BR_TO_BASELINK,FL_TO_BASELINK,FR_TO_BASELINK,-0.01829937428561479,0.0158890453141467,-0.1940090550287099,-0.21779164128862405,0.9322128528204531,0.9319205611934294,0.8582933643902597,0.9119180279129757,0.0,0.0,0.0,0.0
504597000000,4863,504597000000,,BL_TO_BASELINK,BR_TO_BASELINK,FL_TO_BASELINK,FR_TO_BASELINK,-0.01736711188629325,0.016821139819969133,-0.19316180720630527,-0.2168590651936002,0.9322624469000134,0.93209455803167,0.8472690729079972,0.9325507929575982,0.0,0.0,0.0,0.0
504598000000,4864,504598000000,,BL_TO_BASELINK,BR_TO_BASELINK,FL_TO_BASELINK,FR_TO_BASELINK,-0.01643498128333931,0.01775275988579672,-0.19232277608992998,-0.21611125214899296,0.932130757019753,0.9316207032702434,0.8389668562801507,0.747817272305783,0.0,0.0,0.0,0.0
504599000000,4865,504599000000,,BL_TO_BASELINK,BR_TO_BASELINK,FL_TO_BASELINK,FR_TO_BASELINK,-0.015502769302894848,0.018684677102473124,-0.19146388363432454,-0.21519929084688627,0.9322120237553913,0.9319172458876781,0.8588817253437894,0.9116798120507522,0.0,0.0,0.0,0.0
504600000000,4866,504600000000,,BL_TO_BASELINK,BR_TO_BASELINK,FL_TO_BASELINK,FR_TO_BASELINK,-0.014570507266397748,0.019616770161460906,-0.19061599368285886,-0.21426671122930596,0.9322620942023897,0.9320931160749242,0.8479119585609135,0.9325523841477423,0.0,0.0,0.0,0.0
504601000000,4867,504601000000,,BL_TO_BASELINK,BR_TO_BASELINK,FL_TO_BASELINK,FR_TO_BASELINK,-0.013638379769997933,0.020548394680452553,-0.189775330305749,-0.21352266763915217,0.9321277369893951,0.931624597958263,0.8406105119342853,0.7440476911969897,0.0,0.0,0.0,0.0
504602000000,4868,504602000000,,BL_TO_BASELINK,BR_TO_BASELINK,FL_TO_BASELINK,FR_TO_BASELINK,-0.012706166126415397,0.021480317305856644,-0.18891588085902455,-0.2126100043159127,0.9322137058726258,0.9319227002284663,0.8594502536483628,0.9123914578120322,0.0,0.0,0.0,0.0
504603000000,4869,504603000000,,BL_TO_BASELINK,BR_TO_BASELINK,FL_TO_BASELINK,FR_TO_BASELINK,-0.011773904167927896,0.022412409874587702,-0.18806760237425824,-0.2116774242759858,0.9322620234606718,0.9320926322956525,0.8483011660728974,0.9325524411165516,0.0,0.0,0.0,0.0
504604000000,4870,504604000000,,BL_TO_BASELINK,BR_TO_BASELINK,FL_TO_BASELINK,FR_TO_BASELINK,-0.0108417781631438,0.023344050809491534,-0.18722478848386803,-0.21093630318332757,0.9321261410368046,0.9316405233917805,0.8427620932139025,0.7411241873007965,0.0,0.0,0.0,0.0
504605000000,4871,504605000000,,BL_TO_BASELINK,BR_TO_BASELINK,FL_TO_BASELINK,FR_TO_BASELINK,-0.009909562044593478,0.024275981733906882,-0.18636452386327562,-0.21002270396023537,0.9322161862748677,0.9319309996138547,0.8602652391494905,0.9133377167281699,0.0,0.0,0.0,0.0
504606000000,4872,504606000000,,BL_TO_BASELINK,BR_TO_BASELINK,FL_TO_BASELINK,FR_TO_BASELINK,-0.008977379553130937,0.02520781906442693,-0.18549618905575027,-0.20923652872592324,0.9321825618258873,0.9318374049904266,0.868324974281834,0.7861852816768061,0.0,0.0,0.0,0.0
504608000000,4873,504607000000,,BL_TO_BASELINK,BR_TO_BASELINK,FL_TO_BASELINK,FR_TO_BASELINK,-0.008045186505232671,0.02613968480979345,-0.18462302510862472,-0.20843406686821986,0.9321931190274578,0.931865819248302,0.873152062582573,0.8024753734973129,0.0,0.0,0.0,0.0
504608000000,4874,504608000000,,BL_TO_BASELINK,BR_TO_BASELINK,FL_TO_BASELINK,FR_TO_BASELINK,-0.007112984674716216,0.02707157750456357,-0.18374708910388282,-0.20762266380206906,0.9322019103799352,0.9318927977197139,0.8759260610284292,0.8114163419492809,0.0,0.0,0.0,0.0
504609000000,4875,504609000000,,BL_TO_BASELINK,BR_TO_BASELINK,FL_TO_BASELINK,FR_TO_BASELINK,-0.006180783138840518,0.02800346648913976,-0.18286929278209207,-0.20680507104167134,0.9322016116149309,0.9318890648977078,0.8777883986036389,0.8176022660834706,0.0,0.0,0.0,0.0
504612000000,4876,504610000000,,BL_TO_BASELINK,BR_TO_BASELINK,FL_TO_BASELINK,FR_TO_BASELINK,-0.005248576633926305,0.02893537263380086,-0.18199164699401482,-0.2059837318446931,0.9322065830329185,0.9319062275797891,0.8776401475795035,0.8213463329324997,0.0,0.0,0.0,0.0
504612000000,4877,504611000000,,BL_TO_BASELINK,BR_TO_BASELINK,FL_TO_BASELINK,FR_TO_BASELINK,-0.004316369594246083,0.02986728001605421,-0.18111485109038217,-0.20515926062408063,0.9322071202031078,0.9319074672954616,0.8767918273358902,0.8244751158768641,0.0,0.0,0.0,0.0
504612000000,4878,504612000000,,BL_TO_BASELINK,BR_TO_BASELINK,FL_TO_BASELINK,FR_TO_BASELINK,-0.0033841617805059343,0.030799189584523212,-0.18023948637940634,-0.20433204144758754,0.9322078968649248,0.9319096559702306,0.8753618866564006,0.8272202175073642,0.0,0.0,0.0,0.0
504613000000,4879,504613000000,,BL_TO_BASELINK,BR_TO_BASELINK,FL_TO_BASELINK,FR_TO_BASELINK,-0.0024519538900662496,0.031731098757373566,-0.17936581005822028,-0.20350217451571773,0.9322079763310928,0.9319092628328755,0.873674416286957,0.8298654465540807,0.0,0.0,0.0,0.0
504614000000,4880,504614000000,,BL_TO_BASELINK,BR_TO_BASELINK,FL_TO_BASELINK,FR_TO_BASELINK,-0.0015197459857994033,0.032663007261637844,-0.1784939486248156,-0.20266972523871196,0.932207993350844,0.9319085968157513,0.8718602478399643,0.8324457616000628,0.0,0.0,0.0,0.0
504615000000,4881,504615000000,,BL_TO_BASELINK,BR_TO_BASELINK,FL_TO_BASELINK,FR_TO_BASELINK,-0.0005875381724074202,0.03359491468139453,-0.1776239086524649,-0.20183474674382396,0.932207908326784,0.9319075149331736,0.8700393469917941,0.8349734310505772,0.0,0.0,0.0,0.0
504616000000,4882,504616000000,,BL_TO_BASELINK,BR_TO_BASELINK,FL_TO_BASELINK,FR_TO_BASELINK,0.0003446695742468364,0.03452682098634874,-0.17675562575911652,-0.20099731908317953,0.9322078219591756,0.9319064028167707,0.8682827060456121,0.8374215041664317,0.0,0.0,0.0,0.0
504617000000,4883,504617000000,,BL_TO_BASELINK,BR_TO_BASELINK,FL_TO_BASELINK,FR_TO_BASELINK,0.0012768772125353323,0.03545872619552615,-0.17588898348642612,-0.20015755132358581,0.9322077430601919,0.9319053097806992,0.8666424139863691,0.8397609064194099,0.0,0.0,0.0,0.0
504618000000,4884,504618000000,,BL_TO_BASELINK,BR_TO_BASELINK,FL_TO_BASELINK,FR_TO_BASELINK,0.0022090847991593776,0.036390630401504254,-0.17502383234806462,-0.19931558138061067,0.9322076871801401,0.9319043093792949,0.8651515054173803,0.8419627231055712,0.0,0.0,0.0,0.0
504619000000,4885,504619000000,,BL_TO_BASELINK,BR_TO_BASELINK,FL_TO_BASELINK,FR_TO_BASELINK,0.003141292351366509,0.037322533712876194,-0.17416000220769412,-0.19847156977300884,0.9322076549147983,0.9319034176286046,0.8638306328677136,0.8440042829462819,0.0,0.0,0.0,0.0
504620000000,4886,504620000000,,BL_TO_BASELINK,BR_TO_BASELINK,FL_TO_BASELINK,FR_TO_BASELINK,0.00407349989109651,0.038254436245391155,-0.17329731272981785,-0.19762569298688515,0.9322076451789769,0.9319026416817268,0.8626899986177851,0.8458695547072734,0.0,0.0,0.0,0.0
504621000000,4887,504621000000,,BL_TO_BASELINK,BR_TO_BASELINK,FL_TO_BASELINK,FR_TO_BASELINK,0.005005707438645146,0.03918633811521044,-0.17243557914837826,-0.19677813451599224,0.9322076559324273,0.9319019819557346,0.8617340395000362,0.8475514760201026,0.0,0.0,0.0,0.0
504622000000,4888,504622000000,,BL_TO_BASELINK,BR_TO_BASELINK,FL_TO_BASELINK,FR_TO_BASELINK,0.005937915010910899,0.04011823943148407,-0.17157462092912645,-0.19592908098727957,0.9322076836925077,0.9319014314380858,0.8609585325646004,0.8490468656623076,0.0,0.0,0.0,0.0
504623000000,4889,504623000000,,BL_TO_BASELINK,BR_TO_BASELINK,FL_TO_BASELINK,FR_TO_BASELINK,0.006870122621778663,0.04105014029481957,-0.17071426341443097,-0.19507871380746256,0.9322077254201295,0.9319009815878601,0.8603576124957404,0.8503609062565597,0.0,0.0,0.0,0.0
504624000000,4890,504624000000,,BL_TO_BASELINK,BR_TO_BASELINK,FL_TO_BASELINK,FR_TO_BASELINK,0.007940078572423737,0.04198378001087555,-0.1697805877730696,-0.1940324845364687,1.0142545803780294,0.9332095770135166,0.9332035310009313,0.986026893039109,0.0,0.0,0.0,0.0
504625000000,4891,504625000000,,BL_TO_BASELINK,BR_TO_BASELINK,FL_TO_BASELINK,FR_TO_BASELINK,0.00887193795904917,0.04291610088701869,-0.16884825595727904,-0.1931001598193074,0.9323210041053591,0.9323209529800269,0.9323209966064756,0.9323208859253616,0.0,0.0,0.0,0.0
504626000000,4892,504626000000,,BL_TO_BASELINK,BR_TO_BASELINK,FL_TO_BASELINK,FR_TO_BASELINK,0.009803952994638543,0.04384832674442585,-0.16791614819513256,-0.1922083866383275,0.9322753283284553,0.9322259440207838,0.9321007392289503,0.8917706115034442,0.0,0.0,0.0,0.0
504627000000,4893,504627000000,,BL_TO_BASELINK,BR_TO_BASELINK,FL_TO_BASELINK,FR_TO_BASELINK,0.01078875885671593,0.044781010063287496,-0.16698345542800386,-0.19123072216328385,0.9790783780924848,0.9287387271877985,0.9327228611932614,0.9707732125400373,0.0,0.0,0.0,0.0
504628000000,4894,504628000000,,BL_TO_BASELINK,BR_TO_BASELINK,FL_TO_BASELINK,FR_TO_BASELINK,0.011720691227743885,0.04571333094411134,-0.16605113165889573,-0.19029840128236142,0.932320814347454,0.9323209498158119,0.9323209029093495,0.9323209392304649,0.0,0.0,0.0,0.0
504629000000,4895,504629000000,,BL_TO_BASELINK,BR_TO_BASELINK,FL_TO_BASELINK,FR_TO_BASELINK,0.012652726992750551,0.04664549435524101,-0.1651191292286569,-0.18943506753187922,0.9322623813016777,0.932163492534924,0.9320005573668495,0.8633348008007107,0.0,0.0,0.0,0.0
504630000000,4896,504630000000,,BL_TO_BASELINK,BR_TO_BASELINK,FL_TO_BASELINK,FR_TO_BASELINK,0.013601713928163228,0.04757837354342698,-0.16418627000668984,-0.18848378379185693,0.9345608743360574,0.9323960208900819,0.9323639944874221,0.9381972500081599,0.0,0.0,0.0,0.0
504631000000,4897,504631000000,,BL_TO_BASELINK,BR_TO_BASELINK,FL_TO_BASELINK,FR_TO_BASELINK,0.014533808469221476,0.04851069442746425,-0.16325394836474416,-0.18755146273458578,0.9323207801976514,0.9323209490429261,0.9323209137490971,0.9323209643699897,0.0,0.0,0.0,0.0
504632000000,4898,504632000000,,BL_TO_BASELINK,BR_TO_BASELINK,FL_TO_BASELINK,FR_TO_BASELINK,0.015465926501218696,0.049442801823587956,-0.16232203259531186,-0.18671376098292036,0.9322526396938713,0.9321074718729107,0.9319152966835538,0.8377122976984269,0.0,0.0,0.0,0.0
504633000000,4899,504633000000,,BL_TO_BASELINK,BR_TO_BASELINK,FL_TO_BASELINK,FR_TO_BASELINK,0.01639725308040596,0.050375447036779875,-0.16138942138544632,-0.18578089756581306,0.915702643938131,0.9321930954819297,0.9321411380990599,0.9189900773945469,0.0,0.0,0.0,0.0
504634000000,4900,504634000000,,BL_TO_BASELINK,BR_TO_BASELINK,FL_TO_BASELINK,FR_TO_BASELINK,0.01732945661970753,0.051307767924768655,-0.16045710030303528,-0.1848485730286784,0.9323208260379849,0.9323209495492303,0.9323209327154632,0.9323210216024663,0.0,0.0,0.0,0.0
504635000000,4901,504635000000,,BL_TO_BASELINK,BR_TO_BASELINK,FL_TO_BASELINK,FR_TO_BASELINK,0.0182616309243544,0.05223983541587707,-0.1595252479136624,-0.18402916348925125,0.9322449871990032,0.9320675636739618,0.9318523042614947,0.8194391871468479,0.0,0.0,0.0,0.0
504636000000,4902,504636000000,,BL_TO_BASELINK,BR_TO_BASELINK,FL_TO_BASELINK,FR_TO_BASELINK,0.01918019196050924,0.05317231943778111,-0.15859281637343337,-0.18311194735467584,0.9051121339128863,0.9321346907852156,0.9320699087235899,0.9048774781798289,0.0,0.0,0.0,0.0
504637000000,4903,504637000000,,BL_TO_BASELINK,BR_TO_BASELINK,FL_TO_BASELINK,FR_TO_BASELINK,0.02011245707433673,0.054104640329347475,-0.15766049543381033,-0.18217961314064546,0.9323208778136282,0.9323209504946846,0.9323209435485074,0.9323210618266523,0.0,0.0,0.0,0.0
504638000000,4904,504638000000,,BL_TO_BASELINK,BR_TO_BASELINK,FL_TO_BASELINK,FR_TO_BASELINK,0.021044662990435725,0.05503668187565758,-0.15672868480128344,-0.18137214426876014,0.9322398277871364,0.9320416143004394,0.9318106487498414,0.8075179291617464,0.0,0.0,0.0,0.0
504639000000,4905,504639000000,,BL_TO_BASELINK,BR_TO_BASELINK,FL_TO_BASELINK,FR_TO_BASELINK,0.021956594737621238,0.05596902186019914,-0.1557964054086982,-0.18046530526964322,0.9000615124134568,0.9320424126809328,0.9319664534029702,0.896279969357777,0.0,0.0,0.0,0.0
504640000000,4906,504640000000,,BL_TO_BASELINK,BR_TO_BASELINK,FL_TO_BASELINK,FR_TO_BASELINK,0.022895955926028222,0.05690019221775433,-0.15486524996444118,-0.1795999862384754,0.9395150171414154,0.9311687874141946,0.9311540727138042,0.8653832489864299,0.0,0.0,0.0,0.0
504641000000,4907,504641000000,,BL_TO_BASELINK,BR_TO_BASELINK,FL_TO_BASELINK,FR_TO_BASELINK,0.023828206032676214,0.057832304585877736,-0.153933291878511,-0.17875429060278325,0.9322680437861315,0.9321124336044989,0.9319581406233522,0.8457323794542742,0.0,0.0,0.0,0.0
504642000000,4908,504642000000,,BL_TO_BASELINK,BR_TO_BASELINK,FL_TO_BASELINK,FR_TO_BASELINK,0.02472992439131705,0.058764287517645286,-0.15300140256283523,-0.177864213517978,0.9017112708833319,0.9319829834436888,0.9318893500940797,0.8900710845053633,0.0,0.0,0.0,0.0
504644000000,4909,504643000000,,BL_TO_BASELINK,BR_TO_BASELINK,FL_TO_BASELINK,FR_TO_BASELINK,0.02566813722349881,0.05969551363904557,-0.15207022291447814,-0.1770003298070737,0.9383301030107631,0.9312254004883221,0.9311791593842339,0.8638999172704521,0.0,0.0,0.0,0.0
504644000000,4910,504644000000,,BL_TO_BASELINK,BR_TO_BASELINK,FL_TO_BASELINK,FR_TO_BASELINK,0.026600395881564154,0.060627615891188924,-0.15113828157166065,-0.17615386324109839,0.9322659252614578,0.9321023203699277,0.9319414028811297,0.8464974677223772,0.0,0.0,0.0,0.0
504645000000,4911,504645000000,,BL_TO_BASELINK,BR_TO_BASELINK,FL_TO_BASELINK,FR_TO_BASELINK,0.02750714405982624,0.06155949869352195,-0.15020649003702324,-0.17526447199565887,0.9067365564031095,0.9318828275171783,0.9317915392943883,0.8893726809939296,0.0,0.0,0.0,0.0
504646000000,4912,504646000000,,BL_TO_BASELINK,BR_TO_BASELINK,FL_TO_BASELINK,FR_TO_BASELINK,0.028446812967191093,0.062490637471821486,-0.14927536303623068,-0.17439822458022913,0.9397739358351836,0.9311388613498448,0.9311270874524061,0.8662521299811045,0.0,0.0,0.0,0.0
504647000000,4913,504647000000,,BL_TO_BASELINK,BR_TO_BASELINK,FL_TO_BASELINK,FR_TO_BASELINK,0.02937907492339331,0.06342274315058649,-0.14834341737988765,-0.17354947794667464,0.932266259795282,0.9321057405447595,0.9319457123489402,0.8487707792883644,0.0,0.0,0.0,0.0
504648000000,4914,504648000000,,BL_TO_BASELINK,BR_TO_BASELINK,FL_TO_BASELINK,FR_TO_BASELINK,0.03029050926571486,0.06435461019137279,-0.1474116382820858,-0.17265823078948284,0.9114230294787877,0.9318670756427064,0.9317791159585687,0.8912260939076196,0.0,0.0,0.0,0.0
504649000000,4915,504649000000,,BL_TO_BASELINK,BR_TO_BASELINK,FL_TO_BASELINK,FR_TO_BASELINK,0.031229801134141866,0.0652858060900332,-0.14648045517290953,-0.1717892842716271,0.9393907645839024,0.931195975391795,0.9311831896986748,0.8689461810861336,0.0,0.0,0.0,0.0
504650000000,4916,504650000000,,BL_TO_BASELINK,BR_TO_BASELINK,FL_TO_BASELINK,FR_TO_BASELINK,0.03216206467217653,0.06621791595983773,-0.14554850306964706,-0.17093818850558584,0.9322670743653008,0.9321099262434098,0.9319521546080742,0.8511159988661108,0.0,0.0,0.0,0.0
504651000000,4917,504651000000,,BL_TO_BASELINK,BR_TO_BASELINK,FL_TO_BASELINK,FR_TO_BASELINK,0.03307702854061656,0.06714978392095983,-0.1446167208287008,-0.17004467755193886,0.9149524543338252,0.9318680227679834,0.9317822957486125,0.8934860364240159,0.0,0.0,0.0,0.0
504652000000,4918,504652000000,,BL_TO_BASELINK,BR_TO_BASELINK,FL_TO_BASELINK,FR_TO_BASELINK,0.03401600535398952,0.06808102698136409,-0.14368549186114254,-0.16917365957624142,0.9390712977019177,0.9312431331260611,0.9312290438737622,0.8710156127064526,0.0,0.0,0.0,0.0
504653000000,4919,504653000000,,BL_TO_BASELINK,BR_TO_BASELINK,FL_TO_BASELINK,FR_TO_BASELINK,0.03494819682329098,0.06901285384669631,-0.14294973528135646,-0.16824077389103742,0.9321165557881198,0.9317230885108115,0.7548384628803633,0.933202376231864,0.0,0.0,0.0,0.0
504654000000,4920,504654000000,,BL_TO_BASELINK,BR_TO_BASELINK,FL_TO_BASELINK,FR_TO_BASELINK,0.03589098246768074,0.06994348200857825,-0.14212588069641274,-0.16730850141573317,0.9428947917902573,0.9306306990498314,0.8239625506025398,0.9322311513326688,0.0,0.0,0.0,0.0
504655000000,4921,504655000000,,BL_TO_BASELINK,BR_TO_BASELINK,FL_TO_BASELINK,FR_TO_BASELINK,0.036823227710431006,0.07087553082731723,-0.14131609438183013,-0.1663759168165857,0.9322538550039249,0.9320488825205738,0.809910421141783,0.9325582088977462,0.0,0.0,0.0,0.0
504656000000,4922,504656000000,,BL_TO_BASELINK,BR_TO_BASELINK,FL_TO_BASELINK,FR_TO_BASELINK,0.03768946563274955,0.07180852631137302,-0.14046345336932298,-0.16544373328335826,0.8662375574049188,0.9329956064401544,0.8527987619824638,0.9321665377446873,0.0,0.0,0.0,0.0
504657000000,4923,504657000000,,BL_TO_BASELINK,BR_TO_BASELINK,FL_TO_BASELINK,FR_TO_BASELINK,0.03862649131260465,0.07274005708038178,-0.13963244773057326,-0.1645113371174567,0.937096818120891,0.9315279567578658,0.8311563709877045,0.9323784412359567,0.0,0.0,0.0,0.0
504658000000,4924,504658000000,,BL_TO_BASELINK,BR_TO_BASELINK,FL_TO_BASELINK,FR_TO_BASELINK,0.039558624839862944,0.0736716848038439,-0.13879712167879799,-0.16367458397084889,0.9321341455974307,0.9316277875870141,0.8352373909187304,0.8367626396473157,0.0,0.0,0.0,0.0
504659000000,4925,504659000000,,BL_TO_BASELINK,BR_TO_BASELINK,FL_TO_BASELINK,FR_TO_BASELINK,0.04044634109700951,0.07460185761721316,-0.1379269524044897,-0.1628033209051969,0.8876946444534699,0.9302048806252595,0.8700576562391116,0.8712249033821065,0.0,0.0,0.0,0.0
504660000000,4926,504660000000,,BL_TO_BASELINK,BR_TO_BASELINK,FL_TO_BASELINK,FR_TO_BASELINK,0.04133429250523957,0.07553194377938599,-0.1370531901484151,-0.16192963471437238,0.8879655327374285,0.9301125619425654,0.8737230450513209,0.8737367124922976,0.0,0.0,0.0,0.0
504661000000,4927,504661000000,,BL_TO_BASELINK,BR_TO_BASELINK,FL_TO_BASELINK,FR_TO_BASELINK,0.04222855722281782,0.07646179514001705,-0.13617118862741062,-0.16104587176591334,0.8942175306252549,0.929852340287964,0.8819403982233809,0.8837811347554667,0.0,0.0,0.0,0.0
504662000000,4928,504662000000,,BL_TO_BASELINK,BR_TO_BASELINK,FL_TO_BASELINK,FR_TO_BASELINK,0.043160749994353154,0.07739378509007722,-0.13529739742110358,-0.16017472883849315,0.9322339490981031,0.9319900271446775,0.8737527231699016,0.871161519037763,0.0,0.0,0.0,0.0
504663000000,4929,504663000000,,BL_TO_BASELINK,BR_TO_BASELINK,FL_TO_BASELINK,FR_TO_BASELINK,0.04406589390559734,0.07832621711081877,-0.1343293979460647,-0.15928277777848532,0.9051551769403604,0.9324305140643556,0.96828044878395,0.8919595423497918,0.0,0.0,0.0,0.0
504664000000,4930,504664000000,,BL_TO_BASELINK,BR_TO_BASELINK,FL_TO_BASELINK,FR_TO_BASELINK,0.04496461691024045,0.07925897318617459,-0.13339668350304645,-0.1583971385153351,0.8987059733784648,0.9327561531493034,0.9326645500458293,0.8856263022019769,0.0,0.0,0.0,0.0
504665000000,4931,504665000000,,BL_TO_BASELINK,BR_TO_BASELINK,FL_TO_BASELINK,FR_TO_BASELINK,0.045864240347214036,0.08019150907023054,-0.13246420858335384,-0.15750948905582884,0.8996155726622869,0.9325359487158097,0.9324427391400194,0.8876410012380894,0.0,0.0,0.0,0.0
504666000000,4932,504666000000,,BL_TO_BASELINK,BR_TO_BASELINK,FL_TO_BASELINK,FR_TO_BASELINK,0.04676774144843421,0.08112328832728455,-0.13155650717602185,-0.15661961548084946,0.9034993068290378,0.9317793927955903,0.9077089083486509,0.889858830025582,0.0,0.0,0.0,0.0
504667000000,4933,504667000000,,BL_TO_BASELINK,BR_TO_BASELINK,FL_TO_BASELINK,FR_TO_BASELINK,0.04767206553507197,0.08205590025503362,-0.13062395448537423,-0.15572569353519938,0.9043250578796839,0.9326119949757466,0.9325286400592893,0.8939108750349902,0.0,0.0,0.0,0.0
504668000000,4934,504668000000,,BL_TO_BASELINK,BR_TO_BASELINK,FL_TO_BASELINK,FR_TO_BASELINK,0.048570537466170904,0.08298840076481007,-0.1297185423225864,-0.15483548532083535,0.8984897104639847,0.9325004857021524,0.9054347356188918,0.8901971274319065,0.0,0.0,0.0,0.0
504669000000,4935,504669000000,,BL_TO_BASELINK,BR_TO_BASELINK,FL_TO_BASELINK,FR_TO_BASELINK,0.04947509936821515,0.08392100554776949,-0.12878600882081415,-0.15393804568518377,0.9045670357457758,0.9326048468719723,0.9325143024219412,0.8974291391763065,0.0,0.0,0.0,0.0
504670000000,4936,504670000000,,BL_TO_BASELINK,BR_TO_BASELINK,FL_TO_BASELINK,FR_TO_BASELINK,0.05037938637983341,0.08485296385695928,-0.12787341146261344,-0.15304210121395645,0.9042938609509378,0.9319582944674125,0.9126047789733741,0.8959318443523637,0.0,0.0,0.0,0.0
504671000000,4937,504671000000,,BL_TO_BASELINK,BR_TO_BASELINK,FL_TO_BASELINK,FR_TO_BASELINK,0.051327994339971816,0.08578296731335211,-0.12712322760790418,-0.1521097747958704,0.9438983002150616,0.9303724301605769,0.7679451524027555,0.9323803545605936,0.0,0.0,0.0,0.0
504672000000,4938,504672000000,,BL_TO_BASELINK,BR_TO_BASELINK,FL_TO_BASELINK,FR_TO_BASELINK,0.052260291267299586,0.08671528817422214,-0.12619083691566413,-0.15117743853027132,0.9323207646631315,0.9323209513789842,0.9323217867392699,0.9323206480073288,0.0,0.0,0.0,0.0
504673000000,4939,504673000000,,BL_TO_BASELINK,BR_TO_BASELINK,FL_TO_BASELINK,FR_TO_BASELINK,0.053174838500790855,0.08764814143182686,-0.12525806170999232,-0.1502448928066551,0.9145807989781995,0.9328534111697436,0.9327311013301143,0.9325355603054674,0.0,0.0,0.0,0.0
504674000000,4940,504674000000,,BL_TO_BASELINK,BR_TO_BASELINK,FL_TO_BASELINK,FR_TO_BASELINK,0.054106896820171,0.0885796021347911,-0.12451934266620945,-0.14949594036153524,0.9320742052454315,0.9315259833585807,0.7527491883252182,0.7553204757848581,0.0,0.0,0.0,0.0
504675000000,4941,504675000000,,BL_TO_BASELINK,BR_TO_BASELINK,FL_TO_BASELINK,FR_TO_BASELINK,0.054973435696763495,0.08950944928529836,-0.12358939390703849,-0.14861723863132958,0.8666860156553874,0.9298719459406588,0.9299080047503714,0.878621027527884,0.0,0.0,0.0,0.0
504676000000,4942,504676000000,,BL_TO_BASELINK,BR_TO_BASELINK,FL_TO_BASELINK,FR_TO_BASELINK,0.05590563658213288,0.09044136033178862,-0.12279387470439662,-0.14768443378149154,0.9322018686823427,0.9319111195072195,0.7956257655653232,0.9328040182857396,0.0,0.0,0.0,0.0
504678000000,4943,504677000000,,BL_TO_BASELINK,BR_TO_BASELINK,FL_TO_BASELINK,FR_TO_BASELINK,0.056837956830351644,0.09137368120395628,-0.12186148141180286,-0.14675211226211093,0.9323209169897378,0.9323209670015845,0.9323216110522585,0.9323209174881198,0.0,0.0,0.0,0.0
504678000000,4944,504678000000,,BL_TO_BASELINK,BR_TO_BASELINK,FL_TO_BASELINK,FR_TO_BASELINK,0.05769145090537009,0.09230739375186836,-0.12101345103830852,-0.14591762442171774,0.8534473340991008,0.9336951962369819,0.8480103526082691,0.8344046611314612,0.0,0.0,0.0,0.0
504679000000,4945,504679000000,,BL_TO_BASELINK,BR_TO_BASELINK,FL_TO_BASELINK,FR_TO_BASELINK,0.05862428690019872,0.09323965184540128,-0.12008112937665771,-0.14498532942490616,0.9328420227788363,0.9322581600133913,0.9322734560983849,0.932294832314189,0.0,0.0,0.0,0.0
504680000000,4946,504680000000,,BL_TO_BASELINK,BR_TO_BASELINK,FL_TO_BASELINK,FR_TO_BASELINK,0.059556448289249,0.09417151396485579,-0.11927688963992278,-0.1440785599029022,0.9321611562253234,0.9318611983891226,0.8042634221202907,0.9063614553242273,0.0,0.0,0.0,0.0
504681000000,4947,504681000000,,BL_TO_BASELINK,BR_TO_BASELINK,FL_TO_BASELINK,FR_TO_BASELINK,0.0604887689680762,0.0951038348280484,-0.11834452430799303,-0.14314623867701748,0.932320941532767,0.9323209462432513,0.9323212487497888,0.93232091748229,0.0,0.0,0.0,0.0
504682000000,4948,504682000000,,BL_TO_BASELINK,BR_TO_BASELINK,FL_TO_BASELINK,FR_TO_BASELINK,0.061343569513617524,0.09604244827199881,-0.11735801535019785,-0.14229703989093334,0.8549670520714051,0.9385989079987326,0.9887554430197303,0.849200369858174,0.0,0.0,0.0,0.0
504683000000,4949,504683000000,,BL_TO_BASELINK,BR_TO_BASELINK,FL_TO_BASELINK,FR_TO_BASELINK,0.062276208592284554,0.09697565011637987,-0.11649673598125965,-0.14136611786957687,0.9326413552859951,0.9331997801418147,0.8613263662779651,0.9309250333096056,0.0,0.0,0.0,0.0
504684000000,4950,504684000000,,BL_TO_BASELINK,BR_TO_BASELINK,FL_TO_BASELINK,FR_TO_BASELINK,0.06320852757209394,0.09790797096526838,-0.11556439021445186,-0.14043379698384406,0.9323208773685602,0.9323209243844155,0.9323215098040251,0.9323209668515658,0.0,0.0,0.0,0.0
504685000000,4951,504685000000,,BL_TO_BASELINK,BR_TO_BASELINK,FL_TO_BASELINK,FR_TO_BASELINK,0.06417425551580358,0.09883468594488942,-0.11473336465807549,-0.13959020882013196,0.966202158695026,0.9267145354906928,0.8310233881376545,0.8435810474532277,0.0,0.0,0.0,0.0
504686000000,4952,504686000000,,BL_TO_BASELINK,BR_TO_BASELINK,FL_TO_BASELINK,FR_TO_BASELINK,0.06510651989802341,0.09976684210940423,-0.11380135672840197,-0.1387323708044219,0.9322652193059559,0.9321562093223592,0.9319949766318467,0.8578321682795709,0.0,0.0,0.0,0.0
504687000000,4953,504687000000,,BL_TO_BASELINK,BR_TO_BASELINK,FL_TO_BASELINK,FR_TO_BASELINK,0.06598640528515443,0.10069877642375946,-0.11292805839193676,-0.1378457601557912,0.8798734781295472,0.9319353520479057,0.873280723679325,0.8866128737799573,0.0,0.0,0.0,0.0
504688000000,4954,504688000000,,BL_TO_BASELINK,BR_TO_BASELINK,FL_TO_BASELINK,FR_TO_BASELINK,0.0669253294028147,0.10163006640402017,-0.11199675667867304,-0.1369638792174115,0.9390135203560124,0.9312901276982763,0.9312951224757567,0.8818865969266283,0.0,0.0,0.0,0.0
504689000000,4955,504689000000,,BL_TO_BASELINK,BR_TO_BASELINK,FL_TO_BASELINK,FR_TO_BASELINK,0.06785818678105393,0.10256345729789729,-0.1111345560932877,-0.13609930150462723,0.9328554914786742,0.9333928195007418,0.862251540298159,0.8645895699723813,0.0,0.0,0.0,0.0
504690000000,4956,504690000000,,BL_TO_BASELINK,BR_TO_BASELINK,FL_TO_BASELINK,FR_TO_BASELINK,0.06879044303165571,0.10349556402377047,-0.11020263258442853,-0.13523722885746814,0.9322567167793768,0.9321068083931494,0.9319175992184234,0.8620838612398545,0.0,0.0,0.0,0.0
504691000000,4957,504691000000,,BL_TO_BASELINK,BR_TO_BASELINK,FL_TO_BASELINK,FR_TO_BASELINK,0.06969117202188713,0.10442785122454978,-0.10930736381487183,-0.1343343566669457,0.9007215227391769,0.9322879694944748,0.8952616182687211,0.9028710703612982,0.0,0.0,0.0,0.0
504692000000,4958,504692000000,,BL_TO_BASELINK,BR_TO_BASELINK,FL_TO_BASELINK,FR_TO_BASELINK,0.07062866587792982,0.10535935402411223,-0.10837584847393256,-0.13344631551097752,0.9375654975306004,0.9315029704802796,0.9315112900707908,0.8880509581829733,0.0,0.0,0.0,0.0
504693000000,4959,504693000000,,BL_TO_BASELINK,BR_TO_BASELINK,FL_TO_BASELINK,FR_TO_BASELINK,0.07156018514212459,0.10629031309353376,-0.10753528019714409,-0.13250957570042132,0.931524580276508,0.9309670021539797,0.8405323380519099,0.9369987652169589,0.0,0.0,0.0,0.0
504694000000,4960,504694000000,,BL_TO_BASELINK,BR_TO_BASELINK,FL_TO_BASELINK,FR_TO_BASELINK,0.07247704336879313,0.10722157378744868,-0.1066038018507145,-0.13157773795994832,0.916861344462866,0.9312604162226965,0.9314723604704398,0.9318274897634767,0.0,0.0,0.0,0.0
