%time,field.name0,field.name1,field.pose0.position.x,field.pose0.position.y,field.pose0.position.z,field.pose0.orientation.x,field.pose0.orientation.y,field.pose0.orientation.z,field.pose0.orientation.w,field.pose1.position.x,field.pose1.position.y,field.pose1.position.z,field.pose1.orientation.x,field.pose1.orientation.y,field.pose1.orientation.z,field.pose1.orientation.w,field.twist0.linear.x,field.twist0.linear.y,field.twist0.linear.z,field.twist0.angular.x,field.twist0.angular.y,field.twist0.angular.z,field.twist1.linear.x,field.twist1.linear.y,field.twist1.linear.z,field.twist1.angular.x,field.twist1.angular.y,field.twist1.angular.z
160077000000,hina_ssi_visual_root,khm2,0.0,0.0,0.0,0.0,0.0,0.0,1.0,-0.00015171046958786344,-0.0021475158500055243,0.17423514423990855,-0.004067323344502896,-0.005091587700766886,-0.7069448660619023,0.7072386365041263,0.0,0.0,0.0,0.0,0.0,0.0,0.002004375680801344,-0.005347085078649359,-0.0001756361324195474,-0.007511147947251383,-0.03245927863813306,0.4870387939647855
160077000000,hina_ssi_visual_root,khm2,0.0,0.0,0.0,0.0,0.0,0.0,1.0,-0.00015361781393037003,-0.002151733800456511,0.17423466016099248,-0.004080622638032487,-0.005076584252594842,-0.7071170175801642,0.7070665458496435,0.0,0.0,0.0,0.0,0.0,0.0,-0.0019073443425066004,-0.004217950450986668,-0.0004840789160633057,0.002754825387802524,0.03687295102430049,-0.48707911077966287
160077000000,hina_ssi_visual_root,khm2,0.0,0.0,0.0,0.0,0.0,0.0,1.0,-0.00015138253059939337,-0.0021570917374930157,0.1742342200603118,-0.004069013944671944,-0.005092664961142008,-0.7069448578485825,0.7072386272330996,0.0,0.0,0.0,0.0,0.0,0.0,0.0022352833309766604,-0.005357937036504784,-0.0004401006806857635,-0.006669216489979028,-0.03600546334356308,0.48706924094096626
160077000000,hina_ssi_visual_root,khm2,0.0,0.0,0.0,0.0,0.0,0.0,1.0,-0.0001534577359426443,-0.002161333991852522,0.17423365184852363,-0.0040821776398331025,-0.005076328852589726,-0.7071170254917344,0.7070665307952422,0.0,0.0,0.0,0.0,0.0,0.0,-0.0020752053432509287,-0.0042422543595062034,-0.000568211788165374,0.004830767267096125,0.03856510425413772,-0.48711963361364696
160077000000,hina_ssi_visual_root,khm2,0.0,0.0,0.0,0.0,0.0,0.0,1.0,-0.00015118948128444676,-0.0021667217428154055,0.17423332409567818,-0.004068238863326277,-0.005092930796701793,-0.7069448617760853,0.7072386258518707,0.0,0.0,0.0,0.0,0.0,0.0,0.0022682546581975467,-0.0053877509628832785,-0.00032775284545134495,-0.004110624192191532,-0.04003722367267398,0.4871221657394286
160077000000,hina_ssi_visual_root,khm2,0.0,0.0,0.0,0.0,0.0,0.0,1.0,-0.0001535129306159482,-0.0021709911910464193,0.1742330448995518,-0.004081088842449406,-0.0050753010503294645,-0.7071170394406261,0.7070665305088571,0.0,0.0,0.0,0.0,0.0,0.0,-0.002323449331501426,-0.004269448231013762,-0.0002791961263972319,0.007104042217519153,0.039951470742956754,-0.48713957340028824
160078000000,hina_ssi_visual_root,khm2,0.0,0.0,0.0,0.0,0.0,0.0,1.0,-0.0001512396588099927,-0.0021763987134180234,0.17423310283185064,-0.0040655443829880665,-0.005092414389170574,-0.7069448670072835,0.7072386398356731,0.0,0.0,0.0,0.0,0.0,0.0,0.0022732718059555023,-0.005407522371603901,5.793229883869176e-05,-0.0025631999861100044,-0.04303172854655807,0.4871750877638189
160079000000,hina_ssi_visual_root,khm2,0.0,0.0,0.0,0.0,0.0,0.0,1.0,-0.00015374739807912582,-0.0021806754679197502,0.17423321906918618,-0.004078780714481244,-0.005074141796073716,-0.7071170496115676,0.7070665419757524,0.0,0.0,0.0,0.0,0.0,0.0,-0.0025077392691331118,-0.004276754501726818,0.00011623733552186717,0.007467249221140463,0.041408062952153,-0.487159179508395
160080000000,hina_ssi_visual_root,khm2,0.0,0.0,0.0,0.0,0.0,0.0,1.0,-0.00015141993177881195,-0.002186073970668028,0.17423364802977012,-0.004063588888188751,-0.0050917283644652065,-0.7069448641051435,0.7072386589143517,0.0,0.0,0.0,0.0,0.0,0.0,0.0023274663003138634,-0.005398502748277751,0.00042896058395278623,-0.003731593503365079,-0.04320324291018995,0.48720451387604985
160081000000,hina_ssi_visual_root,khm2,0.0,0.0,0.0,0.0,0.0,0.0,1.0,-0.00015390761987902696,-0.0021903289022924175,0.17423401671663952,-0.004078299146806876,-0.00507363997372938,-0.7071170459733455,0.7070665519931032,0.0,0.0,0.0,0.0,0.0,0.0,-0.002487688100215023,-0.004254931624389568,0.0003686868694020521,0.005122325918501349,0.043232307226185866,-0.4871843786391521
160082000000,hina_ssi_visual_root,khm2,0.0,0.0,0.0,0.0,0.0,0.0,1.0,-0.00015144432550347602,-0.002195702927229411,0.17423455806394295,-0.0040643395585101974,-0.005091804988731021,-0.7069448543146428,0.7072386638355953,0.0,0.0,0.0,0.0,0.0,0.0,0.002463294375550946,-0.005374024936993742,0.0005413473034297303,-0.006292297560513914,-0.042278910753423896,0.4871981912290542
160083000000,hina_ssi_visual_root,khm2,0.0,0.0,0.0,0.0,0.0,0.0,1.0,-0.00015383231741419593,-0.002199937421053204,0.1742348585389637,-0.004080050501087739,-0.005074242426249645,-0.7071170368797189,0.7070665466603228,0.0,0.0,0.0,0.0,0.0,0.0,-0.002387991910719928,-0.004234493823792848,0.0003004750207401801,0.0029631091652731526,0.043902996777799026,-0.48720580643706285
160084000000,hina_ssi_visual_root,khm2,0.0,0.0,0.0,0.0,0.0,0.0,1.0,-0.00015129954735628145,-0.0022053046532269213,0.1742351777181544,-0.0040664701716168,-0.005092636795631431,-0.7069448464290734,0.7072386534814008,0.0,0.0,0.0,0.0,0.0,0.0,0.002532770057914493,-0.005367232173717522,0.00031917919068757093,-0.007152613972786132,-0.04206613746626214,0.48718747955168107
160085000000,hina_ssi_visual_root,khm2,0.0,0.0,0.0,0.0,0.0,0.0,1.0,-0.00015366374203877681,-0.0022095474002337564,0.17423513376881147,-0.004081781682325255,-0.0050750876674049835,-0.7071170324588023,0.7070665350234893,0.0,0.0,0.0,0.0,0.0,0.0,-0.002364194682495359,-0.0042427470068348875,-4.3949342911483655e-05,0.0035086798617471214,0.043318179809946754,-0.48720843772903843
160086000000,hina_ssi_visual_root,khm2,0.0,0.0,0.0,0.0,0.0,0.0,1.0,-0.0001511725747737977,-0.002214936160460115,0.17423505370818454,-0.0040673021243249384,-0.00509312556188021,-0.7069448473532555,0.7072386442539198,0.0,0.0,0.0,0.0,0.0,0.0,0.002491167264979115,-0.005388760226358873,-8.006062692707434e-05,-0.005376467582193075,-0.04283288565604053,0.48718962659996257
160087000000,hina_ssi_visual_root,khm2,0.0,0.0,0.0,0.0,0.0,0.0,1.0,-0.00015360550439571984,-0.0022192071984916775,0.1742346340388804,-0.004081496938692591,-0.005075009370168813,-0.7071170369216774,0.7070665327660046,0.0,0.0,0.0,0.0,0.0,0.0,-0.0024329296219221244,-0.004271038031562363,-0.00041966930414577726,0.005889961750558144,0.042540979922679,-0.487196867516033
160088000000,hina_ssi_visual_root,khm2,0.0,0.0,0.0,0.0,0.0,0.0,1.0,-0.0001511897929391993,-0.0022246214457957224,0.17423426917598434,-0.004065995223769866,-0.005092591362185887,-0.7069448543318793,0.7072386486397192,0.0,0.0,0.0,0.0,0.0,0.0,0.0024157114565205445,-0.005414247304045031,-0.00036486289605613606,-0.003286240340080191,-0.04363382625105251,0.48720210576129536
160089000000,hina_ssi_visual_root,khm2,0.0,0.0,0.0,0.0,0.0,0.0,1.0,-0.00015369268120052042,-0.00222890879952488,0.1742337210751555,-0.004079775846437295,-0.00507402945825089,-0.7071170439348857,0.7070665427177901,0.0,0.0,0.0,0.0,0.0,0.0,-0.0025028882613211045,-0.004287353729157355,-0.0005481008288396906,0.007106326110704345,0.04258649908260638,-0.48718839404928754
160090000000,hina_ssi_visual_root,khm2,0.0,0.0,0.0,0.0,0.0,0.0,1.0,-0.00015129181312739664,-0.002234324335127636,0.17423340130234433,-0.0040642640361709444,-0.005091762938221238,-0.7069448579544368,0.7072386609340628,0.0,0.0,0.0,0.0,0.0,0.0,0.0024008680731237644,-0.0054155356027560725,-0.00031977281116245433,-0.0034864738535001797,-0.0438632066937392,0.4872114669824666
160091000000,hina_ssi_visual_root,khm2,0.0,0.0,0.0,0.0,0.0,0.0,1.0,-0.000153804699849258,-0.002238600030993081,0.17423307257773873,-0.004078828226928868,-0.005073406696962771,-0.7071170444412348,0.7070665521473035,0.0,0.0,0.0,0.0,0.0,0.0,-0.0025128867218613647,-0.004275695865444869,-0.0003287246055994758,0.005707457809561921,0.04340435083105875,-0.48719426293181656
160092000000,hina_ssi_visual_root,khm2,0.0,0.0,0.0,0.0,0.0,0.0,1.0,-0.00015135163802724078,-0.002243994483391569,0.17423309835001122,-0.004064101387489116,-0.005091958103231319,-0.7069448509645211,0.7072386674506269,0.0,0.0,0.0,0.0,0.0,0.0,0.002453061822017236,-0.005394452398488242,2.577227247738123e-05,-0.005753477701336005,-0.04391024031477024,0.48721660600984174
160093000000,hina_ssi_visual_root,khm2,0.0,0.0,0.0,0.0,0.0,0.0,1.0,-0.00015384703619127828,-0.0022482489241385227,0.17423317462106475,-0.004079768434260538,-0.005074092528213141,-0.7071170353419656,0.7070665509014886,0.0,0.0,0.0,0.0,0.0,0.0,-0.002495398164037494,-0.004254440746953683,7.627105352978752e-05,0.003453783137187279,0.044269558303684446,-0.4872094971617315
160094000000,hina_ssi_visual_root,khm2,0.0,0.0,0.0,0.0,0.0,0.0,1.0,-0.00015133505663445648,-0.002253629886877581,0.17423357865500838,-0.004065495867351479,-0.0050932498710209995,-0.7069448391384315,0.7072386619555248,0.0,0.0,0.0,0.0,0.0,0.0,0.002511979556821791,-0.005380962739058441,0.000404033943622175,-0.007252790254456314,-0.044124128228408936,0.4872148382550987
160095000000,hina_ssi_visual_root,khm2,0.0,0.0,0.0,0.0,0.0,0.0,1.0,-0.0001538254123478117,-0.0022578825895692954,0.17423392125502044,-0.004081517166583433,-0.005075305744864128,-0.7071170253363819,0.7070665421080549,0.0,0.0,0.0,0.0,0.0,0.0,-0.0024903557133552,-0.004252702691714384,0.0003426000120413473,0.0030637199912393136,0.044880567171815454,-0.48722106733807813
160096000000,hina_ssi_visual_root,khm2,0.0,0.0,0.0,0.0,0.0,0.0,1.0,-0.00015127620692467655,-0.0022632775823079434,0.1742344440829531,-0.004066719969882279,-0.0050942210601892185,-0.7069448323376877,0.7072386547209614,0.0,0.0,0.0,0.0,0.0,0.0,0.0025492054231351455,-0.0053949927386477674,0.0005228279326622495,-0.006168380850457088,-0.044522808334838265,0.48721595558963504
160097000000,hina_ssi_visual_root,khm2,0.0,0.0,0.0,0.0,0.0,0.0,1.0,-0.00015378528206026884,-0.002267555473011868,0.17423472964863748,-0.004081990618101385,-0.00507554020160867,-0.7071170247396259,0.7070665382887491,0.0,0.0,0.0,0.0,0.0,0.0,-0.0025090751355922947,-0.004277890703924897,0.0002855656843639455,0.005167161279221856,0.04486054874875424,-0.48722342836422355
160098000000,hina_ssi_visual_root,khm2,0.0,0.0,0.0,0.0,0.0,0.0,1.0,-0.00015123855996014563,-0.002272982801569626,0.1742350353049732,-0.004066321588983049,-0.005093387831233463,-0.7069448368318779,0.707238658520506,0.0,0.0,0.0,0.0,0.0,0.0,0.0025467221001232174,-0.005427328557757879,0.0003056563357175489,-0.0034253402198419205,-0.044245654056603655,0.4872196879528128
160099000000,hina_ssi_visual_root,khm2,0.0,0.0,0.0,0.0,0.0,0.0,1.0,-0.0001537338508206934,-0.0022772874046461987,0.17423498895238607,-0.004080671757807188,-0.005074085514849929,-0.7071170336084237,0.707066547472737,0.0,0.0,0.0,0.0,0.0,0.0,-0.0024952908605477926,-0.004304603076572931,-4.6352587119534785e-05,0.007347769928888292,0.044438573963818624,-0.48721764303835047
160100000000,hina_ssi_visual_root,khm2,0.0,0.0,0.0,0.0,0.0,0.0,1.0,-0.00015120427773096103,-0.0022827300639653865,0.17423493228312753,-0.00406486973930547,-0.005091290952581625,-0.7069448482370272,0.7072386705643049,0.0,0.0,0.0,0.0,0.0,0.0,0.002529573089732378,-0.0054426593191876935,-5.6669258532487596e-05,-0.0023289698414711655,-0.04352653457148775,0.4872161676540552
160101000000,hina_ssi_visual_root,khm2,0.0,0.0,0.0,0.0,0.0,0.0,1.0,-0.0001536462125017943,-0.0022870251371728415,0.17423461774419122,-0.004079931511895329,-0.005072148844803946,-0.7071170403931749,0.7070665588546465,0.0,0.0,0.0,0.0,0.0,0.0,-0.0024419347708332624,-0.004295073207454839,-0.0003145389363121021,0.006114430465750195,0.045219345191778025,-0.487217878785659
160102000000,hina_ssi_visual_root,khm2,0.0,0.0,0.0,0.0,0.0,0.0,1.0,-0.00015105987807430087,-0.0022924499519876847,0.17423436230146194,-0.004064581645211216,-0.0050903104111071195,-0.7069448519552987,0.7072386755614182,0.0,0.0,0.0,0.0,0.0,0.0,0.0025863344274934218,-0.005424814814843221,-0.00025544272927716105,-0.004320233346403002,-0.04424014112442308,0.48721460916421033
160103000000,hina_ssi_visual_root,khm2,0.0,0.0,0.0,0.0,0.0,0.0,1.0,-0.00015358819071097088,-0.002296750098060195,0.17423373466287986,-0.004077885509492931,-0.005072812797739907,-0.7071170469338948,0.7070665593532044,0.0,0.0,0.0,0.0,0.0,0.0,-0.0025283126366700184,-0.004300146072510281,-0.0006276385820782049,0.006275571884601014,0.04040812479214617,-0.4871969289819735
160104000000,hina_ssi_visual_root,khm2,0.0,0.0,0.0,0.0,0.0,0.0,1.0,-0.00015133276287693557,-0.00230216862778881,0.17423330339014145,-0.004063181720333253,-0.005090963996109755,-0.7069448550442213,0.7072386758134788,0.0,0.0,0.0,0.0,0.0,0.0,0.0022554278340353034,-0.00541852972861467,-0.0004312727384101298,-0.005220180518765263,-0.04331222520487132,0.4872124509254507
160105000000,hina_ssi_visual_root,khm2,0.0,0.0,0.0,0.0,0.0,0.0,1.0,-0.00015388799398121476,-0.0023064593638549955,0.1742326909571608,-0.004076399220050868,-0.005074371324998457,-0.7071170340417328,0.7070665696333533,0.0,0.0,0.0,0.0,0.0,0.0,-0.0025552311042792023,-0.004290736066185537,-0.0006124329806520192,0.005118869888634652,0.03900648365473784,-0.4871518817793563
160106000000,hina_ssi_visual_root,khm2,0.0,0.0,0.0,0.0,0.0,0.0,1.0,-0.0001517174167473287,-0.0023118626732551812,0.17423243045818573,-0.004062786826426159,-0.005092622412454266,-0.7069448408625642,0.7072386803180176,0.0,0.0,0.0,0.0,0.0,0.0,0.0021705772338860676,-0.00540330940018593,-0.00026049897506815953,-0.006905933476599449,-0.041910016335564,0.4871958354335426
160107000000,hina_ssi_visual_root,khm2,0.0,0.0,0.0,0.0,0.0,0.0,1.0,-0.00015418808849290114,-0.00231614424006074,0.17423215155539096,-0.004076715959620707,-0.005076089433383337,-0.7071170130103885,0.7070665765076971,0.0,0.0,0.0,0.0,0.0,0.0,-0.002470671745572429,-0.004281566805558643,-0.00027890279478522476,0.004028538370830094,0.03992786657976868,-0.48714563294687024
160108000000,hina_ssi_visual_root,khm2,0.0,0.0,0.0,0.0,0.0,0.0,1.0,-0.00015192392452488673,-0.0023215447137226427,0.17423229482655075,-0.004063713278336692,-0.005094077329616446,-0.7069448227877858,0.7072386825846686,0.0,0.0,0.0,0.0,0.0,0.0,0.002264163968014419,-0.005400473661902783,0.00014327115978756896,-0.007396423206086016,-0.04067492299839427,0.487176855736721
160109000000,hina_ssi_visual_root,khm2,0.0,0.0,0.0,0.0,0.0,0.0,1.0,-0.0001542770552245723,-0.0023258349903780063,0.17423244279556124,-0.004077907858885875,-0.005076859986715472,-0.7071169984936176,0.707066578620109,0.0,0.0,0.0,0.0,0.0,0.0,-0.0023531306996855787,-0.0042902766553637416,0.0001479690104934147,0.004620900482702852,0.041270346304375455,-0.48715921601310813
160110000000,hina_ssi_visual_root,khm2,0.0,0.0,0.0,0.0,0.0,0.0,1.0,-0.00015188974999959462,-0.002331254264275077,0.1742329533080794,-0.004064615335597441,-0.005094058954537103,-0.7069448161245986,0.7072386841937444,0.0,0.0,0.0,0.0,0.0,0.0,0.0023873052249776972,-0.005419273897070897,0.000510512518157074,-0.005870597473042065,-0.039968570728848206,0.48716160515097395
160111000000,hina_ssi_visual_root,khm2,0.0,0.0,0.0,0.0,0.0,0.0,1.0,-0.00015416438739538336,-0.0023355677535137733,0.17423334150678385,-0.00407826682598558,-0.00507603182382551,-0.7071169994544534,0.7070665815346884,0.0,0.0,0.0,0.0,0.0,0.0,-0.0022746373957887233,-0.0043134892386963025,0.0003881987044457996,0.006533811060775159,0.04164755018879804,-0.48716923287359626
160112000000,hina_ssi_visual_root,khm2,0.0,0.0,0.0,0.0,0.0,0.0,1.0,-0.00015169511944560963,-0.002341020060894166,0.1742337953119227,-0.0040652922828716374,-0.005090935987576093,-0.7069448266819602,0.7072386922369549,0.0,0.0,0.0,0.0,0.0,0.0,0.0024692679497737404,-0.005452307380392642,0.00045380513884757563,-0.00307432570982334,-0.03627390148489496,0.487133333312554
160113000000,hina_ssi_visual_root,khm2,0.0,0.0,0.0,0.0,0.0,0.0,1.0,-0.00015372982982490342,-0.0023453551424870637,0.17423397793546858,-0.004077486155004332,-0.005073164992359505,-0.7071170134384257,0.7070665926272696,0.0,0.0,0.0,0.0,0.0,0.0,-0.0020347103792937946,-0.0043350815928974926,0.0001826235458587868,0.008232183231578883,0.03922518647046468,-0.4871527899818851
160114000000,hina_ssi_visual_root,khm2,0.0,0.0,0.0,0.0,0.0,0.0,1.0,-0.00015134373724684375,-0.002350819847419364,0.17423412825309909,-0.004065055005762695,-0.005086924308855502,-0.706944853158867,0.7072386960009073,0.0,0.0,0.0,0.0,0.0,0.0,0.00238609257805967,-0.0054647049323001545,0.00015031763050429164,-0.0022228897281895356,-0.033887881390924995,0.4870903635486679
160115000000,hina_ssi_visual_root,khm2,0.0,0.0,0.0,0.0,0.0,0.0,1.0,-0.00015327572123308492,-0.0023551489188694944,0.17423397486447267,-0.004076262322576308,-0.005070760275681832,-0.7071170318714696,0.7070665984990291,0.0,0.0,0.0,0.0,0.0,0.0,-0.0019319839862411616,-0.004329071450130409,-0.0001533886264027482,0.007354212612545156,0.035558844619779546,-0.4871152341896139
160116000000,hina_ssi_visual_root,khm2,0.0,0.0,0.0,0.0,0.0,0.0,1.0,-0.00015110391098937343,-0.002360592458000495,0.17423382373327548,-0.0040648905446265815,-0.005085069253945667,-0.7069448722383642,0.7072386912149429,0.0,0.0,0.0,0.0,0.0,0.0,0.00217181024371147,-0.00544353913100061,-0.00015113119720789464,-0.004498006254004443,-0.033168340441097614,0.4870680292542442
160117000000,hina_ssi_visual_root,khm2,0.0,0.0,0.0,0.0,0.0,0.0,1.0,-0.0001530704657424479,-0.002364891682496227,0.17423344684740877,-0.0040760023468977575,-0.005071158137930916,-0.7071170356161235,0.7070665933994293,0.0,0.0,0.0,0.0,0.0,0.0,-0.001966554753074441,-0.004299224495732106,-0.00037688586670015997,0.004303199236784385,0.032237914007930524,-0.487074657729377
160118000000,hina_ssi_visual_root,khm2,0.0,0.0,0.0,0.0,0.0,0.0,1.0,-0.00015116892819370476,-0.002370324587456671,0.1742329936580384,-0.004063744347592097,-0.0050872151906806665,-0.7069448773770846,0.707238677232644,0.0,0.0,0.0,0.0,0.0,0.0,0.0019015375487431382,-0.005432904960443777,-0.0004531893703645755,-0.005717242724657691,-0.03689372910419199,0.4870767354507391
160119000000,hina_ssi_visual_root,khm2,0.0,0.0,0.0,0.0,0.0,0.0,1.0,-0.00015345825580769196,-0.002374620166384946,0.1742324019429827,-0.004074636804367045,-0.0050739091232225786,-0.7071170293583535,0.7070665877925069,0.0,0.0,0.0,0.0,0.0,0.0,-0.0022893276139871895,-0.004295578928275123,-0.0005917150556911128,0.0037590724934828696,0.031071789750108107,-0.48703955929939025
160120000000,hina_ssi_visual_root,khm2,0.0,0.0,0.0,0.0,0.0,0.0,1.0,-0.00015171704784710732,-0.002380049089812175,0.17423186511176128,-0.004062240953902609,-0.005090511214014421,-0.7069448603139299,0.707238679209311,0.0,0.0,0.0,0.0,0.0,0.0,0.0017412079605846234,-0.00542892342722869,-0.0005368312214171483,-0.006294579179456026,-0.03785879734675488,0.48710860074048956
160121000000,hina_ssi_visual_root,khm2,0.0,0.0,0.0,0.0,0.0,0.0,1.0,-0.00015408081029225928,-0.0023843490881163944,0.1742313883542422,-0.004073919221863183,-0.00507626140741927,-0.7071170088624353,0.7070665955408585,0.0,0.0,0.0,0.0,0.0,0.0,-0.002363762445151953,-0.004299998304219286,-0.0004767575190619145,0.003983567151041121,0.03351720735767839,-0.4870422375732441
160122000000,hina_ssi_visual_root,khm2,0.0,0.0,0.0,0.0,0.0,0.0,1.0,-0.00015218545060940859,-0.0023897844559881117,0.17423110318149512,-0.0040616109008514804,-0.005092492189808914,-0.7069448372112117,0.707238691659754,0.0,0.0,0.0,0.0,0.0,0.0,0.0018953596828507036,-0.0054353678717170935,-0.0002851727470794263,-0.005894284740023088,-0.0372092989082901,0.4871150530559626
160123000000,hina_ssi_visual_root,khm2,0.0,0.0,0.0,0.0,0.0,0.0,1.0,-0.00015443130813426104,-0.0023940976486418637,0.17423101554593814,-0.004074256798090341,-0.005076548644204152,-0.7071169940821344,0.707066606314888,0.0,0.0,0.0,0.0,0.0,0.0,-0.0022458575248524505,-0.004313192653751935,-8.763555698127617e-05,0.00501060663360672,0.037280534313259776,-0.4870800182824564
160124000000,hina_ssi_visual_root,khm2,0.0,0.0,0.0,0.0,0.0,0.0,1.0,-0.0001522496708865424,-0.0023995484484349463,0.17423118453598313,-0.004061778270425222,-0.0050920901826342155,-0.7069448269060262,0.7072387038939982,0.0,0.0,0.0,0.0,0.0,0.0,0.0021816372477186405,-0.00545079979308253,0.00016899004499727928,-0.004678762225399123,-0.03647513466442437,0.4871069181895764
160125000000,hina_ssi_visual_root,khm2,0.0,0.0,0.0,0.0,0.0,0.0,1.0,-0.0001543572262013629,-0.0024038761302357377,0.17423153737813027,-0.0040748771200928595,-0.005074910375204174,-0.7071169963466748,0.707066612235931,0.0,0.0,0.0,0.0,0.0,0.0,-0.0021075553148205074,-0.004327681800791255,0.00035284214714967517,0.006117733562058871,0.03966953801564774,-0.4871213756887448
160126000000,hina_ssi_visual_root,khm2,0.0,0.0,0.0,0.0,0.0,0.0,1.0,-0.00015198393011814278,-0.00240934040099829,0.17423208541488325,-0.004062091925296956,-0.005090050727233443,-0.7069448321860354,0.7072387114958025,0.0,0.0,0.0,0.0,0.0,0.0,0.0023732960832201235,-0.005464270762552357,0.0005480367529768389,-0.0036769005658319615,-0.0363418607651297,0.4871048551629781
160127000000,hina_ssi_visual_root,khm2,0.0,0.0,0.0,0.0,0.0,0.0,1.0,-0.00015403534972349743,-0.0024136763368036323,0.17423262629052985,-0.004075164753066572,-0.005072552636838384,-0.7071170096763514,0.7070666141661311,0.0,0.0,0.0,0.0,0.0,0.0,-0.002051419605354638,-0.004335935805342498,0.0005408756465996988,0.006603783591441182,0.04008342121178076,-0.48714306345490216
160128000000,hina_ssi_visual_root,khm2,0.0,0.0,0.0,0.0,0.0,0.0,1.0,-0.00015162620459244656,-0.002419144941416895,0.1742332088851093,-0.004062203835488126,-0.0050877842786352726,-0.7069448458972567,0.7072387134556741,0.0,0.0,0.0,0.0,0.0,0.0,0.0024091451310508847,-0.005468604613263037,0.0005825945794392835,-0.0035565956341726355,-0.03672018550525427,0.48710683801379384
160129000000,hina_ssi_visual_root,khm2,0.0,0.0,0.0,0.0,0.0,0.0,1.0,-0.00015369017588875492,-0.0024234870944943292,0.17423347902077604,-0.004075312469302977,-0.005070047732401525,-0.7071170250198344,0.7070666159361279,0.0,0.0,0.0,0.0,0.0,0.0,-0.002063971296308366,-0.004342153077433949,0.000270135666744992,0.006889483522963259,0.04047206421949338,-0.48714789242937934
160130000000,hina_ssi_visual_root,khm2,0.0,0.0,0.0,0.0,0.0,0.0,1.0,-0.00015127069645100581,-0.0024288725669837237,0.17423368065233064,-0.00406476206188099,-0.0050885463546237715,-0.706944843406881,0.7072386957638827,0.0,0.0,0.0,0.0,0.0,0.0,0.0024194794377491,-0.00538547248939435,0.00020163155459705477,-0.01158507988328156,-0.037931969349273245,0.48710666454357154
160131000000,hina_ssi_visual_root,khm2,0.0,0.0,0.0,0.0,0.0,0.0,1.0,-0.00015347457987296279,-0.0024331144576047827,0.1742338571475401,-0.004081082660192805,-0.00507739528800646,-0.7071169593671285,0.7070665955882776,0.0,0.0,0.0,0.0,0.0,0.0,-0.002203883421956964,-0.004241890621058956,0.00017649520948351607,-0.006966191893891771,0.035697758028368436,-0.48704156150701117
160132000000,hina_ssi_visual_root,khm2,0.0,0.0,0.0,0.0,0.0,0.0,1.0,-0.00015143411151583407,-0.0024386529211913037,0.1742344805477812,-0.004069710837211468,-0.005098199104006909,-0.7069448095804987,0.70723863159954,0.0,0.0,0.0,0.0,0.0,0.0,0.002040468357128709,-0.005538463586520914,0.0006234002411045717,-0.013684148979913555,-0.042349681069297616,0.48702718672543055
160133000000,hina_ssi_visual_root,khm2,0.0,0.0,0.0,0.0,0.0,0.0,1.0,-0.00015405139886225466,-0.0024434359247476204,0.17423652926145197,-0.004081741047177324,-0.005082895215494738,-0.7071168578129011,0.7070666538333295,0.0,0.0,0.0,0.0,0.0,0.0,-0.002617287346420595,-0.00478300355631649,0.0020487136707695863,0.004976023510864719,0.03550246548417122,-0.48676313538655125
160134000000,hina_ssi_visual_root,khm2,0.0,0.0,0.0,0.0,0.0,0.0,1.0,-0.00015201100172786657,-0.0024499633609976488,0.17424173905584597,-0.004066163604131493,-0.005094706855643747,-0.7069447417865974,0.7072387449340434,0.0,0.0,0.0,0.0,0.0,0.0,0.0020403971343880846,-0.0065274362500285866,0.005209794394006654,0.004979328638318227,-0.03557887180839529,0.4870268380210699
160135000000,hina_ssi_visual_root,khm2,0.0,0.0,0.0,0.0,0.0,0.0,1.0,-0.00015404912142688628,-0.0024562935856529337,0.17425151287184318,-0.004077616459884381,-0.0050664663902058385,-0.7071166519436316,0.7070670014265635,0.0,0.0,0.0,0.0,0.0,0.0,-0.0020381196990197172,-0.006330224655284836,0.009773815997210755,0.024084080471432262,0.05299058126296739,-0.48633575967772874
160136000000,hina_ssi_visual_root,khm2,0.0,0.0,0.0,0.0,0.0,0.0,1.0,-0.00015053429966271242,-0.0024649024389773347,0.17426680006488054,-0.004062466755661201,-0.005074304177965874,-0.7069445989100105,0.7072390556756128,0.0,0.0,0.0,0.0,0.0,0.0,0.0035148217641738613,-0.008608853324400964,0.015287193037355524,0.009998992345060145,-0.029362352604609773,0.48684833862047794
160137000000,hina_ssi_visual_root,khm2,0.0,0.0,0.0,0.0,0.0,0.0,1.0,-0.00015186281881190744,-0.0024737515609924354,0.17428681603407745,-0.004079933578633788,-0.005047368064502178,-0.7071165233336903,0.7070672532695106,0.0,0.0,0.0,0.0,0.0,0.0,-0.0013285191491950337,-0.008849122015100543,0.02001596919691452,0.013727152016616612,0.05965626716774889,-0.4864890329459778
160138000000,hina_ssi_visual_root,khm2,0.0,0.0,0.0,0.0,0.0,0.0,1.0,-0.00014770443908309851,-0.00248520607971917,0.17431049169670898,-0.004068294041624486,-0.005062547347993158,-0.7069445782696419,0.7072391270660148,0.0,0.0,0.0,0.0,0.0,0.0,0.004158379728808934,-0.011454518726734595,0.02367566263153062,-0.005340446274453311,-0.034788497985876306,0.48646442462926326
160139000000,hina_ssi_visual_root,khm2,0.0,0.0,0.0,0.0,0.0,0.0,1.0,-0.0001494528724703027,-0.0024969607743180887,0.17433664701852056,-0.004088613504601788,-0.0050461916819209635,-0.7071169605094773,0.7070667743211795,0.0,0.0,0.0,0.0,0.0,0.0,-0.0017484333872041721,-0.011754694598918846,0.026155321811572714,-0.00527331655555177,0.04871651268426069,-0.4878574371331142
160140000000,hina_ssi_visual_root,khm2,0.0,0.0,0.0,0.0,0.0,0.0,1.0,-0.00014624338815269445,-0.0025113033792738635,0.17436421424533335,-0.004079218083261085,-0.005073844626343289,-0.7069452766818735,0.7072382850622033,0.0,0.0,0.0,0.0,0.0,0.0,0.003209484317608243,-0.014342604955774848,0.02756722681278334,-0.026151569019468357,-0.0492574316785088,0.4856611292546309
160141000000,hina_ssi_visual_root,khm2,0.0,0.0,0.0,0.0,0.0,0.0,1.0,-0.00014938389843544795,-0.0025260682467633305,0.17439175499946014,-0.004100601771271305,-0.005067774762627011,-0.7071174821148575,0.7070660288909466,0.0,0.0,0.0,0.0,0.0,0.0,-0.00314051028275351,-0.014764867489466831,0.0275407541267848,-0.021322457098360798,0.03566694642076764,-0.48739845369749174
160142000000,hina_ssi_visual_root,khm2,0.0,0.0,0.0,0.0,0.0,0.0,1.0,-0.0001474723173882389,-0.002543600123060044,0.1744185901352407,-0.004089937448577554,-0.0051024610485735505,-0.7069458390908956,0.7072374550990523,0.0,0.0,0.0,0.0,0.0,0.0,0.0019115810472090343,-0.017531876296713263,0.026835135780563825,-0.0343075939459901,-0.06098767058203815,0.48555541263637236
160143000000,hina_ssi_visual_root,khm2,0.0,0.0,0.0,0.0,0.0,0.0,1.0,-0.00015179329129127024,-0.002561643554316442,0.17444384683865943,-0.00410998573413573,-0.005099155092944906,-0.7071176969782145,0.7070655339180587,0.0,0.0,0.0,0.0,0.0,0.0,-0.004320973903031329,-0.01804343125639812,0.025256703418755036,-0.023336031857883254,0.02986207801468464,-0.4863982448096896
160144000000,hina_ssi_visual_root,khm2,0.0,0.0,0.0,0.0,0.0,0.0,1.0,-0.00015057627782196983,-0.002582506300988124,0.1744671830162654,-0.0040967110898032875,-0.005134433232901768,-0.706946033888492,0.7072369897869841,0.0,0.0,0.0,0.0,0.0,0.0,0.0012170134693004165,-0.020862746671681975,0.023336177605971647,-0.031460819229109725,-0.06550176172584792,0.48565844559671373
160145000000,hina_ssi_visual_root,khm2,0.0,0.0,0.0,0.0,0.0,0.0,1.0,-0.0001554133907069158,-0.0026039551403965,0.17448803789372308,-0.004113534454084915,-0.00513000833907118,-0.7071177860309862,0.7070652010439861,0.0,0.0,0.0,0.0,0.0,0.0,-0.004837112884945957,-0.02144883940837596,0.02085487745766982,-0.017183727127637254,0.026874005817962156,-0.48603870387132314
160146000000,hina_ssi_visual_root,khm2,0.0,0.0,0.0,0.0,0.0,0.0,1.0,-0.00015447943313908413,-0.0026283244830043488,0.17450650158910366,-0.004098158687931171,-0.005162794007535435,-0.7069461072243035,0.7072367016309378,0.0,0.0,0.0,0.0,0.0,0.0,0.000933957567831655,-0.024369342607848784,0.018463695380585142,-0.024973801247458096,-0.06493615566981807,0.4857459508119854
160147000000,hina_ssi_visual_root,khm2,0.0,0.0,0.0,0.0,0.0,0.0,1.0,-0.0001593675258518739,-0.002653438342436911,0.17452235264317464,-0.004113487728655061,-0.00515595189727934,-0.7071177039912334,0.7070650946560051,0.0,0.0,0.0,0.0,0.0,0.0,-0.0048880927127897605,-0.02511385943256206,0.01585105407097019,-0.011643222034891706,0.02817319066139806,-0.48556720454381164
160148000000,hina_ssi_visual_root,khm2,0.0,0.0,0.0,0.0,0.0,0.0,1.0,-0.0001582676253597631,-0.0026817050356252865,0.17453579992225504,-0.004097440704883153,-0.005185428400437756,-0.7069458058432124,0.707236841456004,0.0,0.0,0.0,0.0,0.0,0.0,0.00109990049211078,-0.028266693188375637,0.013447279080402089,-0.0193537747443483,-0.0611926457201497,0.48638475883616455
160149000000,hina_ssi_visual_root,khm2,0.0,0.0,0.0,0.0,0.0,0.0,1.0,-0.00016277111524735704,-0.0027103333007036613,0.1745468073407488,-0.004109885253022803,-0.005174132410084354,-0.7071176680688502,0.7070650187230882,0.0,0.0,0.0,0.0,0.0,0.0,-0.004503489887593956,-0.02862826507837472,0.011007418493752101,-0.0012568882583724836,0.03038278468855953,-0.48625496037377114
160150000000,hina_ssi_visual_root,khm2,0.0,0.0,0.0,0.0,0.0,0.0,1.0,-0.0001613775616829673,-0.0027417350071389374,0.17455576047297638,-0.004091454590555266,-0.005194718915031465,-0.7069453766334124,0.707237236966048,0.0,0.0,0.0,0.0,0.0,0.0,0.0013935535643897498,-0.03140170643527593,0.008953132227594909,-0.0034181324072025507,-0.051978934659440416,0.4875595751435957
160151000000,hina_ssi_visual_root,khm2,0.0,0.0,0.0,0.0,0.0,0.0,1.0,-0.00016515363183044736,-0.002773794295680778,0.17456295113473563,-0.004100464872172254,-0.005174677613745439,-0.7071172295646746,0.7070655079638698,0.0,0.0,0.0,0.0,0.0,0.0,-0.0037760701474800623,-0.03205928854184055,0.007190661759256848,0.015971610213462148,0.03789703936285274,-0.4861452551617574
160152000000,hina_ssi_visual_root,khm2,0.0,0.0,0.0,0.0,0.0,0.0,1.0,-0.00016293899206593326,-0.002808921863548535,0.17456901072287684,-0.004079549812489921,-0.005186828902904259,-0.7069449787235498,0.7072377613906224,0.0,0.0,0.0,0.0,0.0,0.0,0.0022146397645140944,-0.03512756786775708,0.006059588141203156,0.012021816213719097,-0.0435669853568251,0.48750811262941585
160153000000,hina_ssi_visual_root,khm2,0.0,0.0,0.0,0.0,0.0,0.0,1.0,-0.00016588110363651592,-0.002845030891156135,0.1745744205434291,-0.00408775939228285,-0.005157918990091757,-0.7071167502255119,0.7070661833558112,0.0,0.0,0.0,0.0,0.0,0.0,-0.00294211157058266,-0.03610902760760019,0.00540982055225459,0.02964516311660982,0.04931841532153707,-0.4858801021446615
160154000000,hina_ssi_visual_root,khm2,0.0,0.0,0.0,0.0,0.0,0.0,1.0,-0.00016253325409722332,-0.0028845488351475616,0.1745800169769237,-0.004066790023143042,-0.005163445017551478,-0.7069445260383671,0.7072384584840157,0.0,0.0,0.0,0.0,0.0,0.0,0.003347849539292608,-0.03951794399142627,0.005596433494634772,0.02147017283013883,-0.034284935248530504,0.48744656430625977
160155000000,hina_ssi_visual_root,khm2,0.0,0.0,0.0,0.0,0.0,0.0,1.0,-0.00016451755921154777,-0.002925397414176433,0.17458633640373147,-0.004078404890017903,-0.005129808082464246,-0.7071162635129283,0.7070669286270609,0.0,0.0,0.0,0.0,0.0,0.0,-0.0019843051143244375,-0.04084857902887118,0.006319426807752526,0.031508296318060666,0.060832592717868915,-0.4858364291743529
160156000000,hina_ssi_visual_root,khm2,0.0,0.0,0.0,0.0,0.0,0.0,1.0,-0.00016003355827408887,-0.002970045587105889,0.17459420669601913,-0.004060817885548238,-0.005135607802147923,-0.7069441702872536,0.7072390510905555,0.0,0.0,0.0,0.0,0.0,0.0,0.004484000937458885,-0.04464817292945605,0.007870292287645882,0.01630658648335086,-0.029904052517061783,0.4870118011714669
160157000000,hina_ssi_visual_root,khm2,0.0,0.0,0.0,0.0,0.0,0.0,1.0,-0.00016131479498581152,-0.003016276656837171,0.17460358137044,-0.004086059437042431,-0.005102069157040236,-0.707115707102828,0.7070676415853446,0.0,0.0,0.0,0.0,0.0,0.0,-0.0012812367117226667,-0.04623106973128205,0.009374674420848531,0.012086043836637745,0.07997467333717853,-0.48552063501009934
160158000000,hina_ssi_visual_root,khm2,0.0,0.0,0.0,0.0,0.0,0.0,1.0,-0.00015531376186081472,-0.0030666920423427077,0.17461561481014778,-0.004075305760309612,-0.005119198869099555,-0.7069439297708553,0.7072393271347676,0.0,0.0,0.0,0.0,0.0,0.0,0.006001033124996816,-0.050415385505536606,0.012033439707783417,-0.009368028432916294,-0.03627623087507596,0.48596921583007074
160159000000,hina_ssi_visual_root,khm2,0.0,0.0,0.0,0.0,0.0,0.0,1.0,-0.00015669186262179472,-0.0031190493776192957,0.17462989323300088,-0.004113633513832916,-0.005093248748488633,-0.7071155788687966,0.7070676735345399,0.0,0.0,0.0,0.0,0.0,0.0,-0.0013781007609800049,-0.052357335276587924,0.014278422853087705,-0.017164899338974474,0.08774053680165894,-0.4860968654512443
160160000000,hina_ssi_visual_root,khm2,0.0,0.0,0.0,0.0,0.0,0.0,1.0,-0.0001501042736173179,-0.0031757519188366163,0.17464655816026017,-0.004114996351325819,-0.005122747195578193,-0.7069436188732428,0.7072393823880301,0.0,0.0,0.0,0.0,0.0,0.0,0.0065875890044768265,-0.05670254121732067,0.016664927259295657,-0.043983836443461564,-0.036623557957167145,0.4862395422894433
160161000000,hina_ssi_visual_root,khm2,0.0,0.0,0.0,0.0,0.0,0.0,1.0,-0.00015146790481547446,-0.003234713085267046,0.17466544153019545,-0.004162856741180975,-0.005107832614315045,-0.707115458107904,0.70706740101251,0.0,0.0,0.0,0.0,0.0,0.0,-0.0013636311981565664,-0.05896116643042979,0.018883369935284965,-0.0462647979957456,0.08558928566343797,-0.48683833561187334
160162000000,hina_ssi_visual_root,khm2,0.0,0.0,0.0,0.0,0.0,0.0,1.0,-0.00014509022854732848,-0.0032982533726439714,0.17468613447908937,-0.00416707251190869,-0.005147456685975246,-0.7069440532430281,0.7072384638724517,0.0,0.0,0.0,0.0,0.0,0.0,0.006377676268145975,-0.06354028737692527,0.020692948893920433,-0.06232605150735972,-0.04689711814146108,0.4845988161622992
160163000000,hina_ssi_visual_root,khm2,0.0,0.0,0.0,0.0,0.0,0.0,1.0,-0.00014737457601112712,-0.0033478021551653202,0.17470815137861964,-0.004167729924462799,-0.0050917721287014675,-0.707050292037989,0.7071326526281052,0.0,0.0,0.0,0.0,0.0,0.0,-0.0022843474637986323,-0.04954878252134867,0.022016899530278196,0.07801371228781559,0.07771930316225645,-0.3003484392407806
160164000000,hina_ssi_visual_root,khm2,0.0,0.0,0.0,0.0,0.0,0.0,1.0,-0.0001424186144729332,-0.003401983334257359,0.17473123308456653,-0.004125839943539139,-0.005093535148363746,-0.706890226022472,0.7072928966830866,0.0,0.0,0.0,0.0,0.0,0.0,0.004955961538193904,-0.05418117909203904,0.023081705946889144,0.05645612955491476,-0.058763949319439276,0.4534183201230591
160165000000,hina_ssi_visual_root,khm2,0.0,0.0,0.0,0.0,0.0,0.0,1.0,-0.00014578929727127016,-0.0034582680824024174,0.17475402403499674,-0.004126541962172089,-0.00505012031417355,-0.7070605015951832,0.7071229843670866,0.0,0.0,0.0,0.0,0.0,0.0,-0.003370682798336945,-0.056284748145058155,0.02279095043021176,0.06071852732448927,0.059270541431750125,-0.4814535282472281
160166000000,hina_ssi_visual_root,khm2,0.0,0.0,0.0,0.0,0.0,0.0,1.0,-0.0001420695876813345,-0.003519029504140065,0.1747770275509275,-0.004090505123291129,-0.00506725672472954,-0.7068897259670863,0.7072937904430519,0.0,0.0,0.0,0.0,0.0,0.0,0.003719709589935668,-0.060761421737647855,0.02300351593075632,0.026416798760892042,-0.0720609443979429,0.4835646265577004
160167000000,hina_ssi_visual_root,khm2,0.0,0.0,0.0,0.0,0.0,0.0,1.0,-0.00014682593994824327,-0.0035817383339105785,0.17479886408039122,-0.004101710843311311,-0.005040594401417151,-0.7070616344794818,0.7071220640196725,0.0,0.0,0.0,0.0,0.0,0.0,-0.004756352266908778,-0.06270882977051333,0.021836529463708176,0.02218048663019205,0.05041186060449251,-0.4862946392310366
160168000000,hina_ssi_visual_root,khm2,0.0,0.0,0.0,0.0,0.0,0.0,1.0,-0.00014403916045290204,-0.0036488729399856796,0.17482025131275472,-0.004078505458422047,-0.005073448574140298,-0.7068901917070606,0.7072933498776488,0.0,0.0,0.0,0.0,0.0,0.0,0.0027867794953412095,-0.06713460607510105,0.021387232363490397,-0.01396498806877648,-0.07614591545922798,0.4851847207389942
160169000000,hina_ssi_visual_root,khm2,0.0,0.0,0.0,0.0,0.0,0.0,1.0,-0.0001493459983070363,-0.003717845188039634,0.17483971198382917,-0.004101734895660086,-0.005061331889668857,-0.7070618246876186,0.7071217255605738,0.0,0.0,0.0,0.0,0.0,0.0,-0.005306837854134245,-0.06897224805395442,0.0194606710744532,-0.015388121827548147,0.04683995838952682,-0.48576338144763515
160170000000,hina_ssi_visual_root,khm2,0.0,0.0,0.0,0.0,0.0,0.0,1.0,-0.00014681890192921675,-0.0037728743077520663,0.17485804974822267,-0.004040891391262896,-0.005053057809969732,-0.706963725075063,0.7072202126859242,0.0,0.0,0.0,0.0,0.0,0.0,0.0025270963778195486,-0.0550291197124322,0.01833776439348954,0.0975630073057406,-0.07253696702330759,0.27855773312294735
160171000000,hina_ssi_visual_root,khm2,0.0,0.0,0.0,0.0,0.0,0.0,1.0,-0.000151540124957992,-0.003795221813565218,0.17487501774449532,-0.00393575381293213,-0.004913796698498552,-0.7069847775660751,0.707200741468628,0.0,0.0,0.0,0.0,0.0,0.0,-0.004721223028775246,-0.02234750581315173,0.016967996272662426,0.3456713514283634,0.04795271841996275,-0.0573713293926459
160172000000,hina_ssi_visual_root,khm2,0.0,0.0,0.0,0.0,0.0,0.0,1.0,-0.0001496131830884079,-0.0038561537360670126,0.1748906385359985,-0.0039240358807319815,-0.004932877166991482,-0.7069759736488004,0.707209474871903,0.0,0.0,0.0,0.0,0.0,0.0,0.001926941869584098,-0.060931922501794626,0.015620791503180678,-0.01042311713802357,-0.04340111388754237,0.025066391127321862
160173000000,hina_ssi_visual_root,khm2,0.0,0.0,0.0,0.0,0.0,0.0,1.0,-0.00015186107033658138,-0.0038832248175543946,0.17490532872640718,-0.0038620779249750694,-0.004843420614068583,-0.7069820656953578,0.7072043441721644,0.0,0.0,0.0,0.0,0.0,0.0,-0.002247887248173496,-0.027071081487382152,0.014690190408677995,0.21414161172346824,0.038825042629205,-0.015962068551374387
160174000000,hina_ssi_visual_root,khm2,0.0,0.0,0.0,0.0,0.0,0.0,1.0,-0.0001497599783086541,-0.003876097559280931,0.17491930823882446,-0.0037093299836269606,-0.004696290241606546,-0.7069855455253796,0.7072026754383927,0.0,0.0,0.0,0.0,0.0,0.0,0.00210109202792728,0.007127258273463631,0.013979512417286089,0.4241059132112978,-0.007920676767066703,-0.006938244542438197
160175000000,hina_ssi_visual_root,khm2,0.0,0.0,0.0,0.0,0.0,0.0,1.0,-0.00014950769498043236,-0.003905928335533688,0.17493196549696335,-0.003701570951182151,-0.00466699116228134,-0.7069800304936952,0.7072084233442912,0.0,0.0,0.0,0.0,0.0,0.0,0.0002522833282217235,-0.029830776252757277,0.012657258138894375,0.052393309573960246,0.030564628830395405,0.015783380537002657
160176000000,hina_ssi_visual_root,khm2,0.0,0.0,0.0,0.0,0.0,0.0,1.0,-0.00014727804542753278,-0.003901224001251446,0.1749439783659158,-0.003617431231662933,-0.0045756335501548435,-0.7069854313193988,0.7072040565996653,0.0,0.0,0.0,0.0,0.0,0.0,0.002229649552899569,0.004704334282241908,0.012012868952445658,0.24820273707955307,0.010166800604536117,-0.01370439617633902
160177000000,hina_ssi_visual_root,khm2,0.0,0.0,0.0,0.0,0.0,0.0,1.0,-0.00014575569909365156,-0.003933567864520898,0.17495499589928618,-0.0036708933248080187,-0.00460874726459143,-0.7069794127109347,0.7072095827926478,0.0,0.0,0.0,0.0,0.0,0.0,0.0015223463338812375,-0.032343863269451996,0.01101753337037169,-0.12245414255377896,0.028851651136059357,0.01607697180805896
160178000000,hina_ssi_visual_root,khm2,0.0,0.0,0.0,0.0,0.0,0.0,1.0,-0.0001432756293322361,-0.003931816089842392,0.17496547334681123,-0.0036461793957748866,-0.00457291675677376,-0.7069848945217712,0.7072044631690256,0.0,0.0,0.0,0.0,0.0,0.0,0.0024800697614154607,0.0017517746785064361,0.010477447525053364,0.08563165909008187,0.0156474425296391,-0.015027774765630976
160179000000,hina_ssi_visual_root,khm2,0.0,0.0,0.0,0.0,0.0,0.0,1.0,-0.00014129193716824932,-0.003967812616951971,0.1749761791867467,-0.003753429072144138,-0.004659599555948922,-0.7069785160042252,0.7072097127519124,0.0,0.0,0.0,0.0,0.0,0.0,0.0019836921639867695,-0.03599652710957941,0.010705839935471471,-0.2742818165018526,0.029137403885139142,0.016095818302472458
160180000000,hina_ssi_visual_root,khm2,0.0,0.0,0.0,0.0,0.0,0.0,1.0,-0.00013856525719724289,-0.0039699533943051354,0.1749851097368298,-0.003774278079309649,-0.0046623522228098025,-0.7069833194282171,0.7072047817619661,0.0,0.0,0.0,0.0,0.0,0.0,0.0027266799710064446,-0.002140777353164404,0.008930550083079416,-0.03337364558769579,0.025504163318701582,-0.013939896285016302
160181000000,hina_ssi_visual_root,khm2,0.0,0.0,0.0,0.0,0.0,0.0,1.0,-0.0001358451403453928,-0.00393839143460055,0.17499300061375142,-0.0037146298809673495,-0.004582280070300578,-0.706986941135814,0.7072020003490019,0.0,0.0,0.0,0.0,0.0,0.0,0.00272011685185007,0.031561959704585134,0.007890876921640403,0.19759911121979604,0.02886098138423873,-0.00910363036663516
160182000000,hina_ssi_visual_root,khm2,0.0,0.0,0.0,0.0,0.0,0.0,1.0,-0.00013286085917994935,-0.003944830118036936,0.17500132863579654,-0.0037817105602631785,-0.004625656475216299,-0.706980580970185,0.7072077206157122,0.0,0.0,0.0,0.0,0.0,0.0,0.0029842811654434585,-0.006438683436385664,0.008328022045124778,-0.1562280761005281,0.0335982430399509,0.016791641152681842
160183000000,hina_ssi_visual_root,khm2,0.0,0.0,0.0,0.0,0.0,0.0,1.0,-0.00012954868650203304,-0.003917688062272958,0.1750094841117588,-0.003769774411902221,-0.004592313273071891,-0.7069855576970326,0.7072030264835559,0.0,0.0,0.0,0.0,0.0,0.0,0.0033121726779163207,0.02714205576397717,0.008155475962258166,0.06403920299838793,0.0302028218206869,-0.013818243502608407
160184000000,hina_ssi_visual_root,khm2,0.0,0.0,0.0,0.0,0.0,0.0,1.0,-0.00012627682925173445,-0.003928709153718863,0.17501806140398782,-0.0038842096101723575,-0.00468096562812453,-0.7069785434679206,0.7072088380050621,0.0,0.0,0.0,0.0,0.0,0.0,0.003271857250298578,-0.011021091445904851,0.008577292229017758,-0.28723031630795304,0.036523898503862146,0.017755646045522343
160185000000,hina_ssi_visual_root,khm2,0.0,0.0,0.0,0.0,0.0,0.0,1.0,-0.00012276642345927495,-0.003906071283323439,0.17502471652872625,-0.003905993619782715,-0.004686578953144536,-0.7069835671690834,0.7072036587465005,0.0,0.0,0.0,0.0,0.0,0.0,0.0035104057924594968,0.022637870395423934,0.006655124738438602,-0.03874189205820513,0.02277455456803112,-0.014589194814494428
160186000000,hina_ssi_visual_root,khm2,0.0,0.0,0.0,0.0,0.0,0.0,1.0,-0.00012016619741206583,-0.003921648600467408,0.17503041410922995,-0.004039930233229672,-0.0048081541137871215,-0.7069769651921596,0.7072086900663853,0.0,0.0,0.0,0.0,0.0,0.0,0.002600226047209121,-0.015577317143969045,0.005697580503695288,-0.36136679032989477,0.01752390686282421,0.016146340271398985
160187000000,hina_ssi_visual_root,khm2,0.0,0.0,0.0,0.0,0.0,0.0,1.0,-0.00011852705535311966,-0.0039037118100797834,0.17503301497411136,-0.004059087951313086,-0.004836320282591852,-0.7069821829541661,0.7072031722189105,0.0,0.0,0.0,0.0,0.0,0.0,0.0016391420589461853,0.0179367903876246,0.002600864881419392,-0.066917082376893,-0.01284580802678122,-0.015138723209276492
160188000000,hina_ssi_visual_root,khm2,0.0,0.0,0.0,0.0,0.0,0.0,1.0,-0.00011923737579736494,-0.003924166029221599,0.17503343642309177,-0.00417155657349654,-0.004963091792119568,-0.7069755802702109,0.7072082400094158,0.0,0.0,0.0,0.0,0.0,0.0,-0.0007103204442452842,-0.020454219141815562,0.0004214489803999657,-0.3383494588954152,-0.020177182944398648,0.016445838358376232
160189000000,hina_ssi_visual_root,khm2,0.0,0.0,0.0,0.0,0.0,0.0,1.0,-0.00012113171307320587,-0.003911273987189441,0.17503101826260514,-0.004164566123532822,-0.00497453956513301,-0.7069803434471695,0.7072034391350481,0.0,0.0,0.0,0.0,0.0,0.0,-0.0018943372758409283,0.012892042032157637,-0.0024181604866289827,-0.0062919583763582495,-0.026163467736221416,-0.013360419317700387
160190000000,hina_ssi_visual_root,khm2,0.0,0.0,0.0,0.0,0.0,0.0,1.0,-0.00012365662815616452,-0.003937043658704462,0.17502749029943745,-0.004243564454448072,-0.005074375278992368,-0.7069734056932835,0.7072091957254862,0.0,0.0,0.0,0.0,0.0,0.0,-0.0025249150829586334,-0.025769671515020978,-0.0035279631676980346,-0.2529206360828326,-0.029392728131236005,0.017997983751116886
160191000000,hina_ssi_visual_root,khm2,0.0,0.0,0.0,0.0,0.0,0.0,1.0,-0.00012641730302953433,-0.003929843396641585,0.17502310738069554,-0.004210967107724065,-0.005047685254485779,-0.7069778132720572,0.7072051754410806,0.0,0.0,0.0,0.0,0.0,0.0,-0.0027606748733698047,0.007200262062877182,-0.004382918741903925,0.08385517258730973,-0.008418261490131534,-0.011814328144219415
160192000000,hina_ssi_visual_root,khm2,0.0,0.0,0.0,0.0,0.0,0.0,1.0,-0.00012775199451162315,-0.003961852671747706,0.17501986630776956,-0.00426579358357098,-0.005113224072654436,-0.70697074145047,0.7072114455222414,0.0,0.0,0.0,0.0,0.0,0.0,-0.0013346914820888056,-0.0320092751061217,-0.003241072925982828,-0.17023470272399452,-0.015053721641999,0.01886654428630053
160193000000,hina_ssi_visual_root,khm2,0.0,0.0,0.0,0.0,0.0,0.0,1.0,-0.0001290091822837571,-0.003961522680938024,0.17501823076537132,-0.004219591027049212,-0.005056553806224707,-0.7069752540523447,0.7072076190715085,0.0,0.0,0.0,0.0,0.0,0.0,-0.001257187772133958,0.0003299908096817475,-0.001635542398245102,0.1454918967037728,0.014750380181036778,-0.011804104114417686
160194000000,hina_ssi_visual_root,khm2,0.0,0.0,0.0,0.0,0.0,0.0,1.0,-0.00012822239369720395,-0.004000674449487159,0.17501919176353614,-0.004262002690204939,-0.005098933946466063,-0.7069683943419978,0.7072139178545453,0.0,0.0,0.0,0.0,0.0,0.0,0.0007867885865531427,-0.03915176854913551,0.0009609981648249465,-0.1199273401031829,0.00014646713199952156,0.018537386358865673
160195000000,hina_ssi_visual_root,khm2,0.0,0.0,0.0,0.0,0.0,0.0,1.0,-0.00012781503624794614,-0.0040078549352687235,0.17502297050574234,-0.0042064193947960234,-0.0050254404887005765,-0.7069732479451724,0.7072099247561672,0.0,0.0,0.0,0.0,0.0,0.0,0.0004073574492578031,-0.007180485781564563,0.0037787422062057537,0.1825491238795444,0.025277833069554223,-0.012570687710639692
160196000000,hina_ssi_visual_root,khm2,0.0,0.0,0.0,0.0,0.0,0.0,1.0,-0.00012580297673239155,-0.00405466289153667,0.17503006006704683,-0.004246178619932964,-0.005057873921660248,-0.7069665613038086,0.7072161402830034,0.0,0.0,0.0,0.0,0.0,0.0,0.002012059515554595,-0.04680795626794592,0.007089561304485995,-0.10211029266783,0.010461650866190097,0.01811938268931487
160197000000,hina_ssi_visual_root,khm2,0.0,0.0,0.0,0.0,0.0,0.0,1.0,-0.00012434437043711027,-0.004069699729188219,0.1750407986668744,-0.004191101808289508,-0.004982273717221168,-0.7069715926898535,0.707211975820412,0.0,0.0,0.0,0.0,0.0,0.0,0.0014586062952812837,-0.01503683765154945,0.010738599827558022,0.1848115843723622,0.02897158645189241,-0.013089707296190497
160198000000,hina_ssi_visual_root,khm2,0.0,0.0,0.0,0.0,0.0,0.0,1.0,-0.00012179444672770538,-0.004124509489830605,0.17505515608160407,-0.004236347651798855,-0.0050177136379178965,-0.7069651323216747,0.7072179137930672,0.0,0.0,0.0,0.0,0.0,0.0,0.002549923709404881,-0.054809760642386234,0.014357414729699177,-0.11412144067352122,0.0139613007743905,0.01737986576650773
160199000000,hina_ssi_visual_root,khm2,0.0,0.0,0.0,0.0,0.0,0.0,1.0,-0.00012001039469245839,-0.004147692426882549,0.1750730025329182,-0.004186189055441672,-0.004950238339402512,-0.7069703350791944,0.7072134870600156,0.0,0.0,0.0,0.0,0.0,0.0,0.0017840520352470025,-0.023182937051943645,0.01784645131411762,0.1663661885620505,0.024430216825882565,-0.01368639322089646
160200000000,hina_ssi_visual_root,khm2,0.0,0.0,0.0,0.0,0.0,0.0,1.0,-0.00011778884952844746,-0.004139067673005446,0.17509406282403095,-0.004040116285657944,-0.004798987660643937,-0.7069744537606829,0.7072112618642433,0.0,0.0,0.0,0.0,0.0,0.0,0.002221545164010933,0.008624753877103139,0.021060291112748465,0.42049090788239324,0.007338296394915737,-0.008792007012470933
160201000000,hina_ssi_visual_root,khm2,0.0,0.0,0.0,0.0,0.0,0.0,1.0,-0.00011664010286966993,-0.004169062022887745,0.17511562408812129,-0.0040247493562663135,-0.004774307653990276,-0.7069692945276708,0.707216673993262,0.0,0.0,0.0,0.0,0.0,0.0,0.0011487466587775295,-0.029994349882298536,0.02156126409034473,0.05662581259319847,0.013273537560818451,0.014897880512956645
160202000000,hina_ssi_visual_root,khm2,0.0,0.0,0.0,0.0,0.0,0.0,1.0,-0.0001154949988390713,-0.004166030558831095,0.1751376041532113,-0.003935015147965751,-0.004684243135575976,-0.7069748262077378,0.7072122514709224,0.0,0.0,0.0,0.0,0.0,0.0,0.001145104030598629,0.0030314640566496964,0.021980065090031704,0.25428597762473454,0.00042484222839039816,-0.013945504657362285
160203000000,hina_ssi_visual_root,khm2,0.0,0.0,0.0,0.0,0.0,0.0,1.0,-0.00011493178305546148,-0.004201213513975178,0.17515852614504093,-0.0039890181812058684,-0.004720876126355905,-0.706968829531289,0.7072176999578765,0.0,0.0,0.0,0.0,0.0,0.0,0.000563215783609817,-0.035182955144082505,0.020921991829628936,-0.1281937183289636,0.02464120845790015,0.015968108446492633
160204000000,hina_ssi_visual_root,khm2,0.0,0.0,0.0,0.0,0.0,0.0,1.0,-0.00011301925543333706,-0.004202686050314313,0.17517783440065082,-0.003962653495845254,-0.0046877152591349395,-0.7069748842848513,0.7072120160838206,0.0,0.0,0.0,0.0,0.0,0.0,0.0019125276221244156,-0.001472536339135605,0.019308255609892605,0.08419036466023334,0.009523912222646909,-0.01661633114603461
160205000000,hina_ssi_visual_root,khm2,0.0,0.0,0.0,0.0,0.0,0.0,1.0,-0.00011165566963907516,-0.0042425680728337325,0.17519601361956436,-0.004069103571752735,-0.004778583134875059,-0.7069680674244403,0.7072176179801358,0.0,0.0,0.0,0.0,0.0,0.0,0.0013635857942619026,-0.039882022519418824,0.018179218913537985,-0.2790676744600102,0.022095899113186906,0.017284871878360284
160206000000,hina_ssi_visual_root,khm2,0.0,0.0,0.0,0.0,0.0,0.0,1.0,-0.00010973045783400382,-0.004249420147530348,0.1752115906843483,-0.004080371653619491,-0.004783738042139298,-0.7069730110669079,0.7072125762742787,0.0,0.0,0.0,0.0,0.0,0.0,0.0019252118050713434,-0.006852074696615154,0.015577064783932377,-0.02322046492267045,0.00855264884246052,-0.014186851423187208
160207000000,hina_ssi_visual_root,khm2,0.0,0.0,0.0,0.0,0.0,0.0,1.0,-0.00010849876295471808,-0.004223513840481151,0.17522516728810894,-0.004005258052573818,-0.004696771891394734,-0.7069763339754647,0.7072102667809231,0.0,0.0,0.0,0.0,0.0,0.0,0.0012316948792857269,0.025906307049196477,0.013576603760631583,0.22922095570409431,0.016751320311292853,-0.007956565289236469
160208000000,hina_ssi_visual_root,khm2,0.0,0.0,0.0,0.0,0.0,0.0,1.0,-0.00010685715989363853,-0.004236647406590052,0.1752382258029617,-0.004053799572175116,-0.004733316569637143,-0.7069699273455993,0.7072161510120073,0.0,0.0,0.0,0.0,0.0,0.0,0.0016416030610795517,-0.013133566108901047,0.013058514852741088,-0.12034361281160226,0.01705246207433058,0.017218457949360607
160209000000,hina_ssi_visual_root,khm2,0.0,0.0,0.0,0.0,0.0,0.0,1.0,-0.00010507344259813985,-0.004217482992098463,0.1752509111088862,-0.004023789708010283,-0.004686848539331396,-0.7069743211282898,0.7072122395945566,0.0,0.0,0.0,0.0,0.0,0.0,0.0017837172954986858,0.01916441449158915,0.012685305924485744,0.10815980356378431,0.023221089152438937,-0.011837868993786783
160210000000,hina_ssi_visual_root,khm2,0.0,0.0,0.0,0.0,0.0,0.0,1.0,-0.00010271539783303524,-0.0042377718823774285,0.17526367070966647,-0.004116707065759775,-0.0047608643112884395,-0.706966876146131,0.7072186528409196,0.0,0.0,0.0,0.0,0.0,0.0,0.0023580447651046013,-0.020288890278965736,0.012759600780274926,-0.2360972631820776,0.02681068223418249,0.019323034775297288
160211000000,hina_ssi_visual_root,khm2,0.0,0.0,0.0,0.0,0.0,0.0,1.0,-0.00010011954629333047,-0.004225624225075385,0.17527488425595883,-0.004116332206282418,-0.004747660532630052,-0.7069713276524013,0.7072142938360589,0.0,0.0,0.0,0.0,0.0,0.0,0.0025958515397047637,0.012147657302043036,0.011213546292368025,0.019205980076549452,0.018067734288933723,-0.01256486350294401
160212000000,hina_ssi_visual_root,khm2,0.0,0.0,0.0,0.0,0.0,0.0,1.0,-9.80175066355137e-05,-0.004252986766149007,0.17528567908936468,-0.004230972417019571,-0.004848848566350648,-0.7069641405537375,0.7072201153184928,0.0,0.0,0.0,0.0,0.0,0.0,0.0021020396578167702,-0.02736254107362219,0.010794833405861634,-0.30524478952701534,0.019085882389780078,0.018141381872128135
160213000000,hina_ssi_visual_root,khm2,0.0,0.0,0.0,0.0,0.0,0.0,1.0,-9.621846300705454e-05,-0.004247828308778627,0.17529421236501658,-0.004238661892495346,-0.004856144011734347,-0.706968853513627,0.7072153079312737,0.0,0.0,0.0,0.0,0.0,0.0,0.001799043628459162,0.0051584573703800304,0.008533275651890592,-0.021186515006226234,0.00046689399915863605,-0.013476337369519165
160214000000,hina_ssi_visual_root,khm2,0.0,0.0,0.0,0.0,0.0,0.0,1.0,-9.59282964277561e-05,-0.004281660521830048,0.17530153132952206,-0.004341552209125652,-0.004970768983989867,-0.7069634762513981,0.7072192627655599,0.0,0.0,0.0,0.0,0.0,0.0,0.00029016657929843617,-0.03383221305142103,0.007318964505479664,-0.30762248712158646,-0.016564576643244372,0.013170066418742217
160215000000,hina_ssi_visual_root,khm2,0.0,0.0,0.0,0.0,0.0,0.0,1.0,-9.724911463034683e-05,-0.004282811208673734,0.1753073889659905,-0.004329731425802262,-0.004970209099000931,-0.7069682609295013,0.7072145561890036,0.0,0.0,0.0,0.0,0.0,0.0,-0.0013208182025907244,-0.0011506868436854042,0.005857636468429241,0.017518107175674674,-0.01601013771301026,-0.013309733263065742
160216000000,hina_ssi_visual_root,khm2,0.0,0.0,0.0,0.0,0.0,0.0,1.0,-9.936111294686615e-05,-0.004288208186444018,0.1753133424780782,-0.004301034118682031,-0.004984732788177996,-0.706824157479726,0.7073586529813682,0.0,0.0,0.0,0.0,0.0,0.0,-0.0021119983165193137,-0.00539697777028447,0.005953512087718075,0.019870084766982227,-0.058438659803955205,0.4079788712265571
160217000000,hina_ssi_visual_root,khm2,0.0,0.0,0.0,0.0,0.0,0.0,1.0,-0.00010508308845215288,-0.004295406274510553,0.17531962016415437,-0.004276678047947278,-0.004981837130971529,-0.70698976233919,0.7071933026204721,0.0,0.0,0.0,0.0,0.0,0.0,-0.005721975505286728,-0.007198088066535291,0.006277686076166649,0.038779033636076966,-0.03340738194847091,-0.4678134242768327
160218000000,hina_ssi_visual_root,khm2,0.0,0.0,0.0,0.0,0.0,0.0,1.0,-0.00010858687480998135,-0.004306565620827298,0.17532742002706447,-0.004241141970901324,-0.0050023070356453965,-0.7068184503670311,0.7073645933038016,0.0,0.0,0.0,0.0,0.0,0.0,-0.0035037863578284683,-0.011159346316744426,0.007799862910098257,0.021075939454482405,-0.0760276697323817,0.48503204865594524
160219000000,hina_ssi_visual_root,khm2,0.0,0.0,0.0,0.0,0.0,0.0,1.0,-0.00011588369408648255,-0.004319292604739629,0.17533561371772355,-0.004221123519246913,-0.004997708662480193,-0.7069899394092162,0.707193347394129,0.0,0.0,0.0,0.0,0.0,0.0,-0.0072968192765011895,-0.012726983912330823,0.008193690659064863,0.03508424410838147,-0.024961237951092716,-0.48452883233088395
160220000000,hina_ssi_visual_root,khm2,0.0,0.0,0.0,0.0,0.0,0.0,1.0,-0.00011913141303911683,-0.004336063915892483,0.17534473141381896,-0.0041860007593739834,-0.005020407109792567,-0.7068175718675337,0.7073656713534933,0.0,0.0,0.0,0.0,0.0,0.0,-0.0032477189526342824,-0.016771311152854202,0.009117696095406176,0.01731393292102558,-0.07858964076570299,0.4879996762124127
160221000000,hina_ssi_visual_root,khm2,0.0,0.0,0.0,0.0,0.0,0.0,1.0,-0.00012635340934055315,-0.004354463610915438,0.1753537392141446,-0.004175223067923943,-0.005010586465977334,-0.706989171780915,0.707194296159221,0.0,0.0,0.0,0.0,0.0,0.0,-0.007221996301436307,-0.01839969502295538,0.009007800325641352,0.029418595459621406,-0.004499532146917737,-0.48500378921601334
160222000000,hina_ssi_visual_root,khm2,0.0,0.0,0.0,0.0,0.0,0.0,1.0,-0.00012798680515262894,-0.004376978475841365,0.17536311183699024,-0.004147457229418247,-0.00503062776190407,-0.7068167377940007,0.7073666592065945,0.0,0.0,0.0,0.0,0.0,0.0,-0.0016333958120757852,-0.02251486492592613,0.009372622845644928,0.010645044684607443,-0.06443929600041454,0.48805189505916063
160223000000,hina_ssi_visual_root,khm2,0.0,0.0,0.0,0.0,0.0,0.0,1.0,-0.00013367114603054194,-0.004401237089323603,0.17537222415719325,-0.004144355832720908,-0.005015062033455287,-0.7069883745977827,0.7071952429500056,0.0,0.0,0.0,0.0,0.0,0.0,-0.005684340877912996,-0.02425861348223814,0.009112320203019135,0.0266968833921596,0.014488741533696848,-0.48523799032927717
160224000000,hina_ssi_visual_root,khm2,0.0,0.0,0.0,0.0,0.0,0.0,1.0,-0.00013343114465323093,-0.004429704533438732,0.1753814429355889,-0.0041226298598831534,-0.005028914470828751,-0.7068159642228624,0.7073675894907747,0.0,0.0,0.0,0.0,0.0,0.0,0.00024000137731100633,-0.028467444115128727,0.009218778395659296,0.010841218570713254,-0.047155060418363745,0.4878823431309918
160225000000,hina_ssi_visual_root,khm2,0.0,0.0,0.0,0.0,0.0,0.0,1.0,-0.00013722762006549108,-0.004459930330504769,0.17538976491666014,-0.004129943939655725,-0.005006004130995191,-0.7069876599556773,0.707196105868868,0.0,0.0,0.0,0.0,0.0,0.0,-0.003796475412260159,-0.030225797066037674,0.008321981071233117,0.022352261899065858,0.03961105275112276,-0.4855811963298454
160226000000,hina_ssi_visual_root,khm2,0.0,0.0,0.0,0.0,0.0,0.0,1.0,-0.0001345747395247939,-0.004494379172730236,0.17539765782946717,-0.004117870752952064,-0.005015624468644082,-0.7068152908037671,0.707368384462889,0.0,0.0,0.0,0.0,0.0,0.0,0.0026528805406971787,-0.03444884222546706,0.007892912807034852,0.0031705418318786244,-0.027529514921989667,0.48759562039307375
160227000000,hina_ssi_visual_root,khm2,0.0,0.0,0.0,0.0,0.0,0.0,1.0,-0.00013625510748252215,-0.004530650988801861,0.17540438435168637,-0.0041349579361242865,-0.004988605796178533,-0.706987040778517,0.7071968185069221,0.0,0.0,0.0,0.0,0.0,0.0,-0.0016803679577282469,-0.036271816071625336,0.006726522219193004,0.014330449677346903,0.05924376663718211,-0.48590582561485496
160228000000,hina_ssi_visual_root,khm2,0.0,0.0,0.0,0.0,0.0,0.0,1.0,-0.0001315995210110595,-0.004571245172828035,0.1754106716066503,-0.004128635788377973,-0.004995501194059046,-0.7068147357178313,0.7073690187635301,0.0,0.0,0.0,0.0,0.0,0.0,0.004655586471462656,-0.040594184026173534,0.006287254963944356,-0.0011029507867626538,-0.015549133649305073,0.4873139973870545
160229000000,hina_ssi_visual_root,khm2,0.0,0.0,0.0,0.0,0.0,0.0,1.0,-0.00013189179967696324,-0.004613784502958234,0.17541587174740045,-0.004149060023975572,-0.004964857461864898,-0.7069865642753993,0.7071973793965638,0.0,0.0,0.0,0.0,0.0,0.0,-0.0002922786659037453,-0.04253933013019991,0.005200140750147365,0.014723407064012175,0.06909147261396219,-0.4861839708011315
160230000000,hina_ssi_visual_root,khm2,0.0,0.0,0.0,0.0,0.0,0.0,1.0,-0.0001262174951581205,-0.004660813401270244,0.1754208920685619,-0.0041412953067567326,-0.004970675269560693,-0.7068143366753664,0.7073695183782719,0.0,0.0,0.0,0.0,0.0,0.0,0.005674304518842727,-0.04702889831200977,0.005020321161441696,0.002474410627204902,-0.016069322371732225,0.4871231020772491
160231000000,hina_ssi_visual_root,khm2,0.0,0.0,0.0,0.0,0.0,0.0,1.0,-0.00012632974824858479,-0.004709977029640888,0.17542506802573418,-0.00415927246042139,-0.004938398745279938,-0.7069861146061336,0.7071979541999223,0.0,0.0,0.0,0.0,0.0,0.0,-0.00011225309046428156,-0.049163628370643135,0.004175957172294891,0.020480748529208778,0.06794753489133946,-0.48599505122198666
160232000000,hina_ssi_visual_root,khm2,0.0,0.0,0.0,0.0,0.0,0.0,1.0,-0.00012077336990489113,-0.004763824316823876,0.1754295306833157,-0.0041465444316876095,-0.004945491133857006,-0.7068139018025129,0.7073700986792052,0.0,0.0,0.0,0.0,0.0,0.0,0.005556378343693656,-0.053847287182988805,0.004462657581523885,0.007705112102685186,-0.02489572918319874,0.48716932294280674
