%time,field.header.seq,field.header.stamp,field.header.frame_id,field.wrench.force.x,field.wrench.force.y,field.wrench.force.z,field.wrench.torque.x,field.wrench.torque.y,field.wrench.torque.z
160077000000,0,160072000000,FR_wheel_link,27.63526588931905,-9.290986031102054,7.134822811853138,0.002962273823734642,0.024127249542414093,-0.42269235258918303
160077000000,1,160073000000,FR_wheel_link,-27.640055528616426,9.085366000488138,6.597931542424593,-0.0027582565843586003,-0.025422603563508533,0.42267491073092905
160077000000,2,160074000000,FR_wheel_link,27.79442275256747,-9.299819429124412,7.135185357539334,0.002491618615944273,0.02652380238835506,-0.4226675932663317
160077000000,3,160075000000,FR_wheel_link,-27.8677242359245,9.077245430253353,6.57735145938298,-0.003141577293208743,-0.02704824693242644,0.4226769277290714
160077000000,4,160076000000,FR_wheel_link,27.911134318788445,-9.303320302115639,7.241254808929071,0.002341590101611232,0.028299244962604848,-0.42267567092647645
160077000000,5,160077000000,FR_wheel_link,-28.028753262954446,9.076845865387595,6.671808912513749,-0.003052657822538292,-0.028728002513233625,0.42267801110156644
160078000000,6,160078000000,FR_wheel_link,28.056992140388147,-9.299780243978544,7.351373642738817,0.0025659874426705387,0.02965680673893009,-0.42268329738928734
160079000000,7,160079000000,FR_wheel_link,-28.13813978327815,9.082710588226723,6.7125411636265975,-0.0026845130518942184,-0.030107430340508327,0.42268395305780443
160080000000,8,160080000000,FR_wheel_link,28.193908725960345,-9.291468920714966,7.4588644438459335,0.0030408291762403844,0.03016091890746337,-0.42269657209476347
160081000000,9,160081000000,FR_wheel_link,-28.159610505990926,9.089244821790935,6.721192537020824,-0.0023195967156425593,-0.030726643191845298,0.4226958190672769
160082000000,10,160082000000,FR_wheel_link,28.26035541375017,-9.289070274879387,7.393465689359174,0.003108367939577425,0.030440948648837403,-0.42269982347938495
160083000000,11,160083000000,FR_wheel_link,-28.1811964840542,9.088601501648748,6.5765280405167506,-0.0024447902047691284,-0.030649461341117096,0.42270393176496956
160084000000,12,160084000000,FR_wheel_link,28.243348076362267,-9.29436598652674,7.209160465261959,0.0027060528918099076,0.030584670494073474,-0.42270091353846584
160085000000,13,160085000000,FR_wheel_link,-28.20719795051822,9.082333316451676,6.406638711430285,-0.002881323989642763,-0.03040316379908732,0.42270560698903537
160086000000,14,160086000000,FR_wheel_link,28.2063093634836,-9.300271306857093,7.092704208622953,0.0023243068805909673,0.03064156323812299,-0.4227010915543003
160087000000,15,160087000000,FR_wheel_link,-28.222121926588247,9.078989542739158,6.381978789080949,-0.0030688407258446064,-0.030399366973264567,0.422701939316864
160088000000,16,160088000000,FR_wheel_link,28.202660828344882,-9.299554806673735,7.168243255350552,0.0024141332161851346,0.03064772145574703,-0.42270162371474523
160089000000,17,160089000000,FR_wheel_link,-28.218656047552248,9.082254497804172,6.531941262029492,-0.0027973256422515725,-0.03066049739742678,0.4226985325733263
160090000000,18,160090000000,FR_wheel_link,28.234117872487428,-9.293593085169128,7.3671423853050655,0.002853243682259994,0.030731725998826936,-0.422701512128749
160091000000,19,160091000000,FR_wheel_link,-28.216045366231317,9.087103727685026,6.710395383878359,-0.002425342555050692,-0.03098487561992785,0.4226986350141306
160092000000,20,160092000000,FR_wheel_link,28.2692841902349,-9.289927072817106,7.5012495898291816,0.0031225536044671,0.031000363578176447,-0.42270200100472405
160093000000,21,160093000000,FR_wheel_link,-28.23639295750616,9.086435313569972,6.746223541357334,-0.002429634709776145,-0.031269056973265826,0.4227022896323699
160094000000,22,160094000000,FR_wheel_link,28.293160457069124,-9.293703033653232,7.454085625634333,0.002888690764723051,0.03133671127226159,-0.4227011603986932
160095000000,23,160095000000,FR_wheel_link,-28.267363172994713,9.081352826067599,6.612318368758822,-0.002774019474581787,-0.03152645908788164,0.42270241044830675
160096000000,24,160096000000,FR_wheel_link,28.31177166379469,-9.300361176903664,7.287356409409668,0.002431436170186873,0.03165095962953301,-0.4226999152415927
160097000000,25,160097000000,FR_wheel_link,-28.299374283513025,9.077223899883831,6.444427838006021,-0.0030902251701485878,-0.03164398016529446,0.4227023470728542
160098000000,26,160098000000,FR_wheel_link,28.321252605563902,-9.302645836667942,7.1640810385597655,0.0022331880328576364,0.03155787248513624,-0.42270387380345203
160099000000,27,160099000000,FR_wheel_link,-28.290370287130983,9.081165222530643,6.3979517519999005,-0.0029157922430393993,-0.031425443934412815,0.4227051855565367
160100000000,28,160100000000,FR_wheel_link,28.303715428334637,-9.29647645962503,7.185006210448002,0.0025697928640937054,0.031201961195341743,-0.42270713331899445
160101000000,29,160101000000,FR_wheel_link,-28.24978290807912,9.092293503978578,6.627501645200228,-0.0021936571883857444,-0.03144336822582877,0.4227021542436127
160102000000,30,160102000000,FR_wheel_link,28.30507681738927,-9.292292379115874,7.219355290722561,0.0028053454399394784,0.03166524209703978,-0.4226987291292876
160103000000,31,160103000000,FR_wheel_link,-28.331508785727024,9.085052564154333,6.1968855116767445,-0.0028598609533295512,-0.030171744647803127,0.4227168320546863
160104000000,32,160104000000,FR_wheel_link,28.16720730454995,-9.287952723525423,7.367312538906623,0.0031329128053389664,0.029884432917008635,-0.422721694315427
160105000000,33,160105000000,FR_wheel_link,-28.157381758191104,9.08451327776414,6.407477303877641,-0.002778925580403308,-0.02944909062640739,0.42270929231802995
160106000000,34,160106000000,FR_wheel_link,28.132429523345156,-9.287546235620862,7.537255705467238,0.003295998703294866,0.029015137038293465,-0.42271097126678364
160107000000,35,160107000000,FR_wheel_link,-28.06024028217094,9.079645181403889,6.532499306209143,-0.002963284318938014,-0.02930097196492475,0.422702337465258
160108000000,36,160108000000,FR_wheel_link,28.136463824047578,-9.29205061616018,7.584674453163596,0.003109859721176355,0.028918915893721787,-0.42270127599642066
160109000000,37,160109000000,FR_wheel_link,-28.04638732400266,9.073485784168309,6.506307252880362,-0.0032996489243305505,-0.029335119106207667,0.4226999387295011
160110000000,38,160110000000,FR_wheel_link,28.13956592169462,-9.296645164956415,7.498622089600894,0.002820882281031191,0.029116495528048153,-0.4226963147255524
160111000000,39,160111000000,FR_wheel_link,-28.071672429747103,9.07259437383909,6.391186318179113,-0.0034203544163098855,-0.029232487385075112,0.42269975372101715
160112000000,40,160112000000,FR_wheel_link,28.14188916125747,-9.300377251103884,7.3571318642140335,0.0025485853611362692,0.028085865179951694,-0.4227065812744414
160113000000,41,160113000000,FR_wheel_link,-27.98200408513966,9.080571505483064,6.31967106057204,-0.0030808780860027045,-0.02733269007512368,0.42271421783900126
160114000000,42,160114000000,FR_wheel_link,27.957596532010598,-9.294675766882582,7.273913258480133,0.002812633671585582,0.026591868551334864,-0.42270854530238383
160115000000,43,160115000000,FR_wheel_link,-27.87460849225695,9.091536892724266,6.34870676032285,-0.002544875406834064,-0.025453213274842505,0.4227123844765164
160116000000,44,160116000000,FR_wheel_link,27.77592504838347,-9.286823557152484,7.288644323515598,0.0032462589519906705,0.025230370700770575,-0.4227081741198246
160117000000,45,160117000000,FR_wheel_link,-27.77088559798269,9.09595652839342,6.43087108631775,-0.002303743929872383,-0.02420004771945344,0.42270731177924203
160118000000,46,160118000000,FR_wheel_link,27.639818574597292,-9.29382778572184,6.9694907334995095,0.002675956415699448,0.025356648562419624,-0.42269089460921144
160119000000,47,160119000000,FR_wheel_link,-27.79832464857577,9.09182259464077,6.459059244618446,-0.002510955002500966,-0.024994644798673082,0.4226818412670536
160120000000,48,160120000000,FR_wheel_link,27.73198527447616,-9.296116430543742,7.152845282347484,0.002684003767885306,0.025295128954395677,-0.42269058168032697
160121000000,49,160121000000,FR_wheel_link,-27.75005279785838,9.084540735029579,6.624989452261423,-0.0027584631190217907,-0.026053534165134572,0.4226781060515895
160122000000,50,160122000000,FR_wheel_link,27.861633332209607,-9.299402902579248,7.3212389829752755,0.0026287533928734726,0.025852827352914377,-0.4226842828118139
160123000000,51,160123000000,FR_wheel_link,-27.771634905456597,9.079182774547732,6.710322829151434,-0.002953251605039356,-0.02701983662962753,0.4226801628092407
160124000000,52,160124000000,FR_wheel_link,27.95764006158095,-9.301080874815707,7.377637259066281,0.0025711327138292954,0.02679236216148119,-0.42268000689903484
160125000000,53,160125000000,FR_wheel_link,-27.856579905225857,9.079855940349178,6.676199065631857,-0.0029208244182303816,-0.02753268665086918,0.4226852547598917
160126000000,54,160126000000,FR_wheel_link,27.98906133746184,-9.299204945993461,7.310280708266695,0.0026051687558244275,0.02749135746404697,-0.4226845279041218
160127000000,55,160127000000,FR_wheel_link,-27.93455220025604,9.084237716802633,6.557693578774778,-0.002761961611147772,-0.027618784667959365,0.4226919746705512
160128000000,56,160128000000,FR_wheel_link,27.978314991566254,-9.294993201410477,7.177567627911888,0.0027197046514571884,0.027736212212950848,-0.42269068820999817
160129000000,57,160129000000,FR_wheel_link,-27.962697949096246,9.084772794311748,6.43138527684729,-0.0028143908805626523,-0.02785570158803561,0.4226908377391004
160130000000,58,160130000000,FR_wheel_link,27.991406862055392,-9.240952852902792,7.010049863803047,-0.05674926361615925,0.028179940678394914,-0.4226916996167651
160131000000,59,160131000000,FR_wheel_link,-28.051786887285285,9.10340409331123,6.2038686882388,-0.0630546375607606,-0.026579423716173438,0.42267177875188205
160132000000,60,160132000000,FR_wheel_link,27.85196000602883,-9.371272979253138,6.764587536567422,-0.06039947701690136,0.027769730279605664,-0.42263120065843046
160133000000,61,160133000000,FR_wheel_link,-28.063330117678465,8.90932853207674,6.340863637449605,-0.06740846543589014,-0.027462178934291825,0.4225419825301661
160134000000,62,160134000000,FR_wheel_link,28.074792523157637,-9.637788329709888,8.353805497543895,-0.04089495397995233,0.02507247810811544,-0.4225939173817301
160135000000,63,160135000000,FR_wheel_link,-27.741523020323616,8.524461866553045,8.963821553192936,-0.005504595774197617,-0.030201705100525774,0.4223816206892771
160136000000,64,160136000000,FR_wheel_link,28.55772432063228,-9.980744168893633,10.146703172306648,0.003946008567472451,0.027987074698449316,-0.42235600150019104
160137000000,65,160137000000,FR_wheel_link,-28.17623297836781,8.260973724464819,8.50830118168589,-0.0007443466680445017,-0.02977248053330209,0.4224420614820607
160138000000,66,160138000000,FR_wheel_link,28.521232410417774,-10.112119663053146,8.381356727914063,0.005500460331217287,0.031175981074897916,-0.4222949811641613
160139000000,67,160139000000,FR_wheel_link,-28.745926901840534,8.262128581861658,6.416210039432344,0.0003891383213108215,-0.02750803028057921,0.4229555413887523
160140000000,68,160140000000,FR_wheel_link,28.31142540251728,-10.03581738424073,7.021312468582369,0.006059750458334181,0.031723413244389764,-0.42261931360723587
160141000000,69,160141000000,FR_wheel_link,-28.946817922190686,8.275000808163307,4.964060358950057,-0.0010820579213893836,-0.027402515539759933,0.4224713237243021
160142000000,70,160142000000,FR_wheel_link,28.33971446324307,-10.083915089210171,5.599291508818921,0.0036012116331476077,0.030771292215562962,-0.42245692764207843
160143000000,71,160143000000,FR_wheel_link,-28.873813010452192,8.257426763906544,3.873737390012219,-0.002977031702515558,-0.028697183586332976,0.42205380019918587
160144000000,72,160144000000,FR_wheel_link,28.56238395563607,-10.113933491306252,4.834671916711631,0.002081969416113053,0.029825672328173715,-0.4221449879755913
160145000000,73,160145000000,FR_wheel_link,-28.76068457639979,8.317145493707303,3.115451650055443,-0.003990252964109775,-0.028623529821780715,0.42201540703778534
160146000000,74,160146000000,FR_wheel_link,28.66837233832789,-10.10645303916649,4.545044931118968,0.001966350868594366,0.028173589591435254,-0.4221024546151756
160147000000,75,160147000000,FR_wheel_link,-28.63177818548639,8.25788611881252,2.9326014736628165,-0.0036857999945793542,-0.028300312098837023,0.42192216543931194
160148000000,76,160148000000,FR_wheel_link,28.750145063551937,-10.186738880646837,4.512172755676143,0.001932002431366336,0.026862192803307556,-0.4222437169562119
160149000000,77,160149000000,FR_wheel_link,-28.558944195185497,8.369034082434187,2.8592398921031195,-0.005155141130112967,-0.027266792403750982,0.42257379900135467
160150000000,78,160150000000,FR_wheel_link,28.746186886975618,-10.081914825249669,4.674718777475354,0.00020355638026547224,0.02412455939900306,-0.4231040797330826
160151000000,79,160151000000,FR_wheel_link,-28.386129609732233,8.219278474339385,3.230378192774661,-0.0055530225651542935,-0.026169236571107236,0.4231087882111004
160152000000,80,160152000000,FR_wheel_link,28.787830698661125,-10.233380067838008,5.326089736487809,0.0007582783709716816,0.023272390652846916,-0.42309307754016784
160153000000,81,160153000000,FR_wheel_link,-28.38301462707298,8.057203303514491,3.9567922308619865,-0.005008621439882455,-0.026525862637507,0.4230526687958291
160154000000,82,160154000000,FR_wheel_link,28.938216095013175,-10.42926938831096,6.383418212385438,0.0020759475527359315,0.023356641582183178,-0.42301879887509586
160155000000,83,160155000000,FR_wheel_link,-28.49327476573366,7.831831077060997,5.127495678686527,-0.002665237774205302,-0.026639065799207724,0.4230856110140265
160156000000,84,160156000000,FR_wheel_link,29.036139115315176,-10.653143195120899,7.416326679050617,0.004267562959231181,0.024994161420394127,-0.4229043822805003
160157000000,85,160157000000,FR_wheel_link,-28.73700773505495,7.6110485996924995,5.936769230113356,0.0017411442118733672,-0.03065200296552636,0.42289361844695694
160158000000,86,160158000000,FR_wheel_link,29.47502474779207,-10.848454554007462,8.132682429713565,0.006224219386853413,0.03235510100950108,-0.42250819646938026
160159000000,87,160159000000,FR_wheel_link,-29.591485279951158,7.437207725625466,5.948794638841551,0.0028351387926893253,-0.0344903958884149,0.4228440877363692
160160000000,88,160160000000,FR_wheel_link,29.887873298560702,-10.905313677125012,7.886660078290286,0.007905007972012094,0.03433038614859844,-0.4230060377734939
160161000000,89,160161000000,FR_wheel_link,-29.918663006857788,7.359458081688806,5.339821257398873,0.0011097574584331006,-0.033397027301403995,0.4233608908980484
160162000000,90,160162000000,FR_wheel_link,29.764251455241347,-10.81212338376991,6.7221083451739645,0.004578983124832986,0.03633023693426945,-0.4227491185618037
160163000000,91,160163000000,FR_wheel_link,-32.048565260962604,7.350671531422027,5.330694703049097,-0.043227337033757425,-0.034563711228563776,0.34184101003522716
160164000000,92,160164000000,FR_wheel_link,18.234859638374655,-13.078310036199857,6.597886366128408,0.006386989205191555,0.038136935697481264,-0.328356824939441
160165000000,93,160165000000,FR_wheel_link,-28.079503480170853,8.032438171821001,3.3215881965919865,-0.0009464397081357897,-0.03113610071187682,0.4069064266115405
160166000000,94,160166000000,FR_wheel_link,29.158685323076345,-11.017349000959308,6.630882159454798,0.010244274705634741,0.03479961734227051,-0.4201713508594484
160167000000,95,160167000000,FR_wheel_link,-29.99457093692937,7.641516186790458,3.2648923837044976,0.0017129252121426389,-0.031741621520544654,0.4222122686409446
160168000000,96,160168000000,FR_wheel_link,29.718626173288555,-11.00918339294159,6.474931149758383,0.01080401524509212,0.032721366423761895,-0.42302944171093865
160169000000,97,160169000000,FR_wheel_link,-29.89387994763882,7.6087393305116295,2.94478139416698,0.0008501781043563242,-0.03134808073263438,0.4227719802564184
160170000000,98,160170000000,FR_wheel_link,31.92887988564475,3.533995617946916,7.131214903411467,-0.03537569663711937,0.03145288807943013,-0.33300324901371575
160171000000,99,160171000000,FR_wheel_link,-20.89301016521563,9.311025189188802,6.931438510973891,-0.07683827171103719,-0.034762788582134316,0.14726332623419972
160172000000,100,160172000000,FR_wheel_link,7.188734606715833,-16.425622836791536,5.732049936886183,0.11044707158669571,0.027643347712324576,-0.03700210257677444
160173000000,101,160173000000,FR_wheel_link,-3.7681907036943567,13.239735217484593,8.885389576271217,-0.06965843173248269,-0.025139376996471355,0.018879628275228412
160174000000,102,160174000000,FR_wheel_link,3.5833225884624653,13.811153039991169,10.759592467463538,-0.06514117702046127,0.014436213671116785,-0.004339904916523541
160175000000,103,160175000000,FR_wheel_link,-0.7478491417229157,-15.610534333092794,5.603640568140771,0.11530989369270181,-0.01217410939587476,-0.00960486250689641
160176000000,104,160176000000,FR_wheel_link,0.3037362706579194,13.470565763962705,11.051569359384033,-0.060735339333167555,0.006620985850882662,0.012663919149052034
160177000000,105,160177000000,FR_wheel_link,0.30640347402685636,-15.556036380377844,5.932133911886477,0.11498121427982799,-0.006114976983553647,-0.012886749487326628
160178000000,106,160178000000,FR_wheel_link,-0.30974994435982867,13.447202572176362,9.99246924426394,-0.06454429564119227,0.004423158974167225,0.013450644512460893
160179000000,107,160179000000,FR_wheel_link,0.4885109635298637,-15.624420461870201,5.852751197750379,0.11164840163904786,-0.00453132189196322,-0.013513130752880324
160180000000,108,160180000000,FR_wheel_link,-0.4779471483597835,13.715131588798906,7.489428843146788,-0.07472893772540282,0.0014610701223077994,0.013129280770338274
160181000000,109,160181000000,FR_wheel_link,0.9383934772028931,13.931808172386827,7.906110701890923,-0.07166032135178368,-0.001072220785608086,-0.0019153344328453538
160182000000,110,160182000000,FR_wheel_link,0.5483562973101826,-15.718655213188438,5.4150059305247655,0.10976361214553394,-0.0017863518635250202,-0.011338638543625438
160183000000,111,160183000000,FR_wheel_link,-0.7445224787194569,13.412086889734374,8.782151227841371,-0.06832590514788618,0.0014191477441314229,0.013358084006506546
160184000000,112,160184000000,FR_wheel_link,0.6431798520391396,-15.733899707059585,4.966500762826984,0.10896859949532785,-0.0023552829774452504,-0.013761894915629043
160185000000,113,160185000000,FR_wheel_link,-0.8747958967367195,13.621286185693739,6.354449051250057,-0.07708064118156245,0.004665951920429131,0.013946003280578536
160186000000,114,160186000000,FR_wheel_link,0.19164738646336404,-15.52543259479167,2.3544478255317145,0.10008317191839756,0.0012308780413803934,-0.013570312010848504
160187000000,115,160187000000,FR_wheel_link,-1.4511212485410643,13.833040151769591,3.425235187243697,-0.09133900822036975,0.00982317938565489,0.013203699172514911
160188000000,116,160188000000,FR_wheel_link,-0.5686090779000432,-15.413872046698119,-0.5350718371816056,0.08420023769336481,0.0018551064650234087,-0.013971801892082088
160189000000,117,160189000000,FR_wheel_link,-1.5378648653869722,13.85056999916214,2.8978075862727826,-0.10300829436253871,0.002263581012028364,0.012981948309702679
160190000000,118,160190000000,FR_wheel_link,0.3162528742910135,-15.633834547153583,0.0012141318588924695,0.07650417574411855,0.0005712978265886614,-0.013802600010598291
160191000000,119,160191000000,FR_wheel_link,-1.100524638078677,13.389538174171792,4.027036517072759,-0.10447374788244627,-0.00607593990294895,0.013482801678500356
160192000000,120,160192000000,FR_wheel_link,1.377660994586427,-16.312204642029297,1.7196962283841892,0.078819361329381,0.0016168932792971129,-0.013572506145256447
160193000000,121,160193000000,FR_wheel_link,-1.0057364614089996,12.577922470260775,6.003554319652643,-0.09794383080851353,-0.008783520444525638,0.01403780762627605
160194000000,122,160194000000,FR_wheel_link,1.7215971193938127,-16.431915899905402,2.6311378717596647,0.08233526265758642,0.004071389729313316,-0.013580325086651022
160195000000,123,160195000000,FR_wheel_link,-1.247012508891756,12.51172291042115,6.3580729985558895,-0.09383289747469196,-0.007309969553218266,0.014154061741269807
160196000000,124,160196000000,FR_wheel_link,1.5142157920197703,-16.421867240427694,3.6428064192558494,0.08830476580055288,0.00411105972134521,-0.0137481764787269
160197000000,125,160197000000,FR_wheel_link,-1.3234404809876916,12.506987693804113,7.206435358276204,-0.0890070615919683,-0.005237894186429057,0.014070788078981175
160198000000,126,160198000000,FR_wheel_link,1.2562559258411048,-16.49614103473779,4.232828872418845,0.0927336389861483,0.004154164668453432,-0.013668024226854742
160199000000,127,160199000000,FR_wheel_link,-1.3992828437049294,12.591272220148348,7.109108357951255,-0.08701065820705724,-0.002729828291232459,0.013841069399891366
160200000000,128,160200000000,FR_wheel_link,1.1987150611154223,12.854307379577515,8.300325032953928,-0.07884140875587534,0.005242530913318572,-0.0023776783836433907
160201000000,129,160201000000,FR_wheel_link,-0.18855254708429942,-16.609114460387637,5.761093594756254,0.11287940984687558,-0.002263982476085841,-0.010302928507831844
160202000000,130,160202000000,FR_wheel_link,-0.7721947142930247,12.60250311774097,9.952192436831734,-0.061312808638963934,0.004483432504637067,0.012305662571369929
160203000000,131,160203000000,FR_wheel_link,0.3928592725347337,-16.683515945936065,6.700134805533576,0.11865125435509033,-0.008048364447988168,-0.012570424619765978
160204000000,132,160204000000,FR_wheel_link,-0.06230734322206073,13.521719227118538,8.959281931760465,-0.06587984899528515,0.0052675040774624185,0.013870580186283206
160205000000,133,160205000000,FR_wheel_link,0.5534328799300723,-16.522045308844227,5.315170877917555,0.11268783968854797,-0.0045232076632372884,-0.014547289655429148
160206000000,134,160206000000,FR_wheel_link,-0.6395804252843535,13.223056029841956,5.944605495740624,-0.07936486001121969,0.004778613677023357,0.013429859154557069
160207000000,135,160207000000,FR_wheel_link,0.5628629336331263,13.45389824406609,5.905215747203518,-0.07832137678942565,-0.0026268066117864906,-0.002385493255991405
160208000000,136,160208000000,FR_wheel_link,0.5679363033125759,-16.682453960449116,4.850833610266653,0.10844350869040392,-0.0005916839171597626,-0.011044877415349298
160209000000,137,160209000000,FR_wheel_link,-0.8785910342113654,12.594021433527622,7.770456742644463,-0.07088438262858919,-0.0013446161660983788,0.012857797353675796
160210000000,138,160210000000,FR_wheel_link,0.8686694353235574,-16.683934324131208,4.650880039580676,0.10679538256646107,-0.0017361595114942252,-0.013539541363776693
160211000000,139,160211000000,FR_wheel_link,-0.9702399782699972,12.904731795974321,5.816095445393962,-0.07919739650925459,0.003344487816499314,0.013698573129782992
160212000000,140,160212000000,FR_wheel_link,0.2993044558123274,-16.47474033205226,3.004453553244264,0.10065121861532081,-0.0009441756287696831,-0.013397431872419971
160213000000,141,160213000000,FR_wheel_link,-1.2046287820214887,13.284142334853914,4.240241696724617,-0.0881179033118672,0.0064148293382199914,0.013307193704991784
160214000000,142,160214000000,FR_wheel_link,-0.16645277926832874,-16.169145229417836,1.4728658287234928,0.08885960804098865,0.0047142847156055835,-0.012131554406479665
160215000000,143,160215000000,FR_wheel_link,-1.5872828989748062,13.507980758076226,3.259698772901519,-0.10086605234144094,0.00039467597492229126,0.011609471243335036
160216000000,144,160216000000,FR_wheel_link,-3.689080638092051,-16.21036660948083,4.233638896400946,-0.0008485438972639191,0.004455557359757071,-0.18380346289537097
160217000000,145,160217000000,FR_wheel_link,-22.811924991567107,8.168773937543746,3.2316615653698317,-0.0055886059783816005,0.010483892596953431,0.38025922535257034
160218000000,146,160218000000,FR_wheel_link,25.574522124307933,-10.56842282353283,7.1018107001623045,0.005175345618527943,-0.006920654454616651,-0.4141950029158313
160219000000,147,160219000000,FR_wheel_link,-27.381893907747735,8.160619853438755,4.036947135778714,-0.004009443489567925,0.004945865258276219,0.42163206052401137
160220000000,148,160220000000,FR_wheel_link,27.629033312854293,-10.40024015695306,7.179463967393425,0.005160755371545827,-0.004505002037596907,-0.42303426843391123
160221000000,149,160221000000,FR_wheel_link,-27.665876082860482,8.111340346626353,4.108617751158514,-0.003396290447181904,-0.0015303776948082156,0.4238148185583986
160222000000,150,160222000000,FR_wheel_link,28.522621342819807,-10.402899009914654,7.434671619409071,0.005455371348409313,-0.0031371141875033075,-0.42343810880459143
160223000000,151,160223000000,FR_wheel_link,-27.729250180320424,8.057910780992337,4.141522874107417,-0.004609165174666507,-0.002446478725110274,0.4241039031650944
160224000000,152,160224000000,FR_wheel_link,28.71353651940391,-10.436841654320533,7.4941283717127005,0.004543907047707819,-0.0031845146422447216,-0.4235023005830086
160225000000,153,160225000000,FR_wheel_link,-27.72919555263434,8.054343598024099,3.8751654097517965,-0.003202643484882862,-0.00429427514891003,0.42444381291100675
160226000000,154,160226000000,FR_wheel_link,29.014903277695723,-10.438106407164717,7.280392409406986,0.005584577296289855,-0.0020553128547014755,-0.423688798298544
160227000000,155,160227000000,FR_wheel_link,-27.90370778738196,7.997101230649665,3.4743699264929195,-0.0031068175485171627,-0.0037272964405704223,0.4244796916941853
160228000000,156,160228000000,FR_wheel_link,28.953250094359337,-10.507197288981846,6.896889414363108,0.004439221444693331,-0.000254382203267707,-0.423947905335903
160229000000,157,160229000000,FR_wheel_link,-28.25142544177113,7.906983732166156,3.0024782371752816,-0.004572478970533611,-0.0024990347290217356,0.4244224145285661
160230000000,158,160230000000,FR_wheel_link,28.74975210643028,-10.603373138508616,6.494864978632959,0.0034701028552580437,0.0023815977613294006,-0.42433503884573387
160231000000,159,160231000000,FR_wheel_link,-28.7251196505385,7.795424718185565,2.5596575188523323,-0.0052643655334539095,-0.0017434672770081643,0.424242768374765
160232000000,160,160232000000,FR_wheel_link,28.569455221843256,-10.689268907734759,6.444844649035664,0.003647150432905022,0.004186936273752378,-0.4245503179093808
160233000000,161,160233000000,FR_wheel_link,-29.076541580059118,7.728741402872835,2.6117222873229275,-0.0050987394630289985,-0.001075879026696245,0.42438359640620404
160234000000,162,160234000000,FR_wheel_link,28.49508559573082,-10.74847162062794,6.783281801003889,0.004540572358163901,0.005060704241645687,-0.424683334662136
160235000000,163,160235000000,FR_wheel_link,-29.254131604618316,7.677241383815299,2.8170834664766713,-0.00440973512639232,-0.000954427372377748,0.42429251274842766
160236000000,164,160236000000,FR_wheel_link,28.52585630105712,-10.818696969949409,7.140968747234079,0.0056871410004182355,0.005233031870344481,-0.4247283463768519
160237000000,165,160237000000,FR_wheel_link,-29.316951508667323,7.619911000946998,3.0059694887090016,-0.00355172293399024,-0.0013811751342629212,0.42423998721848477
160238000000,166,160238000000,FR_wheel_link,30.65682146813166,3.2269895717075077,7.570225263621268,-0.03536007325788062,0.009478198478546201,-0.3398266597736887
160239000000,167,160239000000,FR_wheel_link,-21.123341344131628,9.738031087898518,6.4039606834942004,-0.08258453801587946,-0.01819485400637754,0.15513101110673552
160240000000,168,160240000000,FR_wheel_link,6.281604557259435,-15.837898216054336,5.916303125954434,0.10625352329739028,0.021175654951111927,-0.03930348995888325
160241000000,169,160241000000,FR_wheel_link,-3.4877485199719187,12.557054696177259,7.6876270780167015,-0.06813632195339904,-0.018871591336996212,0.01961011516788638
160242000000,170,160242000000,FR_wheel_link,3.005501208636988,13.078234453848705,8.728714983236086,-0.06525590650008396,0.01244232003597262,-0.004935903171535757
160243000000,171,160243000000,FR_wheel_link,-0.5825444897271564,-15.849106881914604,5.804056873672073,0.11309910219609401,-0.015131455967391155,-0.008743599945631841
160244000000,172,160244000000,FR_wheel_link,0.608628046501609,13.485292727150142,9.5289143763289,-0.06264230632493949,0.007227001670694015,0.01221240014617666
160245000000,173,160245000000,FR_wheel_link,0.42304847261889483,-15.724099553511842,6.843621997220781,0.11448837700494291,-0.010767736303280678,-0.01188558232116516
160246000000,174,160246000000,FR_wheel_link,0.22148351805968888,13.473193633224756,9.710303972718267,-0.06264595146169423,0.004728449814316245,0.013058789097053124
160247000000,175,160247000000,FR_wheel_link,0.628400857678651,-15.767688651731595,6.928362401178732,0.11153911995881159,-0.005213166805372744,-0.011736339366359894
160248000000,176,160248000000,FR_wheel_link,-0.28384638382374683,13.498815019343823,8.113609647970446,-0.0706025601203884,0.006433315982430415,0.01322520786610059
160249000000,177,160249000000,FR_wheel_link,0.715432014055054,13.67196371977328,8.408939154721963,-0.06878164054440403,-0.004491423749948163,-0.0025033671666163317
160250000000,178,160250000000,FR_wheel_link,0.9129119933184286,-15.88323038515982,6.746987233710733,0.10814853404782468,0.0014002862354125284,-0.010864165310801789
160251000000,179,160251000000,FR_wheel_link,-0.8517183728379716,13.32881831344181,8.823276486194747,-0.0682411076444971,-0.0013536067058565642,0.013174519362244744
160252000000,180,160252000000,FR_wheel_link,1.1103274777343952,-15.895775090231783,6.303299484564507,0.106781181693396,0.00011038670090270797,-0.013558994490936125
160253000000,181,160253000000,FR_wheel_link,-0.9056434843914859,13.456524613800877,6.946101973310211,-0.07340155004939171,0.002661286590019905,0.01376302506066256
160254000000,182,160254000000,FR_wheel_link,0.6914734430657045,-16.019522425999227,5.1979467491203915,0.10510635366124556,-0.00022606282203500543,-0.014139809811647289
160255000000,183,160255000000,FR_wheel_link,-1.0645500326719337,13.593742521774134,5.165547326703216,-0.08115970751517504,0.005806584448271959,0.013284462133712347
160256000000,184,160256000000,FR_wheel_link,0.48158084195019873,13.65484118984895,6.0286331466812175,-0.07795239614086569,0.0023107259664702368,-0.0028164351177922473
160257000000,185,160257000000,FR_wheel_link,0.10707211340520728,-16.10298972883262,5.42462637063434,0.10444591989217394,-0.002342641153182634,-0.011629283673389128
160258000000,186,160258000000,FR_wheel_link,-0.8689884822058561,13.14841329776182,7.777428566354455,-0.07287731027211752,0.005915611901401944,0.012448012437175672
160259000000,187,160259000000,FR_wheel_link,0.1730832080929063,-16.07243637450916,5.641931218907158,0.10386737309744534,-0.0019464769265478091,-0.013344762262177371
160260000000,188,160260000000,FR_wheel_link,-0.984374698325216,13.273898905203957,6.8095235353535015,-0.08013528798779233,0.004077649416926326,0.012714683974022685
160261000000,189,160261000000,FR_wheel_link,0.35737254084887915,-16.267555930170403,5.260952308215686,0.09823249038646784,-0.0014093485168694092,-0.013310792862459708
160262000000,190,160262000000,FR_wheel_link,-0.9621616908564574,13.184959163469994,5.435847019962069,-0.09056352992487073,0.0006292056839704688,0.01305454650546475
160263000000,191,160263000000,FR_wheel_link,0.7821668501894815,-16.43787248911203,4.210364922217302,0.08848872540364765,-0.0018014797580744501,-0.013296552203862664
160264000000,192,160264000000,FR_wheel_link,-0.7877083608393329,13.110034723767187,4.109544256230615,-0.09820280113767554,-0.003440259018432675,0.013586779007158989
160265000000,193,160265000000,FR_wheel_link,-0.6808512602462262,-2.3464890266670917,5.7955146842909055,-0.04558430541399112,-0.007791852971775119,-0.09610944226004688
160266000000,194,160266000000,FR_wheel_link,-8.5530285224463,10.702089707928096,2.849546777893033,-0.0040833977907468386,0.010795791713235421,0.2803397464880423
160267000000,195,160267000000,FR_wheel_link,24.397372527713276,-11.45011975140925,8.28243121592582,0.013605994632628519,-0.026091726470450532,-0.39764116477830824
160268000000,196,160268000000,FR_wheel_link,-26.43777211986297,7.685603461859979,4.611103076483961,0.0070667313017498635,0.020548944337685407,0.4190981459342964
160269000000,197,160269000000,FR_wheel_link,27.468119501865676,-10.908315540329909,8.632762201477746,0.019848557675996227,-0.019806655515848193,-0.4221510910654751
160270000000,198,160270000000,FR_wheel_link,-27.942679315535152,7.468523945602036,4.038766375771289,0.00957051245522933,0.016306729943883245,0.4235972881627124
160271000000,199,160271000000,FR_wheel_link,27.952450078176938,-10.976970347728662,8.225388146156984,0.020153052052337812,-0.014692889620830454,-0.4240422933586056
160272000000,200,160272000000,FR_wheel_link,-28.637449091074394,7.3720641485137985,3.381060314569859,0.008076815045644782,0.013882563565276979,0.4245819598400561
160273000000,201,160273000000,FR_wheel_link,28.178034407614334,-10.896804989594052,7.197212294541112,0.01619292107499683,-0.009217482597804695,-0.4246418241871442
160274000000,202,160274000000,FR_wheel_link,-29.25668492732494,7.494574004437185,1.9174362262766018,0.001961355898175883,0.01143376157772196,0.4245378660804095
160275000000,203,160275000000,FR_wheel_link,28.298329296487687,-10.511263634868678,5.253622370411095,0.007049904241415034,-0.006508378484970799,-0.42484508597060083
160276000000,204,160276000000,FR_wheel_link,-29.417909685719227,7.784291452846045,0.5078612833014651,-0.006605830247682242,0.007297155318592882,0.4239087783757009
160277000000,205,160277000000,FR_wheel_link,28.628771128441546,-10.301999601505669,4.406713407813246,-0.00036346552038883114,-0.008206579465742955,-0.4241604516365862
160278000000,206,160278000000,FR_wheel_link,-29.08620674608057,7.879727630841075,0.09036162193159825,-0.010707848774343276,0.006137069639686939,0.42454533190889054
160279000000,207,160279000000,FR_wheel_link,28.915172301750957,-10.22336271000008,4.191793783201991,-0.003133300499225539,-0.009908364862769655,-0.42348571699746085
160280000000,208,160280000000,FR_wheel_link,-28.79374413264966,7.87615101505889,0.04165644986545268,-0.011021384526453827,0.007800853822339666,0.42443717168286416
160281000000,209,160281000000,FR_wheel_link,28.888743348764084,-10.249873451113938,4.261750671129055,-0.002308797869939581,-0.011000288517647101,-0.42349768837658797
160282000000,210,160282000000,FR_wheel_link,-28.75067070840033,7.6637379263149645,0.5991333859398077,-0.007444772835767721,0.010200460376445643,0.42445391107923847
160283000000,211,160283000000,FR_wheel_link,28.832001250351773,-10.404015150028044,4.714148757408467,-0.0009450492808107989,-0.014020522000967484,-0.4243221933524611
160284000000,212,160284000000,FR_wheel_link,-28.632986530352756,7.351850625934842,1.4477779012661767,-0.005147837936605168,0.011459593234972313,0.4246321387401866
160285000000,213,160285000000,FR_wheel_link,28.80119638666319,-10.615821165842096,5.378943416013578,0.001451998201757244,-0.01468539910607839,-0.4246466419101721
160286000000,214,160286000000,FR_wheel_link,-28.759169790871354,7.172808649221862,1.9695671899313103,-0.0029272805737463824,0.012621867578094168,0.4248232321442037
160287000000,215,160287000000,FR_wheel_link,28.715525797189972,-10.811406467646902,6.007332380546934,0.0040108889244176325,-0.015157480425083964,-0.42492090462988075
160288000000,216,160288000000,FR_wheel_link,-32.922565499589155,7.067506288687759,5.292004214417013,-0.08500616400634145,-0.0012190376528942628,0.25552182379584837
160289000000,217,160289000000,FR_wheel_link,8.275288075815926,14.13487811225464,6.043555316450159,-0.07844573447518156,0.025417813445227536,-0.04704946873500285
160290000000,218,160290000000,FR_wheel_link,-3.6454169558892198,-16.76049643909011,3.0915544760567966,0.10658880934355199,-0.011433194083892465,-0.0006989024139560075
160291000000,219,160291000000,FR_wheel_link,-0.2407043691698847,12.971008589682677,5.743277603618614,-0.06727296923612157,0.019492183308184377,0.007976045072486402
160292000000,220,160292000000,FR_wheel_link,-1.3418209378789256,-16.358267689448407,3.763424183859751,0.111485554462312,-0.009838239673483906,-0.009707791763314318
160293000000,221,160293000000,FR_wheel_link,-0.13439991264468673,13.133200558860107,6.250008332607538,-0.06428803629069758,0.010321745519487103,0.010285868192499102
160294000000,222,160294000000,FR_wheel_link,-0.7870984531347727,-16.087852439300196,5.877518484280219,0.09741130185874827,-0.011372854830036696,-0.0416355018125473
160295000000,223,160295000000,FR_wheel_link,-4.439160065433172,12.4520143744532,7.4029111345299645,-0.06418310846360835,0.008923088555246157,0.04692124808663656
160296000000,224,160296000000,FR_wheel_link,1.5414648867777998,12.97383500186556,7.940335362414229,-0.062263038416109424,-0.006852777823841078,-0.008625188404481208
160297000000,225,160297000000,FR_wheel_link,0.7408703184304647,-16.913807086593664,7.08648519836085,0.11271801199537641,0.0014980400495718056,-0.009873140878987437
160298000000,226,160298000000,FR_wheel_link,-1.082943280314752,12.480218292969829,8.324479390332364,-0.06278009434913015,-0.004410005496975617,0.01323804543635125
160299000000,227,160299000000,FR_wheel_link,1.2066381657461904,-16.840690952454906,7.1024890510939835,0.11174870688765483,-0.001165301404613823,-0.013491175921385774
160300000000,228,160300000000,FR_wheel_link,-0.9994303617851754,12.54254213728149,7.767734723755732,-0.06548273582774324,-0.0019707715214826887,0.013984986368170199
160301000000,229,160301000000,FR_wheel_link,1.2007941096375914,12.794191066099,8.316926864256233,-0.06442004178893689,-0.0006121421043308663,-0.0024310839794291343
160302000000,230,160302000000,FR_wheel_link,0.2773296249932837,-16.944162952570583,7.083132024384398,0.11145301105392033,-0.005496231481893461,-0.009556298144072389
160303000000,231,160303000000,FR_wheel_link,-0.5466342255562398,12.511155016366285,8.21970006662739,-0.06559663260193604,0.004164348363781805,0.012258979190763245
160304000000,232,160304000000,FR_wheel_link,0.22972521106065746,-16.91503691526703,7.072678225968677,0.1096312231560158,-0.005937188780639165,-0.012413908280709714
160305000000,233,160305000000,FR_wheel_link,-0.8344348757692639,12.95787879462218,6.311645952001127,-0.07414767590167898,0.010647814883811224,0.012531074163975305
160306000000,234,160306000000,FR_wheel_link,-0.5501776855527084,-16.72907621363862,5.667656866467719,0.1037059505505395,-0.00417388760872194,-0.013017300751868847
160307000000,235,160307000000,FR_wheel_link,-1.2244214808964524,13.418788991663586,3.6306551824396904,-0.08557584775585589,0.011229880327655794,0.012054183510390282
160308000000,236,160308000000,FR_wheel_link,-0.40323635002296787,13.53651680053218,3.724541221444586,-0.08356142359132909,-0.0011713245270820246,-0.002039061263780428
160309000000,237,160309000000,FR_wheel_link,0.059370073608734,-16.92770842891448,5.720008255297156,0.10245017469046495,0.002324705846823433,-0.012462508460383295
160310000000,238,160310000000,FR_wheel_link,-1.6870831516099694,12.442591025850364,6.386075790611478,-0.07559508875279472,0.003121999916239739,0.012841727250931976
160311000000,239,160311000000,FR_wheel_link,0.25545309017015755,-17.295158561564513,6.517762264526613,0.09662855623079827,-0.008331047726459363,-0.015393101204303514
160312000000,240,160312000000,FR_wheel_link,-0.913637254362187,12.282205247468163,6.388597895092795,-0.08392031478806827,0.004083635453808477,0.013821503374915856
160313000000,241,160313000000,FR_wheel_link,0.05166214968198611,-17.431813314871103,6.429985570183459,0.09661517648044599,-0.003695537362542219,-0.011853382712729532
160314000000,242,160314000000,FR_wheel_link,-1.1044568857626311,12.398888043883225,5.870570186622701,-0.08517021634945142,0.0031556730061610794,0.013086932659088292
160315000000,243,160315000000,FR_wheel_link,0.2132901438196412,-17.36617896264569,6.043149850894395,0.09363708725247372,-0.004582072371967226,-0.013264568096130365
160316000000,244,160316000000,FR_wheel_link,-1.0700193823002535,12.50140456257552,5.45691796696085,-0.0872475660960804,0.0035065299118117715,0.01407741782458404
160317000000,245,160317000000,FR_wheel_link,-1.7823226742779112,-1.9284357036773705,4.441800470313069,-0.04217615630941439,-0.0058364566995232296,-0.09574320242015946
160318000000,246,160318000000,FR_wheel_link,-9.5661106887887,11.02655990480855,1.035017179850752,-0.004390542160334433,0.031215819326443385,0.27907730232661715
160319000000,247,160319000000,FR_wheel_link,22.935220079750533,-10.839288753133888,4.954180972321141,0.0030960754224298847,-0.03911603829724517,-0.39616370078039087
160320000000,248,160320000000,FR_wheel_link,-26.576033803372987,8.024316056884642,1.8132715714972034,-0.0015555569823690924,0.043091560126848186,0.4150874507860523
160321000000,249,160321000000,FR_wheel_link,26.311157996782242,-10.07647297307669,5.667320972610775,0.006393633224778687,-0.038075360455612134,-0.41918649076557174
160322000000,250,160322000000,FR_wheel_link,-27.30276293100034,8.191536807297345,2.167510430084412,0.0001932217520801362,0.04004491442503471,0.419407211923192
160323000000,251,160323000000,FR_wheel_link,26.80863993618395,-10.022017020756644,6.421231089417236,0.008293065629216754,-0.03741361817731223,-0.42031849328152493
160324000000,252,160324000000,FR_wheel_link,-27.387381662660694,8.221562123078742,2.1159194485915864,5.835698058416704e-05,0.04043910439060779,0.41966651720308296
160325000000,253,160325000000,FR_wheel_link,26.804784159287106,-10.03364978669163,6.393448842328079,0.00814227153038,-0.0371224092446262,-0.42027757301376706
160326000000,254,160326000000,FR_wheel_link,-27.348586116900943,8.203347444169642,1.6368155198327798,0.0005711771590791493,0.03687974061165636,0.4202849706859263
160327000000,255,160327000000,FR_wheel_link,27.327051633928818,-10.064747116305682,6.457764106318804,0.009762926265505269,-0.03783174389782867,-0.42016112799837446
160328000000,256,160328000000,FR_wheel_link,-27.261048423204084,8.157087819863078,1.486375679553026,6.23750317301621e-05,0.039728060595104406,0.4198406193070916
160329000000,257,160329000000,FR_wheel_link,27.102411040921336,-10.113976903356354,6.213231669486617,0.009696823497102948,-0.0397122381117019,-0.4198600981762013
160330000000,258,160330000000,FR_wheel_link,-27.14756283045062,8.128171433572035,1.2815609346429626,-0.000493892866988279,0.041068598557571244,0.41946845360193796
160331000000,259,160331000000,FR_wheel_link,27.026374180658287,-10.157068990400463,6.258901113403553,0.009962905605415082,-0.04094808068733938,-0.4195768692014263
160332000000,260,160332000000,FR_wheel_link,-27.077595900523434,8.101757064255702,1.3183865894839424,-0.0003176287006419796,0.04211591174274843,0.4192368524415906
160333000000,261,160333000000,FR_wheel_link,26.98062769650314,-10.213989952596826,6.547576503196716,0.01064753550488038,-0.04267012126481135,-0.41929522850709666
160334000000,262,160334000000,FR_wheel_link,-26.950951055872274,8.0558394810992,1.611889048788904,0.00028527114327455295,0.042960878259228764,0.4190579257177057
160335000000,263,160335000000,FR_wheel_link,26.951963308002046,-10.256322176187112,6.60898830156426,0.010847113387891296,-0.0433413108286007,-0.4190263239255258
160336000000,264,160336000000,FR_wheel_link,-26.92983133090122,8.026011888207664,1.6373430329177172,0.00040179884482157064,0.0435641765411187,0.4189157358348692
160337000000,265,160337000000,FR_wheel_link,26.941185556647625,-10.292226575914519,6.667566044654221,0.011007653604685022,-0.043985657254595543,-0.41889063234955426
160338000000,266,160338000000,FR_wheel_link,-26.91536526716802,7.997999844570526,1.660716238173831,0.0004837955583761485,0.04411470480738708,0.41880556500912425
160339000000,267,160339000000,FR_wheel_link,26.935862313570382,-10.324591013293762,6.724202078064858,0.011129708529986284,-0.04456566080687809,-0.41877169132386166
160340000000,268,160340000000,FR_wheel_link,-30.90097737653373,8.184200060443835,4.472350580338924,-0.08397130934576863,0.023349337706974876,0.2505817286425577
160341000000,269,160341000000,FR_wheel_link,7.030225040725226,14.963087754445404,3.853233030049785,-0.08382502625889691,0.0036587330537417185,-0.04363794006781774
160342000000,270,160342000000,FR_wheel_link,-1.1331048189226263,-15.974538365502761,3.319753044336223,0.09099126779326959,-0.007877460393830728,-0.0024145292599345816
160343000000,271,160343000000,FR_wheel_link,-0.011844385246902282,13.672714206446768,3.992498557921666,-0.08345186891751886,0.006627498575194477,0.010517695182075395
160344000000,272,160344000000,FR_wheel_link,0.3714719412096313,-15.782551751567285,3.5051144079991094,0.09162993624867609,-0.005027285216136033,-0.011977198503607985
160345000000,273,160345000000,FR_wheel_link,-0.5574505534611713,13.618902224328167,3.930396879101054,-0.08131466032836229,0.006240906364290813,0.01255253027598282
160346000000,274,160346000000,FR_wheel_link,0.39275165464915085,-15.851112817493172,4.112959854855036,0.0997200391406061,0.0027609715333525744,-0.012880819210105612
160347000000,275,160347000000,FR_wheel_link,-1.3059631193002417,12.92563797397779,6.194452638751235,-0.06658835419258846,0.004070094381347932,0.012479358236887998
160348000000,276,160348000000,FR_wheel_link,-1.3548092130714402,-17.24407728820251,11.86583496678976,0.07959868280728705,-0.01530880570711208,-0.09639076364523107
160349000000,277,160349000000,FR_wheel_link,-12.473467004985661,9.849430348087296,12.05301680883148,-0.05192767387892546,0.015442608924752459,0.10812444995627088
160350000000,278,160350000000,FR_wheel_link,-1.2560833264214737,-17.139126674343974,15.433639009315739,0.040952617373627785,-0.029697558677909307,-0.19730986357162242
160351000000,279,160351000000,FR_wheel_link,-20.886084516109666,7.35210958998637,11.8815613834628,0.03899435439276001,0.04530921047469145,0.38353072944509015
160352000000,280,160352000000,FR_wheel_link,26.128120922909144,-10.189880463289768,15.643636386962193,0.03693502737526366,-0.055920486183544144,-0.4118516628109176
160353000000,281,160353000000,FR_wheel_link,-25.301787218838445,8.870040879821328,11.551896103939095,0.031607948429645934,0.04663757240853665,0.41911115732810705
160354000000,282,160354000000,FR_wheel_link,27.04771190633615,-10.319185047030317,13.874888060364786,0.024180729624987702,-0.05443693297134868,-0.41886766066583925
160355000000,283,160355000000,FR_wheel_link,-29.83392550768548,8.764616544331918,9.035224735799659,-0.08709953377347887,0.019487446632811437,0.2507410587189412
160356000000,284,160356000000,FR_wheel_link,7.52972947760236,15.397763320388524,8.016024390994925,-0.08908200899363151,-0.002643304538050887,-0.04019102792445036
160357000000,285,160357000000,FR_wheel_link,-0.22789576636483028,-16.61904314282456,10.66804749032297,0.099880311817123,-0.016056440359276235,-0.0003710948886155911
160358000000,286,160358000000,FR_wheel_link,1.087647700623972,14.178150461697504,8.589144556116068,-0.08550294408476118,0.00942865171677221,0.011718609087042066
160359000000,287,160359000000,FR_wheel_link,0.3032552884428999,-16.408956859468255,9.176748319385135,0.09539133371616262,-0.011530600427785125,-0.009741229216192387
160360000000,288,160360000000,FR_wheel_link,0.18890697298464096,14.435870316743756,5.617415439005829,-0.09537115924764306,0.014115531035860992,0.012786449372475623
160361000000,289,160361000000,FR_wheel_link,-0.06931987040881081,-15.993493686813713,5.411560572445426,0.08742427580980403,-0.01006770638576323,-0.012701508935598975
160362000000,290,160362000000,FR_wheel_link,-0.15445159690230764,14.78392754422085,2.789427429095588,-0.10745370821608527,0.011753015508791731,0.010731363004751304
160363000000,291,160363000000,FR_wheel_link,-0.08991445181087773,-15.661726991685976,3.4022860162023596,0.07848465861950583,-0.0047790143772204014,-0.014526930754396782
160364000000,292,160364000000,FR_wheel_link,-0.9383106805199759,14.698146729563545,2.127721570781626,-0.10304505080156141,0.008152849674521147,0.012290917336079121
160365000000,293,160365000000,FR_wheel_link,0.10296360776945099,-15.620426288153663,3.2844258037321987,0.0880557274603242,-0.002272161509925207,-0.013702730237149175
160366000000,294,160366000000,FR_wheel_link,-1.0678986459554183,14.79394224456868,2.290608554096736,-0.08974710890060239,0.007120027800893885,0.012284741811104997
160367000000,295,160367000000,FR_wheel_link,0.2663612908591961,-15.603639806352788,3.571955682922993,0.09473141031729612,-0.004641780934926966,-0.012880117873473715
160368000000,296,160368000000,FR_wheel_link,-0.6815775440553951,14.800937375268663,2.803216404117375,-0.08433852737256611,0.006240028204032379,0.012350543102108218
160369000000,297,160369000000,FR_wheel_link,-2.283634595016449,-15.411524425532845,6.108787129740142,0.04320397741628029,-0.01718832460683182,-0.12534245970315497
160370000000,298,160370000000,FR_wheel_link,-13.160886593803694,11.48445314095791,2.025742892829591,0.009157537443694581,0.04807267485218339,0.31197810672116827
160371000000,299,160371000000,FR_wheel_link,23.93276989200152,-10.3611127971425,7.045987514586906,0.015105466179324904,-0.059161736304068825,-0.40167420949654653
160372000000,300,160372000000,FR_wheel_link,-26.13240904762895,8.945334575432705,3.1558370125298123,0.009028893184600487,0.05875025111185764,0.4163731008426299
160373000000,301,160373000000,FR_wheel_link,26.7091634686884,-10.070883811110495,7.574826255732908,0.013032493229239314,-0.05941572751817176,-0.4192201010790941
160374000000,302,160374000000,FR_wheel_link,-26.710688739434374,8.719707703631444,3.266206860927541,0.004647018788213992,0.05590890891840406,0.42017328022234157
160375000000,303,160375000000,FR_wheel_link,27.151262341529577,-10.161012679171513,7.498227105736654,0.008300804346485271,-0.060299317969262696,-0.41970943133690936
160376000000,304,160376000000,FR_wheel_link,-26.690114567344878,8.630422111549755,2.8650713779599863,0.0012262079146996717,0.05619448654478645,0.42087809878880506
160377000000,305,160377000000,FR_wheel_link,27.184050745242654,-10.182291605423726,6.919818067299903,0.005973261377199996,-0.05933594035122,-0.4195347526167248
160378000000,306,160378000000,FR_wheel_link,-30.86445173164003,8.937374736897256,4.848114290498226,-0.08709348741574255,0.03072744639381782,0.2517443960429677
160379000000,307,160379000000,FR_wheel_link,3.4171052077893904,1.3804404168180056,5.3869190958880795,-0.006469479076646598,-0.023053193244795156,-0.19235625285937794
160380000000,308,160380000000,FR_wheel_link,-18.21668650167258,10.101925165344785,3.016808973792952,0.005154076547553347,0.04793483126672072,0.35166297129325597
160381000000,309,160381000000,FR_wheel_link,25.57273567566409,-10.811720658830579,9.654084993658671,0.015408194349017388,-0.06263586790499741,-0.4078801019504985
160382000000,310,160382000000,FR_wheel_link,-26.241177552480387,8.293479291535057,4.976693262509518,0.010102035857901972,0.06038613496284692,0.4182252142135311
160383000000,311,160383000000,FR_wheel_link,26.838369201201687,-10.57148812166744,9.478875761880321,0.016525603150519357,-0.06294818661363091,-0.4183492516735987
160384000000,312,160384000000,FR_wheel_link,-26.585556267740582,8.146407840824546,5.176380042561156,0.011345935080325567,0.05906157708144196,0.41967433027168405
160385000000,313,160385000000,FR_wheel_link,27.008443506799217,-10.572208169667444,9.097942538187814,0.015719028712486843,-0.061454390832074504,-0.41872634712560414
160386000000,314,160386000000,FR_wheel_link,-26.823556319978508,8.223526984391992,3.8771471116717238,0.00816799894264054,0.060817709906328794,0.4199079108753452
160387000000,315,160387000000,FR_wheel_link,26.82715655060379,-10.342451243090375,7.019095903116593,0.009811660971209155,-0.05808778098170228,-0.41916336989292896
160388000000,316,160388000000,FR_wheel_link,-31.275674502408968,8.88440235720415,3.839180258684784,-0.08596916366631596,0.03629782142590823,0.2506376090091014
160389000000,317,160389000000,FR_wheel_link,4.197112491713614,-0.13046808573831398,5.5914590659021295,-0.030746055790651892,-0.010024433868184761,-0.14032501574439316
160390000000,318,160390000000,FR_wheel_link,-11.074241735025074,11.08748930128599,3.165533510077391,0.01575640383931877,0.041771582005635105,0.2879516649104162
160391000000,319,160391000000,FR_wheel_link,24.017086074094927,-11.491791106065293,10.37952132758862,0.027186502052832268,-0.05972355284421005,-0.3984469301890022
160392000000,320,160392000000,FR_wheel_link,-26.4261616421677,7.650154307074143,6.431713384367252,0.02407294992214496,0.06221174828621642,0.41523641274918965
160393000000,321,160393000000,FR_wheel_link,26.872377735027133,-11.159540323763355,10.895936050544655,0.029430792308524224,-0.061198525782269385,-0.41880415978916474
160394000000,322,160394000000,FR_wheel_link,-27.10820811290117,7.693916867059584,5.095126636388472,0.018776042692286648,0.06222343929910279,0.4190806259132397
160395000000,323,160395000000,FR_wheel_link,27.01494967596344,-10.735274556128696,7.908146597765705,0.015617797163512291,-0.06057178555940173,-0.419628132514363
160396000000,324,160396000000,FR_wheel_link,-27.221047346483566,8.28577231438439,0.725118990345477,-0.002045339493098176,0.06111883552128293,0.41916963853689987
160397000000,325,160397000000,FR_wheel_link,27.115298231340333,-10.055978232679745,3.2612017972836336,-0.007394324365681931,-0.06291504352069492,-0.419286600667587
160398000000,326,160398000000,FR_wheel_link,-26.97584008393647,8.847051100638009,-2.113965961592694,-0.022702415768183312,0.05829173778316944,0.4195021731298919
160399000000,327,160399000000,FR_wheel_link,27.3997198851142,-9.743756686225716,2.8230161793151676,-0.018759548185395637,-0.06213606956939983,-0.41718871917943967
160400000000,328,160400000000,FR_wheel_link,-26.81395338149079,9.04989251017706,-1.8820638540873087,-0.02420515763199787,0.061250884394857236,0.41897928205295026
160401000000,329,160401000000,FR_wheel_link,27.281341796763634,-9.50409931226577,3.6026916833318055,-0.016212551652630146,-0.06485675383170791,-0.4186076885182729
160402000000,330,160402000000,FR_wheel_link,-26.87328830660951,9.40854815761673,-0.41993040166527784,-0.017492220131438117,0.06563844661346237,0.41848272429525724
160403000000,331,160403000000,FR_wheel_link,26.833379624541646,-9.019637456354248,5.451987422648102,-0.0062654814669124755,-0.06360485257141159,-0.4193140279929054
160404000000,332,160404000000,FR_wheel_link,-27.270716552069036,10.003343375075731,2.0010931600919353,-0.005073114477214492,0.06748609108197946,0.41799099192283606
160405000000,333,160405000000,FR_wheel_link,26.614519067038533,-8.412566949968955,8.237067052221615,0.006753448044597524,-0.06493608833685004,-0.41877586298583674
160406000000,334,160406000000,FR_wheel_link,-27.126405786675335,10.45223545501395,4.870338872846731,0.00576878066719489,0.06444251180376825,0.4187379744748595
160407000000,335,160407000000,FR_wheel_link,27.088068293983003,-8.215403737950407,10.457232110395005,0.01407205800119779,-0.06710274637644095,-0.4179899753349259
160408000000,336,160408000000,FR_wheel_link,-26.856655125218943,10.333452498385132,5.542040043986199,0.009907839629422481,0.06710672561208672,0.41803152676645394
160409000000,337,160409000000,FR_wheel_link,26.885499229912867,-8.443232790201789,10.581946713545884,0.016657319184600883,-0.06794505526117066,-0.4175619303767433
160410000000,338,160410000000,FR_wheel_link,-26.845656485527673,10.11786014820413,5.670073076964209,0.011605368399258551,0.06890848894228079,0.4173612012152953
160411000000,339,160411000000,FR_wheel_link,26.708080891848173,-8.707069329450405,10.261933529027528,0.01645466390295243,-0.06759347478606484,-0.41753420623771825
160412000000,340,160412000000,FR_wheel_link,-31.010610643421494,10.169509817452218,7.312884969620766,-0.07774090697469292,0.040712541345337624,0.24919003897787523
160413000000,341,160413000000,FR_wheel_link,4.23718538794238,1.1949734750010754,9.300141504421985,-0.023513919300729543,-0.01566820936106553,-0.13566304837919121
160414000000,342,160414000000,FR_wheel_link,-10.098637554171123,12.795322773926632,4.978836059906785,0.015664450282553092,0.03833878232043327,0.28457248094077775
160415000000,343,160415000000,FR_wheel_link,24.690704822469243,-8.172114108371611,10.700267091570861,0.021292522762870567,-0.06784589856394967,-0.3935328924796242
160416000000,344,160416000000,FR_wheel_link,-25.91227397433792,11.050194707748657,5.379059630513592,0.017048762701806216,0.06481500790629877,0.4152140619974438
160417000000,345,160417000000,FR_wheel_link,27.574203468891987,-7.660624569525939,10.605202337989565,0.022706678838201433,-0.07310399639344545,-0.4153787889749247
160418000000,346,160418000000,FR_wheel_link,-26.340950581326894,10.875776475272165,5.272877508044617,0.015685761763986353,0.06837376948992378,0.41793108887287095
160419000000,347,160419000000,FR_wheel_link,27.314691857727734,-7.964912197349143,9.634307191074537,0.01824123496206781,-0.07070580404385395,-0.4171406342461545
160420000000,348,160420000000,FR_wheel_link,-26.922928716310757,10.393336920413562,3.7626137776479083,0.008832685144539644,0.07172982497097595,0.41648377317404917
160421000000,349,160421000000,FR_wheel_link,26.618546670539363,-8.55202999854801,7.593624525262665,0.009620221638637062,-0.06431714950537375,-0.41913218323516177
160422000000,350,160422000000,FR_wheel_link,-28.05822673570426,9.723130330828486,1.3419982547179246,-0.00037138383062151946,0.0777399569676929,0.4144479558655905
160423000000,351,160423000000,FR_wheel_link,25.656874629565447,-9.138416288885203,5.4482010006270984,0.0018790535967476705,-0.06250178906279151,-0.4200653869849134
160424000000,352,160424000000,FR_wheel_link,-28.502853051420754,9.208808376444704,-0.4674802885126477,-0.0069722265082577724,0.07609989609378086,0.4146921377191179
160425000000,353,160425000000,FR_wheel_link,25.912778098600608,-9.55968859418397,4.927029705346812,-0.0030826768694581126,-0.06785708559485797,-0.4184989177556557
160426000000,354,160426000000,FR_wheel_link,-27.835011490155274,8.950643572425665,-0.481118677395544,-0.011239936037809579,0.07359992239983013,0.41599724227783547
160427000000,355,160427000000,FR_wheel_link,26.54840152526573,-9.681390217248524,5.603262728928684,-0.005341439817020956,-0.07330006185971571,-0.4167769221481657
160428000000,356,160428000000,FR_wheel_link,-27.12892505134431,8.953850013311056,1.0274269941052943,-0.00965311609954178,0.07276002863854521,0.4165594738709839
160429000000,357,160429000000,FR_wheel_link,26.85307527066203,-9.601954943161472,6.338519918228169,-0.0036150662960832067,-0.07294977695442754,-0.41649215461898226
160430000000,358,160430000000,FR_wheel_link,-27.121114160307492,8.998644582313522,1.4101344485937677,-0.008200538218012317,0.07263191044591667,0.4166718712665735
160431000000,359,160431000000,FR_wheel_link,26.951467722782038,-9.49230206803416,7.220091027047648,-0.001610839988003524,-0.0738608274977901,-0.4160112635463221
160432000000,360,160432000000,FR_wheel_link,-26.96570403962741,9.062752882298364,2.416188691011133,-0.008765628823979769,0.07039779113733058,0.41660904910189567
160433000000,361,160433000000,FR_wheel_link,27.157376175184947,-9.408381312914521,8.40431521656361,-0.00010177128028511544,-0.0719559531728939,-0.4157227312225457
160434000000,362,160434000000,FR_wheel_link,-27.110284847254203,9.121543529669196,3.4818325829689836,-0.006266744727293173,0.0701670222726618,0.41674017443565814
160435000000,363,160435000000,FR_wheel_link,27.25223872646872,-9.424350784591581,9.128208594318343,0.0002526101084406426,-0.07368090397653719,-0.41585217075768605
160436000000,364,160436000000,FR_wheel_link,-27.058789433740575,9.037886269804176,3.643217023149562,-0.004579752847659689,0.07401073825595281,0.4161598579503311
160437000000,365,160437000000,FR_wheel_link,26.930088871222544,-9.513880282400352,9.126707851558788,0.0019595937733990487,-0.07547906312575899,-0.41541877102785046
160438000000,366,160438000000,FR_wheel_link,-26.9760382934125,8.963559545174977,3.7088388405096864,-0.002850186774113837,0.07656051624854818,0.4152049719228134
