%time,field.header.seq,field.header.stamp,field.header.frame_id,field.wrench.force.x,field.wrench.force.y,field.wrench.force.z,field.wrench.torque.x,field.wrench.torque.y,field.wrench.torque.z
160077000000,0,160072000000,BR_wheel_link,-23.423624055646002,-22.659997362822285,4.545986911273075,0.0029622738237342384,0.024127249542413885,-0.42269235258918286
160077000000,1,160073000000,BR_wheel_link,23.394953997481135,22.582082551443325,3.941342485961745,-0.002758256584358956,-0.025422603563508738,0.42267491073092867
160077000000,2,160074000000,BR_wheel_link,-23.25937262740043,-22.670413781719063,4.640599084222453,0.002491618615943897,0.026523802388354806,-0.42266759326633163
160077000000,3,160075000000,BR_wheel_link,23.164254757654227,22.57245446714381,4.026000378967253,-0.003141577293209097,-0.027048246932426627,0.42267692772907184
160077000000,4,160076000000,BR_wheel_link,-23.145269170725552,-22.673901782852386,4.73111979419789,0.0023415901016108557,0.028299244962604598,-0.42267567092647607
160077000000,5,160077000000,BR_wheel_link,23.00229013716429,22.572354413525982,4.090510404627204,-0.003052657822538666,-0.028728002513233823,0.4226780111015659
160078000000,6,160078000000,BR_wheel_link,-22.999915883047557,-22.669556808755573,4.78874964151679,0.002565987442670116,0.02965680673892988,-0.4226832973892872
160079000000,7,160079000000,BR_wheel_link,22.894123226724503,22.579340122652688,4.057735575136391,-0.0026845130518945767,-0.03010743034050855,0.42268395305780415
160080000000,8,160080000000,BR_wheel_link,-22.862838560217618,-22.659467486153176,4.788695448428405,0.003040829176240009,0.03016091890746309,-0.4226965720947631
160081000000,9,160081000000,BR_wheel_link,22.876294734828466,22.587724631976258,3.9515111723640874,-0.0023195967156428928,-0.03072664319184554,0.4226958190672766
160082000000,10,160082000000,BR_wheel_link,-22.79597355669531,-22.657345620382312,4.75492630748484,0.0031083679395770398,0.03044094864883716,-0.4226998234793851
160083000000,11,160083000000,BR_wheel_link,22.856097836279318,22.586465028756955,3.851465007816972,-0.002444790204769465,-0.030649461341117342,0.42270393176496923
160084000000,12,160084000000,BR_wheel_link,-22.814032295311893,-22.664878481494156,4.7227207167239955,0.0027060528918095273,0.030584670494073145,-0.4227009135384656
160085000000,13,160085000000,BR_wheel_link,22.829263931434514,22.578135078825177,3.818112799292663,-0.0028813239896430666,-0.030403163799087547,0.4227056069890352
160086000000,14,160086000000,BR_wheel_link,-22.85240352207762,-22.67257566195242,4.718074641361967,0.002324306880590558,0.03064156323812263,-0.42270109155429986
160087000000,15,160087000000,BR_wheel_link,22.812965390566582,22.57382972077214,3.847871312684704,-0.0030688407258449733,-0.030399366973264782,0.4227019393168637
160088000000,16,160088000000,BR_wheel_link,-22.856383488580462,-22.671189254775953,4.741188189226801,0.002414133216184763,0.030647721455746776,-0.4227016237147445
160089000000,17,160089000000,BR_wheel_link,22.816056210179926,22.57841071777294,3.9100909219859674,-0.0027973256422519593,-0.030660497397427013,0.4226985325733259
160090000000,18,160090000000,BR_wheel_link,-22.8241801201382,-22.662778587257964,4.776906081242014,0.0028532436822595792,0.030731725998826644,-0.4227015121287487
160091000000,19,160091000000,BR_wheel_link,22.81939895395998,22.585097773045085,3.970646955679583,-0.0024253425550510937,-0.030984875619928083,0.42269863501413063
160092000000,20,160092000000,BR_wheel_link,-22.788192115651395,-22.657500694399058,4.808897534354113,0.0031225536044667086,0.031000363578176246,-0.4227020010047235
160093000000,21,160093000000,BR_wheel_link,22.799967621051625,22.58458393971097,4.0058538995721165,-0.0024296347097765084,-0.03126905697326613,0.42270228963236955
160094000000,22,160094000000,BR_wheel_link,-22.764297963489284,-22.662170162486838,4.822318590212588,0.0028886907647226014,0.03133671127226127,-0.4227011603986927
160095000000,23,160095000000,BR_wheel_link,22.768778773168822,22.57773290242693,3.9953685564024366,-0.0027740194745821635,-0.03152645908788192,0.4227024104483064
160096000000,24,160096000000,BR_wheel_link,-22.74584105024204,-22.671219858014236,4.811148442032805,0.0024314361701864573,0.031650959629532655,-0.42269991524159234
160097000000,25,160097000000,BR_wheel_link,22.736116535538706,22.571964651231774,3.9289493812851393,-0.0030902251701489082,-0.03164398016529464,0.4227023470728541
160098000000,26,160098000000,BR_wheel_link,-22.73685246220697,-22.67486555470416,4.772709223044066,0.0022331880328572604,0.03155787248513604,-0.42270387380345187
160099000000,27,160099000000,BR_wheel_link,22.745715981738215,22.576407368235216,3.8332522048683253,-0.0029157922430397523,-0.03142544393441301,0.4227051855565365
160100000000,28,160100000000,BR_wheel_link,-22.754880478732346,-22.667684163881624,4.730219380369292,0.002569792864093297,0.03120196119534145,-0.42270713331899434
160101000000,29,160101000000,BR_wheel_link,22.78670722197319,22.591821954939828,3.7702060969880464,-0.0021936571883861018,-0.03144336822582906,0.4227021542436127
160102000000,30,160102000000,BR_wheel_link,-22.752382066475366,-22.662787106197197,4.729473718934144,0.0028053454399390803,0.03166524209703959,-0.4226987291292875
160103000000,31,160103000000,BR_wheel_link,22.70348095972264,22.57794401119883,3.8206491860608014,-0.002859860953329889,-0.030171744647803398,0.4227168320546859
160104000000,32,160104000000,BR_wheel_link,-22.89561912054353,-22.656310930317588,4.7350247433027635,0.0031329128053385327,0.029884432917008395,-0.4227216943154269
160105000000,33,160105000000,BR_wheel_link,22.879079082696027,22.57820365625941,3.993854589173213,-0.0027789255804036386,-0.029449090626407635,0.4227092923180295
160106000000,34,160106000000,BR_wheel_link,-22.92691498531616,-22.654220357927656,4.79056755320856,0.003295998703294457,0.02901513703829316,-0.4227109712667832
160107000000,35,160107000000,BR_wheel_link,22.977040209572785,22.57260003919465,4.174318415574378,-0.0029632843189383615,-0.02930097196492499,0.42270233746525815
160108000000,36,160108000000,BR_wheel_link,-22.920308242049575,-22.658867823498,4.841239697357647,0.0031098597211759527,0.028918915893721506,-0.4227012759964206
160109000000,37,160109000000,BR_wheel_link,22.990770336878416,22.564905064074892,4.249439563541485,-0.003299648924330899,-0.02933511910620801,0.42269993872950085
160110000000,38,160110000000,BR_wheel_link,-22.916746091069484,-22.664856746007317,4.841971244657291,0.0028208822810307276,0.02911649552804788,-0.4226963147255522
160111000000,39,160111000000,BR_wheel_link,22.964478893348637,22.563315208499173,4.172142353537011,-0.0034203544163101942,-0.029232487385075383,0.42269975372101715
160112000000,40,160112000000,BR_wheel_link,-22.915019517700234,-22.669604025798808,4.753629917905291,0.0025485853611358854,0.028085865179951448,-0.42270658127444116
160113000000,41,160113000000,BR_wheel_link,23.05614468821187,22.572711493968583,3.996160239401597,-0.0030808780860030415,-0.027332690075123896,0.4227142178390011
160114000000,42,160114000000,BR_wheel_link,-23.102066836945458,-22.663207138211515,4.62709163686877,0.0028126336715851804,0.026591868551334538,-0.4227085453023839
160115000000,43,160115000000,BR_wheel_link,23.162780111260698,22.58565714573288,3.877844859926594,-0.0025448754068343998,-0.02545321327484269,0.4227123844765161
160116000000,44,160116000000,BR_wheel_link,-23.285450469140304,-22.653723717616092,4.545950031110155,0.0032462589519902493,0.02523037070077027,-0.42270817411982464
160117000000,45,160117000000,BR_wheel_link,23.26611209825512,22.59116839662096,3.894808011000153,-0.0023037439298727123,-0.024200047719453586,0.4227073117792419
160118000000,46,160118000000,BR_wheel_link,-23.421056389212833,-22.665700390877028,4.574478756295403,0.0026759564156990804,0.025356648562419325,-0.4226908946092114
160119000000,47,160119000000,BR_wheel_link,23.232525996685176,22.586081025304782,4.009582580013741,-0.0025109550025013178,-0.024994644798673336,0.42268184126705377
160120000000,48,160120000000,BR_wheel_link,-23.325924832067326,-22.66688759066484,4.67715755588418,0.002684003767884925,0.025295128954395403,-0.42269058168032686
160121000000,49,160121000000,BR_wheel_link,23.28343922772884,22.57776708474411,4.2522764315025885,-0.002758463119022218,-0.026053534165134774,0.4226781060515891
160122000000,50,160122000000,BR_wheel_link,-23.19226203637466,-22.669457845633858,4.787767144682664,0.0026287533928730272,0.025852827352914064,-0.4226842828118137
160123000000,51,160123000000,BR_wheel_link,23.263718703345695,22.571452476989464,4.398780355547771,-0.002953251605039684,-0.027019836629627873,0.42268016280924064
160124000000,52,160124000000,BR_wheel_link,-23.09427106243469,-22.671214548318453,4.8397566871553535,0.0025711327138288748,0.02679236216148094,-0.42268000689903484
160125000000,53,160125000000,BR_wheel_link,23.178552458322258,22.572197913593538,4.354472338460427,-0.002920824418230726,-0.027532686650869425,0.42268525475989205
160126000000,54,160126000000,BR_wheel_link,-23.064930613521362,-22.669735031062583,4.8045184465583395,0.0026051687558240285,0.02749135746404666,-0.42268452790412175
160127000000,55,160127000000,BR_wheel_link,23.100184397003787,22.57766702262599,4.1551866312753445,-0.0027619616111481306,-0.027618784667959584,0.42269197467055125
160128000000,56,160128000000,BR_wheel_link,-23.07793914247572,-22.66607598668265,4.718662830631828,0.002719704651456834,0.027736212212950567,-0.4226906882099978
160129000000,57,160129000000,BR_wheel_link,23.071952984736512,22.579479904660296,3.917007391976794,-0.0028143908805630144,-0.027855701588035815,0.4226908377391002
160130000000,58,160130000000,BR_wheel_link,-23.065070887700834,-22.612652335974055,4.7321936094705634,-0.056749263616159576,0.028179940678394674,-0.4226916996167647
160131000000,59,160131000000,BR_wheel_link,22.9852274737433,22.581923206618136,4.221295521638444,-0.06305463756076081,-0.026579423716173667,0.422671778751882
160132000000,60,160132000000,BR_wheel_link,-23.197563904215084,-22.771241146899143,5.419140575841363,-0.0603994770169018,0.027769730279605415,-0.42263120065843046
160133000000,61,160133000000,BR_wheel_link,22.9591630052215,22.311449630178597,5.817267943853466,-0.06740846543589042,-0.02746217893429221,0.4225419825301659
160134000000,62,160134000000,BR_wheel_link,-22.937691499116397,-23.05067826207091,7.556926361799996,-0.040894953979952714,0.02507247810811495,-0.4225939173817298
160135000000,63,160135000000,BR_wheel_link,23.303220779550976,21.99347457139182,7.555277779737691,-0.005504595774198072,-0.030201705100526232,0.4223816206892768
160136000000,64,160136000000,BR_wheel_link,-22.385023552119645,-23.327819346879426,8.862439631844095,0.003946008567471862,0.02798707469844882,-0.4223560015001904
160137000000,65,160137000000,BR_wheel_link,22.859309622630636,21.785407276079052,7.55131813109985,-0.0007443466680449854,-0.02977248053330249,0.42244206148206037
160138000000,66,160138000000,BR_wheel_link,-22.439444097581845,-23.480602484049523,8.101026083701424,0.005500460331216802,0.031175981074897514,-0.42229498116416087
160139000000,67,160139000000,BR_wheel_link,22.21598361704636,21.90934021024406,5.978501056339425,0.0003891383213104767,-0.027508030280579514,0.4229555413887518
160140000000,68,160140000000,BR_wheel_link,-22.859176875078305,-23.34240220817022,6.3969624329575145,0.0060597504583337685,0.031723413244389397,-0.4226193136072353
160141000000,69,160141000000,BR_wheel_link,21.89829288155051,21.807490592454464,4.190269520914359,-0.0010820579213896187,-0.027402515539760183,0.42247132372430213
160142000000,70,160142000000,BR_wheel_link,-22.78087993432898,-23.472013928694118,5.556962438469166,0.003601211633147292,0.030771292215562646,-0.42245692764207815
160143000000,71,160143000000,BR_wheel_link,21.943348536084855,21.689714937546587,3.731474952096011,-0.0029770317025157376,-0.0286971835863332,0.42205380019918537
160144000000,72,160144000000,BR_wheel_link,-22.436953884456077,-23.529479816069827,5.408655774969469,0.0020819694161127783,0.029825672328173305,-0.42214498797559075
160145000000,73,160145000000,BR_wheel_link,22.032348207759213,21.55563858361057,3.591184537747529,-0.003990252964110014,-0.028623529821780874,0.4220154070377849
160146000000,74,160146000000,BR_wheel_link,-22.27119616017768,-23.660543750996162,5.516444396701042,0.0019663508685941002,0.02817358959143502,-0.4221024546151756
160147000000,75,160147000000,BR_wheel_link,22.16487569390739,21.401390765086532,3.7803910285340376,-0.003685799994579519,-0.028300312098837193,0.4219221654393114
160148000000,76,160148000000,BR_wheel_link,-22.0889546633176,-23.930987068104862,5.8476405602688954,0.0019320024313660923,0.026862192803307244,-0.4222437169562114
160149000000,77,160149000000,BR_wheel_link,22.34549523891455,21.71461532416636,4.123406073245412,-0.0051551411301131245,-0.027266792403751162,0.4225737990013545
160150000000,78,160150000000,BR_wheel_link,-22.17665873080722,-23.62817733866572,6.303780503364653,0.00020355638026518861,0.02412455939900267,-0.42310407973308256
160151000000,79,160151000000,BR_wheel_link,22.669973367100287,21.494615533100383,4.769083491294328,-0.005553022565154438,-0.02616923657110753,0.4231087882111004
160152000000,80,160152000000,BR_wheel_link,-22.10520844542005,-23.810089685024025,6.881823037863656,0.0007582783709713765,0.023272390652846527,-0.42309307754016784
160153000000,81,160153000000,BR_wheel_link,22.679803655252336,21.2816741470993,5.381983406171714,-0.00500862143988265,-0.02652586263750722,0.4230526687958287
160154000000,82,160154000000,BR_wheel_link,-21.904906570616692,-23.99678325672415,7.573473448826986,0.0020759475527356045,0.02335664158218272,-0.42301879887509586
160155000000,83,160155000000,BR_wheel_link,22.588367667747494,21.11622286938791,5.676730119506017,-0.0026652377742055686,-0.02663906579920807,0.4230856110140264
160156000000,84,160156000000,BR_wheel_link,-21.79983711958853,-24.153700188129218,8.08399825369412,0.0042675629592307945,0.024994161420393676,-0.4229043822804998
160157000000,85,160157000000,BR_wheel_link,22.325731932043666,21.013796064511315,5.862039715531858,0.0017411442118730807,-0.030652002965526712,0.42289361844695617
160158000000,86,160158000000,BR_wheel_link,-21.32009878466896,-24.274844660913676,8.512927257374093,0.006224219386852979,0.032355101009500606,-0.42250819646937965
160159000000,87,160159000000,BR_wheel_link,21.3293630071561,20.867979790310695,5.843358921980904,0.0028351387926889627,-0.034490395888415154,0.4228440877363692
160160000000,88,160160000000,BR_wheel_link,-20.94444571911318,-24.371481308008114,8.781456822027197,0.007905007972011659,0.03433038614859783,-0.4230060377734937
160161000000,89,160161000000,BR_wheel_link,21.00926871713739,20.66923696426208,5.8653986238705835,0.001109757458432775,-0.0333970273014043,0.4233608908980481
160162000000,90,160162000000,BR_wheel_link,-21.117757912982146,-24.5813536534608,8.896228175096406,0.004578983124832659,0.036330236934268983,-0.42274911856180364
160163000000,91,160163000000,BR_wheel_link,22.348282213602133,20.25721571799486,4.483974832361725,-0.043227337033757675,-0.034563711228563956,0.3418410100352264
160164000000,92,160164000000,BR_wheel_link,-10.089004331159959,-26.603627600182136,7.940478409875263,0.006386989205191174,0.0381369356974807,-0.32835682493944146
160165000000,93,160165000000,BR_wheel_link,18.72615877164982,21.045583248986453,4.408920409748225,-0.0009464397081359574,-0.031136100711877095,0.4069064266115399
160166000000,94,160166000000,BR_wheel_link,-21.276922269350678,-24.196968576363297,6.806247764793446,0.010244274705634394,0.03479961734227016,-0.42017135085944823
160167000000,95,160167000000,BR_wheel_link,20.484271358719738,20.887675447476365,3.4713057044890303,0.0017129252121424303,-0.03174162152054489,0.4222122686409435
160168000000,96,160168000000,BR_wheel_link,-21.297486376921714,-24.07841903697229,6.772551945082828,0.010804015245091787,0.03272136642376156,-0.42302944171093815
160169000000,97,160169000000,BR_wheel_link,20.80763013266416,20.959975082806398,3.1891074392600918,0.0008501781043561856,-0.03134808073263457,0.42277198025641766
160170000000,98,160170000000,BR_wheel_link,-23.145960964181295,3.8009410431408397,4.69972234200113,-0.03537569663711976,0.031452888079429905,-0.3330032490137141
160171000000,99,160171000000,BR_wheel_link,12.68583792871708,23.032478968749295,0.4382400294936794,-0.07683827171103762,-0.03476278858213428,0.1472633262341999
160172000000,100,160172000000,BR_wheel_link,0.4209607128315015,-27.65743150886399,7.344050360676119,0.11044707158669541,0.027643347712324205,-0.03700210257677549
160173000000,101,160173000000,BR_wheel_link,-1.0167346839812244,26.526522012599994,-0.3227852337455984,-0.06965843173248323,-0.025139376996471348,0.01887962827522971
160174000000,102,160174000000,BR_wheel_link,1.434590682053145,27.33090732447751,0.43234351713217606,-0.0651411770204619,0.014436213671116787,-0.004339904916521866
160175000000,103,160175000000,BR_wheel_link,-1.385437558124071,-27.925855412378375,5.232116213506513,0.11530989369270159,-0.012174109395874985,-0.009604862506898003
160176000000,104,160176000000,BR_wheel_link,2.0005109544468924,27.394117413045137,-0.8461432235328442,-0.0607353393331682,0.006620985850882705,0.01266391914905354
160177000000,105,160177000000,BR_wheel_link,-1.1256107868493437,-27.81363325411199,5.607523057409291,0.11498121427982766,-0.006114976983553975,-0.012886749487328101
160178000000,106,160178000000,BR_wheel_link,1.4404415462933566,26.980880416063822,-0.2983573483256057,-0.0645442956411928,0.004423158974167256,0.013450644512462407
160179000000,107,160179000000,BR_wheel_link,-1.0618260365812076,-28.46960472593646,7.186568953999121,0.1116484016390475,-0.004531321891963658,-0.013513130752881852
160180000000,108,160180000000,BR_wheel_link,1.369173004002444,26.229346983859497,0.8813881479069119,-0.0747289377254032,0.001461070122307739,0.013129280770339712
160181000000,109,160181000000,BR_wheel_link,-0.9284265435424027,26.62057525703238,0.8563833737657301,-0.07166032135178411,-0.0010722207856081302,-0.0019153344328438127
160182000000,110,160182000000,BR_wheel_link,-0.23596346664170778,-28.905370693775097,8.327031155573668,0.1097636121455337,-0.0017863518635254795,-0.011338638543627022
160183000000,111,160183000000,BR_wheel_link,1.1607570243300578,26.277727237022358,1.0080055373576275,-0.06832590514788668,0.0014191477441313377,0.013358084006507988
160184000000,112,160184000000,BR_wheel_link,-0.6800281929577515,-29.00111279129651,8.642542266911052,0.10896859949532761,-0.002355282977445702,-0.013761894915630573
160185000000,113,160185000000,BR_wheel_link,1.1875804871712439,26.079615906903673,0.9484436478974861,-0.07708064118156276,0.004665951920429091,0.01394600328057993
160186000000,114,160186000000,BR_wheel_link,-1.2404697863918046,-29.17435259612929,8.657653263397444,0.10008317191839758,0.001230878041379902,-0.013570312010850074
160187000000,115,160187000000,BR_wheel_link,0.37089324799490614,25.734148627593832,0.9728660845749637,-0.09133900822036987,0.009823179385654817,0.013203699172516252
160188000000,116,160188000000,BR_wheel_link,-2.1458320016707466,-29.540187207939393,9.004829893268358,0.08420023769336481,0.0018551064650228898,-0.013971801892083767
160189000000,117,160189000000,BR_wheel_link,0.19045178884657626,25.495858455734243,2.3712293541309584,-0.10300829436253887,0.002263581012028229,0.012981948309703943
160190000000,118,160190000000,BR_wheel_link,-1.0556971349756774,-29.665832652069096,11.285459477709505,0.07650417574411848,0.0005712978265880321,-0.013802600010599934
160191000000,119,160191000000,BR_wheel_link,0.8377093753388181,25.501483965418224,5.122077876112433,-0.10447374788244652,-0.006075939902949233,0.01348280167850172
160192000000,120,160192000000,BR_wheel_link,0.2590779737420393,-29.569724738178866,13.785798153096383,0.07881936132938087,0.0016168932792963427,-0.013572506145257972
160193000000,121,160193000000,BR_wheel_link,1.1162102902707147,25.652273193658434,6.479523000589883,-0.0979438308085139,-0.00878352044452599,0.014037807626277403
160194000000,122,160194000000,BR_wheel_link,0.6372696895606688,-29.630599511661448,14.872788382513383,0.0823352626575862,0.004071389729312516,-0.013580325086652575
160195000000,123,160195000000,BR_wheel_link,0.8439534438120277,25.426261848166153,6.9458350947258225,-0.09383289747469227,-0.007309969553218644,0.014154061741271167
160196000000,124,160196000000,BR_wheel_link,0.3416150851886909,-29.698972854309094,14.421935751803185,0.08830476580055252,0.004111059721344429,-0.013748176478728478
160197000000,125,160197000000,BR_wheel_link,0.7258033295753293,25.309890342517544,6.6320559081990345,-0.08900706159196883,-0.005237894186429406,0.014070788078982563
160198000000,126,160198000000,BR_wheel_link,0.006803703863111389,-29.675194042632796,13.865689993703484,0.09273363898614811,0.004154164668452676,-0.013668024226856316
160199000000,127,160199000000,BR_wheel_link,0.5561334546431569,25.13817922182772,6.043948246947622,-0.08701065820705757,-0.0027298282912328518,0.013841069399892696
160200000000,128,160200000000,BR_wheel_link,-0.6742123911499418,25.912777250257523,4.448776605610033,-0.07884140875587572,0.005242530913318347,-0.002377678383641875
160201000000,129,160201000000,BR_wheel_link,-1.0483044268478854,-28.300371114891632,7.820483080820924,0.11287940984687521,-0.0022639824760862567,-0.010302928507833382
160202000000,130,160202000000,BR_wheel_link,0.7971665961577826,26.786825014919348,-0.7198486800167856,-0.06131280863896453,0.004483432504637104,0.012305662571371377
160203000000,131,160203000000,BR_wheel_link,-1.0693065467425606,-27.7032347129499,6.135567326184009,0.11865125435509,-0.008048364447988522,-0.01257042461976757
160204000000,132,160204000000,BR_wheel_link,1.637972647565239,26.811958963498803,-1.1951230031794298,-0.06587984899528564,0.005267504077462475,0.013870580186284717
160205000000,133,160205000000,BR_wheel_link,-1.1910577750643794,-28.134365284354168,7.168557721150026,0.11268783968854736,-0.00452320766323766,-0.014547289655430583
160206000000,134,160206000000,BR_wheel_link,1.3182657375063995,25.881771882568557,0.11785147751944254,-0.07936486001122005,0.004778613677023379,0.013429859154558367
160207000000,135,160207000000,BR_wheel_link,-1.3468795015886055,26.02487903197412,0.4758714666722723,-0.07832137678942588,-0.002626806611786513,-0.0023854932559899283
160208000000,136,160208000000,BR_wheel_link,-0.0946631619689236,-28.914737479565368,8.88651749437227,0.10844350869040358,-0.0005916839171602765,-0.011044877415350877
160209000000,137,160209000000,BR_wheel_link,1.0785395701017122,25.64346220126869,1.1150702453355206,-0.07088438262858965,-0.001344616166098443,0.012857797353677161
160210000000,138,160210000000,BR_wheel_link,-0.19965770794298818,-29.39366229166051,10.114544553754289,0.10679538256646075,-0.0017361595114947792,-0.013539541363778256
160211000000,139,160211000000,BR_wheel_link,1.287214051149426,25.357791363358636,1.2395282475701384,-0.07919739650925495,0.003344487816499227,0.013698573129784359
160212000000,140,160212000000,BR_wheel_link,-0.8659372242250927,-29.613527860338614,10.332497835199302,0.10065121861532075,-0.0009441756287702797,-0.013397431872421685
160213000000,141,160213000000,BR_wheel_link,0.8901239292964416,25.119309165406957,1.1664182461039152,-0.08811790331186742,0.0064148293382199255,0.013307193704993102
160214000000,142,160214000000,BR_wheel_link,-1.581533983512767,-28.887336561554164,9.546388112671261,0.08885960804098846,0.004714284715605069,-0.012131554406481258
160215000000,143,160215000000,BR_wheel_link,-0.24859240861705134,25.377644312865,2.5650292466123,-0.10086605234144115,0.0003946759749221371,0.011609471243336332
160216000000,144,160216000000,BR_wheel_link,2.7988041484396233,-29.467152397499397,8.47684905009002,-0.0008485438972641572,0.0044555573597565784,-0.18380346289537278
160217000000,145,160217000000,BR_wheel_link,18.750793903666203,22.17981750990991,4.44050408986052,-0.0055886059783817835,0.01048389259695319,0.3802592253525704
160218000000,146,160218000000,BR_wheel_link,-23.224599951445708,-24.016782241884254,8.52624102772737,0.005175345618527497,-0.006920654454617204,-0.41419500291583145
160219000000,147,160219000000,BR_wheel_link,23.262467016172646,21.224846222727233,4.513790154325963,-0.0040094434895681695,0.004945865258275933,0.42163206052401075
160220000000,148,160220000000,BR_wheel_link,-23.183712682107036,-23.834091175338607,8.873236945172707,0.005160755371545454,-0.004505002037597373,-0.42303426843391106
160221000000,149,160221000000,BR_wheel_link,23.33492760421618,21.14264427534851,4.438427545714475,-0.003396290447182127,-0.001530377694808467,0.4238148185583986
160222000000,150,160222000000,BR_wheel_link,-22.30641580541278,-23.85661725253169,9.05253874108326,0.0054553713484088665,-0.0031371141875038764,-0.4234381088045915
160223000000,151,160223000000,BR_wheel_link,23.3076184372723,21.059033648962338,4.290470668082152,-0.004609165174666736,-0.002446478725110555,0.42410390316509394
160224000000,152,160224000000,BR_wheel_link,-22.10973188096365,-23.910621236885042,8.976225837486616,0.004543907047707415,-0.003184514642245214,-0.42350230058300803
160225000000,153,160225000000,BR_wheel_link,23.32174813339894,21.025317597715592,4.0449084182484984,-0.0032026434848830805,-0.004294275148910221,0.4244438129110069
160226000000,154,160226000000,BR_wheel_link,-21.806470175178145,-23.91934294515313,8.872238990703018,0.005584577296289435,-0.0020553128547020653,-0.42368879829854433
160227000000,155,160227000000,BR_wheel_link,23.152128105137248,20.973951711885864,3.8569589155635953,-0.00310681754851738,-0.003727296440570589,0.4244796916941849
160228000000,156,160228000000,BR_wheel_link,-21.874651564782518,-23.956811992462995,8.973092819416012,0.004439221444692952,-0.0002543822032682446,-0.42394790533590304
160229000000,157,160229000000,BR_wheel_link,22.791973590637408,20.904978116881225,3.8233361585173675,-0.0045724789705337675,-0.0024990347290219333,0.42442241452856594
160230000000,158,160230000000,BR_wheel_link,-22.095858638413315,-24.03909171324642,9.116777562856877,0.0034701028552576534,0.0023815977613288112,-0.4243350388457336
160231000000,159,160231000000,BR_wheel_link,22.291992990070227,20.75352430973908,3.829788602648395,-0.005264365533454067,-0.0017434672770083447,0.4242427683747648
160232000000,160,160232000000,BR_wheel_link,-22.25322288484936,-24.148031478595097,9.29558326167084,0.003647150432904621,0.004186936273751823,-0.4245503179093809
160233000000,161,160233000000,BR_wheel_link,21.913913207025963,20.62740912454236,3.867823296169973,-0.005098739463029161,-0.0010758790266964322,0.4243835964062039
160234000000,162,160234000000,BR_wheel_link,-22.394102369485022,-24.23550724364245,9.491024212225707,0.004540572358163513,0.0050607042416451736,-0.4246833346621357
160235000000,163,160235000000,BR_wheel_link,21.642876237717033,20.526357805644274,3.9393874348346585,-0.004409735126392426,-0.0009544273723779283,0.42429251274842744
160236000000,164,160236000000,BR_wheel_link,-22.408267468886848,-24.315753788070143,9.714045888321964,0.005687141000417828,0.00523303187034385,-0.42472834637685203
160237000000,165,160237000000,BR_wheel_link,21.510903378345894,20.43242434978726,4.040106732187361,-0.0035517229339903996,-0.0013811751342631432,0.4242399872184842
160238000000,166,160238000000,BR_wheel_link,-24.216558707427772,1.4517616782767762,6.329262011439181,-0.03536007325788103,0.009478198478545823,-0.33982665977368687
160239000000,167,160239000000,BR_wheel_link,13.818962593031106,22.13727262566266,0.8818042311459708,-0.08258453801587977,-0.01819485400637761,0.15513101110673552
160240000000,168,160240000000,BR_wheel_link,-0.7604054773255796,-27.832997595229752,9.802575233655771,0.10625352329738996,0.021175654951111393,-0.03930348995888435
160241000000,169,160241000000,BR_wheel_link,-0.8493367304724369,25.95049288450104,-1.174689314616547,-0.06813632195339946,-0.01887159133699617,0.019610115167887604
160242000000,170,160242000000,BR_wheel_link,0.8864753671347927,26.97733339591221,-1.2978244663512724,-0.06525590650008439,0.012442320035972695,-0.004935903171534088
160243000000,171,160243000000,BR_wheel_link,-1.2624348369952716,-27.76889892950325,7.053231525926092,0.11309910219609363,-0.015131455967391556,-0.00874359994563344
160244000000,172,160244000000,BR_wheel_link,2.4104842337769403,27.000160657114684,-2.5899806920085133,-0.06264230632494006,0.007227001670694158,0.012212400146178238
160245000000,173,160245000000,BR_wheel_link,-0.9379160543092661,-27.582930991113855,7.221176451639164,0.11448837700494258,-0.010767736303281084,-0.011885582321166686
160246000000,174,160246000000,BR_wheel_link,2.057739260444481,26.85987969043934,-2.4682802663021537,-0.06264595146169476,0.004728449814316347,0.013058789097054593
160247000000,175,160247000000,BR_wheel_link,-0.8811061432285702,-27.987869380080205,8.405377048079025,0.11153911995881136,-0.005213166805373203,-0.0117363393663614
160248000000,176,160248000000,BR_wheel_link,1.166765896877109,26.051904307559294,-1.0434683307778454,-0.07060256012038887,0.006433315982430485,0.013225207866101955
160249000000,177,160249000000,BR_wheel_link,-1.7473690831282742,26.24857125215502,-0.7618342994692202,-0.0687816405444044,-0.004491423749948097,-0.00250336716661484
160250000000,178,160250000000,BR_wheel_link,-0.15008049942555934,-28.759629860718906,10.258303255609412,0.10814853404782433,0.001400286235411932,-0.010864165310803352
160251000000,179,160251000000,BR_wheel_link,0.5441819390901509,25.864407983847624,-0.7482027193509387,-0.06824110764449758,-0.0013536067058565024,0.013174519362246125
160252000000,180,160252000000,BR_wheel_link,-0.5757784820784978,-28.847903186539796,10.586395142618631,0.10678118169339566,0.00011038670090210851,-0.01355899449093768
160253000000,181,160253000000,BR_wheel_link,0.6518234380698107,25.69128808966824,-0.6778063285555507,-0.07340155004939211,0.002661286590019958,0.013763025060663967
160254000000,182,160254000000,BR_wheel_link,-1.168869654985727,-28.88458406929297,10.659578649817208,0.10510635366124517,-0.0002260628220355956,-0.014139809811648894
160255000000,183,160255000000,BR_wheel_link,0.5058820469072671,25.466399241178046,-0.6987792453788508,-0.08115970751517536,0.005806584448271983,0.013284462133713698
160256000000,184,160256000000,BR_wheel_link,-1.9218191334834578,25.91531821583796,-0.7902950782227605,-0.077952396140866,0.0023107259664702845,-0.0028164351177907797
160257000000,185,160257000000,BR_wheel_link,-1.053360042344626,-28.982922372286584,10.731109410394145,0.1044459198921735,-0.0023426411531832377,-0.011629283673390738
160258000000,186,160258000000,BR_wheel_link,0.7869501294457762,25.654503187043584,-0.592197085017485,-0.0728773102721181,0.005915611901401974,0.012448012437177042
160259000000,187,160259000000,BR_wheel_link,-1.3817488879493232,-28.96945210395541,10.806186567883303,0.10386737309744508,-0.0019464769265483785,-0.01334476226217897
160260000000,188,160260000000,BR_wheel_link,0.7389157977062258,25.502330962098206,0.08175313657258601,-0.08013528798779272,0.004077649416926327,0.01271468397402406
160261000000,189,160261000000,BR_wheel_link,-1.1175052121713072,-29.04500975325554,11.926934364455619,0.09823249038646759,-0.0014093485168700697,-0.013310792862461346
160262000000,190,160262000000,BR_wheel_link,0.7924666546290505,25.286496566293017,1.6191020761306067,-0.09056352992487116,0.0006292056839703809,0.013054546505466084
160263000000,191,160263000000,BR_wheel_link,-0.5714828817759414,-29.24655538059633,13.72220623847806,0.08848872540364734,-0.0018014797580752028,-0.013296552203864173
160264000000,192,160264000000,BR_wheel_link,1.1132508740858513,25.137225062001058,3.0889577315919614,-0.09820280113767572,-0.00344025901843285,0.013586779007160347
160265000000,193,160265000000,BR_wheel_link,2.0255243226259427,-3.3171681232477073,8.07568370308645,-0.04558430541399143,-0.00779185297177558,-0.0961094422600471
160266000000,194,160266000000,BR_wheel_link,9.000420067777123,23.831051604325374,7.445572218977037,-0.004083397790746971,0.010795791713235012,0.2803397464880431
160267000000,195,160267000000,BR_wheel_link,-20.14431788727295,-24.670764494666948,11.572563267128524,0.01360599463262804,-0.026091726470451226,-0.39764116477830874
160268000000,196,160268000000,BR_wheel_link,24.41805279934459,20.635266378470057,4.184839696594223,0.00706673130174962,0.020548944337685202,0.4190981459342964
160269000000,197,160269000000,BR_wheel_link,-22.80011755022199,-24.004372284795103,9.807697254131632,0.01984855767599575,-0.01980665551584875,-0.4221510910654751
160270000000,198,160270000000,BR_wheel_link,23.71282732929842,20.59694910777231,2.940285642017615,0.009570512455229096,0.016306729943883037,0.4235972881627114
160271000000,199,160271000000,BR_wheel_link,-22.52865441374432,-24.000839576821676,9.535129353676155,0.020153052052337323,-0.01469288962083096,-0.4240422933586053
160272000000,200,160272000000,BR_wheel_link,23.033564398042174,20.424787464840577,2.741505347000641,0.008076815045644602,0.01388256356527684,0.42458195984005564
160273000000,201,160273000000,BR_wheel_link,-22.38383559324344,-24.14845432815768,9.911919121273774,0.016192921074996442,-0.00921748259780525,-0.4246418241871442
160274000000,202,160274000000,BR_wheel_link,22.13334355734741,20.1854968303888,3.032604359295346,0.001961355898175756,0.011433761577721786,0.4245378660804092
160275000000,203,160275000000,BR_wheel_link,-22.221588478980845,-24.353737147703125,10.710442749911733,0.007049904241414719,-0.006508378484971479,-0.4248450859706011
160276000000,204,160276000000,BR_wheel_link,21.73848652516588,20.47129967933193,3.651726902182344,-0.006605830247682298,0.007297155318592646,0.4239087783757008
160277000000,205,160277000000,BR_wheel_link,-21.552713375101153,-24.12445767353004,11.635755690639883,-0.00036346552038906793,-0.008206579465743609,-0.424160451636586
160278000000,206,160278000000,BR_wheel_link,22.167079166586795,20.4488429467933,4.591475264999524,-0.010707848774343241,0.006137069639686786,0.42454533190889004
160279000000,207,160279000000,BR_wheel_link,-21.254573156458612,-24.062692861695105,12.471746034206092,-0.0031333004992257683,-0.009908364862770308,-0.42348571699746085
160280000000,208,160280000000,BR_wheel_link,22.36741238222881,20.51007470308373,5.362427881126603,-0.01102138452645383,0.0078008538223393745,0.4244371716828636
160281000000,209,160281000000,BR_wheel_link,-21.439756778857483,-23.974305413953928,13.059075638748155,-0.002308797869939802,-0.011000288517647944,-0.4234976883765875
160282000000,210,160282000000,BR_wheel_link,22.34809837078571,20.59843589920106,5.488863452693733,-0.007444772835767759,0.010200460376445338,0.42445391107923786
160283000000,211,160283000000,BR_wheel_link,-21.724389294084528,-23.923418946444468,13.00544429572163,-0.000945049280811095,-0.014020522000968209,-0.4243221933524607
160284000000,212,160284000000,BR_wheel_link,22.730510575282523,20.68983853268722,5.437000279722258,-0.0051478379366052245,0.01145959323497205,0.42463213874018657
160285000000,213,160285000000,BR_wheel_link,-21.70368333618157,-23.858391895376382,12.987697479542613,0.0014519982017569737,-0.014685399106079078,-0.4246466419101718
160286000000,214,160286000000,BR_wheel_link,22.832375376177634,20.722948131459162,5.400244595753307,-0.002927280573746494,0.012621867578093878,0.42482323214420326
160287000000,215,160287000000,BR_wheel_link,-21.726677967542276,-23.793814875120677,12.930323543364654,0.004010888924417324,-0.015157480425084718,-0.42492090462988075
160288000000,216,160288000000,BR_wheel_link,26.782482399021486,20.014855393946295,2.6068351941161256,-0.08500616400634176,-0.0012190376528943912,0.25552182379584804
160289000000,217,160289000000,BR_wheel_link,-2.82017223814075,27.368914297278856,0.9329080368286539,-0.07844573447518191,0.025417813445227463,-0.047049468735000925
160290000000,218,160290000000,BR_wheel_link,-2.6655073260432665,-27.903322361438054,8.740523439229335,0.1065888093435519,-0.011433194083892973,-0.0006989024139577368
160291000000,219,160291000000,BR_wheel_link,1.0131683901168202,26.76927677511,-3.713032089551137,-0.06727296923612194,0.019492183308184603,0.007976045072487892
160292000000,220,160292000000,BR_wheel_link,-2.901091318476716,-27.48036712843596,8.386548176920195,0.11148555446231183,-0.009838239673484371,-0.009707791763315939
160293000000,221,160293000000,BR_wheel_link,1.0572843392255793,26.464620220478327,-2.9765888120179755,-0.06428803629069793,0.010321745519487254,0.010285868192500526
160294000000,222,160294000000,BR_wheel_link,-1.1023165591352087,-27.953566071411423,9.34886896247041,0.09741130185874775,-0.011372854830037235,-0.04163550181254895
160295000000,223,160295000000,BR_wheel_link,5.534683816304158,25.209862253393528,-1.9563235891482238,-0.06418310846360883,0.008923088555246275,0.04692124808663759
160296000000,224,160296000000,BR_wheel_link,-1.910936725640707,26.4111600085568,-2.0468975877900717,-0.06226303841610977,-0.006852777823840968,-0.008625188404479654
160297000000,225,160297000000,BR_wheel_link,0.5779432228279676,-28.186680135894854,11.278799841325982,0.11271801199537587,0.00149804004957118,-0.009873140878988988
160298000000,226,160298000000,BR_wheel_link,0.9233752133278577,25.67744206607257,-1.463878704472561,-0.06278009434913064,-0.004410005496975521,0.013238045436352612
160299000000,227,160299000000,BR_wheel_link,0.3336095236120044,-28.535948797389224,12.456873106078667,0.11174870688765454,-0.0011653014046145028,-0.01349117592138725
160300000000,228,160300000000,BR_wheel_link,1.4299142904546405,25.326377698754687,-0.7310868064324023,-0.06548273582774373,-0.0019707715214826336,0.013984986368171594
160301000000,229,160301000000,BR_wheel_link,-0.11285732130190773,25.727919507237242,-0.7028021501323958,-0.0644200417889374,-0.0006121421043308115,-0.0024310839794276493
160302000000,230,160302000000,BR_wheel_link,0.19054776514599203,-28.73447416264869,12.769468183146598,0.11145301105392001,-0.005496231481894152,-0.009556298144073975
160303000000,231,160303000000,BR_wheel_link,1.8259153002849495,25.34300298833605,-0.6057744616812033,-0.06559663260193645,0.004164348363781815,0.012258979190764635
160304000000,232,160304000000,BR_wheel_link,-0.5067157338077521,-28.79765921333769,13.01331910968912,0.10963122315601546,-0.005937188780639878,-0.012413908280711376
160305000000,233,160305000000,BR_wheel_link,1.7212130466819962,25.077756879538875,-0.5742343446608693,-0.07414767590167932,0.010647814883811283,0.012531074163976707
160306000000,234,160306000000,BR_wheel_link,-1.633928393017005,-28.948738581378638,13.003854224429128,0.1037059505505392,-0.004173887608722674,-0.013017300751870497
160307000000,235,160307000000,BR_wheel_link,1.0878111786637568,24.77822333187612,-0.4158060289951241,-0.08557584775585607,0.011229880327655834,0.012054183510391569
160308000000,236,160308000000,BR_wheel_link,-2.221250583921244,25.175842133941995,-0.5252209225443623,-0.08356142359132925,-0.0011713245270819864,-0.0020390612637790555
160309000000,237,160309000000,BR_wheel_link,-0.5656163318872242,-28.9496869319027,13.599919570309366,0.10245017469046452,0.002324705846822694,-0.012462508460384927
160310000000,238,160310000000,BR_wheel_link,0.4538986928244295,25.036415913281527,-0.19409469851201744,-0.07559508875279508,0.003121999916239716,0.012841727250933226
160311000000,239,160311000000,BR_wheel_link,-0.6530843957128333,-28.604338552330844,12.358358313201892,0.09662855623079783,-0.008331047726460055,-0.015393101204305084
160312000000,240,160312000000,BR_wheel_link,2.4146901174232998,25.049194584676282,-0.7110218415282015,-0.08392031478806859,0.004083635453808541,0.01382150337491724
160313000000,241,160313000000,BR_wheel_link,-0.23787989421966663,-28.012153071812293,11.368510031303554,0.09661517648044561,-0.0036955373625428612,-0.011853382712731127
160314000000,242,160314000000,BR_wheel_link,1.5789316401054065,26.011672922174792,-2.3211026775804244,-0.0851702163494518,0.0031556730061612147,0.013086932659089712
160315000000,243,160315000000,BR_wheel_link,-0.37145295013104884,-27.741803643794928,11.71161087522887,0.09363708725247336,-0.004582072371967851,-0.013264568096131909
160316000000,244,160316000000,BR_wheel_link,1.72952600272091,26.09446664832311,-2.110312026726511,-0.08724756609608061,0.003506529911811888,0.014077417824585438
160317000000,245,160317000000,BR_wheel_link,1.2359568617435108,-2.765891701918663,4.177870639678173,-0.04217615630941462,-0.005836456699523446,-0.09574320242015978
160318000000,246,160318000000,BR_wheel_link,7.922938062558636,24.565135538912543,0.6389669739529595,-0.004390542160334454,0.031215819326443326,0.2790773023266181
160319000000,247,160319000000,BR_wheel_link,-22.365707228633784,-23.737828430082114,8.994563798300844,0.0030960754224295885,-0.03911603829724571,-0.3961637007803911
160320000000,248,160320000000,BR_wheel_link,23.722410640705846,21.39192655681257,0.9538045618870304,-0.0015555569823692127,0.04309156012684809,0.415087450786052
160321000000,249,160321000000,BR_wheel_link,-24.511845898313886,-23.139065715979413,9.035751312278684,0.006393633224778417,-0.038075360455612675,-0.4191864907655714
160322000000,250,160322000000,BR_wheel_link,23.75049467550931,21.301297825708847,0.8266318115849107,0.00019322175208000874,0.04004491442503467,0.4194072119231918
160323000000,251,160323000000,BR_wheel_link,-24.206866344067716,-23.1255188685635,9.134415043731135,0.008293065629216412,-0.03741361817731273,-0.4203184932815247
160324000000,252,160324000000,BR_wheel_link,23.701635699488236,21.202165106514148,0.6319225736930444,5.8356980584059964e-05,0.040439104390607786,0.41966651720308223
160325000000,253,160325000000,BR_wheel_link,-24.25212936234818,-23.181212163735953,9.245235737369793,0.008142271530379688,-0.03712240924462673,-0.4202775730137669
160326000000,254,160326000000,BR_wheel_link,23.638830436749036,21.13753896868096,0.5736386073332534,0.0005711771590790543,0.0368797406116563,0.4202849706859261
160327000000,255,160327000000,BR_wheel_link,-23.71673323741708,-23.18336692383089,9.42075392073052,0.00976292626550494,-0.037831743897829194,-0.42016112799837424
160328000000,256,160328000000,BR_wheel_link,23.73533924820973,21.06720174488682,0.6464782184503483,6.237503173008709e-05,0.03972806059510424,0.41984061930709105
160329000000,257,160329000000,BR_wheel_link,-24.00889207944119,-23.247724134336185,9.748810997960438,0.009696823497102616,-0.03971223811170248,-0.41986009817620096
160330000000,258,160330000000,BR_wheel_link,23.835991885350154,20.98159831505201,0.9609843526424754,-0.0004938928669883582,0.041068598557571175,0.4194684536019372
160331000000,259,160331000000,BR_wheel_link,-24.0824455298748,-23.29559183683782,9.843333327641888,0.009962905605414801,-0.04094808068733997,-0.41957686920142606
160332000000,260,160332000000,BR_wheel_link,23.908492592243576,20.923469362687207,1.0165832482688582,-0.00031762870064206035,0.042115911742748306,0.4192368524415902
160333000000,261,160333000000,BR_wheel_link,-24.113121850911497,-23.3296516211203,9.93162646507808,0.010647535504880018,-0.04267012126481188,-0.41929522850709666
160334000000,262,160334000000,BR_wheel_link,24.07995179013262,20.878313658797982,1.0799591751206374,0.00028527114327444995,0.042960878259228584,0.41905792571770506
160335000000,263,160335000000,BR_wheel_link,-24.104583666228454,-23.37429286168253,10.053192128991425,0.010847113387890985,-0.043341310828601334,-0.4190263239255255
160336000000,264,160336000000,BR_wheel_link,24.102287009417008,20.821854329054062,1.1391974422574267,0.0004017988448214805,0.04356417654111855,0.41891573583486863
160337000000,265,160337000000,BR_wheel_link,-24.108260194617767,-23.415329540727676,10.179831512313353,0.0110076536046847,-0.04398565725459619,-0.41889063234955426
160338000000,266,160338000000,BR_wheel_link,24.12265914714765,20.765828521086995,1.205710852686534,0.0004837955583760986,0.04411470480738705,0.4188055650091242
160339000000,267,160339000000,BR_wheel_link,-24.10668460832868,-23.455870963603928,10.312752286026084,0.011129708529985875,-0.04456566080687857,-0.41877169132386094
160340000000,268,160340000000,BR_wheel_link,28.046482574214274,19.85120532909024,-1.3011446094990669,-0.08397130934576888,0.023349337706974973,0.25058172864255707
160341000000,269,160341000000,BR_wheel_link,-4.613940326474828,26.608445651014907,-1.9172372897051513,-0.0838250262588972,0.0036587330537418096,-0.04363794006781582
160342000000,270,160342000000,BR_wheel_link,-0.5571037856657602,-28.57071699175837,13.553330364349852,0.09099126779326945,-0.00787746039383152,-0.0024145292599363176
160343000000,271,160343000000,BR_wheel_link,1.3041759467427825,25.297093715547327,-1.811056437800693,-0.08345186891751913,0.006627498575194599,0.010517695182076799
160344000000,272,160344000000,BR_wheel_link,-1.2063981957813923,-28.36186094982251,13.782518021349102,0.0916299362486759,-0.005027285216136784,-0.011977198503609546
160345000000,273,160345000000,BR_wheel_link,0.9837753447353134,25.24790175655487,-1.7853076592832875,-0.08131466032836264,0.006240906364290909,0.012552530275984264
160346000000,274,160346000000,BR_wheel_link,-1.5488027571006315,-28.134956844839905,14.265302781491863,0.09972003914060584,0.0027609715333517847,-0.012880819210107159
160347000000,275,160347000000,BR_wheel_link,-0.3920719239147687,25.633951415361153,-1.6568639424661409,-0.0665883541925888,0.004070094381348033,0.012479358236889386
160348000000,276,160348000000,BR_wheel_link,0.42263189170816845,-27.920655860424088,13.17010866967648,0.07959868280728642,-0.015308805707112808,-0.09639076364523269
160349000000,277,160349000000,BR_wheel_link,12.550469430788533,23.780826960946847,-1.088697959674702,-0.05192767387892612,0.015442608924752525,0.10812444995627139
160350000000,278,160350000000,BR_wheel_link,1.458853044131625,-27.92688869347449,11.9567320646169,0.04095261737362694,-0.029697558677910015,-0.19730986357162422
160351000000,279,160351000000,BR_wheel_link,21.787759692189866,23.52444014608189,1.3932309980278303,0.038994354392759376,0.0453092104746914,0.3835307294450901
160352000000,280,160352000000,BR_wheel_link,-23.347254919841212,-21.99817421314169,10.647255329171461,0.036935027375262754,-0.0559204861835447,-0.41185166281091756
160353000000,281,160353000000,BR_wheel_link,25.617565041683388,22.307846748647968,1.3748011230326802,0.03160794842964528,0.0466375724085367,0.41911115732810733
160354000000,282,160354000000,BR_wheel_link,-23.648515353002946,-22.098736458973043,11.603454581750295,0.024180729624986887,-0.0544369329713494,-0.41886766066583925
160355000000,283,160355000000,BR_wheel_link,29.820962161192877,20.27981848942062,3.6826258275178114,-0.0870995337734794,0.019487446632811222,0.250741058718941
160356000000,284,160356000000,BR_wheel_link,-3.017657322744574,26.621216939755605,4.280080946552388,-0.08908200899363203,-0.0026433045380511158,-0.04019102792444843
160357000000,285,160357000000,BR_wheel_link,0.9671325259325474,-27.935603921488166,20.528948213948325,0.09988031181712241,-0.0160564403592774,-0.0003710948886170731
160358000000,286,160358000000,BR_wheel_link,3.253415898233483,24.81976092905008,6.068208114274341,-0.08550294408476158,0.00942865171677188,0.01171860908704351
160359000000,287,160359000000,BR_wheel_link,-1.1426410361310455,-28.29422897952203,20.96972099263148,0.09539133371616214,-0.01153060042778631,-0.009741229216193985
160360000000,288,160360000000,BR_wheel_link,1.9957419506926546,24.301100978728304,6.165104940780433,-0.09537115924764342,0.014115531035860659,0.012786449372476999
160361000000,289,160361000000,BR_wheel_link,-2.615888170907125,-28.29572896123009,19.968310754990192,0.08742427580980361,-0.010067706385764357,-0.01270150893560058
160362000000,290,160362000000,BR_wheel_link,1.1256298388058867,26.82202651503744,3.692423245946955,-0.10745370821608546,0.011753015508791539,0.010731363004752754
160363000000,291,160363000000,BR_wheel_link,-2.1884536492284288,-26.620453640503307,17.128534486981824,0.0784846586195057,-0.004779014377221395,-0.014526930754398249
160364000000,292,160364000000,BR_wheel_link,0.8246648009347034,26.22593922584436,0.35897415757298184,-0.10304505080156166,0.008152849674521151,0.012290917336080537
160365000000,293,160365000000,BR_wheel_link,-1.6892342465057884,-27.014042708869795,13.137592911837535,0.08805572746032399,-0.0022721615099259417,-0.013702730237150627
160366000000,294,160366000000,BR_wheel_link,0.5421370923788432,25.944785725556667,-3.559953479318164,-0.08974710890060257,0.007120027800894083,0.012284741811106297
160367000000,295,160367000000,BR_wheel_link,-1.5631045134235175,-26.899426449051763,11.627823080320697,0.09473141031729582,-0.004641780934927611,-0.012880117873475164
160368000000,296,160368000000,BR_wheel_link,0.8707573763917804,26.05878615846148,-4.5037656860115876,-0.08433852737256618,0.006240028204032645,0.012350543102109604
160369000000,297,160369000000,BR_wheel_link,1.1476066779160448,-27.4480328486441,10.050782675157807,0.043203977416279946,-0.01718832460683237,-0.12534245970315658
160370000000,298,160370000000,BR_wheel_link,12.203805697058755,24.141517442736955,-2.0176816816120193,0.009157537443694467,0.048072674852183486,0.3119781067211689
160371000000,299,160371000000,BR_wheel_link,-23.54188429939608,-22.700508291089974,8.639628194150248,0.01510546617932456,-0.05916173630406925,-0.4016742094965461
160372000000,300,160372000000,BR_wheel_link,24.72392515991892,21.62449201095528,-0.5673560689292773,0.009028893184600323,0.05875025111185767,0.41637310084262935
160373000000,301,160373000000,BR_wheel_link,-24.72360585936274,-22.47177932603201,10.35382321193732,0.013032493229238853,-0.05941572751817234,-0.41922010107909397
160374000000,302,160374000000,BR_wheel_link,25.002348497186887,21.2174109979216,1.4250815966748593,0.0046470187882138,0.055908908918403895,0.42017328022234096
160375000000,303,160375000000,BR_wheel_link,-24.195404605594334,-22.803962709538926,12.735331702144913,0.00830080434648485,-0.06029931796926338,-0.41970943133690886
160376000000,304,160376000000,BR_wheel_link,25.303962366236146,20.941352858966994,2.5150118638217362,0.0012262079146994963,0.05619448654478632,0.4208780987888049
160377000000,305,160377000000,BR_wheel_link,-24.1138182054204,-22.939272310377685,12.878144213580308,0.005973261377199629,-0.05933594035122068,-0.4195347526167242
160378000000,306,160378000000,BR_wheel_link,29.04498290248869,19.817346628135578,-0.04394658620835767,-0.08709348741574287,0.03072744639381788,0.25174439604296733
160379000000,307,160379000000,BR_wheel_link,-1.0238932676779595,-29.07512259862922,13.75399208787521,-0.0064694790766469,-0.02305319324479584,-0.19235625285937916
160380000000,308,160380000000,BR_wheel_link,16.792040384880767,22.485698639817777,1.983129568129017,0.005154076547553186,0.047934831266720546,0.3516629712932561
160381000000,309,160381000000,BR_wheel_link,-23.03563530039261,-23.023976299311567,12.526853430539509,0.015408194349016874,-0.06263586790499806,-0.4078801019504984
160382000000,310,160382000000,BR_wheel_link,25.417589340597374,21.033363360633473,2.16310301268271,0.010102035857901728,0.06038613496284688,0.41822521421353087
160383000000,311,160383000000,BR_wheel_link,-24.390158050802675,-22.800482158630043,12.62130469631024,0.016525603150518837,-0.06294818661363163,-0.4183492516735984
160384000000,312,160384000000,BR_wheel_link,25.348292836840113,20.927164989500568,2.407508918466124,0.01134593508032525,0.059061577081441864,0.41967433027168394
160385000000,313,160385000000,BR_wheel_link,-24.204765352270055,-22.92574003648658,13.308419966614094,0.015719028712486358,-0.06145439083207529,-0.4187263471256041
160386000000,314,160386000000,BR_wheel_link,25.081010384208223,20.721809264361763,2.7677322437463805,0.008167998942640312,0.0608177099063286,0.4199079108753448
160387000000,315,160387000000,BR_wheel_link,-24.655564231133617,-23.136153325320475,13.52986001382451,0.009811660971208757,-0.05808778098170304,-0.41916336989292885
160388000000,316,160388000000,BR_wheel_link,28.154637748105912,19.43965113096161,0.16346030158759947,-0.08596916366631616,0.036297821425908226,0.2506376090091009
160389000000,317,160389000000,BR_wheel_link,-3.476478849733853,-2.8746791598345234,6.794433232991919,-0.030746055790652215,-0.010024433868185124,-0.14032501574439293
160390000000,318,160390000000,BR_wheel_link,7.8026788786859,24.179537502857393,-0.0002025137348037341,0.015756403839318582,0.041771582005635105,0.28795166491041696
160391000000,319,160391000000,BR_wheel_link,-22.802080006444125,-22.666302514382057,10.515506541946783,0.027186502052831688,-0.059723552844210596,-0.3984469301890023
160392000000,320,160392000000,BR_wheel_link,24.24822960385402,21.691851480453188,-0.9119100343762427,0.024072949922144562,0.062211748286216444,0.41523641274918927
160393000000,321,160393000000,BR_wheel_link,-24.73907549199833,-22.06146752525189,9.988306025568345,0.029430792308523634,-0.06119852578226987,-0.4188041597891644
160394000000,322,160394000000,BR_wheel_link,24.44464908191159,21.2673370549775,-0.6174192164801563,0.01877604269228637,0.06222343929910297,0.4190806259132396
160395000000,323,160395000000,BR_wheel_link,-24.717768382649897,-22.767781496046403,11.278995703145986,0.015617797163511856,-0.06057178555940238,-0.419628132514363
160396000000,324,160396000000,BR_wheel_link,24.332502331692858,20.235167722094946,1.3550820910626225,-0.002045339493098188,0.0611188355212829,0.4191696385368996
160397000000,325,160397000000,BR_wheel_link,-24.421121419532682,-23.957478589381758,14.147513080423792,-0.007394324365682134,-0.0629150435206957,-0.419286600667587
160398000000,326,160398000000,BR_wheel_link,24.734675924974667,21.724283944425494,2.87402736226611,-0.022702415768183187,0.058291737783169234,0.4195021731298916
160399000000,327,160399000000,BR_wheel_link,-23.853317077509683,-20.474861902318302,13.433239553011639,-0.018759548185395755,-0.06213606956940063,-0.4171887191794396
160400000000,328,160400000000,BR_wheel_link,24.69028422213266,23.10510487487499,2.1819282652917615,-0.024205157631997744,0.06125088439485717,0.4189792820529504
160401000000,329,160401000000,BR_wheel_link,-24.32085016440436,-20.46454838303749,13.57083166782536,-0.01621255165263039,-0.06485675383170866,-0.4186076885182726
160402000000,330,160402000000,BR_wheel_link,24.881303861426627,23.13157090457772,2.291984652635994,-0.017492220131438096,0.06563844661346223,0.4184827242952572
160403000000,331,160403000000,BR_wheel_link,-24.800674372550084,-20.530661950671682,13.38057853744139,-0.006265481466912823,-0.06360485257141238,-0.4193140279929052
160404000000,332,160404000000,BR_wheel_link,24.509486116587727,22.9271669205759,1.7565044253819018,-0.005073114477214599,0.06748609108197941,0.4179909919228359
160405000000,333,160405000000,BR_wheel_link,-25.039460616192994,-20.688192679074245,12.707333175667728,0.006753448044597053,-0.06493608833685079,-0.4187758629858364
160406000000,334,160406000000,BR_wheel_link,24.606445829602567,22.724160248324264,0.8073773480900469,0.005768780667194623,0.0644425118037682,0.4187379744748595
160407000000,335,160407000000,BR_wheel_link,-24.48248193588721,-20.87518483639667,11.870893126865964,0.014072058001197185,-0.06710274637644169,-0.41798997533492566
160408000000,336,160408000000,BR_wheel_link,24.91807122667463,22.511204936895787,0.05109536982944117,0.009907839629422169,0.06710672561208668,0.4180315267664533
160409000000,337,160409000000,BR_wheel_link,-24.689153239425675,-21.05057325568583,11.296018472248074,0.016657319184600297,-0.0679450552611712,-0.4175619303767426
160410000000,338,160410000000,BR_wheel_link,24.863856676216212,22.373546095210894,-0.3297882663729692,0.01160536839925823,0.06890848894228084,0.41736120121529513
160411000000,339,160411000000,BR_wheel_link,-24.90845150465328,-21.179436757075948,11.279126091418512,0.016454663902951847,-0.06759347478606542,-0.41753420623771803
160412000000,340,160412000000,BR_wheel_link,28.595380145095806,21.117441252699678,-2.654527258139427,-0.07774090697469331,0.04071254134533779,0.24919003897787476
160413000000,341,160413000000,BR_wheel_link,-3.2930506286891785,0.6005921254665051,3.169830275797346,-0.02351391930073005,-0.01566820936106576,-0.13566304837919116
160414000000,342,160414000000,BR_wheel_link,8.330813226965565,25.29608173435019,-4.213304279163596,0.015664450282552818,0.038338782320433494,0.28457248094077875
160415000000,343,160415000000,BR_wheel_link,-21.231871313986222,-21.868322505892056,8.006863394878945,0.021292522762869966,-0.0678458985639501,-0.39353289247962375
160416000000,344,160416000000,BR_wheel_link,24.98783559675938,22.14445788960514,-4.194984753789319,0.01704876270180593,0.06481500790629889,0.41521406199744304
160417000000,345,160417000000,BR_wheel_link,-23.904923313336127,-21.334586573772054,7.781638924247852,0.022706678838200905,-0.0731039963934459,-0.41537878897492436
160418000000,346,160418000000,BR_wheel_link,25.452105181285173,21.996695220198216,-3.880171015532803,0.01568576176398606,0.06837376948992398,0.4179310888728705
160419000000,347,160419000000,BR_wheel_link,-24.324810991297817,-21.439266948434458,8.573122589983322,0.018241234962067303,-0.07070580404385436,-0.4171406342461541
160420000000,348,160420000000,BR_wheel_link,24.931857760231804,21.76943795568316,-2.7484348470266267,0.008832685144539464,0.07172982497097612,0.41648377317404917
160421000000,349,160421000000,BR_wheel_link,-24.882851093115757,-21.669869174134337,9.486437542890876,0.009620221638636645,-0.0643171495053744,-0.41913218323516177
160422000000,350,160422000000,BR_wheel_link,23.718511155200428,21.5100425759077,-2.711914244588632,-0.00037138383062161975,0.07773995696769306,0.41444795586559
160423000000,351,160423000000,BR_wheel_link,-25.992321121093198,-21.884267253844037,9.506457924559466,0.0018790535967473856,-0.06250178906279222,-0.4200653869849139
160424000000,352,160424000000,BR_wheel_link,23.149048982028493,21.468037449788632,-2.0940170195168983,-0.006972226508257738,0.07609989609378094,0.4146921377191177
160425000000,353,160425000000,BR_wheel_link,-25.734554926584813,-21.662874140495973,11.16547964392389,-0.003082676869458346,-0.06785708559485851,-0.41849891775565534
160426000000,354,160426000000,BR_wheel_link,23.968619316134173,21.74312109181422,0.00805422184862108,-0.011239936037809543,0.07359992239983017,0.4159972422778353
160427000000,355,160427000000,BR_wheel_link,-25.044915535458514,-21.38091995287636,13.321614717431212,-0.005341439817021279,-0.07330006185971638,-0.4167769221481652
160428000000,356,160428000000,BR_wheel_link,24.898906434889078,21.863535386606035,1.2417299655526164,-0.009653116099541795,0.07276002863854512,0.41655947387098363
160429000000,357,160429000000,BR_wheel_link,-24.63799835183599,-21.4501152095391,13.699846127579638,-0.0036150662960835545,-0.07294977695442839,-0.41649215461898226
160430000000,358,160430000000,BR_wheel_link,24.891107572944126,21.729337323501312,1.3477804457312312,-0.008200538218012398,0.07263191044591659,0.41667187126657296
160431000000,359,160431000000,BR_wheel_link,-24.569220054489023,-21.543230522370596,13.87853325112197,-0.0016108399880038987,-0.07386082749779088,-0.4160112635463218
160432000000,360,160432000000,BR_wheel_link,25.02110283560984,21.541888131190134,1.3218283644336655,-0.008765628823979929,0.07039779113733048,0.41660904910189533
160433000000,361,160433000000,BR_wheel_link,-24.147419297735915,-21.64462823197147,14.109296477310236,-0.00010177128028556333,-0.07195595317289458,-0.415722731222545
160434000000,362,160434000000,BR_wheel_link,24.778010538865036,21.443127246926984,1.3726809558983706,-0.006266744727293334,0.07016702227266176,0.4167401744356577
160435000000,363,160435000000,BR_wheel_link,-24.10440682062388,-21.76208075886769,14.219589767640528,0.00025261010844014023,-0.07368090397653795,-0.4158521707576856
160436000000,364,160436000000,BR_wheel_link,24.95253567898458,21.347898519197695,1.567098060995277,-0.004579752847659902,0.07401073825595256,0.41615985795033045
160437000000,365,160437000000,BR_wheel_link,-24.56009959245396,-21.840795684035673,14.351932294237475,0.001959593773398545,-0.07547906312575971,-0.4154187710278503
