%time,field.header.seq,field.header.stamp,field.header.frame_id,field.wrench.force.x,field.wrench.force.y,field.wrench.force.z,field.wrench.torque.x,field.wrench.torque.y,field.wrench.torque.z
160077000000,0,160072000000,FL_wheel_link,27.629330961746504,8.221286570985548,3.7505371939196825,0.0029622738237343373,0.024127249542414086,-0.422692352589182
160077000000,1,160073000000,FL_wheel_link,-27.649546238397022,-8.353590860647,4.336730890511628,-0.0027582565843588223,-0.02542260356350865,0.4226749107309281
160077000000,2,160074000000,FL_wheel_link,27.78887373193351,8.21183141677999,3.736341970278556,0.0024916186159439913,0.026523802388354955,-0.4226675932663305
160077000000,3,160075000000,FL_wheel_link,-27.87753186100825,-8.362005426777515,4.449306525521112,-0.0031415772932089753,-0.027048246932426537,0.42267692772907084
160077000000,4,160076000000,FL_wheel_link,27.906056819022073,8.20678489834432,3.808095727315567,0.0023415901016109503,0.028299244962604834,-0.42267567092647546
160077000000,5,160077000000,FL_wheel_link,-28.038875210362512,-8.36152093993069,4.580841239279437,-0.0030526578225385354,-0.02872800251323363,0.4226780111015655
160078000000,6,160078000000,FL_wheel_link,28.05232240153429,8.20931091500342,3.8728531600897638,0.002565987442670225,0.029656806738930053,-0.4226832973892863
160079000000,7,160079000000,FL_wheel_link,-28.148448836474408,-8.354791723476167,4.659033464591003,-0.0026845130518944422,-0.030107430340508567,0.4226839530578037
160080000000,8,160080000000,FL_wheel_link,28.190008932572617,8.217843909069302,3.876894516749961,0.003040829176240113,0.030160918907463277,-0.422696572094763
160081000000,9,160081000000,FL_wheel_link,-28.170102988635485,-8.346556253861111,4.623118974928418,-0.002319596715642764,-0.030726643191845412,0.4226958190672761
160082000000,10,160082000000,FL_wheel_link,28.255812938174483,8.220181191283187,3.8038933192327797,0.003108367939577151,0.030440948648837278,-0.42269982347938406
160083000000,11,160083000000,FL_wheel_link,-28.19163159922181,-8.34741571071602,4.5267302813919175,-0.002444790204769336,-0.03064946134111723,0.4227039317649688
160084000000,12,160084000000,FL_wheel_link,28.238799880828555,8.213835917160416,3.6963092719797417,0.002706052891809627,0.030584670494073454,-0.42270091353846473
160085000000,13,160085000000,FL_wheel_link,-28.217467680552556,-8.354742737044534,4.4302855539697825,-0.0028813239896429564,-0.030403163799087574,0.4227056069890342
160086000000,14,160086000000,FL_wheel_link,28.20180330684019,8.207061405849348,3.638806574306885,0.002324306880590668,0.030641563238122775,-0.42270109155429925
160087000000,15,160087000000,FL_wheel_link,-28.232326833967264,-8.358610677731562,4.426435044235442,-0.0030688407258448514,-0.03039936697326474,0.4227019393168633
160088000000,16,160088000000,FL_wheel_link,28.19821539136833,8.2078941060728,3.692207636812199,0.0024141332161848636,0.030647721455746943,-0.42270162371474423
160089000000,17,160089000000,FL_wheel_link,-28.228989489443663,-8.354797063456234,4.53296875424368,-0.0027973256422518453,-0.030660497397426826,0.42269853257332524
160090000000,18,160090000000,FL_wheel_link,28.229736056756764,8.214670546408033,3.818144511728395,0.002853243682259703,0.030731725998826863,-0.42270151212874807
160091000000,19,160091000000,FL_wheel_link,-28.226586723253817,-8.348992438576412,4.660997591154029,-0.0024253425550509735,-0.030984875619928035,0.42269863501412974
160092000000,20,160092000000,FL_wheel_link,28.266037709828506,8.218609290109328,3.9057281972490863,0.0031225536044668187,0.0310003635781764,-0.42270200100472316
160093000000,21,160093000000,FL_wheel_link,-28.2470268923286,-8.349086672116357,4.691620463252336,-0.0024296347097763713,-0.031269056973266006,0.42270228963236917
160094000000,22,160094000000,FL_wheel_link,28.289486445766332,8.214887038223734,3.8543274927607003,0.002888690764722706,0.031336711272261494,-0.4227011603986921
160095000000,23,160095000000,FL_wheel_link,-28.277919453861184,-8.354425901644714,4.598231184787574,-0.002774019474582044,-0.03152645908788171,0.4227024104483056
160096000000,24,160096000000,FL_wheel_link,28.30744566911157,8.207671086234566,3.720192144695374,0.002431436170186565,0.031650959629532766,-0.422699915241592
160097000000,25,160097000000,FL_wheel_link,-28.309809263902046,-8.35909286412242,4.474204163764642,-0.003090225170148797,-0.031643980165294565,0.4227023470728531
160098000000,26,160098000000,FL_wheel_link,28.316882896045037,8.20505819894481,3.6040044266507767,0.0022331880328573706,0.031557872485136265,-0.42270387380345115
160099000000,27,160099000000,FL_wheel_link,-28.30075522125008,-8.355494507318953,4.441268805932117,-0.002915792243039653,-0.031425443934412996,0.42270518555653636
160100000000,28,160100000000,FL_wheel_link,28.299352692274557,8.210974632693413,3.6471450811489348,0.0025697928640934,0.03120196119534166,-0.42270713331899357
160101000000,29,160101000000,FL_wheel_link,-28.260695181795366,-8.34261865091877,4.529261730481805,-0.0021936571883859764,-0.031443368225829015,0.42270215424361196
160102000000,30,160102000000,FL_wheel_link,28.300929241208987,8.214238877291303,3.760438300639112,0.002805345439939172,0.03166524209703981,-0.42269872912928635
160103000000,31,160103000000,FL_wheel_link,-28.342091119553324,-8.357059657810133,4.636033974109405,-0.002859860953329756,-0.030171744647803308,0.42271683205468547
160104000000,32,160104000000,FL_wheel_link,28.16355220983066,8.21945298570068,3.864062469871161,0.003132912805338643,0.029884432917008596,-0.4227216943154263
160105000000,33,160105000000,FL_wheel_link,-28.167867161856496,-8.35616516406975,4.666026510658082,-0.0027789255804035115,-0.02944909062640755,0.42270929231802895
160106000000,34,160106000000,FL_wheel_link,28.128445718612557,8.222664955435143,3.9181949853633937,0.003295998703294565,0.029015137038293386,-0.4227109712667826
160107000000,35,160107000000,FL_wheel_link,-28.070753182626582,-8.359872185306598,4.672103224074187,-0.00296328431893823,-0.029300971964924854,0.42270233746525726
160108000000,36,160108000000,FL_wheel_link,28.1322083152236,8.219665162408692,3.8957616797351213,0.0031098597211760607,0.028918915893721718,-0.4227012759964193
160109000000,37,160109000000,FL_wheel_link,-28.056928002237516,-8.36584547600677,4.626308386019509,-0.0032996489243307804,-0.02933511910620785,0.42269993872950007
160110000000,38,160110000000,FL_wheel_link,28.134568697904744,8.214901683404241,3.8295223609728506,0.0028208822810308455,0.02911649552804806,-0.4226963147255514
160111000000,39,160111000000,FL_wheel_link,-28.082170633055636,-8.36755377960968,4.561911296672204,-0.003420354416310089,-0.029232487385075202,0.42269975372101637
160112000000,40,160112000000,FL_wheel_link,28.135958784445435,8.212948921063381,3.5549167737048957,0.002548585361135983,0.028085865179951625,-0.4227065812744402
160113000000,41,160113000000,FL_wheel_link,-27.99230646159964,-8.361542290367035,4.563180251076419,-0.0030808780860029136,-0.027332690075123827,0.4227142178390003
160114000000,42,160114000000,FL_wheel_link,27.950785789842154,8.218517894823057,3.604717225711906,0.002812633671585289,0.026591868551334674,-0.42270854530238305
160115000000,43,160115000000,FL_wheel_link,-27.88463530453426,-8.353025805279064,4.653422240760699,-0.0025448754068342697,-0.025453213274842592,0.4227123844765155
160116000000,44,160116000000,FL_wheel_link,27.770183573930865,8.22561830701773,3.756333736942698,0.0032462589519903565,0.0252303707007706,-0.42270817411982387
160117000000,45,160117000000,FL_wheel_link,-27.78065776091464,-8.349694170604707,4.730105967938743,-0.0023037439298725817,-0.024200047719453468,0.42270731177924137
160118000000,46,160118000000,FL_wheel_link,27.635199008621655,8.214355849365035,3.8205723455238885,0.0026759564156991684,0.02535664856241954,-0.42269089460921055
160119000000,47,160119000000,FL_wheel_link,-27.808013122659446,-8.354162142584252,4.740605383158884,-0.0025109550025011872,-0.024994644798673235,0.4226818412670531
160120000000,48,160120000000,FL_wheel_link,27.727214034383636,8.21494736653081,3.7882928142695045,0.0026840037678850085,0.02529512895439562,-0.42269058168032614
160121000000,49,160121000000,FL_wheel_link,-27.759953598073782,-8.358429255995432,4.728192177245153,-0.0027584631190220774,-0.026053534165134676,0.422678106051588
160122000000,50,160122000000,FL_wheel_link,27.85664009802338,8.214050271588496,3.7583031614632643,0.002628753392873141,0.025852827352914207,-0.422684282811813
160123000000,51,160123000000,FL_wheel_link,-27.781852284024776,-8.361972317391498,4.7421638875503,-0.0029532516050395593,-0.02701983662962776,0.4226801628092401
160124000000,52,160124000000,FL_wheel_link,27.952619506352782,8.21246654885908,3.758235737295964,0.0025711327138289992,0.026792362161481148,-0.4226800068990339
160125000000,53,160125000000,FL_wheel_link,-27.867022895008642,-8.361466131927427,4.770146358720534,-0.0029208244182305767,-0.02753268665086933,0.4226852547598911
160126000000,54,160126000000,FL_wheel_link,27.98420543289936,8.212524511822272,3.7657389465651625,0.002605168755824116,0.02749135746404689,-0.4226845279041208
160127000000,55,160127000000,FL_wheel_link,-27.944668733793176,-8.357832127577032,4.7180671645663645,-0.0027619616111479953,-0.027618784667959605,0.4226919746705503
160128000000,56,160128000000,FL_wheel_link,27.973689622831447,8.214597543105082,3.758258141920502,0.0027197046514569174,0.027736212212950726,-0.4226906882099969
160129000000,57,160129000000,FL_wheel_link,-27.972240278955475,-8.355685274443463,4.482452593478005,-0.0028143908805628864,-0.027855701588035863,0.4226908377390998
160130000000,58,160130000000,FL_wheel_link,27.9870876235576,8.266217748133196,3.696564907907072,-0.056749263616159486,0.028179940678394914,-0.42269169961676417
160131000000,59,160131000000,FL_wheel_link,-28.04903363985753,-8.331869015799086,4.6677852218252545,-0.06305463756076077,-0.026579423716173566,0.4226717787518811
160132000000,60,160132000000,FL_wheel_link,27.83492121637117,8.166117373873611,3.355359302370838,-0.06039947701690173,0.027769730279605564,-0.42263120065843
160133000000,61,160133000000,FL_wheel_link,-28.056255824628465,-8.493083094386774,4.708686352623944,-0.06740846543589026,-0.027462178934292026,0.4225419825301654
160134000000,62,160134000000,FL_wheel_link,28.0498419263831,7.972522965270021,4.231053689640145,-0.04089495397995266,0.02507247810811525,-0.42259391738172886
160135000000,63,160135000000,FL_wheel_link,-27.718450494685893,-8.713862915519334,6.0130276218811245,-0.005504595774197936,-0.03020170510052595,0.42238162068927604
160136000000,64,160136000000,FL_wheel_link,28.517541622057525,7.706514442314524,6.39892642753082,0.003946008567472045,0.027987074698449157,-0.4223560015001903
160137000000,65,160137000000,FL_wheel_link,-28.14952475079685,-8.967403674191411,7.568123144208352,-0.0007443466680447721,-0.02977248053330229,0.42244206148205965
160138000000,66,160138000000,FL_wheel_link,28.489403146237642,7.532388998893667,6.219841525015947,0.005500460331216996,0.031175981074897857,-0.4222949811641601
160139000000,67,160139000000,FL_wheel_link,-28.72867521231059,-9.101318793731105,7.365634506002577,0.0003891383213106908,-0.02750803028057951,0.4229555413887512
160140000000,68,160140000000,FL_wheel_link,28.292434916227513,7.494824070965783,5.197093801627594,0.006059750458333925,0.031723413244389674,-0.42261931360723465
160141000000,69,160141000000,FL_wheel_link,-28.909854095652314,-9.0411283524061,5.485546254230058,-0.0010820579213894677,-0.02740251553976006,0.4224713237243013
160142000000,70,160142000000,FL_wheel_link,28.318153184288864,7.474672171332546,3.429158285023131,0.00360121163314738,0.0307712922155629,-0.4224569276420776
160143000000,71,160143000000,FL_wheel_link,-28.808012055572057,-8.9573961857963,4.245476094888713,-0.002977031702515638,-0.028697183586333126,0.4220538001991848
160144000000,72,160144000000,FL_wheel_link,28.52103627556822,7.565344390194918,2.3787141247623644,0.0020819694161128516,0.029825672328173587,-0.42214498797559025
160145000000,73,160145000000,FL_wheel_link,-28.700300741883368,-8.949205224520645,3.6546629167415667,-0.00399025296410987,-0.02862352982178067,0.42201540703778423
160146000000,74,160146000000,FL_wheel_link,28.632304924054726,7.546025787870301,2.0290729531725704,0.001966350868594147,0.02817358959143528,-0.4221024546151749
160147000000,75,160147000000,FL_wheel_link,-28.57733411200453,-9.004724405290586,3.645951515424371,-0.0036857999945794084,-0.02830031209883715,0.4219221654393112
160148000000,76,160148000000,FL_wheel_link,28.708936657331485,7.507696514824806,1.857746134291827,0.0019320024313661352,0.02686219280330761,-0.4222437169562107
160149000000,77,160149000000,FL_wheel_link,-28.543995328977253,-9.06682978136328,3.840126928347592,-0.005155141130113022,-0.027266792403751076,0.422573799001354
160150000000,78,160150000000,FL_wheel_link,28.72001469851649,7.452953850942061,1.9471640102152077,0.00020355638026522404,0.024124559399002824,-0.4231040797330818
160151000000,79,160151000000,FL_wheel_link,-28.36352748883948,-9.140251892745956,3.897769954667414,-0.005553022565154339,-0.026169236571107316,0.42310878821109993
160152000000,80,160152000000,FL_wheel_link,28.750724398971364,7.36984169699173,2.2583061374035647,0.0007582783709714308,0.02327239065284698,-0.423093077540167
160153000000,81,160153000000,FL_wheel_link,-28.35057799969875,-9.229534155774694,4.320854815839956,-0.0050086214398825345,-0.02652586263750701,0.4230526687958281
160154000000,82,160154000000,FL_wheel_link,28.885166928596995,7.266692054919978,2.7772114078230583,0.0020759475527356752,0.023356641582183056,-0.423018798875095
160155000000,83,160155000000,FL_wheel_link,-28.448172082332537,-9.343177211602885,5.050854669612477,-0.002665237774205433,-0.026639065799207943,0.42308561101402603
160156000000,84,160156000000,FL_wheel_link,28.974648281732893,7.076911394821036,3.567391381052892,0.004267562959230889,0.024994161420394057,-0.42290438228049904
160157000000,85,160157000000,FL_wheel_link,-28.687079594165116,-9.530362043303986,6.104789041970758,0.0017411442118732412,-0.03065200296552663,0.42289361844695617
160158000000,86,160158000000,FL_wheel_link,29.415202955525103,6.860582475662721,4.327220330880114,0.006224219386853097,0.03235510100950092,-0.42250819646937904
160159000000,87,160159000000,FL_wheel_link,-29.541572763767956,-9.734176252132084,6.942890790613604,0.002835138792689167,-0.034490395888415064,0.42284408773636883
160160000000,88,160160000000,FL_wheel_link,29.844498326274785,6.685082783053618,4.596648959617302,0.007905007972011838,0.03433038614859829,-0.4230060377734929
160161000000,89,160161000000,FL_wheel_link,-29.874295560325617,-9.843050114383278,6.815767543768761,0.0011097574584329702,-0.033397027301404106,0.4233608908980475
160162000000,90,160162000000,FL_wheel_link,29.770845405031668,6.606104575102409,4.0442458751687695,0.004578983124832768,0.03633023693426942,-0.42274911856180253
160163000000,91,160163000000,FL_wheel_link,-31.997619481082367,3.0900739155693056,6.888090441873661,-0.04322733703375749,-0.03456371122856396,0.34184101003522627
160164000000,92,160164000000,FL_wheel_link,18.2486673275748,8.720095051358264,3.7693608882684533,0.006386989205191297,0.038136935697481084,-0.3283568249394399
160165000000,93,160165000000,FL_wheel_link,-28.055009049637867,-10.06314236101833,5.567163838211732,-0.0009464397081357999,-0.03113610071187693,0.4069064266115393
160166000000,94,160166000000,FL_wheel_link,29.14927226416181,6.521743606286927,3.9321763942659884,0.010244274705634479,0.03479961734227045,-0.4201713508594472
160167000000,95,160167000000,FL_wheel_link,-29.963971580139734,-9.709862081817725,5.466869798743483,0.0017129252121425777,-0.03174162152054497,0.42221226864094324
160168000000,96,160168000000,FL_wheel_link,29.696054500309543,6.461962149878827,3.5414924621443777,0.010804015245091891,0.032721366423761854,-0.42302944171093754
160169000000,97,160169000000,FL_wheel_link,-29.810620558863175,-9.499892725387788,4.785179962827038,0.0008501781043563276,-0.03134808073263451,0.42277198025641705
160170000000,98,160170000000,FL_wheel_link,31.86476681418029,6.537335890019084,4.291177643574105,-0.03537569663711964,0.031452888079429975,-0.33300324901371464
160171000000,99,160171000000,FL_wheel_link,-20.822357929126355,15.404521482920737,7.893889649542381,-0.07683827171103742,-0.03476278858213441,0.1472633262341997
160172000000,100,160172000000,FL_wheel_link,7.187291840565947,-16.71436914319398,3.044591428520918,0.11044707158669546,0.027643347712324497,-0.03700210257677473
160173000000,101,160173000000,FL_wheel_link,-3.752465763857969,13.0106457922383,9.181665032145759,-0.06965843173248289,-0.02513937699647161,0.018879628275228672
160174000000,102,160174000000,FL_wheel_link,3.5860969293207843,12.529649994270182,8.985374520300837,-0.06514117702046165,0.014436213671116548,-0.004339904916523102
160175000000,103,160175000000,FL_wheel_link,-0.7406688027722743,-14.75189805578014,5.8247307971756985,0.11530989369270174,-0.012174109395874877,-0.009604862506896832
160176000000,104,160176000000,FL_wheel_link,0.3058837544198157,12.97858971668958,10.143770245728984,-0.060735339333167784,0.00662098585088238,0.012663919149052374
160177000000,105,160177000000,FL_wheel_link,0.3087282388249782,-14.859920276199315,5.774977182199878,0.11498121427982777,-0.006114976983553819,-0.012886749487326985
160178000000,106,160178000000,FL_wheel_link,-0.3051316515163683,12.874169163755505,9.915854284792427,-0.06454429564119252,0.004423158974166974,0.013450644512461234
160179000000,107,160179000000,FL_wheel_link,0.4885719542093601,-14.95605031180271,5.853326603532319,0.11164840163904774,-0.0045313218919634,-0.013513130752880699
160180000000,108,160180000000,FL_wheel_link,-0.4722800642424773,13.096387439987868,8.071025785983844,-0.07472893772540296,0.0014610701223075548,0.01312928077033865
160181000000,109,160181000000,FL_wheel_link,0.9481362375637438,12.507282960296402,9.166383093015583,-0.07166032135178392,-0.0010722207856083304,-0.0019153344328449679
160182000000,110,160182000000,FL_wheel_link,0.5471656083244714,-14.938654923663789,5.917554292137544,0.10976361214553375,-0.001786351863525194,-0.011338638543625839
160183000000,111,160183000000,FL_wheel_link,-0.7385452458959884,12.809902598084618,10.023668909485686,-0.06832590514788642,0.001419147744131101,0.013358084006506893
160184000000,112,160184000000,FL_wheel_link,0.6415061694659626,-15.053064511954565,6.063554594301178,0.10896859949532785,-0.00235528297744541,-0.013761894915629444
160185000000,113,160185000000,FL_wheel_link,-0.8654706530455711,13.035347681917164,8.150501493581446,-0.07708064118156252,0.004665951920428909,0.013946003280578873
160186000000,114,160186000000,FL_wheel_link,0.2026169340702695,-15.128956638257522,4.745129393620473,0.10008317191839758,0.0012308780413802596,-0.013570312010848906
160187000000,115,160187000000,FL_wheel_link,-1.4392098115790388,13.00983930887282,5.8003893730589615,-0.09133900822036979,0.009823179385654723,0.013203699172515258
160188000000,116,160188000000,FL_wheel_link,-0.5686052411340611,-15.092543819459491,1.920476382272107,0.08420023769336486,0.001855106465023342,-0.0139718018920825
160189000000,117,160189000000,FL_wheel_link,-1.5451559635542282,13.103620029366049,3.3475091185016193,-0.10300829436253885,0.0022635810120282584,0.01298194830970296
160190000000,118,160190000000,FL_wheel_link,0.3158964992542914,-15.111946332994739,0.3982026791600445,0.07650417574411855,0.000571297826588673,-0.013802600010598694
160191000000,119,160191000000,FL_wheel_link,-1.0925955901512399,12.961586410322147,3.777681448611135,-0.10447374788244625,-0.006075939902949072,0.01348280167850066
160192000000,120,160192000000,FL_wheel_link,1.3786009901625313,-15.579892165932002,1.5277999362648005,0.07881936132938096,0.001616893279297059,-0.013572506145256806
160193000000,121,160193000000,FL_wheel_link,-0.9980648880857836,12.301958418322274,5.853330205479906,-0.09794383080851377,-0.008783520444525798,0.0140378076262763
160194000000,122,160194000000,FL_wheel_link,1.7210211793682313,-15.764276023893366,3.059309409059732,0.08233526265758633,0.0040713897293132364,-0.013580325086651433
160195000000,123,160195000000,FL_wheel_link,-1.2451531410048426,12.083422983187107,7.637386046865721,-0.09383289747469209,-0.0073099695532184775,0.014154061741270103
160196000000,124,160196000000,FL_wheel_link,1.5141691314096068,-15.791780415530521,4.3854999074006,0.08830476580055263,0.004111059721345091,-0.013748176478727293
160197000000,125,160197000000,FL_wheel_link,-1.321273841697202,12.03463999544893,8.803577503274942,-0.08900706159196857,-0.005237894186429282,0.014070788078981496
160198000000,126,160198000000,FL_wheel_link,1.256647347923112,-15.871027767480054,5.273032125967584,0.09273363898614824,0.004154164668453284,-0.013668024226855134
160199000000,127,160199000000,FL_wheel_link,-1.3945278115764648,12.01753191641446,9.079324919766309,-0.08701065820705738,-0.0027298282912327646,0.013841069399891657
160200000000,128,160200000000,FL_wheel_link,1.2018625826125113,11.570785764098536,9.862983996197087,-0.07884140875587548,0.005242530913318319,-0.002377678383643046
160201000000,129,160201000000,FL_wheel_link,-0.18779787090645433,-15.886641551239313,6.602025848539332,0.11287940984687543,-0.002263982476086016,-0.01030292850783228
160202000000,130,160202000000,FL_wheel_link,-0.7699318669344307,11.964562230299254,10.602509758334202,-0.0613128086389642,0.004483432504636751,0.012305662571370227
160203000000,131,160203000000,FL_wheel_link,0.39300261183274887,-16.30389388638348,5.854592023349673,0.11865125435509016,-0.008048364447988345,-0.012570424619766436
160204000000,132,160204000000,FL_wheel_link,-0.04533359531076283,12.285539737977466,8.506241672216694,-0.06587984899528536,0.005267504077462185,0.013870580186283534
160205000000,133,160205000000,FL_wheel_link,0.5516163127031156,-15.910389087772064,5.439057199815628,0.11268783968854766,-0.004523207663237437,-0.014547289655429544
160206000000,134,160206000000,FL_wheel_link,-0.6366270518629183,12.608900380683785,6.232039376585617,-0.0793648600112198,0.004778613677023212,0.013429859154557374
160207000000,135,160207000000,FL_wheel_link,0.5657057533219114,12.060521141760423,7.007219941116655,-0.07832137678942575,-0.0026268066117866896,-0.002385493255991061
160208000000,136,160208000000,FL_wheel_link,0.56643780479085,-15.8976815119833,5.068370935439631,0.10844350869040369,-0.0005916839171598957,-0.011044877415349734
160209000000,137,160209000000,FL_wheel_link,-0.8771219445918099,12.008501050321401,8.612848559075504,-0.0708843826285894,-0.0013446161660986193,0.012857797353676086
160210000000,138,160210000000,FL_wheel_link,0.8665137413137681,-16.001997578531196,5.237971333761976,0.10679538256646091,-0.0017361595114943746,-0.013539541363777111
160211000000,139,160211000000,FL_wheel_link,-0.9635472609055541,12.267539925850174,7.060614451727807,-0.07919739650925478,0.003344487816499102,0.013698573129783273
160212000000,140,160212000000,FL_wheel_link,0.3071639508427183,-16.09810422028918,4.686423224533163,0.10065121861532098,-0.0009441756287698174,-0.013397431872420462
160213000000,141,160213000000,FL_wheel_link,-1.1927823131630988,12.364850015883734,5.448208995842938,-0.08811790331186733,0.006414829338219829,0.013307193704992146
160214000000,142,160214000000,FL_wheel_link,-0.163285025631861,-15.914205164222585,2.6020220030402017,0.08885960804098843,0.0047142847156055245,-0.012131554406480146
160215000000,143,160215000000,FL_wheel_link,-1.5971892477344152,12.592847340649008,4.011379444324012,-0.10086605234144096,0.0003946759749221629,0.011609471243335334
160216000000,144,160216000000,FL_wheel_link,-3.6776290704980235,12.187097454658858,3.6424316569781783,-0.0008485438972640598,0.00445555735975696,-0.18380346289537078
160217000000,145,160217000000,FL_wheel_link,-22.594595623289557,-9.92762226238756,5.461979184846295,-0.005588605978381623,0.0104838925969533,0.38025922535256945
160218000000,146,160218000000,FL_wheel_link,25.546682622166127,7.269199942148454,4.177031663327099,0.00517534561852762,-0.00692065445461685,-0.41419500291583033
160219000000,147,160219000000,FL_wheel_link,-27.38174670626195,-9.280646365047536,5.300427169086893,-0.004009443489568028,0.004945865258276047,0.42163206052401014
160220000000,148,160220000000,FL_wheel_link,27.60337719833797,6.967772041755623,3.370196211482357,0.0051607553715455464,-0.004505002037596914,-0.4230342684339105
160221000000,149,160221000000,FL_wheel_link,-27.66081901949006,-9.285793520505985,4.781612022804259,-0.003396290447181983,-0.0015303776948084027,0.42381481855839787
160222000000,150,160222000000,FL_wheel_link,28.496000658427402,6.8843578099742,2.516206540400247,0.005455371348408956,-0.0031371141875033474,-0.4234381088045909
160223000000,151,160223000000,FL_wheel_link,-27.722159799404366,-9.371729748121254,4.17682139657597,-0.004609165174666608,-0.0024464787251104007,0.4241039031650932
160224000000,152,160224000000,FL_wheel_link,28.684715385587594,6.79485781027272,1.8610867780994726,0.004543907047707478,-0.003184514642244822,-0.42350230058300736
160225000000,153,160225000000,FL_wheel_link,-27.719125487011958,-9.374700327908762,4.08948359460008,-0.003202643484882966,-0.004294275148910159,0.4244438129110063
160226000000,154,160226000000,FL_wheel_link,28.984333249719253,6.779457004152093,1.74117540065852,0.0055845772962894846,-0.002055312854701635,-0.4236887982985434
160227000000,155,160227000000,FL_wheel_link,-27.892971642581845,-9.396620367551488,4.168834380649702,-0.0031068175485172507,-0.003727296440570582,0.4244796916941842
160228000000,156,160228000000,FL_wheel_link,28.92054663669467,6.727600964853092,1.7460490241643973,0.004439221444692981,-0.00025438220326773467,-0.42394790533590226
160229000000,157,160229000000,FL_wheel_link,-28.24003998965493,-9.44656179252313,4.257969786437038,-0.004572478970533656,-0.0024990347290219125,0.4244224145285653
160230000000,158,160230000000,FL_wheel_link,28.716565938481416,6.6902435405179785,2.069228766998702,0.0034701028552577085,0.0023815977613293317,-0.4243350388457328
160231000000,159,160231000000,FL_wheel_link,-28.712517759833776,-9.476344996786116,4.65507229915303,-0.005264365533453949,-0.0017434672770083898,0.4242427683747641
160232000000,160,160232000000,FL_wheel_link,28.53748974571904,6.647710879280047,2.559502114115608,0.003647150432904726,0.0041869362737523156,-0.4245503179093794
160233000000,161,160233000000,FL_wheel_link,-29.062130065464306,-9.49867188882951,5.10062177209635,-0.005098739463029,-0.0010758790266964496,0.4243835964062028
160234000000,162,160234000000,FL_wheel_link,28.465649203296024,6.588136882547037,3.021238495153947,0.004540572358163596,0.005060704241645625,-0.42468333466213465
160235000000,163,160235000000,FL_wheel_link,-29.237785858809943,-9.53661923951258,5.480636221205201,-0.0044097351263922835,-0.0009544273723778521,0.4242925127484269
160236000000,164,160236000000,FL_wheel_link,28.49796923522036,6.514103290794726,3.3545096971088584,0.005687141000417919,0.005233031870344391,-0.42472834637685075
160237000000,165,160237000000,FL_wheel_link,-29.297503524648253,-9.577484680696799,5.723294174544795,-0.003551722933990234,-0.0013811751342630808,0.42423998721848394
160238000000,166,160238000000,FL_wheel_link,30.620485209725093,6.417424464780822,4.871576285520337,-0.03536007325788091,0.009478198478546059,-0.33982665977368764
160239000000,167,160239000000,FL_wheel_link,-21.09622630737255,15.853986619854979,6.88540475137276,-0.08258453801587964,-0.01819485400637778,0.15513101110673522
160240000000,168,160240000000,FL_wheel_link,6.290724485721164,-16.384507714897566,4.122169436209194,0.10625352329739009,0.02117565495111183,-0.039303489958883456
160241000000,169,160241000000,FL_wheel_link,-3.469237990040395,12.386867619454112,8.683016700229107,-0.06813632195339925,-0.018871591336996445,0.019610115167886657
160242000000,170,160242000000,FL_wheel_link,3.012292767368637,11.774522788518427,7.70141390393207,-0.06525590650008418,0.012442320035972405,-0.00493590317153533
160243000000,171,160243000000,FL_wheel_link,-0.574231672371573,-15.065851642111967,5.32052730857715,0.11309910219609377,-0.015131455967391317,-0.008743599945632261
160244000000,172,160244000000,FL_wheel_link,0.6111252421526755,12.871434755978642,7.786709705330367,-0.06264230632493989,0.007227001670693781,0.01221240014617703
160245000000,173,160245000000,FL_wheel_link,0.42522360936151465,-15.142509329317653,5.410120927934067,0.11448837700494274,-0.010767736303280798,-0.011885582321165555
160246000000,174,160246000000,FL_wheel_link,0.2195858688548001,12.879549391063263,7.974138945083102,-0.06264595146169456,0.004728449814315995,0.013058789097053467
160247000000,175,160247000000,FL_wheel_link,0.6267119840022694,-15.16118479654142,5.499373365153718,0.11153911995881144,-0.005213166805372912,-0.011736339366360305
160248000000,176,160248000000,FL_wheel_link,-0.27763985944459063,12.810255474284881,7.497013531745681,-0.07060256012038867,0.006433315982430228,0.013225207866100932
160249000000,177,160249000000,FL_wheel_link,0.714356754994566,12.45762938443119,8.449913315783087,-0.06878164054440415,-0.0044914237499484025,-0.00250336716661597
160250000000,178,160250000000,FL_wheel_link,0.9099348426737589,-15.181400872473699,5.6107041453266415,0.10814853404782443,0.0014002862354123627,-0.010864165310802225
160251000000,179,160251000000,FL_wheel_link,-0.8538705655044696,12.793124106434004,8.219711889877786,-0.06824110764449741,-0.0013536067058567724,0.013174519362245068
160252000000,180,160252000000,FL_wheel_link,1.1066400227928435,-15.30451148581814,5.4816918974507844,0.10678118169339593,0.00011038670090255935,-0.01355899449093652
160253000000,181,160253000000,FL_wheel_link,-0.9000832300252263,12.836707832940629,7.349716700546232,-0.07340155004939194,0.002661286590019735,0.013763025060662914
160254000000,182,160254000000,FL_wheel_link,0.6898016109308565,-15.345157068950288,5.682737508400146,0.10510635366124535,-0.0002260628220351675,-0.01413980981164767
160255000000,183,160255000000,FL_wheel_link,-1.0611302616443508,13.058386325262253,5.866467516572073,-0.08115970751517516,0.005806584448271764,0.013284462133712694
160256000000,184,160256000000,FL_wheel_link,0.4829714719543074,12.395984673949007,6.896221571818875,-0.07795239614086584,0.002310725966470061,-0.0028164351177918994
160257000000,185,160257000000,FL_wheel_link,0.10769151176412102,-15.348810004363113,5.626806916980522,0.10444591989217365,-0.002342641153182805,-0.011629283673389527
160258000000,186,160258000000,FL_wheel_link,-0.8679090946292612,12.662326127154378,7.701389546104525,-0.07287731027211786,0.00591561190140172,0.012448012437176005
160259000000,187,160259000000,FL_wheel_link,0.17450684027934432,-15.407481169939292,5.7069581478241,0.10386737309744525,-0.0019464769265479444,-0.013344762262177776
160260000000,188,160260000000,FL_wheel_link,-0.9790176955942462,12.86015024810911,6.379545491729383,-0.08013528798779257,0.004077649416926158,0.012714683974023058
160261000000,189,160261000000,FL_wheel_link,0.36087080376223024,-15.573787536568558,4.830859110437056,0.09823249038646774,-0.001409348516869544,-0.013310792862460133
160262000000,190,160262000000,FL_wheel_link,-0.9474060858080111,12.869280084948068,4.522396122266736,-0.09056352992487102,0.000629205683970354,0.013054546505465059
160263000000,191,160263000000,FL_wheel_link,0.7890287901133785,-15.609605404749734,3.0235422453300953,0.0884887254036474,-0.0018014797580745328,-0.013296552203863027
160264000000,192,160264000000,FL_wheel_link,-0.7690318697599208,12.975171131235678,3.1135076675352096,-0.09820280113767565,-0.0034402590184327594,0.013586779007159327
160265000000,193,160265000000,FL_wheel_link,-0.6779392253600288,12.213908554365617,2.821979772084847,-0.045584305413991395,-0.007791852971775204,-0.09610944226004654
160266000000,194,160266000000,FL_wheel_link,-8.54107573458835,-12.976123853263603,6.67430008519725,-0.004083397790746806,0.01079579171323523,0.28033974648804144
160267000000,195,160267000000,FL_wheel_link,24.36622613540925,7.021842043644158,5.15089072108312,0.013605994632628205,-0.026091726470450705,-0.39764116477830763
160268000000,196,160268000000,FL_wheel_link,-26.44372291921275,-9.651934583638333,7.215142598479328,0.007066731301749808,0.020548944337685164,0.41909814593429545
160269000000,197,160269000000,FL_wheel_link,27.4348842801511,6.44875724006269,5.906681540896807,0.0198485576759959,-0.019806655515848308,-0.42215109106547416
160270000000,198,160270000000,FL_wheel_link,-27.94136279576176,-9.640276755948427,7.7075996971278755,0.00957051245522932,0.01630672994388311,0.4235972881627115
160271000000,199,160271000000,FL_wheel_link,27.928829102397543,6.231854598930892,5.754278984607156,0.020153052052337524,-0.014692889620830523,-0.42404229335860466
160272000000,200,160272000000,FL_wheel_link,-28.629518851285837,-9.748233425254526,7.609474804271214,0.008076815045644814,0.01388256356527666,0.4245819598400548
160273000000,201,160273000000,FL_wheel_link,28.197807475885185,6.074880962462413,5.260195929539543,0.016192921074996598,-0.009217482597804657,-0.4246418241871431
160274000000,202,160274000000,FL_wheel_link,-29.241948881493194,-9.657379344918064,6.9119304109083695,0.001961355898175955,0.01143376157772173,0.42453786608040867
160275000000,203,160275000000,FL_wheel_link,28.384939070889107,6.133805319013028,3.8373983447742104,0.007049904241414822,-0.006508378484970959,-0.4248450859706001
160276000000,204,160276000000,FL_wheel_link,-29.423298287536458,-9.508480335284755,5.729336481823192,-0.0066058302476821405,0.007297155318592667,0.42390877837570007
160277000000,205,160277000000,FL_wheel_link,28.73572268626116,6.487836508281337,2.337615598009081,-0.00036346552038900575,-0.008206579465743014,-0.424160451636585
160278000000,206,160278000000,FL_wheel_link,-29.118254651830473,-9.43740699561069,4.9312818085378956,-0.010707848774343113,0.006137069639686814,0.42454533190888916
160279000000,207,160279000000,FL_wheel_link,29.041288102427533,6.372782756615875,1.828798132546309,-0.00313330049922573,-0.00990836486276969,-0.42348571699746024
160280000000,208,160280000000,FL_wheel_link,-28.848080434844537,-9.648742789701394,5.378920715546889,-0.011021384526453671,0.007800853822339527,0.4244371716828633
160281000000,209,160281000000,FL_wheel_link,29.071463286808942,6.101993787662757,2.5532964855679254,-0.002308797869939723,-0.011000288517647295,-0.42349768837658686
160282000000,210,160282000000,FL_wheel_link,-28.821830044762653,-10.088885460718085,6.5134932891156225,-0.007444772835767566,0.01020046037644554,0.42445391107923747
160283000000,211,160283000000,FL_wheel_link,28.973225518768626,6.066068919513607,2.72532627978781,-0.0009450492808110141,-0.014020522000967643,-0.42432219335245974
160284000000,212,160284000000,FL_wheel_link,-28.666080277793398,-10.127754157574772,6.734639160931565,-0.005147837936605039,0.011459593234972199,0.42463213874018607
160285000000,213,160285000000,FL_wheel_link,28.885767914236993,6.146850938549761,3.2295473822782834,0.0014519982017570613,-0.014685399106078375,-0.42464664191017126
160286000000,214,160286000000,FL_wheel_link,-28.771085663667584,-10.019275330978838,7.345318356890809,-0.002927280573746305,0.012621867578093934,0.42482323214420314
160287000000,215,160287000000,FL_wheel_link,28.743901584206988,6.251839772468885,3.835800030718185,0.004010888924417418,-0.015157480425084061,-0.42492090462988014
160288000000,216,160288000000,FL_wheel_link,-32.928055074670894,17.87266099401848,6.9598946865391875,-0.08500616400634155,-0.0012190376528944398,0.2555218237958481
160289000000,217,160289000000,FL_wheel_link,8.292528448514247,11.157169502417227,7.609476341005658,-0.07844573447518174,0.025417813445227356,-0.04704946873500229
160290000000,218,160290000000,FL_wheel_link,-3.6311685061211283,-15.129892536355523,7.40552237672664,0.10658880934355208,-0.01143319408389271,-0.000698902413956525
160291000000,219,160291000000,FL_wheel_link,-0.22841317002976097,12.665100387723657,8.395543613159646,-0.06727296923612176,0.01949218330818415,0.007976045072486766
160292000000,220,160292000000,FL_wheel_link,-1.3423603660303227,-16.163918106249874,7.3244189562015025,0.11148555446231206,-0.009838239673484104,-0.00970779176331481
160293000000,221,160293000000,FL_wheel_link,-0.11421573591374241,11.88133704258743,8.581410151954174,-0.06428803629069775,0.010321745519486855,0.010285868192499404
160294000000,222,160294000000,FL_wheel_link,-0.7915198673508061,-0.595045558245634,5.311183227998617,0.09741130185874804,-0.011372854830036873,-0.04163550181254745
160295000000,223,160295000000,FL_wheel_link,-4.4373279000977295,12.692988221131746,8.336410995615967,-0.06418310846360856,0.008923088555245937,0.046921248086636703
160296000000,224,160296000000,FL_wheel_link,1.5448731821443764,11.457562305193806,8.777876982803068,-0.062263038416109535,-0.006852777823841311,-0.008625188404480835
160297000000,225,160297000000,FL_wheel_link,0.7436472475022645,-16.185995575596294,6.804026253599283,0.11271801199537625,0.0014980400495716334,-0.009873140878987873
160298000000,226,160298000000,FL_wheel_link,-1.080464684146718,11.938472174512063,8.764798334661533,-0.06278009434913037,-0.004410005496975838,0.013238045436351542
160299000000,227,160299000000,FL_wheel_link,1.2081081322562275,-16.284621324746695,6.999084252509573,0.11174870688765448,-0.0011653014046140108,-0.01349117592138623
160300000000,228,160300000000,FL_wheel_link,-0.9935433178919112,11.931720574903206,8.473706635657875,-0.06548273582774346,-0.001970771521482917,0.013984986368170535
160301000000,229,160301000000,FL_wheel_link,1.2016263150949325,11.548600232260661,8.726427957140299,-0.06442004178893707,-0.0006121421043310969,-0.0024310839794287912
160302000000,230,160302000000,FL_wheel_link,0.2780742309059332,-16.21323779929869,7.283286044025943,0.11145301105392022,-0.005496231481893651,-0.00955629814407285
160303000000,231,160303000000,FL_wheel_link,-0.5380128087133975,11.850003206233216,8.604111809908309,-0.06559663260193634,0.004164348363781554,0.012258979190763599
160304000000,232,160304000000,FL_wheel_link,0.2305285442309603,-16.313588463448085,7.4054068251178045,0.10963122315601564,-0.005937188780639389,-0.012413908280710153
160305000000,233,160305000000,FL_wheel_link,-0.7838816026033445,11.991587188945838,7.453013040584481,-0.07414767590167912,0.010647814883811026,0.012531074163975616
160306000000,234,160306000000,FL_wheel_link,-0.5342557060492786,-16.47314395286796,7.25864863827183,0.10370595055053936,-0.00417388760872215,-0.013017300751869309
160307000000,235,160307000000,FL_wheel_link,-1.1717234155715854,12.262972262448827,5.527260476765417,-0.08557584775585592,0.011229880327655643,0.012054183510390564
160308000000,236,160308000000,FL_wheel_link,-0.39921402857615806,11.709129251746276,6.487258975401249,-0.08356142359132902,-0.0011713245270821967,-0.0020390612637801097
160309000000,237,160309000000,FL_wheel_link,0.061639953504704595,-16.55985197794731,6.823035745240864,0.1024501746904647,0.002324705846823265,-0.012462508460383768
160310000000,238,160310000000,FL_wheel_link,-1.6913780433255674,11.667502322992574,7.68056764777005,-0.07559508875279486,0.003121999916239523,0.012841727250932253
160311000000,239,160311000000,FL_wheel_link,0.28046911743646336,-15.152208769423558,3.17485524371743,0.09662855623079779,-0.008331047726459482,-0.015393101204303934
160312000000,240,160312000000,FL_wheel_link,-0.9274919906177512,13.158305217695961,3.5011131507197444,-0.0839203147880685,0.004083635453808396,0.013821503374916227
160313000000,241,160313000000,FL_wheel_link,0.04860801561096066,-15.141935269219863,2.820594955015775,0.09661517648044572,-0.0036955373625423295,-0.011853382712729964
160314000000,242,160314000000,FL_wheel_link,-1.1184081272887034,13.111331202021177,3.045168627664879,-0.08517021634945168,0.003155673006161012,0.013086932659088637
160315000000,243,160315000000,FL_wheel_link,0.20432502563507296,-15.202744806729632,2.5448734414557466,0.09363708725247358,-0.0045820723719673054,-0.013264568096130776
160316000000,244,160316000000,FL_wheel_link,-1.095047547030562,13.143290651732762,2.712544976907355,-0.0872475660960805,0.0035065299118117077,0.014077417824584406
160317000000,245,160317000000,FL_wheel_link,-1.7780420859721406,12.435561149871615,1.9730532642189034,-0.04217615630941458,-0.005836456699523274,-0.09574320242015927
160318000000,246,160318000000,FL_wheel_link,-9.55638024875164,-12.479860041986827,5.072768948705992,-0.004390542160334326,0.03121581932644322,0.27907730232661665
160319000000,247,160319000000,FL_wheel_link,22.91389285072435,7.564425128456781,1.8196574815171973,0.0030960754224296392,-0.03911603829724522,-0.3961637007803899
160320000000,248,160320000000,FL_wheel_link,-26.579957996378447,-9.157557022608371,5.309385537060197,-0.0015555569823690614,0.04309156012684784,0.41508745078605136
160321000000,249,160321000000,FL_wheel_link,26.29135114586792,7.114574511220068,2.498122155632299,0.0063936332247784755,-0.03807536045561224,-0.4191864907655709
160322000000,250,160322000000,FL_wheel_link,-27.29767826924497,-8.865356782440738,5.748445947541959,0.00019322175208016373,0.04004491442503464,0.41940721192319125
160323000000,251,160323000000,FL_wheel_link,26.785585470965067,7.116628817850308,2.5535450109170474,0.008293065629216492,-0.03741361817731219,-0.4203184932815236
160324000000,252,160324000000,FL_wheel_link,-27.37777789226686,-8.82299485516254,5.568752412523771,5.835698058420131e-05,0.04043910439060767,0.41966651720308207
160325000000,253,160325000000,FL_wheel_link,26.79251316372556,7.042163042566464,2.5683913000833605,0.008142271530379759,-0.0371224092446262,-0.42027757301376606
160326000000,254,160326000000,FL_wheel_link,-27.351935994719337,-8.855077726517095,5.255995192655371,0.0005711771590791973,0.03687974061165616,0.4202849706859252
160327000000,255,160327000000,FL_wheel_link,27.32056868494889,7.00765126057637,2.3183517520183505,0.009762926265504993,-0.03783174389782869,-0.42016112799837374
160328000000,256,160328000000,FL_wheel_link,-27.262556963742767,-8.906868609651596,5.254832910127927,6.237503173023843e-05,0.03972806059510411,0.4198406193070907
160329000000,257,160329000000,FL_wheel_link,27.08617124933723,6.951143906056388,2.6671086821231853,0.009696823497102674,-0.03971223811170192,-0.4198600981762006
160330000000,258,160330000000,FL_wheel_link,-27.14722906183861,-8.953453704850729,5.300416377016703,-0.0004938928669882126,0.04106859855757105,0.419468453601937
160331000000,259,160331000000,FL_wheel_link,27.00925858713101,6.905335051011398,2.714531822438635,0.009962905605414862,-0.040948080687339516,-0.41957686920142556
160332000000,260,160332000000,FL_wheel_link,-27.07599362889638,-8.983607999510442,5.326306173116229,-0.0003176287006419098,0.04211591174274822,0.41923685244158987
160333000000,261,160333000000,FL_wheel_link,26.971565072837816,6.8704752855193645,2.7535919879699855,0.010647535504880108,-0.04267012126481145,-0.4192952285070961
160334000000,262,160334000000,FL_wheel_link,-26.948938502169643,-9.003371173685924,5.3324834622417265,0.0002852711432746035,0.042960878259228626,0.41905792571770484
160335000000,263,160335000000,FL_wheel_link,26.94319008553303,6.832740410254644,2.78153918510157,0.010847113387891055,-0.04334131082860075,-0.41902632392552464
160336000000,264,160336000000,FL_wheel_link,-26.926920770145053,-9.026501862455202,5.367242721490087,0.0004017988448216366,0.043564176541118424,0.4189157358348678
160337000000,265,160337000000,FL_wheel_link,26.93259768498062,6.795766343199734,2.807625809753385,0.011007653604684772,-0.043985657254595724,-0.41889063234955337
160338000000,266,160338000000,FL_wheel_link,-26.911612824248664,-9.046657301095456,5.400679055412587,0.0004837955583762466,0.04411470480738692,0.4188055650091235
160339000000,267,160339000000,FL_wheel_link,26.927424465437987,6.76203170132042,2.8304391022292132,0.011129708529985958,-0.04456566080687804,-0.4187716913238606
160340000000,268,160340000000,FL_wheel_link,-30.90509339346179,18.630206955211097,3.0983132555766715,-0.0839713093457688,0.02334933770697488,0.2505817286425573
160341000000,269,160341000000,FL_wheel_link,7.045774047810409,11.809577577600018,3.7520281965408975,-0.0838250262588971,0.003658733053741577,-0.04363794006781716
160342000000,270,160342000000,FL_wheel_link,-1.1178409847384736,-14.899098708104296,3.5255147299088763,0.09099126779326942,-0.007877460393830821,-0.0024145292599350777
160343000000,271,160343000000,FL_wheel_link,0.0007669332655393527,13.02626906609703,3.6890146218420754,-0.08345186891751888,0.006627498575194388,0.010517695182075777
160344000000,272,160344000000,FL_wheel_link,0.374912898900065,-15.255918598487124,3.7353124617589697,0.09162993624867603,-0.005027285216136146,-0.011977198503608406
160345000000,273,160345000000,FL_wheel_link,-0.5669849658629073,12.832414280401686,4.7157838561763965,-0.08131466032836242,0.006240906364290679,0.012552530275983173
160346000000,274,160346000000,FL_wheel_link,0.33242635506392426,-15.966879349439502,7.192633896317639,0.09972003914060618,0.0027609715333523706,-0.01288081921010604
160347000000,275,160347000000,FL_wheel_link,-1.3960611104384195,11.770746079531948,9.528983605694183,-0.06658835419258856,0.004070094381347666,0.012479358236888284
160348000000,276,160348000000,FL_wheel_link,-1.3498715912047512,-3.8034613948718277,10.0264227121794,0.07959868280728664,-0.015308805707112337,-0.09639076364523111
160349000000,277,160349000000,FL_wheel_link,-12.462495522526192,13.93934445065122,11.030518317238792,-0.05192767387892577,0.01544260892475215,0.10812444995627091
160350000000,278,160350000000,FL_wheel_link,-1.2143190259725234,10.976293300165738,8.921071765433863,0.04095261737362715,-0.02969755867790958,-0.19730986357162214
160351000000,279,160351000000,FL_wheel_link,-20.840388602330712,-11.970016103034057,13.831897427823984,0.038994354392759716,0.04530921047469114,0.3835307294450891
160352000000,280,160352000000,FL_wheel_link,26.125458625744074,7.838186682047268,9.166721980313868,0.03693502737526304,-0.05592048618354438,-0.4118516628109165
160353000000,281,160353000000,FL_wheel_link,-25.331473530488815,-9.422755598890483,12.326747878674494,0.031607948429645594,0.0466375724085363,0.4191111573281064
160354000000,282,160354000000,FL_wheel_link,27.10543482553051,7.619543285233114,6.454518841825124,0.024180729624987116,-0.05443693297134889,-0.41886766066583836
160355000000,283,160355000000,FL_wheel_link,-29.912230785568926,19.227743431440945,4.4286799621240265,-0.08709953377347923,0.019487446632811264,0.25074105871894087
160356000000,284,160356000000,FL_wheel_link,7.525830112126108,12.410664976973052,5.654356985121659,-0.08908200899363182,-0.002643304538050985,-0.04019102792444985
160357000000,285,160357000000,FL_wheel_link,-0.23002330049753625,-15.408710803877183,8.592347734513009,0.09988031181712265,-0.01605644035927649,-0.0003710948886159509
160358000000,286,160358000000,FL_wheel_link,1.085499830508214,13.447161722785786,7.463100633476162,-0.08550294408476135,0.009428651716771996,0.011718609087042508
160359000000,287,160359000000,FL_wheel_link,0.30791697603324863,-15.854678834254633,8.792749748780627,0.09539133371616233,-0.01153060042778538,-0.009741229216192825
160360000000,288,160360000000,FL_wheel_link,0.2697672857094481,13.382800294777654,6.3956685225675685,-0.09537115924764315,0.01411553103586081,0.012786449372475975
160361000000,289,160361000000,FL_wheel_link,-0.041484220490550866,-15.836831764318212,7.6594350016166,0.08742427580980375,-0.010067706385763434,-0.01270150893559939
160362000000,290,160362000000,FL_wheel_link,-0.05106903730563011,13.352061697275612,4.6336679503343925,-0.1074537082160854,0.011753015508791612,0.010731363004751644
160363000000,291,160363000000,FL_wheel_link,-0.08365028799088244,-14.813645218432614,5.308830439096803,0.07848465861950572,-0.004779014377220573,-0.014526930754397194
160364000000,292,160364000000,FL_wheel_link,-0.9254249259146242,14.077880103875236,3.052719758287067,-0.10304505080156152,0.008152849674521092,0.01229091733607951
160365000000,293,160365000000,FL_wheel_link,0.10643749870560942,-14.967221425708606,3.9877886027010745,0.08805572746032413,-0.002272161509925332,-0.013702730237149583
160366000000,294,160366000000,FL_wheel_link,-1.0616492713814225,14.19985798144035,3.2373946392464843,-0.08974710890060238,0.007120027800893805,0.012284741811105358
160367000000,295,160367000000,FL_wheel_link,0.2676599474635362,-14.927086508309415,4.051639799339143,0.09473141031729597,-0.00464178093492707,-0.012880117873474105
160368000000,296,160368000000,FL_wheel_link,-0.6788483410333315,14.206901502215542,3.3384676255226124,-0.08433852737256614,0.006240028204032297,0.012350543102108587
160369000000,297,160369000000,FL_wheel_link,-2.274094084208503,16.16122350628092,0.7008295725325189,0.04320397741627999,-0.017188324606831812,-0.12534245970315447
160370000000,298,160370000000,FL_wheel_link,-13.148309935767628,-11.36215547405856,7.755217101463813,0.009157537443694698,0.048072674852183125,0.3119781067211676
160371000000,299,160371000000,FL_wheel_link,23.899730995368113,8.427181452456308,3.250633922506377,0.015105466179324602,-0.059161736304068756,-0.4016742094965452
160372000000,300,160372000000,FL_wheel_link,-26.12732583772771,-9.044900306054535,7.440938252995244,0.009028893184600519,0.05875025111185743,0.41637310084262863
160373000000,301,160373000000,FL_wheel_link,26.676789450363405,7.90477760596045,3.265564592313706,0.013032493229238955,-0.059415727518171715,-0.4192201010790932
160374000000,302,160374000000,FL_wheel_link,-26.700153375276717,-9.066139187369654,7.423061259437158,0.004647018788213995,0.05590890891840365,0.42017328022234024
160375000000,303,160375000000,FL_wheel_link,27.120993547618355,7.7840811080156,3.0273775478862524,0.00830080434648495,-0.060299317969262654,-0.4197094313369084
160376000000,304,160376000000,FL_wheel_link,-26.67886186909321,-9.110151460374123,7.034978014468694,0.0012262079146996997,0.05619448654478615,0.4208780987888041
160377000000,305,160377000000,FL_wheel_link,27.154079963087916,7.745144549912663,2.451692242901442,0.005973261377199695,-0.059335940351219946,-0.4195347526167234
160378000000,306,160378000000,FL_wheel_link,-30.860550879729832,19.41802503748984,3.0043545552521818,-0.0870934874157428,0.030727446393817727,0.2517443960429674
160379000000,307,160379000000,FL_wheel_link,3.432541581721627,12.24524261806377,2.7736952834527164,-0.006469479076646826,-0.023053193244795215,-0.1923562528593774
160380000000,308,160380000000,FL_wheel_link,-18.1957664456806,-10.918682752561745,8.436097627262518,0.005154076547553423,0.04793483126672045,0.3516629712932547
160381000000,309,160381000000,FL_wheel_link,25.542950196921574,7.757864358448656,4.013723444920435,0.015408194349017001,-0.06263586790499752,-0.4078801019504979
160382000000,310,160382000000,FL_wheel_link,-26.24543929609534,-9.476417461355434,8.718329515080402,0.010102035857901964,0.06038613496284668,0.41822521421353004
160383000000,311,160383000000,FL_wheel_link,26.81948281859986,7.370123999395114,4.642916010889383,0.016525603150518937,-0.06294818661363108,-0.4183492516735978
160384000000,312,160384000000,FL_wheel_link,-26.58870695517851,-9.543830918511372,9.21022779521823,0.011345935080325513,0.05906157708144164,0.41967433027168305
160385000000,313,160385000000,FL_wheel_link,26.998334224117063,7.246631850106835,4.860088163708783,0.01571902871248648,-0.06145439083207479,-0.41872634712560375
160386000000,314,160386000000,FL_wheel_link,-26.79511572611666,-9.605980442340734,9.117363417018668,0.008167998942640557,0.06081770990632856,0.4199079108753442
160387000000,315,160387000000,FL_wheel_link,26.85872751623517,7.192563232342786,4.254555683166334,0.009811660971208877,-0.05808778098170224,-0.419163369892928
160388000000,316,160388000000,FL_wheel_link,-31.223474336097606,18.952011985043473,4.202081198950119,-0.08596916366631623,0.036297821425908164,0.2506376090091015
160389000000,317,160389000000,FL_wheel_link,4.275728944804995,11.569591452346428,5.399954796696128,-0.030746055790652035,-0.010024433868184869,-0.14032501574439277
160390000000,318,160390000000,FL_wheel_link,-11.055168681174676,-13.159108322052669,11.663139642258344,0.015756403839318898,0.04177158200563471,0.28795166491041524
160391000000,319,160391000000,FL_wheel_link,24.018879506200577,7.156517053771655,6.275549221405636,0.02718650205283185,-0.05972355284421027,-0.39844693018900135
160392000000,320,160392000000,FL_wheel_link,-26.426742546066688,-10.228343131029805,10.818881066121374,0.024072949922144888,0.06221174828621609,0.41523641274918843
160393000000,321,160393000000,FL_wheel_link,26.85598647157288,6.629164138907074,6.249434979612545,0.029430792308523794,-0.06119852578226961,-0.41880415978916413
160394000000,322,160394000000,FL_wheel_link,-27.101680741180513,-10.035977349277784,9.806374914333746,0.01877604269228664,0.062223439299102616,0.4190806259132391
160395000000,323,160395000000,FL_wheel_link,27.003466434873854,6.913743035007113,3.5841197360189474,0.015617797163511951,-0.06057178555940179,-0.4196281325143622
160396000000,324,160396000000,FL_wheel_link,-27.208577796195474,-9.474639541206683,5.896300155828129,-0.0020453394930980235,0.06111883552128277,0.41916963853689876
160397000000,325,160397000000,FL_wheel_link,27.103065482498092,7.55106205564023,-0.6546236077886811,-0.007394324365682151,-0.06291504352069487,-0.41928660066758605
160398000000,326,160398000000,FL_wheel_link,-26.978320549446053,-8.868009526137865,3.1001680113237375,-0.022702415768183097,0.05829173778316932,0.4195021731298907
160399000000,327,160399000000,FL_wheel_link,27.436617768911642,7.810092921149284,-1.5432771958019833,-0.01875954818539581,-0.062136069569399904,-0.41718871917943906
160400000000,328,160400000000,FL_wheel_link,-26.81346934629885,-8.586441146631865,3.4660022762789446,-0.024205157631997657,0.06125088439485709,0.41897928205294965
160401000000,329,160401000000,FL_wheel_link,27.27337276079621,8.354739033097394,-0.5975295565947448,-0.016212551652630396,-0.06485675383170793,-0.4186076885182723
160402000000,330,160402000000,FL_wheel_link,-26.86914826823442,-8.028396777380992,5.652192007061866,-0.01749222013143793,0.0656384466134622,0.4184827242952564
160403000000,331,160403000000,FL_wheel_link,26.820955487697123,9.152931883273178,2.4958583184450274,-0.006265481466912743,-0.0636048525714116,-0.4193140279929041
160404000000,332,160404000000,FL_wheel_link,-27.262153671033943,-7.233289797901105,8.895826102385337,-0.0050731144772143645,0.06748609108197927,0.41799099192283506
160405000000,333,160405000000,FL_wheel_link,26.60190259712207,9.674050611449186,5.254463229255238,0.006753448044597212,-0.06493608833685023,-0.4187758629858355
160406000000,334,160406000000,FL_wheel_link,-27.120501170046037,-7.128728824701981,10.123173005560469,0.005768780667194899,0.06444251180376778,0.418737974474859
160407000000,335,160407000000,FL_wheel_link,27.07619602562,9.468741137500524,5.2297730129588045,0.014072058001197325,-0.0671027463764411,-0.4179899753349249
160408000000,336,160408000000,FL_wheel_link,-26.854992811664715,-7.363856505555621,10.151851459318493,0.009907839629422453,0.06710672561208635,0.4180315267664529
160409000000,337,160409000000,FL_wheel_link,26.873149947209512,9.240107487741392,5.337340189184928,0.016657319184600436,-0.06794505526117071,-0.41756193037674216
160410000000,338,160410000000,FL_wheel_link,-26.843592921148574,-7.595326166758425,10.234764872010324,0.011605368399258518,0.06890848894228062,0.4173612012152945
160411000000,339,160411000000,FL_wheel_link,26.693934544896916,8.994043797456033,5.341195804267066,0.016454663902952,-0.06759347478606506,-0.4175342062377172
160412000000,340,160412000000,FL_wheel_link,-31.01162263510992,20.504897619689928,5.147740420985833,-0.07774090697469316,0.04071254134533749,0.24919003897787467
160413000000,341,160413000000,FL_wheel_link,4.256890222388129,13.574849481394839,6.06820416172812,-0.023513919300729873,-0.015668209361065773,-0.13566304837919102
160414000000,342,160414000000,FL_wheel_link,-10.088786675736873,-11.11765796491665,8.741949627308976,0.015664450282553068,0.038338782320433015,0.28457248094077725
160415000000,343,160415000000,FL_wheel_link,24.685735186798357,9.797662436715484,2.552716636339634,0.021292522762870046,-0.06784589856394972,-0.3935328924796231
160416000000,344,160416000000,FL_wheel_link,-25.91939157809154,-7.480505628176272,7.775228296996078,0.01704876270180616,0.06481500790629843,0.41521406199744265
160417000000,345,160417000000,FL_wheel_link,27.566732814622387,9.258298242927447,2.7398634094424104,0.02270667883820094,-0.07310399639344548,-0.4153787889749239
160418000000,346,160418000000,FL_wheel_link,-26.345782837665666,-7.465625871979718,7.789529294486783,0.015685761763986287,0.06837376948992342,0.4179310888728701
160419000000,347,160419000000,FL_wheel_link,27.31861694114172,9.126818036555829,2.823075912339759,0.0182412349620674,-0.0707058040438541,-0.41714063424615405
160420000000,348,160420000000,FL_wheel_link,-26.922427255706214,-7.634816517807958,7.8358509663497955,0.00883268514453966,0.07172982497097576,0.41648377317404844
160421000000,349,160421000000,FL_wheel_link,26.646025559841487,8.881458474501144,2.6555109984387415,0.009620221638636704,-0.06431714950537387,-0.419132183235161
160422000000,350,160422000000,FL_wheel_link,-28.06035628269186,-7.933786031297846,7.433017460059505,-0.0003713838306214059,0.07773995696769263,0.41444795586558925
160423000000,351,160423000000,FL_wheel_link,25.68056151694646,8.559027095620406,2.050453796566127,0.0018790535967474454,-0.06250178906279165,-0.4200653869849127
160424000000,352,160424000000,FL_wheel_link,-28.528849047234196,-8.218373420814892,6.6695000551850745,-0.006972226508257564,0.0760998960937808,0.4146921377191173
160425000000,353,160425000000,FL_wheel_link,25.904946536850026,8.272227373978309,1.2428822176773906,-0.003082676869458316,-0.06785708559485795,-0.4184989177556546
160426000000,354,160426000000,FL_wheel_link,-27.85252079246133,-8.476216028351086,6.039219368309493,-0.011239936037809362,0.0735999223998301,0.41599724227783463
160427000000,355,160427000000,FL_wheel_link,26.53540386910998,8.0742300993065,0.9864318433926458,-0.005341439817021232,-0.07330006185971569,-0.4167769221481649
160428000000,356,160428000000,FL_wheel_link,-27.124083129066324,-8.586280974992166,6.137914767006668,-0.009653116099541678,0.07276002863854499,0.4165594738709831
160429000000,357,160429000000,FL_wheel_link,26.843940878409185,7.999992811916386,1.1455468519628416,-0.003615066296083539,-0.07294977695442759,-0.41649215461898154
160430000000,358,160430000000,FL_wheel_link,-27.119499419643212,-8.59146509493306,6.395580723728927,-0.008200538218012208,0.07263191044591645,0.41667187126657224
160431000000,359,160431000000,FL_wheel_link,26.95017860569296,8.011456147604676,1.3539412700459967,-0.001610839988003859,-0.07386082749778995,-0.41601126354632123
160432000000,360,160432000000,FL_wheel_link,-26.912387008036184,-8.408076344765265,5.431367582938197,-0.008765628823979745,0.07039779113733045,0.4166090491018952
160433000000,361,160433000000,FL_wheel_link,27.162710860760587,8.101542107854815,1.37798835745267,-0.00010177128028552982,-0.0719559531728939,-0.4157227312225445
160434000000,362,160434000000,FL_wheel_link,-27.06415741183355,-8.341393050771746,6.0224961166214275,-0.00626674472729316,0.0701670222726616,0.41674017443565714
160435000000,363,160435000000,FL_wheel_link,27.25166959000242,8.24283017618881,1.0211082331157173,0.00025261010844016105,-0.07368090397653719,-0.4158521707576851
160436000000,364,160436000000,FL_wheel_link,-27.020187139138663,-8.318226920843925,6.654508311660132,-0.004579752847659753,0.0740107382559524,0.4161598579503296
160437000000,365,160437000000,FL_wheel_link,26.921251286445866,8.251040980255679,1.7409029581994,0.00195959377339859,-0.07547906312575887,-0.4154187710278498
160438000000,366,160438000000,FL_wheel_link,-26.93640261357809,-8.338667797918237,7.258198595788801,-0.002850186774113865,0.07656051624854807,0.41520497192281286
