%time,field.header.seq,field.header.stamp,field.header.frame_id,field.wrench.force.x,field.wrench.force.y,field.wrench.force.z,field.wrench.torque.x,field.wrench.torque.y,field.wrench.torque.z
160077000000,0,160072000000,BL_wheel_link,-22.92907619971905,20.852687704610652,6.9085582271109205,0.002962273823734438,0.024127249542414228,-0.4226923525891811
160077000000,1,160073000000,BL_wheel_link,22.928074050885822,-21.001358070796183,6.9990235716725575,-0.0027582565843587573,-0.025422603563508558,0.4226749107309265
160077000000,2,160074000000,BL_wheel_link,-22.764008675161303,20.840352578851476,7.07931044228399,0.002491618615944087,0.026523802388355007,-0.42266759326632963
160077000000,3,160075000000,BL_wheel_link,22.697793342636796,-21.01170612966161,7.2379673866986325,-0.0031415772932088895,-0.02704824693242646,0.4226769277290693
160077000000,4,160076000000,BL_wheel_link,-22.649409590025023,20.833734593444227,7.261986990223363,0.0023415901016110405,0.028299244962604865,-0.4226756709264744
160077000000,5,160077000000,BL_wheel_link,22.535908668352853,-21.010974764280355,7.354747886245133,-0.0030526578225384643,-0.028728002513233597,0.422678011101564
160078000000,6,160078000000,BL_wheel_link,-22.503987127369868,20.837438535039528,7.251157887742739,0.0025659874426703267,0.02965680673893016,-0.42268329738928534
160079000000,7,160079000000,BL_wheel_link,22.427693752669885,-21.00214303710409,7.292007192455997,-0.0026845130518943724,-0.030107430340508324,0.4226839530578024
160080000000,8,160080000000,BL_wheel_link,-22.36718144695739,20.848694898021524,7.083231803225224,0.003040829176240198,0.030160918907463335,-0.4226965720947616
160081000000,9,160081000000,BL_wheel_link,22.409727908478175,-20.992304538752652,7.153274804412376,-0.0023195967156426855,-0.030726643191845267,0.42269581906727477
160082000000,10,160082000000,BL_wheel_link,-22.300498369035576,20.852004322841346,6.932982456021458,0.003108367939577231,0.030440948648837455,-0.42269982347938273
160083000000,11,160083000000,BL_wheel_link,22.38931647775028,-20.993545305388043,7.079019026225125,-0.0024447902047692667,-0.03064946134111709,0.4227039317649674
160084000000,12,160084000000,BL_wheel_link,-22.318492069141996,20.84430932974299,6.902711491415481,0.0027060528918097233,0.030584670494073474,-0.4227009135384638
160085000000,13,160085000000,BL_wheel_link,22.36251001343995,-21.00268057125869,7.097233741149209,-0.0028813239896428805,-0.030403163799087342,0.4227056069890331
160086000000,14,160086000000,BL_wheel_link,-22.356709098809755,20.835794597875555,6.955074880675201,0.0023243068805907626,0.03064156323812292,-0.4227010915542977
160087000000,15,160087000000,BL_wheel_link,22.3462726951716,-21.007417503036407,7.149965065312019,-0.00306884072584478,-0.030399366973264504,0.4227019393168616
160088000000,16,160088000000,BL_wheel_link,-22.360620735078612,20.83666237112125,7.012215552426603,0.0024141332161849755,0.030647721455747064,-0.42270162371474296
160089000000,17,160089000000,BL_wheel_link,22.349547922477246,-21.00255488242367,7.191129888491674,-0.002797325642251769,-0.030660497397426784,0.422698532573324
160090000000,18,160090000000,BL_wheel_link,-22.328417286061097,20.844948507019637,7.05098676934286,0.0028532436822597865,0.030731725998826936,-0.42270151212874657
160091000000,19,160091000000,BL_wheel_link,22.352905015052787,-20.99525902973438,7.225284830026551,-0.0024253425550508903,-0.030984875619927854,0.422698635014128
160092000000,20,160092000000,BL_wheel_link,-22.292391220129193,20.849939266419817,7.087534696471559,0.0031225536044669137,0.031000363578176586,-0.4227020010047217
160093000000,21,160093000000,BL_wheel_link,22.33348661815292,-20.99542307998167,7.2604702147377145,-0.0024296347097762954,-0.0312690569732659,0.42270228963236733
160094000000,22,160094000000,BL_wheel_link,-22.268421952444573,20.84492611202338,7.110816013534094,0.0028886907647228013,0.031336711272261585,-0.4227011603986909
160095000000,23,160095000000,BL_wheel_link,22.302250088532045,-21.00195993745831,7.240651849702125,-0.002774019474581985,-0.031526459087881674,0.42270241044830437
160096000000,24,160096000000,BL_wheel_link,-22.249940354120664,20.835887455466366,7.082966686036211,0.0024314361701866663,0.031650959629532974,-0.4226999152415908
160097000000,25,160097000000,BL_wheel_link,22.26956678916216,-21.00786517416272,7.194464571401903,-0.003090225170148709,-0.031643980165294364,0.4227023470728518
160098000000,26,160098000000,BL_wheel_link,-22.24105804293729,20.832791467724658,6.992329520978114,0.0022331880328574634,0.03155787248513629,-0.42270387380345004
160099000000,27,160099000000,BL_wheel_link,22.27894722176846,-21.00340490688874,7.105781935618764,-0.002915792243039562,-0.03142544393441281,0.4227051855565348
160100000000,28,160100000000,BL_wheel_link,-22.259222488674357,20.84074045874348,6.901290433222658,0.002569792864093491,0.031201961195341653,-0.4227071333189922
160101000000,29,160101000000,BL_wheel_link,22.319728422932478,-20.988340008127548,7.068271456604621,-0.0021936571883859122,-0.031443368225828834,0.4227021542436104
160102000000,30,160102000000,BL_wheel_link,-22.256611153643284,20.84548797229091,6.914282639054503,0.0028053454399392707,0.031665242097039886,-0.42269872912928563
160103000000,31,160103000000,BL_wheel_link,22.236578806158676,-21.00209853463289,7.078564387645986,-0.0028598609533296844,-0.030171744647803155,0.4227168320546837
160104000000,32,160104000000,BL_wheel_link,-22.400010216249946,20.85169024952755,6.9739700909500755,0.0031329128053387317,0.02988443291700865,-0.4227216943154249
160105000000,33,160105000000,BL_wheel_link,22.412514991858917,-21.001091093042607,7.103276670342338,-0.0027789255804034417,-0.02944909062640737,0.42270929231802745
160106000000,34,160106000000,BL_wheel_link,-22.43148227143862,20.85471128233557,7.052458255555885,0.0032959987032946483,0.02901513703829347,-0.42271097126678125
160107000000,35,160107000000,BL_wheel_link,22.510516837175302,-21.005668528215736,7.165320027402107,-0.0029632843189381698,-0.02930097196492476,0.4227023374652556
160108000000,36,160108000000,BL_wheel_link,-22.424875259392707,20.850119603535905,7.138102077525823,0.0031098597211761453,0.028918915893721826,-0.42270127599641844
160109000000,37,160109000000,BL_wheel_link,22.524269439754878,-21.013133899083257,7.2148935152285425,-0.0032996489243307062,-0.02933511910620769,0.42269993872949896
160110000000,38,160110000000,BL_wheel_link,-22.421257114504275,20.844003475669595,7.152215084433157,0.0028208822810309353,0.029116495528048122,-0.42269631472555014
160111000000,39,160111000000,BL_wheel_link,22.497949435064804,-21.01531312420271,7.179600887809325,-0.003420354416310005,-0.029232487385075133,0.42269975372101487
160112000000,40,160112000000,BL_wheel_link,-22.419839788491885,20.840770751204445,6.9735196647561635,0.0025485853611360875,0.02808586517995171,-0.4227065812744389
160113000000,41,160113000000,BL_wheel_link,22.589515960472436,-21.007775473156894,7.083248371331086,-0.0030808780860028385,-0.027332690075123685,0.4227142178389991
160114000000,42,160114000000,BL_wheel_link,-22.606900512685556,20.847530712487146,6.909722338648252,0.0028126336715853816,0.026591868551334837,-0.4227085453023812
160115000000,43,160115000000,BL_wheel_link,22.695238649937057,-20.996713028445743,7.007403210101995,-0.00254487540683421,-0.025453213274842467,0.42271238447651377
160116000000,44,160116000000,BL_wheel_link,-22.79028996040088,20.85721125294312,6.905542885115643,0.003246258951990448,0.025230370700770523,-0.4227081741198224
160117000000,45,160117000000,BL_wheel_link,22.797812192001366,-20.992261155630374,7.010551915760243,-0.0023037439298725154,-0.02420004771945334,0.42270731177923976
160118000000,46,160118000000,BL_wheel_link,-22.92587773421618,20.845743933228757,6.951420438708261,0.002675956415699256,0.025356648562419534,-0.42269089460920956
160119000000,47,160119000000,BL_wheel_link,22.765857236688106,-20.997304838883665,7.057721896945908,-0.0025109550025011343,-0.0249946447986731,0.42268184126705155
160120000000,48,160120000000,BL_wheel_link,-22.83098181373684,20.845323167113758,6.998769646252364,0.002684003767885116,0.025295128954395726,-0.422690581680325
160121000000,49,160121000000,BL_wheel_link,22.81691840637907,-21.00268945306812,7.117768050229113,-0.00275846311902202,-0.026053534165134534,0.4226781060515866
160122000000,50,160122000000,BL_wheel_link,-22.69743042600282,20.843143067258094,7.063273413499362,0.002628753392873238,0.02585282735291437,-0.42268428281181175
160123000000,51,160123000000,BL_wheel_link,22.797201781467752,-21.007123188708725,7.188016858342797,-0.002953251605039502,-0.027019836629627585,0.42268016280923887
160124000000,52,160124000000,BL_wheel_link,-22.599953393571088,20.840966189065682,7.103911197658164,0.0025711327138291,0.026792362161481172,-0.42268000689903285
160125000000,53,160125000000,BL_wheel_link,22.712022219380742,-21.00649925826133,7.207468751764801,-0.0029208244182305112,-0.02753268665086917,0.4226852547598894
160126000000,54,160126000000,BL_wheel_link,-22.56986223044151,20.841741198598452,7.057616168733706,0.00260516875582422,0.027491357464046958,-0.4226845279041195
160127000000,55,160127000000,BL_wheel_link,22.633597144266286,-21.002290470740874,7.138597220978698,-0.002761961611147927,-0.027618784667959303,0.4226919746705492
160128000000,56,160128000000,BL_wheel_link,-22.58283646617884,20.845465023608426,6.930929664090327,0.002719704651457003,0.027736212212950802,-0.4226906882099957
160129000000,57,160129000000,BL_wheel_link,22.605151289056256,-21.00197982577373,7.036628589734434,-0.0028143908805628158,-0.02785570158803559,0.4226908377390984
160130000000,58,160130000000,BL_wheel_link,-22.56991227930956,20.899493493409366,6.896252152750275,-0.05674926361615946,0.028179940678394914,-0.42269169961676273
160131000000,59,160131000000,BL_wheel_link,22.513166331043237,-21.00298203399698,7.43496612123711,-0.06305463756076059,-0.02657942371617343,0.4226717787518798
160132000000,60,160132000000,BL_wheel_link,-22.69405194872668,20.71415995807104,7.977831547375246,-0.060399477016901494,0.027769730279605765,-0.42263120065842813
160133000000,61,160133000000,BL_wheel_link,22.483915926060405,-21.275080758755948,8.984035981111475,-0.06740846543589021,-0.02746217893429184,0.422541982530164
160134000000,62,160134000000,BL_wheel_link,-22.43227828614891,20.401730339083965,9.611347197511375,-0.040894953979952464,0.02507247810811539,-0.42259391738172736
160135000000,63,160135000000,BL_wheel_link,22.822353926438,-21.651770988464616,10.520964508131174,-0.0055045957741978,-0.030201705100525805,0.4223816206892752
160136000000,64,160136000000,BL_wheel_link,-21.86986484377309,20.07096447424209,9.75059856210481,0.003946008567472138,0.027987074698449316,-0.42235600150018876
160137000000,65,160137000000,BL_wheel_link,22.372631648538857,-21.87357512856081,9.798822283480165,-0.0007443466680447155,-0.0297724805333021,0.4224420614820583
160138000000,66,160138000000,BL_wheel_link,-21.90982357337181,19.87016659037542,8.19916348409164,0.005500460331217045,0.03117598107489795,-0.42229498116415914
160139000000,67,160139000000,BL_wheel_link,21.711361757398805,-21.913501909790785,8.497165631761693,0.0003891383213107087,-0.02750803028057918,0.4229555413887501
160140000000,68,160140000000,BL_wheel_link,-22.30719345509845,19.813317901062412,7.1293171803925,0.006059750458333973,0.03172341324438978,-0.4226193136072338
160141000000,69,160141000000,BL_wheel_link,21.384342926832023,-22.094157239356278,7.85564576117541,-0.001082057921389403,-0.02740251553975998,0.42247132372430024
160142000000,70,160142000000,BL_wheel_link,-22.229337068829743,19.658481729083164,6.298226113270475,0.0036012116331474607,0.030771292215562976,-0.42245692764207643
160143000000,71,160143000000,BL_wheel_link,21.43028623880201,-22.201177141194623,7.07691890708551,-0.0029770317025155564,-0.02869718358633302,0.4220538001991837
160144000000,72,160144000000,BL_wheel_link,-21.88464310950941,19.574654940556513,5.476726288431725,0.002081969416112947,0.02982567232817368,-0.42214498797558897
160145000000,73,160145000000,BL_wheel_link,21.52860290692467,-22.272276147255454,6.491856613186804,-0.003990252964109822,-0.028623529821780683,0.4220154070377831
160146000000,74,160146000000,BL_wheel_link,-21.73258075941781,19.51649890275128,4.936436187211934,0.0019663508685942317,0.028173589591435354,-0.4221024546151736
160147000000,75,160147000000,BL_wheel_link,21.678208861438048,-22.337369170147305,6.194981555480395,-0.0036857999945793477,-0.02830031209883697,0.4219221654393098
160148000000,76,160148000000,BL_wheel_link,-21.573967186642562,19.402107783139318,4.793020829270096,0.0019320024313662122,0.026862192803307577,-0.4222437169562099
160149000000,77,160149000000,BL_wheel_link,21.895300382348882,-21.78682886696855,6.12795859939236,-0.005155141130112965,-0.027266792403750923,0.4225737990013527
160150000000,78,160150000000,BL_wheel_link,-21.700671668399952,19.957211597765074,4.898021058151034,0.0002035563802653211,0.024124559399003057,-0.4231040797330799
160151000000,79,160151000000,BL_wheel_link,22.217917440623864,-21.98376577553109,6.615379539630558,-0.005553022565154254,-0.026169236571107254,0.42310878821109854
160152000000,80,160152000000,BL_wheel_link,-21.62585062662136,19.743130896937053,5.496717699779635,0.0007582783709715221,0.02327239065284691,-0.4230930775401656
160153000000,81,160153000000,BL_wheel_link,22.225515246299015,-22.209840938706833,7.420269053217274,-0.005008621439882445,-0.026525862637506895,0.4230526687958271
160154000000,82,160154000000,BL_wheel_link,-21.418575426829165,19.50906677320337,6.278405133089067,0.002075947552735761,0.023356641582183185,-0.4230187988750936
160155000000,83,160155000000,BL_wheel_link,22.125640892466667,-22.43831089257708,8.393879431952856,-0.0026652377742053452,-0.026639065799207738,0.42308561101402437
160156000000,84,160156000000,BL_wheel_link,-21.297106728855866,19.257523237560612,7.106125857763464,0.004267562959230988,0.024994161420394116,-0.4229043822804976
160157000000,85,160157000000,BL_wheel_link,21.87628503168755,-22.44201937614696,8.155147496388343,0.0017411442118733052,-0.030652002965526337,0.4228936184469548
160158000000,86,160158000000,BL_wheel_link,-20.78184925049895,18.98488480513815,7.773475010040258,0.006224219386853187,0.03235510100950103,-0.42250819646937765
160159000000,87,160159000000,BL_wheel_link,20.870818565002654,-22.674577296204372,9.048381311387505,0.002835138792689218,-0.0344903958884148,0.4228440877363671
160160000000,88,160160000000,BL_wheel_link,-20.430262253378057,18.986272466641147,6.875881567063604,0.007905007972011898,0.034330386148598305,-0.42300603777349177
160161000000,89,160161000000,BL_wheel_link,20.533691792783234,-22.969394548399507,9.720440062398145,0.0011097574584330555,-0.033397027301404,0.4233608908980464
160162000000,90,160162000000,BL_wheel_link,-20.578831999844738,18.672573453408702,7.1780183329035125,0.004578983124832851,0.03633023693426952,-0.42274911856180153
160163000000,91,160163000000,BL_wheel_link,21.809636127669187,1.9092137663270525,8.3635500532721,-0.04322733703375741,-0.0345637112285637,0.3418410100352248
160164000000,92,160164000000,BL_wheel_link,-9.712825058489148,20.745475889528954,6.844432839371759,0.006386989205191368,0.03813693569748116,-0.32835682493943935
160165000000,93,160165000000,BL_wheel_link,18.2856647185951,-23.44069824832851,8.68565918112195,-0.0009464397081357165,-0.031136100711876814,0.40690642661153825
160166000000,94,160166000000,BL_wheel_link,-20.69637699035254,18.8447392134881,5.836120740319332,0.010244274705634557,0.034799617342270585,-0.42017135085944607
160167000000,95,160167000000,BL_wheel_link,20.00573178429812,-22.8858326547391,7.767212227211676,0.001712925212142651,-0.031741621520544716,0.42221226864094213
160168000000,96,160168000000,BL_wheel_link,-20.742714926738632,18.904794831273588,4.908487217166516,0.010804015245091917,0.03272136642376194,-0.4230294417109361
160169000000,97,160169000000,BL_wheel_link,20.30616482408472,-22.885735687061924,7.305735882984149,0.0008501781043563488,-0.0313480807326344,0.422771980256416
160170000000,98,160170000000,BL_wheel_link,-22.59227278887343,18.65268118824395,3.0483628039358295,-0.03537569663711971,0.0314528880794302,-0.33300324901371314
160171000000,99,160171000000,BL_wheel_link,12.40158438103791,27.882287903350004,2.275894379242987,-0.07683827171103758,-0.034762788582134295,0.1472633262341982
160172000000,100,160172000000,BL_wheel_link,0.4999485802729609,-27.420800277037575,5.578421000334067,0.11044707158669557,0.0276433477123246,-0.03700210257677404
160173000000,101,160173000000,BL_wheel_link,-1.018765683066852,25.626157848043498,0.5660811452772982,-0.06965843173248325,-0.025139376996471365,0.018879628275228256
160174000000,102,160174000000,BL_wheel_link,1.4450252866900835,25.541174505296187,-1.5166261970309565,-0.06514117702046197,0.014436213671116799,-0.004339904916523426
160175000000,103,160175000000,BL_wheel_link,-1.3716494528092387,-26.107574032906367,5.321103890173747,0.11530989369270174,-0.01217410939587473,-0.009604862506896386
160176000000,104,160176000000,BL_wheel_link,1.9838601568471488,26.190036053722952,-1.7231780504601686,-0.06073533933316819,0.006620985850882667,0.012663919149051973
160177000000,105,160177000000,BL_wheel_link,-1.1096666241001718,-26.30695982311097,5.588969280098296,0.11498121427982771,-0.006114976983553671,-0.012886749487326576
160178000000,106,160178000000,BL_wheel_link,1.4224962615091912,25.762990834758764,-0.8543423471262374,-0.06454429564119298,0.004423158974167251,0.013450644512460846
160179000000,107,160179000000,BL_wheel_link,-1.048073598089527,-26.964976103267933,7.017613669845343,0.1116484016390477,-0.004531321891963241,-0.013513130752880253
160180000000,108,160180000000,BL_wheel_link,1.3305652949614766,25.406114211471554,-0.6290055123316208,-0.07472893772540329,0.001461070122307797,0.013129280770338226
160181000000,109,160181000000,BL_wheel_link,-0.9318181112262041,25.112928655622376,-0.49921441564622426,-0.07166032135178417,-0.0010722207856080834,-0.0019153344328452621
160182000000,110,160182000000,BL_wheel_link,-0.24417857858367906,-26.942873637223144,6.989714943485883,0.10976361214553389,-0.0017863518635250176,-0.011338638543625396
160183000000,111,160183000000,BL_wheel_link,1.1190524076622461,25.49614340448574,-0.5199936489217257,-0.06832590514788675,0.001419147744131387,0.013358084006506465
160184000000,112,160184000000,BL_wheel_link,-0.6916482182245566,-27.048340411137993,7.097882206675761,0.10896859949532779,-0.0023552829774452335,-0.013761894915628957
160185000000,113,160185000000,BL_wheel_link,1.1384986344345331,25.315162794720262,-0.3070889269175689,-0.07708064118156285,0.0046659519204291485,0.013946003280578444
160186000000,114,160186000000,BL_wheel_link,-1.2460684240679638,-27.210579383970188,7.97671618813122,0.10008317191839768,0.001230878041380389,-0.013570312010848436
160187000000,115,160187000000,BL_wheel_link,0.34308178742828205,25.056716535616037,2.1528699649884726,-0.09133900822036985,0.009823179385654893,0.01320369917251484
160188000000,116,160188000000,BL_wheel_link,-2.122297590323882,-27.474289596873202,10.682361148894092,0.08420023769336513,0.0018551064650233757,-0.013971801892082017
160189000000,117,160189000000,BL_wheel_link,0.20503528951241623,24.841109825514188,4.224510802583272,-0.10300829436253874,0.002263581012028355,0.012981948309702555
160190000000,118,160190000000,BL_wheel_link,-1.0250886842054845,-27.59567370869877,12.007574601176541,0.07650417574411884,0.0005712978265886894,-0.013802600010598238
160191000000,119,160191000000,BL_wheel_link,0.855155243835589,24.790436884348097,4.3786328262405085,-0.10447374788244639,-0.00607593990294896,0.013482801678500252
160192000000,120,160192000000,BL_wheel_link,0.2718276950904045,-27.53762790849094,12.03852636651799,0.07881936132938124,0.0016168932792971031,-0.013572506145256345
160193000000,121,160193000000,BL_wheel_link,1.1147303286234365,24.946155277475793,4.545711356243451,-0.09794383080851382,-0.008783520444525638,0.014037807626275892
160194000000,122,160194000000,BL_wheel_link,0.6314769706837841,-27.59134838596614,12.045628283192027,0.08233526265758663,0.004071389729313324,-0.013580325086650922
160195000000,123,160195000000,BL_wheel_link,0.8271936112724816,24.78560747008264,4.621321899480967,-0.09383289747469226,-0.007309969553218252,0.014154061741269692
160196000000,124,160196000000,BL_wheel_link,0.3313154642915397,-27.698566110015886,11.990348525121448,0.08830476580055287,0.004111059721345222,-0.013748176478726852
160197000000,125,160197000000,BL_wheel_link,0.6988841536316021,24.638161798023088,4.70759248672187,-0.08900706159196874,-0.00523789418642904,0.014070788078981157
160198000000,126,160198000000,BL_wheel_link,-0.00016186828624161279,-27.800920625324736,11.96754974189405,0.09273363898614849,0.004154164668453456,-0.013668024226854696
160199000000,127,160199000000,BL_wheel_link,0.5276857721145014,24.44500827661323,4.624411269536387,-0.08701065820705746,-0.0027298282912325035,0.013841069399891243
160200000000,128,160200000000,BL_wheel_link,-0.6700898702765556,24.27212638938198,3.4878605061047274,-0.07884140875587566,0.005242530913318593,-0.0023776783836432984
160201000000,129,160201000000,BL_wheel_link,-1.0407963246328507,-26.652193056056728,8.168034147020496,0.1128794098468755,-0.0022639824760858187,-0.010302928507831825
160202000000,130,160202000000,BL_wheel_link,0.7801445027509121,25.763486388787797,-0.4663833268533228,-0.061312808638964544,0.004483432504637049,0.012305662571369842
160203000000,131,160203000000,BL_wheel_link,-1.0571383466340536,-25.968595060210237,6.202417311470811,0.11865125435509007,-0.008048364447988158,-0.01257042461976595
160204000000,132,160204000000,BL_wheel_link,1.6113947988489412,25.84357904406545,-1.800618280563351,-0.06587984899528578,0.0052675040774624255,0.013870580186283137
160205000000,133,160205000000,BL_wheel_link,-1.179792320924056,-26.508026701376625,6.976513907152588,0.11268783968854759,-0.004523207663237275,-0.014547289655429022
160206000000,134,160206000000,BL_wheel_link,1.2850289903311398,25.079182946609823,-0.12500690236394682,-0.07936486001121996,0.004778613677023377,0.01342985915455691
160207000000,135,160207000000,BL_wheel_link,-1.3411252157252616,24.72598387757131,0.11298795552167945,-0.07832137678942586,-0.002626806611786492,-0.0023854932559913278
160208000000,136,160208000000,BL_wheel_link,-0.09958463003936609,-26.872646315929085,7.830558021675867,0.10844350869040387,-0.0005916839171597637,-0.01104487741534928
160209000000,137,160209000000,BL_wheel_link,1.042618193254296,25.21245052011248,-0.3401561620550302,-0.07088438262858972,-0.0013446161660983836,0.012857797353675659
160210000000,138,160210000000,BL_wheel_link,-0.21799961792654646,-27.107700954219606,8.2036784588282,0.10679538256646094,-0.0017361595114941987,-0.01353954136377664
160211000000,139,160211000000,BL_wheel_link,1.229328600015777,25.10726062639086,0.20561906865167678,-0.07919739650925485,0.003344487816499302,0.013698573129782883
160212000000,140,160212000000,BL_wheel_link,-0.8821242451177983,-27.157201730837443,9.202766570772004,0.10065121861532093,-0.0009441756287696844,-0.013397431872419978
160213000000,141,160213000000,BL_wheel_link,0.8448074507067178,24.980594908742678,1.6973151442670815,-0.08811790331186732,0.006414829338219992,0.013307193704991747
160214000000,142,160214000000,BL_wheel_link,-1.5659231671882952,-27.255237807209358,11.840996959456948,0.08885960804098872,0.004714284715605582,-0.012131554406479655
160215000000,143,160215000000,BL_wheel_link,-0.2354573913402245,24.77924006303164,4.412358277908176,-0.1008660523414411,0.00039467597492227104,0.011609471243334925
160216000000,144,160216000000,BL_wheel_link,2.7636159066796657,25.2497886266998,7.004579860695027,-0.0008485438972639632,0.00445555735975706,-0.18380346289537133
160217000000,145,160217000000,BL_wheel_link,18.37516804699207,-22.991634046850173,10.38484524394413,-0.005588605978381488,0.010483892596953422,0.38025922535256823
160218000000,146,160218000000,BL_wheel_link,-22.773059588551632,19.992073207659246,6.7896613246298045,0.005175345618527681,-0.006920654454616682,-0.4141950029158293
160219000000,147,160219000000,BL_wheel_link,22.80222023525712,-22.08346719485709,9.796810998091836,-0.004009443489567867,0.004945865258276141,0.4216320605240087
160220000000,148,160220000000,BL_wheel_link,-22.71314512086065,19.70352093053621,5.821460987533043,0.005160755371545607,-0.004505002037596851,-0.4230342684339091
160221000000,149,160221000000,BL_wheel_link,22.876494824216188,-22.122952727832278,9.178495382099085,-0.003396290447181865,-0.0015303776948081636,0.4238148185583967
160222000000,150,160222000000,BL_wheel_link,-21.83584876275197,19.60247851973502,4.979298661889098,0.005455371348409004,-0.0031371141875033994,-0.4234381088045895
160223000000,151,160223000000,BL_wheel_link,22.852806995409995,-22.146933006521923,9.577329028547807,-0.004609165174666468,-0.002446478725110295,0.42410390316509183
160224000000,152,160224000000,BL_wheel_link,-21.640127176134513,19.566191798895257,5.0878689416183205,0.0045439070477075695,-0.0031845146422447594,-0.42350230058300625
160225000000,153,160225000000,BL_wheel_link,22.86720254943897,-22.20735559525223,8.723773018428869,-0.0032026434848828325,-0.0042942751489100095,0.4244438129110048
160226000000,154,160226000000,BL_wheel_link,-21.33871957473963,19.509162128690438,4.3135110688877925,0.0055845772962895435,-0.0020553128547015622,-0.42368879829854195
160227000000,155,160227000000,BL_wheel_link,22.701170986148107,-22.23329670567678,8.631466586464084,-0.0031068175485171323,-0.0037272964405704015,0.42447969169418326
160228000000,156,160228000000,BL_wheel_link,-21.40706389117141,19.47987231562757,4.601617727990302,0.00443922144469306,-0.00025438220326768956,-0.42394790533590115
160229000000,157,160229000000,BL_wheel_link,22.341577057677835,-22.25197759720838,9.257655256936674,-0.004572478970533501,-0.002499034729021635,0.42442241452856394
160230000000,158,160230000000,BL_wheel_link,-21.628651181579446,19.40210041861924,5.179299347591611,0.0034701028552577475,0.0023815977613293733,-0.4243350388457313
160231000000,159,160231000000,BL_wheel_link,21.85821603495023,-22.31016118928885,9.895327167089338,-0.005264365533453788,-0.0017434672770081643,0.42424276837476277
160232000000,160,160232000000,BL_wheel_link,-21.79726885446904,19.325390482284767,5.6833599088346505,0.0036471504329047863,0.004186936273752302,-0.42455031790937864
160233000000,161,160233000000,BL_wheel_link,21.47790063367753,-22.475558442328587,10.67803178242248,-0.005098739463028848,-0.0010758790266962206,0.42438359640620155
160234000000,162,160234000000,BL_wheel_link,-21.925687314282264,19.13387624267841,6.25255591539965,0.004540572358163681,0.005060704241645687,-0.42468333466213365
160235000000,163,160235000000,BL_wheel_link,21.202950205108635,-22.652178759236357,11.219717821544009,-0.004409735126392112,-0.0009544273723776925,0.4242925127484254
160236000000,164,160236000000,BL_wheel_link,-21.933569606038745,18.94471286256232,6.5317436669852995,0.005687141000418024,0.005233031870344405,-0.4247283463768494
160237000000,165,160237000000,BL_wheel_link,21.06646202740726,-22.811146364446806,11.44181474238874,-0.0035517229339901125,-0.0013811751342629073,0.4242399872184825
160238000000,166,160238000000,BL_wheel_link,-23.72184955478247,18.47835982315105,5.207225231031218,-0.03536007325788095,0.009478198478546137,-0.33982665977368626
160239000000,167,160239000000,BL_wheel_link,13.526559466127736,27.457114582702317,3.1845299813482675,-0.08258453801587977,-0.018194854006377593,0.1551310111067339
160240000000,168,160240000000,BL_wheel_link,-0.6779669927863096,-27.72098850872794,9.067657971498988,0.10625352329739005,0.021175654951111917,-0.03930348995888285
160241000000,169,160241000000,BL_wheel_link,-0.8429677076063559,25.148982705522975,-0.40092749654239707,-0.06813632195339953,-0.018871591336996202,0.019610115167886247
160242000000,170,160242000000,BL_wheel_link,0.9093991955371726,25.02648620586805,-2.629301273517507,-0.0652559065000845,0.012442320035972607,-0.004935903171535601
160243000000,171,160243000000,BL_wheel_link,-1.2412665044113822,-25.822208330799448,6.734648173596107,0.1130991021960938,-0.015131455967391152,-0.008743599945631881
160244000000,172,160244000000,BL_wheel_link,2.3934633606120896,25.844837773004336,-3.515381340478931,-0.06264230632494021,0.0072270016706940075,0.012212400146176645
160245000000,173,160245000000,BL_wheel_link,-0.9218620966322078,-25.920479391881344,7.044216543441764,0.1144883770049428,-0.010767736303280668,-0.011885582321165067
160246000000,174,160246000000,BL_wheel_link,2.0380331736442336,25.622918279959638,-2.907182659210411,-0.06264595146169488,0.004728449814316216,0.01305878909705305
160247000000,175,160247000000,BL_wheel_link,-0.8550647229052101,-26.907880119711344,9.093169921003485,0.11153911995881147,-0.005213166805372724,-0.011736339366359795
160248000000,176,160248000000,BL_wheel_link,1.1791169170914668,24.261834466482092,-0.26132407289030585,-0.07060256012038892,0.006433315982430438,0.013225207866100526
160249000000,177,160249000000,BL_wheel_link,-1.7170388900168216,23.934866253693613,0.08907763586476894,-0.06878164054440443,-0.004491423749948169,-0.0025033671666162788
160250000000,178,160250000000,BL_wheel_link,-0.1271058068946178,-27.61439767291352,10.620293368821205,0.10814853404782458,0.0014002862354125178,-0.010864165310801751
160251000000,179,160251000000,BL_wheel_link,0.539302488233265,24.281640783813653,0.0006787832835669935,-0.06824110764449764,-0.0013536067058565586,0.013174519362244674
160252000000,180,160252000000,BL_wheel_link,-0.5505566387618317,-27.715270577603953,10.738085730005654,0.10678118169339598,0.0001103867009026979,-0.01355899449093605
160253000000,181,160253000000,BL_wheel_link,0.647876598181779,24.133030618622648,-0.16831933418365558,-0.07340155004939218,0.002661286590019923,0.013763025060662527
160254000000,182,160254000000,BL_wheel_link,-1.1436532323603625,-27.781952262445788,10.842248765172988,0.10510635366124546,-0.00022606282203498364,-0.014139809811647237
160255000000,183,160255000000,BL_wheel_link,0.5012760555538309,23.971164816416508,0.5981106772666749,-0.0811597075151754,0.005806584448271936,0.013284462133712267
160256000000,184,160256000000,BL_wheel_link,-1.8951339175376603,23.72035374302006,1.2694062613991275,-0.07795239614086592,0.002310725966470255,-0.0028164351177921766
160257000000,185,160257000000,BL_wheel_link,-1.0422888113188176,-27.392767232703175,11.295104163643806,0.10444591989217386,-0.002342641153182615,-0.011629283673389062
160258000000,186,160258000000,BL_wheel_link,0.7757289357633163,24.503447850531735,0.8184651880846554,-0.07287731027211804,0.0059156119014019334,0.012448012437175608
160259000000,187,160259000000,BL_wheel_link,-1.3659323802182737,-27.38150708677302,11.995072645033614,0.10386737309744545,-0.001946476926547788,-0.01334476226217731
160260000000,188,160260000000,BL_wheel_link,0.7300218457636236,24.400502032572618,1.6599876014950274,-0.08013528798779268,0.004077649416926344,0.012714683974022643
160261000000,189,160261000000,BL_wheel_link,-1.1014521830908235,-27.440498330982777,13.095880160684764,0.09823249038646799,-0.0014093485168693877,-0.013310792862459671
160262000000,190,160262000000,BL_wheel_link,0.7846041948630006,24.123629537488732,2.8274734564600283,-0.09056352992487099,0.0006292056839704526,0.013054546505464677
160263000000,191,160263000000,BL_wheel_link,-0.5572184182194942,-27.704711690866684,14.207978024058715,0.0884887254036477,-0.0018014797580744426,-0.013296552203862519
160264000000,192,160264000000,BL_wheel_link,1.1057520594208319,23.943326099757744,2.7973676292049277,-0.09820280113767575,-0.003440259018432679,0.013586779007158895
160265000000,193,160265000000,BL_wheel_link,2.004582505747621,24.072223489823173,4.212233855160033,-0.04558430541399134,-0.007791852971775134,-0.09610944226004706
160266000000,194,160266000000,BL_wheel_link,8.911303508565206,-25.019099445297808,8.87659846417235,-0.0040833977907467475,0.010795791713235435,0.28033974648804183
160267000000,195,160267000000,BL_wheel_link,-19.886522546411513,20.574630005118234,3.0733909451827217,0.013605994632628134,-0.02609172647045052,-0.39764116477830647
160268000000,196,160268000000,BL_wheel_link,24.0483880548747,-21.67677652401697,8.096766408218144,0.007066731301749838,0.020548944337685428,0.4190981459342945
160269000000,197,160269000000,BL_wheel_link,-22.52062374573915,20.04533018014032,2.442353201842266,0.019848557675995818,-0.019806655515848218,-0.4221510910654731
160270000000,198,160270000000,BL_wheel_link,23.372022775031898,-21.456864948320153,7.768447626046984,0.009570512455229323,0.01630672994388322,0.42359728816271
160271000000,199,160271000000,BL_wheel_link,-22.310173149963216,20.063081299739014,2.046419716969702,0.020153052052337382,-0.014692889620830426,-0.42404229335860305
160272000000,200,160272000000,BL_wheel_link,22.73195026627479,-21.552585528277636,8.335890802801675,0.008076815045644826,0.01388256356527701,0.42458195984005376
160273000000,201,160273000000,BL_wheel_link,-22.190452834181954,19.831792341011578,2.584895611107273,0.016192921074996515,-0.009217482597804695,-0.4246418241871423
160274000000,202,160274000000,BL_wheel_link,21.877960146930775,-21.84634718745715,9.421279034567366,0.0019613558981760168,0.011433761577722058,0.4245378660804078
160275000000,203,160275000000,BL_wheel_link,-22.051632434757195,19.820907323391534,3.045901555248096,0.007049904241414797,-0.006508378484970889,-0.42484508597059906
160276000000,204,160276000000,BL_wheel_link,21.518845151835382,-21.275389075097667,9.681607156215687,-0.0066058302476820294,0.007297155318592889,0.4239087783756989
160277000000,205,160277000000,BL_wheel_link,-21.393023236180014,20.121441802570267,2.833856686207133,-0.0003634655203889911,-0.008206579465742948,-0.42416045163658395
160278000000,206,160278000000,BL_wheel_link,21.936195479980142,-21.368258582836376,9.7099627503624,-0.010707848774342965,0.006137069639686963,0.42454533190888805
160279000000,207,160279000000,BL_wheel_link,-21.079050140798106,20.0559861347244,2.806352515775431,-0.003133300499225695,-0.009908364862769624,-0.4234857169974588
160280000000,208,160280000000,BL_wheel_link,22.104196655182488,-21.374493813795834,9.71581637811544,-0.011021384526453562,0.007800853822339673,0.42443717168286205
160281000000,209,160281000000,BL_wheel_link,-21.2607533376483,20.07407829827512,2.817332693730803,-0.0023087978699397175,-0.011000288517647205,-0.4234976883765859
160282000000,210,160282000000,BL_wheel_link,22.058760880035003,-21.26337770351197,9.784922856875747,-0.007444772835767485,0.010200460376445702,0.4244539110792363
160283000000,211,160283000000,BL_wheel_link,-21.538993299144224,20.08660373738363,2.922354390863161,-0.0009450492808110171,-0.014020522000967539,-0.42432219335245897
160284000000,212,160284000000,BL_wheel_link,22.402414399700376,-21.187956773805013,9.876355717042115,-0.005147837936604955,0.011459593234972372,0.4246321387401849
160285000000,213,160285000000,BL_wheel_link,-21.525464182875886,20.137641061872017,2.9613302370147134,0.0014519982017570563,-0.014685399106078361,-0.42464664191016993
160286000000,214,160286000000,BL_wheel_link,22.483992458249052,-21.11887323342667,9.964939623872983,-0.0029272805737462254,0.012621867578094165,0.42482323214420153
160287000000,215,160287000000,BL_wheel_link,-21.557269049017645,20.19416770765546,2.9966696492853866,0.004010888924417397,-0.015157480425084002,-0.42492090462987875
160288000000,216,160288000000,BL_wheel_link,26.324124738244805,30.974878912683483,0.34911429038972897,-0.08500616400634187,-0.0012190376528942593,0.2555218237958462
160289000000,217,160289000000,BL_wheel_link,-2.797190516214874,24.055628319289998,-0.8202639240452952,-0.07844573447518195,0.02541781344522757,-0.04704946873500234
160290000000,218,160290000000,BL_wheel_link,-2.6626447309993932,-25.515805544014416,10.217213075924372,0.10658880934355215,-0.011433194083892534,-0.0006989024139561259
160291000000,219,160291000000,BL_wheel_link,1.0067473877337207,25.487795076771768,-3.2683885764648326,-0.06727296923612208,0.01949218330818437,0.00797604507248637
160292000000,220,160292000000,BL_wheel_link,-2.875222302324892,-25.71324909966611,8.586718165868575,0.11148555446231201,-0.009838239673483877,-0.009707791763314337
160293000000,221,160293000000,BL_wheel_link,1.0451498086125535,25.49626116163615,-4.326113143856397,-0.06428803629069811,0.01032174551948709,0.01028586819249903
160294000000,222,160294000000,BL_wheel_link,-1.0864278621558345,-27.372202493115914,8.697673739413831,0.09741130185874805,-0.011372854830036718,-0.0416355018125474
160295000000,223,160295000000,BL_wheel_link,5.457250375990117,26.143537643729125,-3.8071868332822363,-0.06418310846360892,0.008923088555246164,0.046921248086636065
160296000000,224,160296000000,BL_wheel_link,-1.8741893653100477,24.87488829721337,-3.1644778888757523,-0.06226303841610986,-0.006852777823841087,-0.008625188404481067
160297000000,225,160297000000,BL_wheel_link,0.571892405256986,-25.913775561351798,9.832032629278892,0.11271801199537625,0.0014980400495718399,-0.009873140878987401
160298000000,226,160298000000,BL_wheel_link,0.9040224677575496,25.425729022549703,-2.8121552777953895,-0.06278009434913068,-0.004410005496975614,0.01323804543635116
160299000000,227,160299000000,BL_wheel_link,0.30915471538881084,-26.05783047726168,10.054453981045315,0.11174870688765473,-0.0011653014046138148,-0.013491175921385748
160300000000,228,160300000000,BL_wheel_link,1.361639625558676,25.400374112518108,-2.6803711625058164,-0.06548273582774383,-0.0019707715214826926,0.01398498636817016
160301000000,229,160301000000,BL_wheel_link,-0.16603691111265115,25.089448456134924,-2.361208739240251,-0.06442004178893743,-0.0006121421043308591,-0.0024310839794290853
160302000000,230,160302000000,BL_wheel_link,0.14129185431111513,-25.940137303654137,10.477814712438061,0.11145301105392033,-0.005496231481893435,-0.009556298144072408
160303000000,231,160303000000,BL_wheel_link,1.701007859742703,25.462602218741047,-2.040124072134671,-0.06559663260193659,0.004164348363781783,0.0122589791907632
160304000000,232,160304000000,BL_wheel_link,-0.5727707805187019,-25.888273196739267,11.620562503891056,0.10963122315601583,-0.00593718878063915,-0.012413908280709682
160305000000,233,160305000000,BL_wheel_link,1.557648825569674,25.444986432974392,-0.8441675357298909,-0.07414767590167941,0.010647814883811248,0.012531074163975215
160306000000,234,160306000000,BL_wheel_link,-1.677123562560318,-25.787775067565757,13.394700600868935,0.10370595055053958,-0.00417388760872197,-0.013017300751868811
160307000000,235,160307000000,BL_wheel_link,0.9672127878157789,25.272282046363294,0.1023849427629991,-0.08557584775585612,0.011229880327655822,0.012054183510390145
160308000000,236,160308000000,BL_wheel_link,-2.21324169757086,24.927165527619053,0.52654257043086,-0.08356142359132933,-0.0011713245270820005,-0.002039061263780342
160309000000,237,160309000000,BL_wheel_link,-0.5696561025000085,-25.885947429074708,13.474955882701945,0.10245017469046495,0.0023247058468234506,-0.012462508460383305
160310000000,238,160310000000,BL_wheel_link,0.45487561938397075,25.346849163298344,0.6374238706530189,-0.07559508875279515,0.0031219999162397046,0.01284172725093184
160311000000,239,160311000000,BL_wheel_link,-0.6355685459506232,-26.25125684259336,14.130128518093457,0.09662855623079819,-0.008331047726459366,-0.015393101204303525
160312000000,240,160312000000,BL_wheel_link,2.376111874720062,24.93846606104634,0.47656955242260346,-0.0839203147880686,0.004083635453808496,0.01382150337491579
160313000000,241,160313000000,BL_wheel_link,-0.2363742155136102,-26.196010908356815,14.090408355061907,0.09661517648044593,-0.0036955373625422302,-0.011853382712729562
160314000000,242,160314000000,BL_wheel_link,1.5499402664608528,25.37943448615325,0.16702023233365823,-0.08517021634945175,0.0031556730061610655,0.01308693265908821
160315000000,243,160315000000,BL_wheel_link,-0.36768597603684133,-25.79565544365641,14.132123799682976,0.09363708725247372,-0.0045820723719672204,-0.013264568096130339
160316000000,244,160316000000,BL_wheel_link,1.699261054869741,25.3318564121574,0.12439082089322252,-0.08724756609608061,0.0035065299118117494,0.01407741782458399
160317000000,245,160317000000,BL_wheel_link,1.2110893750804541,25.33701293647214,1.43714052518778,-0.04217615630941453,-0.005836456699523224,-0.09574320242015963
160318000000,246,160318000000,BL_wheel_link,7.788314026116027,-24.247520941550587,10.51355950412594,-0.004390542160334164,0.031215819326443343,0.27907730232661615
160319000000,247,160319000000,BL_wheel_link,-21.965397971229205,20.707230891688106,2.8328129082701614,0.003096075422429675,-0.03911603829724515,-0.3961637007803887
160320000000,248,160320000000,BL_wheel_link,23.28157557343121,-21.25825067454256,9.784714279790238,-0.0015555569823689347,0.043091560126848075,0.41508745078605
160321000000,249,160321000000,BL_wheel_link,-24.057304045276293,20.037906239663165,2.467514704523165,0.006393633224778473,-0.03807536045561213,-0.4191864907655693
160322000000,250,160322000000,BL_wheel_link,23.29789680513041,-21.289271350215017,9.740084550465328,0.00019322175208028535,0.04004491442503468,0.41940721192318997
160323000000,251,160323000000,BL_wheel_link,-23.752772914840623,19.90210812824954,2.362663695243655,0.008293065629216485,-0.0374136181773122,-0.42031849328152276
160324000000,252,160324000000,BL_wheel_link,23.254759755815407,-21.40272802464607,9.918791411357274,5.835698058433217e-05,0.04043910439060783,0.4196665172030806
160325000000,253,160325000000,BL_wheel_link,-23.80554601068928,19.775337192409523,2.593303146561118,0.008142271530379773,-0.03712240924462617,-0.42027757301376495
160326000000,254,160326000000,BL_wheel_link,23.16761485291942,-21.673684709068873,9.010155917905257,0.0005711771590792968,0.03687974061165637,0.4202849706859242
160327000000,255,160327000000,BL_wheel_link,-23.243310882211492,19.52390824640126,1.4805602793481614,0.009762926265504979,-0.03783174389782857,-0.42016112799837224
160328000000,256,160328000000,BL_wheel_link,23.266936627077655,-21.744141462327814,9.28054691227508,6.237503173034017e-05,0.03972806059510427,0.41984061930708966
160329000000,257,160329000000,BL_wheel_link,-23.530458777325318,19.46100808455522,1.5480617051395609,0.00969682349710264,-0.03971223811170184,-0.4198600981761989
160330000000,258,160330000000,BL_wheel_link,23.369446901477474,-21.815060452663108,9.327819568093938,-0.0004938928669881353,0.041068598557571244,0.4194684536019355
160331000000,259,160331000000,BL_wheel_link,-23.604278843838692,19.40966181131993,1.5930686820769877,0.009962905605414834,-0.04094808068733938,-0.41957686920142395
160332000000,260,160332000000,BL_wheel_link,23.443726937671112,-21.86101859224055,9.409530048812996,-0.00031762870064180605,0.04211591174274838,0.4192368524415879
160333000000,261,160333000000,BL_wheel_link,-23.635430874772084,19.37283657373778,1.666340107885004,0.010647535504880066,-0.04267012126481141,-0.419295228507095
160334000000,262,160334000000,BL_wheel_link,23.61660658549636,-21.891968682786434,9.507154476132234,0.0002852711432747248,0.04296087825922864,0.4190579257177031
160335000000,263,160335000000,BL_wheel_link,-23.62760649648411,19.325543732851337,1.7096458675294517,0.010847113387891022,-0.04334131082860084,-0.41902632392552375
160336000000,264,160336000000,BL_wheel_link,23.640792369712422,-21.932997594321503,9.611962722867233,0.00040179884482174184,0.04356417654111869,0.41891573583486685
160337000000,265,160337000000,BL_wheel_link,-23.63187063237987,19.27645247076305,1.7608410524311866,0.011007653604684723,-0.04398565725459562,-0.41889063234955215
160338000000,266,160338000000,BL_wheel_link,23.663034201050525,-21.972711167065157,9.722842480966083,0.0004837955583763535,0.04411470480738709,0.41880556500912214
160339000000,267,160339000000,BL_wheel_link,-23.63097093800139,19.227837330181792,1.8188654511488682,0.011129708529985932,-0.04456566080687809,-0.4187716913238595
160340000000,268,160340000000,BL_wheel_link,27.49268940721169,29.472594046664927,-2.395867064060243,-0.08397130934576906,0.023349337706974883,0.25058172864255507
160341000000,269,160341000000,BL_wheel_link,-4.491693123715504,22.62515475239107,-1.7363958229773973,-0.08382502625889718,0.00365873305374169,-0.04363794006781724
160342000000,270,160342000000,BL_wheel_link,-0.5488137002423243,-26.73262967165197,13.549851226891315,0.09099126779326969,-0.007877460393830756,-0.00241452925993466
160343000000,271,160343000000,BL_wheel_link,1.3023045435886338,23.824458624794115,-1.8370546738243667,-0.08345186891751924,0.006627498575194483,0.010517695182075364
160344000000,272,160344000000,BL_wheel_link,-1.1837782880689725,-26.974017498436815,13.657667485017798,0.09162993624867637,-0.0050272852161360355,-0.01197719850360793
160345000000,273,160345000000,BL_wheel_link,0.9762191389246242,23.874576833770284,-1.801003100328976,-0.08131466032836254,0.006240906364290797,0.012552530275982774
160346000000,274,160346000000,BL_wheel_link,-1.5254982390785445,-26.786212375558335,13.60865080689346,0.09972003914060637,0.0027609715333525736,-0.012880819210105525
160347000000,275,160347000000,BL_wheel_link,-0.3949370201538919,24.262132924775397,-1.5602495526693978,-0.06658835419258875,0.0040700943813479365,0.012479358236887943
160348000000,276,160348000000,BL_wheel_link,0.41757378559076824,-0.6016454519470907,7.888606914701275,0.07959868280728656,-0.01530880570711208,-0.09639076364523118
160349000000,277,160349000000,BL_wheel_link,12.322223857194343,26.838731338921388,-1.7619392741726227,-0.051927673878926085,0.015442608924752478,0.10812444995626998
160350000000,278,160350000000,BL_wheel_link,1.461712529439369,24.895494650903817,1.6390222435809587,0.04095261737362706,-0.029697558677909353,-0.19730986357162267
160351000000,279,160351000000,BL_wheel_link,21.37803093546091,-21.084120144465675,8.63119966183897,0.03899435439275959,0.04530921047469156,0.3835307294450885
160352000000,280,160352000000,BL_wheel_link,-22.86830582248492,20.837347221980707,2.009790257075031,0.03693502737526284,-0.055920486183544116,-0.41185166281091573
160353000000,281,160353000000,BL_wheel_link,25.124283946272907,-20.477395846129763,9.235493956075295,0.0316079484296455,0.04663757240853675,0.41911115732810517
160354000000,282,160354000000,BL_wheel_link,-23.1808490790414,20.721256116090274,3.575307775550891,0.02418072962498702,-0.0544369329713487,-0.41886766066583714
160355000000,283,160355000000,BL_wheel_link,29.072009735487498,30.480030978456472,0.22423197167656078,-0.08709953377347934,0.019487446632811437,0.25074105871893904
160356000000,284,160356000000,BL_wheel_link,-2.91470236301829,23.059057796124915,2.4148157030209334,-0.08908200899363199,-0.002643304538050892,-0.0401910279244499
160357000000,285,160357000000,BL_wheel_link,0.9496105872340048,-25.92180837682613,17.519369037969454,0.09988031181712291,-0.01605644035927624,-0.00037109488861557065
160358000000,286,160358000000,BL_wheel_link,3.1835093222113566,23.470097623865808,3.1801439555597244,-0.0855029440847615,0.009428651716772207,0.01171860908704203
160359000000,287,160359000000,BL_wheel_link,-1.1201585906860174,-27.045941524244878,20.044074629032632,0.09539133371616267,-0.011530600427785163,-0.009741229216192367
160360000000,288,160360000000,BL_wheel_link,2.026191869529343,22.497142019439185,5.41036912794646,-0.09537115924764318,0.014115531035860999,0.012786449372475583
160361000000,289,160361000000,BL_wheel_link,-2.584483835099399,-27.233776432155672,19.532150305623983,0.08742427580980412,-0.010067706385763235,-0.012701508935598908
160362000000,290,160362000000,BL_wheel_link,1.0965216003280034,25.5806402213928,3.1388883885420453,-0.10745370821608541,0.011753015508791749,0.010731363004751207
160363000000,291,160363000000,BL_wheel_link,-2.16771296485116,-25.13967889263788,17.424092024177213,0.0784846586195062,-0.004779014377220439,-0.014526930754396714
160364000000,292,160364000000,BL_wheel_link,0.8055167346646777,25.198216396170682,1.2653918743401336,-0.10304505080156165,0.008152849674521158,0.012290917336079097
160365000000,293,160365000000,BL_wheel_link,-1.6688384649849957,-25.423073102505587,14.177502877110095,0.08805572746032427,-0.002272161509925201,-0.013702730237149073
160366000000,294,160366000000,BL_wheel_link,0.5303001196680641,24.799578548789892,-2.298914897914446,-0.08974710890060254,0.00712002780089387,0.012284741811104914
160367000000,295,160367000000,BL_wheel_link,-1.5439333072359358,-25.639957278585236,12.01979076496946,0.09473141031729618,-0.004641780934926936,-0.012880117873473654
160368000000,296,160368000000,BL_wheel_link,0.8585650727909825,24.61349215458627,-3.962372875916625,-0.08433852737256635,0.006240028204032381,0.012350543102108162
160369000000,297,160369000000,BL_wheel_link,1.1225553440967706,-4.136596340977573,5.57394337653335,0.043203977416280175,-0.017188324606831812,-0.1253424597031551
160370000000,298,160370000000,BL_wheel_link,11.966398410477307,-23.230255415611886,8.599538429842422,0.009157537443694711,0.0480726748521834,0.3119781067211675
160371000000,299,160371000000,BL_wheel_link,-23.083155030642747,20.35722312414903,-0.46813970083969847,0.015105466179324524,-0.059161736304068784,-0.4016742094965441
160372000000,300,160372000000,BL_wheel_link,24.23251490150512,-20.79308457855505,8.594488105661732,0.009028893184600557,0.05875025111185767,0.41637310084262785
160373000000,301,160373000000,BL_wheel_link,-24.218451785231036,19.798407263403615,0.4265813198816109,0.013032493229238861,-0.059415727518171764,-0.4192201010790921
160374000000,302,160374000000,BL_wheel_link,24.50592192772195,-20.872406537094584,10.270645731152088,0.004647018788214115,0.05590890891840405,0.4201732802223391
160375000000,303,160375000000,BL_wheel_link,-23.69599902048969,19.583048291810584,1.4216981787099905,0.008300804346484893,-0.06029931796926269,-0.4197094313369071
160376000000,304,160376000000,BL_wheel_link,24.797232979468525,-21.033401370837954,10.886361619756768,0.0012262079146998011,0.05619448654478644,0.42087809878880306
160377000000,305,160377000000,BL_wheel_link,-23.60483272193924,19.390701862287752,1.6177586278244571,0.005973261377199667,-0.05933594035122001,-0.41953475261672235
160378000000,306,160378000000,BL_wheel_link,28.43518813044903,29.804158906725604,-2.859163207963504,-0.08709348741574288,0.030727446393817793,0.2517443960429651
160379000000,307,160379000000,BL_wheel_link,-0.9618623863256095,23.87542645954763,0.25059449822496666,-0.006469479076646914,-0.023053193244795114,-0.19235625285937769
160380000000,308,160380000000,BL_wheel_link,16.4625874519137,-22.631215701588882,11.357755702113511,0.0051540765475534865,0.0479348312667207,0.35166297129325447
160381000000,309,160381000000,BL_wheel_link,-22.569333973413695,19.883759324516184,1.8254785856706528,0.015408194349016921,-0.06263586790499742,-0.40788010195049684
160382000000,310,160382000000,BL_wheel_link,24.904764608554505,-21.006317053815774,11.143418886520305,0.010102035857902026,0.06038613496284703,0.41822521421352915
160383000000,311,160383000000,BL_wheel_link,-23.902944346544047,19.602367693982906,1.8244032621236772,0.016525603150518858,-0.06294818661363097,-0.4183492516735968
160384000000,312,160384000000,BL_wheel_link,24.81976779981563,-20.97480972296224,11.295206207847164,0.011345935080325584,0.05906157708144193,0.4196743302716819
160385000000,313,160385000000,BL_wheel_link,-23.728977960838243,19.520746490075883,1.7694913300984874,0.015719028712486406,-0.0614543908320745,-0.418726347125602
160386000000,314,160386000000,BL_wheel_link,24.544170154713978,-21.176915935231,11.536807434551228,0.008167998942640631,0.06081770990632879,0.4199079108753426
160387000000,315,160387000000,BL_wheel_link,-24.167623650657745,19.15863242207132,2.221593809984544,0.009811660971208811,-0.058087780981702204,-0.4191633698929267
160388000000,316,160388000000,BL_wheel_link,27.54704032662981,29.23773256867199,-2.2639190155498543,-0.08596916366631632,0.036297821425908226,0.25063760900909904
160389000000,317,160389000000,BL_wheel_link,-3.3815005928708257,23.144970679414136,-0.035128787310304985,-0.03074605579065224,-0.010024433868184806,-0.1403250157443928
160390000000,318,160390000000,BL_wheel_link,7.648896103996883,-23.969102768765215,11.627318176109732,0.015756403839318915,0.041771582005635056,0.28795166491041524
160391000000,319,160391000000,BL_wheel_link,-22.339930280267883,20.268149236560394,0.3815924275989377,0.02718650205283167,-0.05972355284421001,-0.3984469301890003
160392000000,320,160392000000,BL_wheel_link,23.762640461565663,-20.65423595699965,9.865237007749599,0.02407294992214482,0.06221174828621649,0.41523641274918777
160393000000,321,160393000000,BL_wheel_link,-24.237279927578985,19.86002753916477,0.032910910701921946,0.02943079230852363,-0.061198525782269426,-0.4188041597891628
160394000000,322,160394000000,BL_wheel_link,23.966504058573342,-20.787005404979933,10.25232218310548,0.018776042692286644,0.062223439299102914,0.4190806259132378
160395000000,323,160395000000,BL_wheel_link,-24.243073046970252,19.22765974099212,0.974310186713818,0.015617797163511872,-0.06057178555940168,-0.4196281325143606
160396000000,324,160396000000,BL_wheel_link,23.894778767805263,-21.630790489193163,11.77013285611533,-0.002045339493097859,0.06111883552128313,0.41916963853689804
160397000000,325,160397000000,BL_wheel_link,-24.00840536235312,18.309747760265868,2.3605552629864945,-0.00739432436568208,-0.06291504352069496,-0.4192866006675848
160398000000,326,160398000000,BL_wheel_link,24.32245601749832,-19.9664624516092,11.636581873737791,-0.02270241576818287,0.058291737783169435,0.41950217312988974
160399000000,327,160399000000,BL_wheel_link,-23.369188005481217,21.248306369830782,1.0480647635278564,-0.01875954818539573,-0.062136069569399766,-0.4171887191794374
160400000000,328,160400000000,BL_wheel_link,24.216845408901804,-19.162613998687853,11.44129426173359,-0.02420515763199748,0.06125088439485735,0.4189792820529483
160401000000,329,160401000000,BL_wheel_link,-23.84081605177396,21.24812474243736,1.3112772650471878,-0.01621255165263036,-0.06485675383170791,-0.4186076885182708
160402000000,330,160402000000,BL_wheel_link,24.40778964074741,-19.03666899797732,11.494174695069763,-0.01749222013143777,0.06563844661346234,0.41848272429525496
160403000000,331,160403000000,BL_wheel_link,-24.32535668841772,21.289729040003365,1.4068223832835418,-0.006265481466912771,-0.06360485257141155,-0.4193140279929032
160404000000,332,160404000000,BL_wheel_link,24.0424773527028,-19.067664565574763,11.523046147995107,-0.00507311447721428,0.06748609108197953,0.41799099192283384
160405000000,333,160405000000,BL_wheel_link,-24.56730200205335,21.232065399357854,1.1185915376643352,0.006753448044597097,-0.0649360883368501,-0.4187758629858346
160406000000,334,160406000000,BL_wheel_link,24.148247014058086,-19.12872557704319,11.229343026072188,0.00576878066719493,0.06444251180376827,0.4187379744748574
160407000000,335,160407000000,BL_wheel_link,-24.016378241840496,21.099864126016396,0.6687396630985862,0.014072058001197225,-0.06710274637644092,-0.41798997533492327
160408000000,336,160408000000,BL_wheel_link,24.46766389154356,-19.27936351151188,10.882218832975108,0.00990783962942246,0.06710672561208668,0.4180315267664512
160409000000,337,160409000000,BL_wheel_link,-24.231247386179184,20.959474509051795,0.5029229159284119,0.016657319184600294,-0.06794505526117058,-0.4175619303767408
160410000000,338,160410000000,BL_wheel_link,24.424574928581546,-19.38896578237319,10.997625880629826,0.011605368399258539,0.0689084889422809,0.4173612012152935
160411000000,339,160411000000,BL_wheel_link,-24.460356328507903,20.827078680616395,0.8144871109145958,0.016454663902951867,-0.06759347478606474,-0.41753420623771553
160412000000,340,160412000000,BL_wheel_link,28.07794963384923,30.875789284114948,-4.05463689099934,-0.07774090697469335,0.04071254134533764,0.249190038977873
160413000000,341,160413000000,BL_wheel_link,-3.2067238235379114,24.703471314283465,-2.330437437391524,-0.02351391930073004,-0.015668209361065586,-0.1356630483791911
160414000000,342,160414000000,BL_wheel_link,8.20554402222137,-22.719921215792315,9.92894360187588,0.01566445028255303,0.038338782320433196,0.2845724809407767
160415000000,343,160415000000,BL_wheel_link,-20.809316275101928,21.319998088057073,-3.0442381082521535,0.021292522762869862,-0.06784589856394956,-0.3935328924796216
160416000000,344,160416000000,BL_wheel_link,24.524871042479642,-19.612491893438015,7.208901391297783,0.017048762701806122,0.06481500790629864,0.41521406199744143
160417000000,345,160417000000,BL_wheel_link,-23.436769564310737,20.646446201599566,-3.4376086494040723,0.02270667883820077,-0.07310399639344553,-0.41537878897492286
160418000000,346,160418000000,BL_wheel_link,24.97798416770075,-19.534492245885733,7.876175820724618,0.01568576176398628,0.06837376948992376,0.4179310888728685
160419000000,347,160419000000,BL_wheel_link,-23.87770949328704,20.738844667160404,-2.229374753050949,0.018241234962067244,-0.07070580404385388,-0.41714063424615233
160420000000,348,160420000000,BL_wheel_link,24.455466885160824,-19.280135137690618,9.57660524253912,0.008832685144539722,0.07172982497097594,0.4164837731740469
160421000000,349,160421000000,BL_wheel_link,-24.47481682506994,21.057344118722707,-0.17656173225313215,0.009620221638636644,-0.0643171495053737,-0.41913218323515977
160422000000,350,160422000000,BL_wheel_link,23.264255523954855,-18.883945177602268,12.013857087161462,-0.00037138383062128614,0.07773995696769287,0.41444795586558797
160423000000,351,160423000000,BL_wheel_link,-25.55896816313972,21.284096263515753,1.4941254608351222,0.0018790535967474263,-0.06250178906279151,-0.42006538698491147
160424000000,352,160424000000,BL_wheel_link,22.732126877888692,-18.905623072586916,12.589204392130755,-0.006972226508257402,0.07609989609378094,0.41469213771911595
160425000000,353,160425000000,BL_wheel_link,-25.27295307884335,21.080970390919262,1.5967909035102896,-0.003082676869458316,-0.0678570855948579,-0.41849891775565345
160426000000,354,160426000000,BL_wheel_link,23.571276637074803,-19.16947608850943,12.709654000307731,-0.011239936037809192,0.07359992239983017,0.41599724227783336
160427000000,355,160427000000,BL_wheel_link,-24.56836222538606,20.85304124969249,1.7294454269108068,-0.005341439817021222,-0.07330006185971577,-0.4167769221481638
160428000000,356,160428000000,BL_wheel_link,24.499095521243337,-19.289668757162822,12.877036451749929,-0.00965311609954147,0.0727600286385452,0.4165594738709817
160429000000,357,160429000000,BL_wheel_link,-24.16746688257184,20.706625034276545,1.8058208262681688,-0.0036150662960835202,-0.07294977695442757,-0.4164921546189801
160430000000,358,160430000000,BL_wheel_link,24.49126314315304,-19.420440533785527,13.076456097236436,-0.008200538218012044,0.07263191044591659,0.4166718712665712
160431000000,359,160431000000,BL_wheel_link,-24.104851005459945,20.4651797824462,2.2849049617682606,-0.001610839988003827,-0.07386082749779012,-0.4160112635463201
160432000000,360,160432000000,BL_wheel_link,24.5859798192378,-19.753953039305603,14.121248877432139,-0.008765628823979535,0.07039779113733041,0.41660904910189317
160433000000,361,160433000000,BL_wheel_link,-23.69014603682818,20.237013981685493,3.213671593875677,-0.0001017712802854787,-0.07195595317289383,-0.4157227312225432
160434000000,362,160434000000,BL_wheel_link,24.319351604037116,-19.922767998644556,15.173859564655285,-0.006266744727292892,0.07016702227266193,0.41674017443565603
160435000000,363,160435000000,BL_wheel_link,-23.648162663241653,19.99501669655153,3.8540928389522007,0.00025261010844024605,-0.0736809039765372,-0.4158521707576836
160436000000,364,160436000000,BL_wheel_link,24.494358749562384,-20.068544811055755,15.390452220063443,-0.0045797528476595045,0.07401073825595256,0.4161598579503284
160437000000,365,160437000000,BL_wheel_link,-24.107530914831177,19.8604284930665,3.98928208660575,0.00195959377339865,-0.075479063125759,-0.4154187710278486
