%time,field.header.seq,field.header.stamp,field.header.frame_id,field.orientation.x,field.orientation.y,field.orientation.z,field.orientation.w,field.orientation_covariance0,field.orientation_covariance1,field.orientation_covariance2,field.orientation_covariance3,field.orientation_covariance4,field.orientation_covariance5,field.orientation_covariance6,field.orientation_covariance7,field.orientation_covariance8,field.angular_velocity.x,field.angular_velocity.y,field.angular_velocity.z,field.angular_velocity_covariance0,field.angular_velocity_covariance1,field.angular_velocity_covariance2,field.angular_velocity_covariance3,field.angular_velocity_covariance4,field.angular_velocity_covariance5,field.angular_velocity_covariance6,field.angular_velocity_covariance7,field.angular_velocity_covariance8,field.linear_acceleration.x,field.linear_acceleration.y,field.linear_acceleration.z,field.linear_acceleration_covariance0,field.linear_acceleration_covariance1,field.linear_acceleration_covariance2,field.linear_acceleration_covariance3,field.linear_acceleration_covariance4,field.linear_acceleration_covariance5,field.linear_acceleration_covariance6,field.linear_acceleration_covariance7,field.linear_acceleration_covariance8
160077000000,0,160071000000,base_link,-0.004077380496584187,-0.005076463865690129,-0.7071170244340961,0.7070665585631783,0.0,0.0,0.0,0.0,0.0,0.0,0.0,0.0,0.0,-0.03900113699642311,0.0027422521538785667,-0.48660427559481995,0.0,0.0,0.0,0.0,0.0,0.0,0.0,0.0,0.0,-0.9859433057191415,-3.908178840298718,9.717252032342296,0.0,0.0,0.0,0.0,0.0,0.0,0.0,0.0,0.0
160077000000,1,160072000000,base_link,-0.004067323344502896,-0.005091587700766886,-0.7069448660619023,0.7072386365041263,0.0,0.0,0.0,0.0,0.0,0.0,0.0,0.0,0.0,0.03876196148371216,-0.006820764814785701,0.48658791235412213,0.0,0.0,0.0,0.0,0.0,0.0,0.0,0.0,0.0,1.2512467649628896,3.874617139690265,9.713002236589922,0.0,0.0,0.0,0.0,0.0,0.0,0.0,0.0,0.0
160077000000,2,160073000000,base_link,-0.004080622638032487,-0.005076584252594842,-0.7071170175801642,0.7070665458496435,0.0,0.0,0.0,0.0,0.0,0.0,0.0,0.0,0.0,-0.04317771682822262,0.0020662644102262227,-0.4865641571868541,0.0,0.0,0.0,0.0,0.0,0.0,0.0,0.0,0.0,-1.0058101439416527,-3.8984134440741056,9.510881952421965,0.0,0.0,0.0,0.0,0.0,0.0,0.0,0.0,0.0
160077000000,3,160074000000,base_link,-0.0040821776398331025,-0.005076328852589726,-0.7071170254917344,0.7070665307952422,0.0,0.0,0.0,0.0,0.0,0.0,0.0,0.0,0.0,-0.0448713144645415,0.004143286972017057,-0.486585593027277,0.0,0.0,0.0,0.0,0.0,0.0,0.0,0.0,0.0,-0.9899740644117061,-4.2969516139685,9.691576413291287,0.0,0.0,0.0,0.0,0.0,0.0,0.0,0.0,0.0
160077000000,4,160075000000,base_link,-0.004068238863326277,-0.005092930796701793,-0.7069448617760853,0.7072386258518707,0.0,0.0,0.0,0.0,0.0,0.0,0.0,0.0,0.0,0.0463432852146292,-0.0034230493308979454,0.486568046129347,0.0,0.0,0.0,0.0,0.0,0.0,0.0,0.0,0.0,1.2772469634988917,4.357491064092738,10.018459704637344,0.0,0.0,0.0,0.0,0.0,0.0,0.0,0.0,0.0
160077000000,5,160076000000,base_link,-0.004081088842449406,-0.0050753010503294645,-0.7071170394406261,0.7070665305088571,0.0,0.0,0.0,0.0,0.0,0.0,0.0,0.0,0.0,-0.046256549546612326,0.006416402346321137,-0.4865909090888776,0.0,0.0,0.0,0.0,0.0,0.0,0.0,0.0,0.0,-0.9903125349349428,-4.577917526650015,9.868655844637178,0.0,0.0,0.0,0.0,0.0,0.0,0.0,0.0,0.0
160078000000,6,160077000000,base_link,-0.0040655443829880665,-0.005092414389170574,-0.7069448670072835,0.7072386398356731,0.0,0.0,0.0,0.0,0.0,0.0,0.0,0.0,0.0,0.04933664327788523,-0.001875322686730043,0.48658015227550067,0.0,0.0,0.0,0.0,0.0,0.0,0.0,0.0,0.0,1.2711344236660176,4.610926069046019,10.11484101395136,0.0,0.0,0.0,0.0,0.0,0.0,0.0,0.0,0.0
160079000000,7,160078000000,base_link,-0.004078780714481244,-0.005074141796073716,-0.7071170496115676,0.7070665419757524,0.0,0.0,0.0,0.0,0.0,0.0,0.0,0.0,0.0,-0.04771091670138973,0.006778699567541378,-0.48659240779872304,0.0,0.0,0.0,0.0,0.0,0.0,0.0,0.0,0.0,-1.0026835395269622,-4.767195454372549,9.878833650352181,0.0,0.0,0.0,0.0,0.0,0.0,0.0,0.0,0.0
160080000000,8,160079000000,base_link,-0.004078780714481244,-0.005074141796073716,-0.7071170496115676,0.7070665419757524,0.0,0.0,0.0,0.0,0.0,0.0,0.0,0.0,0.0,-0.04771091670138973,0.006778699567541378,-0.48659240779872304,0.0,0.0,0.0,0.0,0.0,0.0,0.0,0.0,0.0,-1.0026835395269622,-4.767195454372549,9.878833650352181,0.0,0.0,0.0,0.0,0.0,0.0,0.0,0.0,0.0
160081000000,9,160080000000,base_link,-0.004063588888188751,-0.0050917283644652065,-0.7069448641051435,0.7072386589143517,0.0,0.0,0.0,0.0,0.0,0.0,0.0,0.0,0.0,0.04950623220319764,-0.0030428718561787867,0.4866092449112936,0.0,0.0,0.0,0.0,0.0,0.0,0.0,0.0,0.0,1.2545530459152512,4.849399893406396,10.090298353151962,0.0,0.0,0.0,0.0,0.0,0.0,0.0,0.0,0.0
160082000000,10,160081000000,base_link,-0.004078299146806876,-0.00507363997372938,-0.7071170459733455,0.7070665519931032,0.0,0.0,0.0,0.0,0.0,0.0,0.0,0.0,0.0,-0.049534468647197474,0.004433644252417313,-0.48659076092278425,0.0,0.0,0.0,0.0,0.0,0.0,0.0,0.0,0.0,-1.0170315015860276,-4.801506772856644,9.760477169011175,0.0,0.0,0.0,0.0,0.0,0.0,0.0,0.0,0.0
160083000000,11,160082000000,base_link,-0.0040643395585101974,-0.005091804988731021,-0.7069448543146428,0.7072386638355953,0.0,0.0,0.0,0.0,0.0,0.0,0.0,0.0,0.0,0.04858142500316913,-0.005603654678573069,0.4866185580501968,0.0,0.0,0.0,0.0,0.0,0.0,0.0,0.0,0.0,1.2501436480678774,4.964965003396942,9.950116422651414,0.0,0.0,0.0,0.0,0.0,0.0,0.0,0.0,0.0
160084000000,12,160083000000,base_link,-0.004080050501087739,-0.005074242426249645,-0.7071170368797189,0.7070665466603228,0.0,0.0,0.0,0.0,0.0,0.0,0.0,0.0,0.0,-0.050206825299673755,0.00227514912817299,-0.4866002973260067,0.0,0.0,0.0,0.0,0.0,0.0,0.0,0.0,0.0,-1.0152945093804135,-4.837908209008194,9.579887980848142,0.0,0.0,0.0,0.0,0.0,0.0,0.0,0.0,0.0
160085000000,13,160084000000,base_link,-0.0040664701716168,-0.005092636795631431,-0.7069448464290734,0.7072386534814008,0.0,0.0,0.0,0.0,0.0,0.0,0.0,0.0,0.0,0.04837021993747473,-0.006464789998296652,0.4866116401745565,0.0,0.0,0.0,0.0,0.0,0.0,0.0,0.0,0.0,1.2618228176175346,4.934497428909546,9.79604432407878,0.0,0.0,0.0,0.0,0.0,0.0,0.0,0.0,0.0
160086000000,14,160085000000,base_link,-0.004081781682325255,-0.0050750876674049835,-0.7071170324588023,0.7070665350234893,0.0,0.0,0.0,0.0,0.0,0.0,0.0,0.0,0.0,-0.04962390840612485,0.002821361668687211,-0.48661108183396773,0.0,0.0,0.0,0.0,0.0,0.0,0.0,0.0,0.0,-1.00179439336552,-4.883769473535105,9.457509046018236,0.0,0.0,0.0,0.0,0.0,0.0,0.0,0.0,0.0
160087000000,15,160086000000,base_link,-0.0040673021243249384,-0.00509312556188021,-0.7069448473532555,0.7072386442539198,0.0,0.0,0.0,0.0,0.0,0.0,0.0,0.0,0.0,0.049138561723119964,-0.004689204216625772,0.48660117948839243,0.0,0.0,0.0,0.0,0.0,0.0,0.0,0.0,0.0,1.2743781370740261,4.869007722104863,9.741156654333484,0.0,0.0,0.0,0.0,0.0,0.0,0.0,0.0,0.0
160088000000,16,160087000000,base_link,-0.004081496938692591,-0.005075009370168813,-0.7071170369216774,0.7070665327660046,0.0,0.0,0.0,0.0,0.0,0.0,0.0,0.0,0.0,-0.04884656579192051,0.0052025632905599375,-0.4866129475108355,0.0,0.0,0.0,0.0,0.0,0.0,0.0,0.0,0.0,-0.9947300450322959,-4.910865366590772,9.480978352744838,0.0,0.0,0.0,0.0,0.0,0.0,0.0,0.0,0.0
160089000000,17,160088000000,base_link,-0.004065995223769866,-0.005092591362185887,-0.7069448543318793,0.7072386486397192,0.0,0.0,0.0,0.0,0.0,0.0,0.0,0.0,0.0,0.0499391786714925,-0.0025987689828708485,0.4866003769629764,0.0,0.0,0.0,0.0,0.0,0.0,0.0,0.0,0.0,1.2727238596617674,4.8624304669115554,9.832110710354856,0.0,0.0,0.0,0.0,0.0,0.0,0.0,0.0,0.0
160090000000,18,160089000000,base_link,-0.004079775846437295,-0.00507402945825089,-0.7071170439348857,0.7070665427177901,0.0,0.0,0.0,0.0,0.0,0.0,0.0,0.0,0.0,-0.04889021059721928,0.006418425277822933,-0.48660578726104453,0.0,0.0,0.0,0.0,0.0,0.0,0.0,0.0,0.0,-1.001913052999054,-4.905138904874775,9.637448185543839,0.0,0.0,0.0,0.0,0.0,0.0,0.0,0.0,0.0
160091000000,19,160090000000,base_link,-0.0040642640361709444,-0.005091762938221238,-0.7069448579544368,0.7072386609340628,0.0,0.0,0.0,0.0,0.0,0.0,0.0,0.0,0.0,0.05016681844110511,-0.002798464595373886,0.48660724294239754,0.0,0.0,0.0,0.0,0.0,0.0,0.0,0.0,0.0,1.2599313837589572,4.917816276379207,10.005730325051447,0.0,0.0,0.0,0.0,0.0,0.0,0.0,0.0,0.0
160092000000,20,160091000000,base_link,-0.004078828226928868,-0.005073406696962771,-0.7071170444412348,0.7070665521473035,0.0,0.0,0.0,0.0,0.0,0.0,0.0,0.0,0.0,-0.049706876411782536,0.005019275999890532,-0.48659921484236923,0.0,0.0,0.0,0.0,0.0,0.0,0.0,0.0,0.0,-1.0126241983489437,-4.900045140965036,9.811880330755884,0.0,0.0,0.0,0.0,0.0,0.0,0.0,0.0,0.0
160093000000,21,160092000000,base_link,-0.004064101387489116,-0.005091958103231319,-0.7069448509645211,0.7072386674506269,0.0,0.0,0.0,0.0,0.0,0.0,0.0,0.0,0.0,0.05021301640815546,-0.005065232891480628,0.4866150730103409,0.0,0.0,0.0,0.0,0.0,0.0,0.0,0.0,0.0,1.2521663459048913,4.980200520840247,10.131917399088664,0.0,0.0,0.0,0.0,0.0,0.0,0.0,0.0,0.0
160094000000,22,160093000000,base_link,-0.004079768434260538,-0.005074092528213141,-0.7071170353419656,0.7070665509014886,0.0,0.0,0.0,0.0,0.0,0.0,0.0,0.0,0.0,-0.05057314609759035,0.0027657039515609494,-0.48659996332757094,0.0,0.0,0.0,0.0,0.0,0.0,0.0,0.0,0.0,-1.0120012157378244,-4.934670196856403,9.87137744300848,0.0,0.0,0.0,0.0,0.0,0.0,0.0,0.0,0.0
160095000000,23,160094000000,base_link,-0.004065495867351479,-0.0050932498710209995,-0.7069448391384315,0.7072386619555248,0.0,0.0,0.0,0.0,0.0,0.0,0.0,0.0,0.0,0.050428103155728356,-0.006564708849443542,0.4866125268467423,0.0,0.0,0.0,0.0,0.0,0.0,0.0,0.0,0.0,1.2596402608274415,5.021586071797806,10.105020748757273,0.0,0.0,0.0,0.0,0.0,0.0,0.0,0.0,0.0
160096000000,24,160095000000,base_link,-0.004081517166583433,-0.005075305744864128,-0.7071170253363819,0.7070665421080549,0.0,0.0,0.0,0.0,0.0,0.0,0.0,0.0,0.0,-0.05118626047204949,0.0023759557712637047,-0.4866028583156547,0.0,0.0,0.0,0.0,0.0,0.0,0.0,0.0,0.0,-1.001654415998098,-4.9887095218354105,9.759378243326518,0.0,0.0,0.0,0.0,0.0,0.0,0.0,0.0,0.0
160097000000,25,160096000000,base_link,-0.004066719969882279,-0.0050942210601892185,-0.7069448323376877,0.7072386547209614,0.0,0.0,0.0,0.0,0.0,0.0,0.0,0.0,0.0,0.05082871534107786,-0.005480643028498971,0.4866067416448606,0.0,0.0,0.0,0.0,0.0,0.0,0.0,0.0,0.0,1.273540055634601,5.053545142432953,9.95724507920612,0.0,0.0,0.0,0.0,0.0,0.0,0.0,0.0,0.0
160098000000,26,160097000000,base_link,-0.004081990618101385,-0.00507554020160867,-0.7071170247396259,0.7070665382887491,0.0,0.0,0.0,0.0,0.0,0.0,0.0,0.0,0.0,-0.05116693079679244,0.004479557278946368,-0.486608380832198,0.0,0.0,0.0,0.0,0.0,0.0,0.0,0.0,0.0,-0.9927601000984959,-5.044904490839326,9.58349824106857,0.0,0.0,0.0,0.0,0.0,0.0,0.0,0.0,0.0
160099000000,27,160098000000,base_link,-0.004066321588983049,-0.005093387831233463,-0.7069448368318779,0.707238658520506,0.0,0.0,0.0,0.0,0.0,0.0,0.0,0.0,0.0,0.05055189902288022,-0.0027377815077740814,0.486610157359,0.0,0.0,0.0,0.0,0.0,0.0,0.0,0.0,0.0,1.2786021318105374,5.0695399018158085,9.797010525753361,0.0,0.0,0.0,0.0,0.0,0.0,0.0,0.0,0.0
160100000000,28,160099000000,base_link,-0.004080671757807188,-0.005074085514849929,-0.7071170336084237,0.707066547472737,0.0,0.0,0.0,0.0,0.0,0.0,0.0,0.0,0.0,-0.05074318329943544,0.006660291681782428,-0.48661132141583463,0.0,0.0,0.0,0.0,0.0,0.0,0.0,0.0,0.0,-0.9999075331017706,-5.028800359736254,9.468806390617003,0.0,0.0,0.0,0.0,0.0,0.0,0.0,0.0,0.0
160101000000,29,160100000000,base_link,-0.00406486973930547,-0.005091290952581625,-0.7069448482370272,0.7072386705643049,0.0,0.0,0.0,0.0,0.0,0.0,0.0,0.0,0.0,0.049830797277198455,-0.0016415554555321461,0.486614605487993,0.0,0.0,0.0,0.0,0.0,0.0,0.0,0.0,0.0,1.2667660201849347,5.038558501257988,9.766809176169081,0.0,0.0,0.0,0.0,0.0,0.0,0.0,0.0,0.0
160102000000,30,160101000000,base_link,-0.004079931511895329,-0.005072148844803946,-0.7071170403931749,0.7070665588546465,0.0,0.0,0.0,0.0,0.0,0.0,0.0,0.0,0.0,-0.05152195063758763,0.0054277285893056144,-0.48659990260248664,0.0,0.0,0.0,0.0,0.0,0.0,0.0,0.0,0.0,-1.0235892625263832,-4.958180747829785,9.563148230119438,0.0,0.0,0.0,0.0,0.0,0.0,0.0,0.0,0.0
160103000000,31,160102000000,base_link,-0.004064581645211216,-0.0050903104111071195,-0.7069448519552987,0.7072386755614182,0.0,0.0,0.0,0.0,0.0,0.0,0.0,0.0,0.0,0.05054264189291998,-0.003633598843809878,0.4866067901250833,0.0,0.0,0.0,0.0,0.0,0.0,0.0,0.0,0.0,1.2593346632058513,5.042058210711765,9.836326064934937,0.0,0.0,0.0,0.0,0.0,0.0,0.0,0.0,0.0
160104000000,32,160103000000,base_link,-0.004077885509492931,-0.005072812797739907,-0.7071170469338948,0.7070665593532044,0.0,0.0,0.0,0.0,0.0,0.0,0.0,0.0,0.0,-0.04670992403353563,0.0055873324890487845,-0.48664156385742546,0.0,0.0,0.0,0.0,0.0,0.0,0.0,0.0,0.0,-1.0021602724062335,-5.101442679823982,9.448753504127371,0.0,0.0,0.0,0.0,0.0,0.0,0.0,0.0,0.0
160105000000,33,160104000000,base_link,-0.004063181720333253,-0.005090963996109755,-0.7069448550442213,0.7072386758134788,0.0,0.0,0.0,0.0,0.0,0.0,0.0,0.0,0.0,0.049613897166122085,-0.00453173941463738,0.4866180185931241,0.0,0.0,0.0,0.0,0.0,0.0,0.0,0.0,0.0,1.2496449495672952,4.797762333873746,9.97407384479594,0.0,0.0,0.0,0.0,0.0,0.0,0.0,0.0,0.0
160106000000,34,160105000000,base_link,-0.004062786826426159,-0.005092622412454266,-0.7069448408625642,0.7072386803180176,0.0,0.0,0.0,0.0,0.0,0.0,0.0,0.0,0.0,0.0482117760132563,-0.0062155062090536,0.48662194318221086,0.0,0.0,0.0,0.0,0.0,0.0,0.0,0.0,0.0,1.2458437144555738,4.740087833512946,10.129772391128302,0.0,0.0,0.0,0.0,0.0,0.0,0.0,0.0,0.0
160107000000,35,160106000000,base_link,-0.004062786826426159,-0.005092622412454266,-0.7069448408625642,0.7072386803180176,0.0,0.0,0.0,0.0,0.0,0.0,0.0,0.0,0.0,0.0482117760132563,-0.0062155062090536,0.48662194318221086,0.0,0.0,0.0,0.0,0.0,0.0,0.0,0.0,0.0,1.2458437144555738,4.740087833512946,10.129772391128302,0.0,0.0,0.0,0.0,0.0,0.0,0.0,0.0,0.0
160108000000,36,160107000000,base_link,-0.004076715959620707,-0.005076089433383337,-0.7071170130103885,0.7070665765076971,0.0,0.0,0.0,0.0,0.0,0.0,0.0,0.0,0.0,-0.04623031111852968,0.0033373450249247483,-0.4865932097885178,0.0,0.0,0.0,0.0,0.0,0.0,0.0,0.0,0.0,-0.9946651063402056,-4.627485259893206,9.801843901417312,0.0,0.0,0.0,0.0,0.0,0.0,0.0,0.0,0.0
160109000000,37,160108000000,base_link,-0.004063713278336692,-0.005094077329616446,-0.7069448227877858,0.7072386825846686,0.0,0.0,0.0,0.0,0.0,0.0,0.0,0.0,0.0,0.04697798011542254,-0.006705135894918328,0.4866195184531672,0.0,0.0,0.0,0.0,0.0,0.0,0.0,0.0,0.0,1.2531242978237924,4.749222198599209,10.199903438166166,0.0,0.0,0.0,0.0,0.0,0.0,0.0,0.0,0.0
160110000000,38,160109000000,base_link,-0.004077907858885875,-0.005076859986715472,-0.7071169984936176,0.707066578620109,0.0,0.0,0.0,0.0,0.0,0.0,0.0,0.0,0.0,-0.04757425222011961,0.003929895073029016,-0.4865901174523294,0.0,0.0,0.0,0.0,0.0,0.0,0.0,0.0,0.0,-0.9827962597027814,-4.603503416790499,9.824760312030383,0.0,0.0,0.0,0.0,0.0,0.0,0.0,0.0,0.0
160111000000,39,160110000000,base_link,-0.004064615335597441,-0.005094058954537103,-0.7069448161245986,0.7072386841937444,0.0,0.0,0.0,0.0,0.0,0.0,0.0,0.0,0.0,0.0462727172161136,-0.005179668352352854,0.48661112479193086,0.0,0.0,0.0,0.0,0.0,0.0,0.0,0.0,0.0,1.262456600395454,4.754718158889865,10.140143817245308,0.0,0.0,0.0,0.0,0.0,0.0,0.0,0.0,0.0
160112000000,40,160111000000,base_link,-0.00407826682598558,-0.00507603182382551,-0.7071169994544534,0.7070665815346884,0.0,0.0,0.0,0.0,0.0,0.0,0.0,0.0,0.0,-0.04795138512544866,0.005843583681827427,-0.4865979734613154,0.0,0.0,0.0,0.0,0.0,0.0,0.0,0.0,0.0,-0.980031538167707,-4.648346807133751,9.697756893998983,0.0,0.0,0.0,0.0,0.0,0.0,0.0,0.0,0.0
160113000000,41,160112000000,base_link,-0.0040652922828716374,-0.005090935987576093,-0.7069448266819602,0.7072386922369549,0.0,0.0,0.0,0.0,0.0,0.0,0.0,0.0,0.0,0.04257744374412462,-0.0023844865155351683,0.48662676389608794,0.0,0.0,0.0,0.0,0.0,0.0,0.0,0.0,0.0,1.2683981278807481,4.757698988960256,9.843129661121898,0.0,0.0,0.0,0.0,0.0,0.0,0.0,0.0,0.0
160114000000,42,160113000000,base_link,-0.004077486155004332,-0.005073164992359505,-0.7071170134384257,0.7070665926272696,0.0,0.0,0.0,0.0,0.0,0.0,0.0,0.0,0.0,-0.04552663792768041,0.007543564207644415,-0.48661549991711384,0.0,0.0,0.0,0.0,0.0,0.0,0.0,0.0,0.0,-0.9934609352479165,-4.490621670906742,9.548808661904841,0.0,0.0,0.0,0.0,0.0,0.0,0.0,0.0,0.0
160115000000,43,160114000000,base_link,-0.004065055005762695,-0.005086924308855502,-0.706944853158867,0.7072386960009073,0.0,0.0,0.0,0.0,0.0,0.0,0.0,0.0,0.0,0.04018848869946685,-0.0015346965507098721,0.4866136887598135,0.0,0.0,0.0,0.0,0.0,0.0,0.0,0.0,0.0,1.257746417965237,4.434407114684112,9.745845417264821,0.0,0.0,0.0,0.0,0.0,0.0,0.0,0.0,0.0
160116000000,44,160115000000,base_link,-0.004076262322576308,-0.005070760275681832,-0.7071170318714696,0.7070665984990291,0.0,0.0,0.0,0.0,0.0,0.0,0.0,0.0,0.0,-0.04185754940327841,0.0066666877518555615,-0.486624360349765,0.0,0.0,0.0,0.0,0.0,0.0,0.0,0.0,0.0,-1.0123517161765412,-4.304782953633782,9.51625090048355,0.0,0.0,0.0,0.0,0.0,0.0,0.0,0.0,0.0
160117000000,45,160116000000,base_link,-0.0040648905446265815,-0.005085069253945667,-0.7069448722383642,0.7072386912149429,0.0,0.0,0.0,0.0,0.0,0.0,0.0,0.0,0.0,0.039466404926542714,-0.003810699386338573,0.4866040664049696,0.0,0.0,0.0,0.0,0.0,0.0,0.0,0.0,0.0,1.2428825877228875,4.117431684368845,9.781074337688743,0.0,0.0,0.0,0.0,0.0,0.0,0.0,0.0,0.0
160118000000,46,160117000000,base_link,-0.0040760023468977575,-0.005071158137930916,-0.7071170356161235,0.7070665933994293,0.0,0.0,0.0,0.0,0.0,0.0,0.0,0.0,0.0,-0.038536221369851006,0.003615487753139475,-0.48662245192375236,0.0,0.0,0.0,0.0,0.0,0.0,0.0,0.0,0.0,-1.0200363042755343,-4.124953531283962,9.59405955696386,0.0,0.0,0.0,0.0,0.0,0.0,0.0,0.0,0.0
160119000000,47,160118000000,base_link,-0.004063744347592097,-0.0050872151906806665,-0.7069448773770846,0.707238677232644,0.0,0.0,0.0,0.0,0.0,0.0,0.0,0.0,0.0,0.04319178751848133,-0.005029237172711018,0.4865662920850091,0.0,0.0,0.0,0.0,0.0,0.0,0.0,0.0,0.0,1.260994954007095,3.8816539677065034,9.702592293055256,0.0,0.0,0.0,0.0,0.0,0.0,0.0,0.0,0.0
160120000000,48,160119000000,base_link,-0.004074636804367045,-0.0050739091232225786,-0.7071170293583535,0.7070665877925069,0.0,0.0,0.0,0.0,0.0,0.0,0.0,0.0,0.0,-0.0373706503380762,0.003068649403190406,-0.4866016203743879,0.0,0.0,0.0,0.0,0.0,0.0,0.0,0.0,0.0,-1.0118965787604544,-4.177274084826941,9.681290915103023,0.0,0.0,0.0,0.0,0.0,0.0,0.0,0.0,0.0
160121000000,49,160120000000,base_link,-0.004062240953902609,-0.005090511214014421,-0.7069448603139299,0.707238679209311,0.0,0.0,0.0,0.0,0.0,0.0,0.0,0.0,0.0,0.044158187154640406,-0.005603633856946292,0.48658642908918026,0.0,0.0,0.0,0.0,0.0,0.0,0.0,0.0,0.0,1.2624476235361002,4.044353482124124,9.833506651631966,0.0,0.0,0.0,0.0,0.0,0.0,0.0,0.0,0.0
160122000000,50,160121000000,base_link,-0.004073919221863183,-0.00507626140741927,-0.7071170088624353,0.7070665955408585,0.0,0.0,0.0,0.0,0.0,0.0,0.0,0.0,0.0,-0.03981704075214973,0.0032908759443134386,-0.48657289955146243,0.0,0.0,0.0,0.0,0.0,0.0,0.0,0.0,0.0,-1.0009110875386273,-4.091055239999017,9.879663526625338,0.0,0.0,0.0,0.0,0.0,0.0,0.0,0.0,0.0
160123000000,51,160122000000,base_link,-0.0040616109008514804,-0.005092492189808914,-0.7069448372112117,0.707238691659754,0.0,0.0,0.0,0.0,0.0,0.0,0.0,0.0,0.0,0.04350991914775833,-0.005201258999114989,0.48660064043539425,0.0,0.0,0.0,0.0,0.0,0.0,0.0,0.0,0.0,1.2663539789389555,4.273174108985919,9.969818566356775,0.0,0.0,0.0,0.0,0.0,0.0,0.0,0.0,0.0
160124000000,52,160123000000,base_link,-0.004074256798090341,-0.005076548644204152,-0.7071169940821344,0.707066606314888,0.0,0.0,0.0,0.0,0.0,0.0,0.0,0.0,0.0,-0.043581053906908494,0.004317663164604926,-0.48656339582084995,0.0,0.0,0.0,0.0,0.0,0.0,0.0,0.0,0.0,-0.9923713579897988,-4.127107342268301,10.017079969822747,0.0,0.0,0.0,0.0,0.0,0.0,0.0,0.0,0.0
160125000000,53,160124000000,base_link,-0.004061778270425222,-0.0050920901826342155,-0.7069448269060262,0.7072387038939982,0.0,0.0,0.0,0.0,0.0,0.0,0.0,0.0,0.0,0.04277604312019809,-0.00398583095347382,0.4866002458892573,0.0,0.0,0.0,0.0,0.0,0.0,0.0,0.0,0.0,1.269498586776055,4.441632130367241,10.034582991815546,0.0,0.0,0.0,0.0,0.0,0.0,0.0,0.0,0.0
160126000000,54,160125000000,base_link,-0.0040748771200928595,-0.005074910375204174,-0.7071169963466748,0.707066612235931,0.0,0.0,0.0,0.0,0.0,0.0,0.0,0.0,0.0,-0.04596978122693794,0.005426137320667466,-0.48657545130321894,0.0,0.0,0.0,0.0,0.0,0.0,0.0,0.0,0.0,-0.9934937553212251,-4.2751339382570785,10.003602832425056,0.0,0.0,0.0,0.0,0.0,0.0,0.0,0.0,0.0
160127000000,55,160126000000,base_link,-0.004062091925296956,-0.005090050727233443,-0.7069448321860354,0.7072387114958025,0.0,0.0,0.0,0.0,0.0,0.0,0.0,0.0,0.0,0.04264197255819857,-0.0029855367994653416,0.48659853998070507,0.0,0.0,0.0,0.0,0.0,0.0,0.0,0.0,0.0,1.2676826631168792,4.494866572697354,9.973110552227782,0.0,0.0,0.0,0.0,0.0,0.0,0.0,0.0,0.0
160128000000,56,160127000000,base_link,-0.004075164753066572,-0.005072552636838384,-0.7071170096763514,0.7070666141661311,0.0,0.0,0.0,0.0,0.0,0.0,0.0,0.0,0.0,-0.04638252494207816,0.005913951228512272,-0.48659258260566884,0.0,0.0,0.0,0.0,0.0,0.0,0.0,0.0,0.0,-1.001199742647736,-4.410964183658384,9.81284547634574,0.0,0.0,0.0,0.0,0.0,0.0,0.0,0.0,0.0
160129000000,57,160128000000,base_link,-0.004062203835488126,-0.0050877842786352726,-0.7069448458972567,0.7072387134556741,0.0,0.0,0.0,0.0,0.0,0.0,0.0,0.0,0.0,0.04301885708110454,-0.0028670264297967624,0.48659557245286156,0.0,0.0,0.0,0.0,0.0,0.0,0.0,0.0,0.0,1.2617382300107574,4.474325875360151,9.819747071545464,0.0,0.0,0.0,0.0,0.0,0.0,0.0,0.0,0.0
160130000000,58,160129000000,base_link,-0.004075312469302977,-0.005070047732401525,-0.7071170250198344,0.7070666159361279,0.0,0.0,0.0,0.0,0.0,0.0,0.0,0.0,0.0,-0.04676959878779591,0.006201445515518284,-0.48659291894409307,0.0,0.0,0.0,0.0,0.0,0.0,0.0,0.0,0.0,-1.003293779269338,-4.459831182816641,9.507597326972398,0.0,0.0,0.0,0.0,0.0,0.0,0.0,0.0,0.0
160131000000,59,160130000000,base_link,-0.00406476206188099,-0.0050885463546237715,-0.706944843406881,0.7072386957638827,0.0,0.0,0.0,0.0,0.0,0.0,0.0,0.0,0.0,0.044229560619411405,-0.010897253203217001,0.4865911495880484,0.0,0.0,0.0,0.0,0.0,0.0,0.0,0.0,0.0,1.1710249112475923,4.497065576271372,9.710662179034344,0.0,0.0,0.0,0.0,0.0,0.0,0.0,0.0,0.0
160132000000,60,160131000000,base_link,-0.004081082660192805,-0.00507739528800646,-0.7071169593671285,0.7070665955882776,0.0,0.0,0.0,0.0,0.0,0.0,0.0,0.0,0.0,-0.04200222928128325,-0.007654852833833742,-0.48652806327737874,0.0,0.0,0.0,0.0,0.0,0.0,0.0,0.0,0.0,-1.016513180258406,-4.60965228591635,9.79535756626691,0.0,0.0,0.0,0.0,0.0,0.0,0.0,0.0,0.0
160133000000,61,160132000000,base_link,-0.004069710837211468,-0.005098199104006909,-0.7069448095804987,0.70723863159954,0.0,0.0,0.0,0.0,0.0,0.0,0.0,0.0,0.0,0.0486550673995922,-0.012995074672271581,0.48645662137570533,0.0,0.0,0.0,0.0,0.0,0.0,0.0,0.0,0.0,1.4310427718584833,4.258672172386962,10.223038399600384,0.0,0.0,0.0,0.0,0.0,0.0,0.0,0.0,0.0
160134000000,62,160133000000,base_link,-0.004081741047177324,-0.005082895215494738,-0.7071168578129011,0.7070666538333295,0.0,0.0,0.0,0.0,0.0,0.0,0.0,0.0,0.0,-0.04180854065971752,0.004284432804185296,-0.4862686761454337,0.0,0.0,0.0,0.0,0.0,0.0,0.0,0.0,0.0,-0.6095382933731966,-4.641899587700864,11.240742899471304,0.0,0.0,0.0,0.0,0.0,0.0,0.0,0.0,0.0
160135000000,63,160134000000,base_link,-0.004066163604131493,-0.005094706855643747,-0.7069447417865974,0.7072387449340434,0.0,0.0,0.0,0.0,0.0,0.0,0.0,0.0,0.0,0.041887560116150885,0.005671287540849005,0.4865172757372475,0.0,0.0,0.0,0.0,0.0,0.0,0.0,0.0,0.0,1.914095493744391,4.67575504080218,12.930593060612711,0.0,0.0,0.0,0.0,0.0,0.0,0.0,0.0,0.0
160136000000,64,160135000000,base_link,-0.004077616459884381,-0.0050664663902058385,-0.7071166519436316,0.7070670014265635,0.0,0.0,0.0,0.0,0.0,0.0,0.0,0.0,0.0,-0.05927704363859923,0.02340049505867108,-0.48564304247516177,0.0,0.0,0.0,0.0,0.0,0.0,0.0,0.0,0.0,-0.011125470080891042,-4.058431508766457,14.371058364065377,0.0,0.0,0.0,0.0,0.0,0.0,0.0,0.0,0.0
160137000000,65,160136000000,base_link,-0.004062466755661201,-0.005074304177965874,-0.7069445989100105,0.7072390556756128,0.0,0.0,0.0,0.0,0.0,0.0,0.0,0.0,0.0,0.03565471771504326,0.01068181597208231,0.48641347876895097,0.0,0.0,0.0,0.0,0.0,0.0,0.0,0.0,0.0,2.4785690586151294,5.573836452478063,15.274680569547368,0.0,0.0,0.0,0.0,0.0,0.0,0.0,0.0,0.0
160138000000,66,160137000000,base_link,-0.004079933578633788,-0.005047368064502178,-0.7071165233336903,0.7070672532695106,0.0,0.0,0.0,0.0,0.0,0.0,0.0,0.0,0.0,-0.06593179737796445,0.013057710147743446,-0.4856967967691349,0.0,0.0,0.0,0.0,0.0,0.0,0.0,0.0,0.0,0.42816103868150435,-4.823437958583519,14.531075023069153,0.0,0.0,0.0,0.0,0.0,0.0,0.0,0.0,0.0
160139000000,67,160138000000,base_link,-0.004068294041624486,-0.005062547347993158,-0.7069445782696419,0.7072391270660148,0.0,0.0,0.0,0.0,0.0,0.0,0.0,0.0,0.0,0.041065123881314246,-0.004672559079397596,0.48598170663170615,0.0,0.0,0.0,0.0,0.0,0.0,0.0,0.0,0.0,2.781219753709255,5.504672951595114,13.417186406018107,0.0,0.0,0.0,0.0,0.0,0.0,0.0,0.0,0.0
160140000000,68,160139000000,base_link,-0.004088613504601788,-0.0050461916819209635,-0.7071169605094773,0.7070667743211795,0.0,0.0,0.0,0.0,0.0,0.0,0.0,0.0,0.0,-0.055014288869689405,-0.00593721914192543,-0.48717980550380413,0.0,0.0,0.0,0.0,0.0,0.0,0.0,0.0,0.0,0.45925335726852656,-5.890154366966333,12.282741721899193,0.0,0.0,0.0,0.0,0.0,0.0,0.0,0.0,0.0
160141000000,69,160140000000,base_link,-0.004079218083261085,-0.005073844626343289,-0.7069452766818735,0.7072382850622033,0.0,0.0,0.0,0.0,0.0,0.0,0.0,0.0,0.0,0.055529295467817236,-0.025490579108218014,0.48501923603935737,0.0,0.0,0.0,0.0,0.0,0.0,0.0,0.0,0.0,2.7348339960364525,4.9725568904542685,11.170470121006812,0.0,0.0,0.0,0.0,0.0,0.0,0.0,0.0,0.0
160142000000,70,160141000000,base_link,-0.004100601771271305,-0.005067774762627011,-0.7071174821148575,0.7070660288909466,0.0,0.0,0.0,0.0,0.0,0.0,0.0,0.0,0.0,-0.04198167809668302,-0.021991590186224538,-0.4868654224482028,0.0,0.0,0.0,0.0,0.0,0.0,0.0,0.0,0.0,0.5494661891904091,-6.336589211098866,9.775903912490035,0.0,0.0,0.0,0.0,0.0,0.0,0.0,0.0,0.0
160143000000,71,160142000000,base_link,-0.004089937448577554,-0.0051024610485735505,-0.7069458390908956,0.7072374550990523,0.0,0.0,0.0,0.0,0.0,0.0,0.0,0.0,0.0,0.06728091857984639,-0.0336393124650028,0.4847702964887576,0.0,0.0,0.0,0.0,0.0,0.0,0.0,0.0,0.0,2.8870384609412927,5.0639166679735785,9.050386683182088,0.0,0.0,0.0,0.0,0.0,0.0,0.0,0.0,0.0
160144000000,72,160143000000,base_link,-0.00410998573413573,-0.005099155092944906,-0.7071176969782145,0.7070655339180587,0.0,0.0,0.0,0.0,0.0,0.0,0.0,0.0,0.0,-0.03619215124767959,-0.024018579776716117,-0.48593497780438544,0.0,0.0,0.0,0.0,0.0,0.0,0.0,0.0,0.0,0.6191005556940821,-6.221010931704375,8.22291563883826,0.0,0.0,0.0,0.0,0.0,0.0,0.0,0.0,0.0
160145000000,73,160144000000,base_link,-0.0040967110898032875,-0.005134433232901768,-0.706946033888492,0.7072369897869841,0.0,0.0,0.0,0.0,0.0,0.0,0.0,0.0,0.0,0.07182371907700097,-0.030776948364238672,0.48480771708225273,0.0,0.0,0.0,0.0,0.0,0.0,0.0,0.0,0.0,2.9241657606194096,5.548336077317522,7.833848249202551,0.0,0.0,0.0,0.0,0.0,0.0,0.0,0.0,0.0
160146000000,74,160145000000,base_link,-0.004113534454084915,-0.00513000833907118,-0.7071177860309862,0.7070652010439861,0.0,0.0,0.0,0.0,0.0,0.0,0.0,0.0,0.0,-0.03322377181195303,-0.017884362504224857,-0.485620680049791,0.0,0.0,0.0,0.0,0.0,0.0,0.0,0.0,0.0,0.6822198542462132,-6.0435579617990625,7.319105229553694,0.0,0.0,0.0,0.0,0.0,0.0,0.0,0.0,0.0
160147000000,75,160146000000,base_link,-0.004098158687931171,-0.005162794007535435,-0.7069461072243035,0.7072367016309378,0.0,0.0,0.0,0.0,0.0,0.0,0.0,0.0,0.0,0.07128237368138272,-0.024271070306490575,0.48489097964458694,0.0,0.0,0.0,0.0,0.0,0.0,0.0,0.0,0.0,3.019600427695526,5.780969134123604,7.3612217227398,0.0,0.0,0.0,0.0,0.0,0.0,0.0,0.0,0.0
160148000000,76,160147000000,base_link,-0.004113487728655061,-0.00515595189727934,-0.7071177039912334,0.7070650946560051,0.0,0.0,0.0,0.0,0.0,0.0,0.0,0.0,0.0,-0.03453491059526878,-0.012361110082020252,-0.48513848159840506,0.0,0.0,0.0,0.0,0.0,0.0,0.0,0.0,0.0,0.8391586725244204,-5.811396380374592,7.185553879076732,0.0,0.0,0.0,0.0,0.0,0.0,0.0,0.0,0.0
160149000000,77,160148000000,base_link,-0.004097440704883153,-0.005185428400437756,-0.7069458058432124,0.707236841456004,0.0,0.0,0.0,0.0,0.0,0.0,0.0,0.0,0.0,0.06756485114068508,-0.018632509707591265,0.4855688031448625,0.0,0.0,0.0,0.0,0.0,0.0,0.0,0.0,0.0,3.25206341151004,5.998016079965824,7.344961155504332,0.0,0.0,0.0,0.0,0.0,0.0,0.0,0.0,0.0
160150000000,78,160149000000,base_link,-0.004109885253022803,-0.005174132410084354,-0.7071176680688502,0.7070650187230882,0.0,0.0,0.0,0.0,0.0,0.0,0.0,0.0,0.0,-0.036764218387782766,-0.001990919607922293,-0.48581170050449934,0.0,0.0,0.0,0.0,0.0,0.0,0.0,0.0,0.0,0.45864633738489136,-5.59227976790106,7.3631800669059615,0.0,0.0,0.0,0.0,0.0,0.0,0.0,0.0,0.0
160151000000,79,160150000000,base_link,-0.004091454590555266,-0.005194718915031465,-0.7069453766334124,0.707237236966048,0.0,0.0,0.0,0.0,0.0,0.0,0.0,0.0,0.0,0.05837602973779585,-0.002680737036735985,0.4868396916775366,0.0,0.0,0.0,0.0,0.0,0.0,0.0,0.0,0.0,2.8772973908349413,5.9079266399341455,7.699398822196828,0.0,0.0,0.0,0.0,0.0,0.0,0.0,0.0,0.0
160152000000,80,160151000000,base_link,-0.004100464872172254,-0.005174677613745439,-0.7071172295646746,0.7070655079638698,0.0,0.0,0.0,0.0,0.0,0.0,0.0,0.0,0.0,-0.04427172341300662,0.015230444821310567,-0.48563003932845616,0.0,0.0,0.0,0.0,0.0,0.0,0.0,0.0,0.0,0.7633809573932929,-5.157362253309353,8.036054294463643,0.0,0.0,0.0,0.0,0.0,0.0,0.0,0.0,0.0
160153000000,81,160152000000,base_link,-0.004079549812489921,-0.005186828902904259,-0.7069449787235498,0.7072377613906224,0.0,0.0,0.0,0.0,0.0,0.0,0.0,0.0,0.0,0.04995673133894444,0.012765378473149225,0.48687589410856985,0.0,0.0,0.0,0.0,0.0,0.0,0.0,0.0,0.0,3.184038058329967,6.002951265140154,8.618567493416476,0.0,0.0,0.0,0.0,0.0,0.0,0.0,0.0,0.0
160154000000,82,160153000000,base_link,-0.00408775939228285,-0.005157918990091757,-0.7071167502255119,0.7070661833558112,0.0,0.0,0.0,0.0,0.0,0.0,0.0,0.0,0.0,-0.055669507793159705,0.028906531457052655,-0.48523801766487185,0.0,0.0,0.0,0.0,0.0,0.0,0.0,0.0,0.0,1.1014351566967657,-5.14283268925278,9.144408852143293,0.0,0.0,0.0,0.0,0.0,0.0,0.0,0.0,0.0
160155000000,83,160154000000,base_link,-0.004066790023143042,-0.005163445017551478,-0.7069445260383671,0.7072384584840157,0.0,0.0,0.0,0.0,0.0,0.0,0.0,0.0,0.0,0.040653633341428116,0.022210190928323274,0.48692357477883197,0.0,0.0,0.0,0.0,0.0,0.0,0.0,0.0,0.0,3.5415374525899224,6.303962349042852,9.931481808387387,0.0,0.0,0.0,0.0,0.0,0.0,0.0,0.0,0.0
160156000000,84,160155000000,base_link,-0.004078404890017903,-0.005129808082464246,-0.7071162635129283,0.7070669286270609,0.0,0.0,0.0,0.0,0.0,0.0,0.0,0.0,0.0,-0.06715652321079763,0.030782006574798564,-0.48504936083660344,0.0,0.0,0.0,0.0,0.0,0.0,0.0,0.0,0.0,1.4679767739090175,-5.316417618056387,10.512687526154778,0.0,0.0,0.0,0.0,0.0,0.0,0.0,0.0,0.0
160157000000,85,160156000000,base_link,-0.004060817885548238,-0.005135607802147923,-0.7069441702872536,0.7072390510905555,0.0,0.0,0.0,0.0,0.0,0.0,0.0,0.0,0.0,0.036242112405870865,0.017032713016683305,0.4865563149067229,0.0,0.0,0.0,0.0,0.0,0.0,0.0,0.0,0.0,3.9495321661771072,6.483897936418737,11.290629183086757,0.0,0.0,0.0,0.0,0.0,0.0,0.0,0.0,0.0
160158000000,86,160157000000,base_link,-0.004086059437042431,-0.005102069157040236,-0.707115707102828,0.7070676415853446,0.0,0.0,0.0,0.0,0.0,0.0,0.0,0.0,0.0,-0.08627754092873637,0.011383519623516948,-0.4844573348230894,0.0,0.0,0.0,0.0,0.0,0.0,0.0,0.0,0.0,1.7300940509490195,-5.74889146603517,11.29112945355165,0.0,0.0,0.0,0.0,0.0,0.0,0.0,0.0,0.0
160159000000,87,160158000000,base_link,-0.004075305760309612,-0.005119198869099555,-0.7069439297708553,0.7072393271347676,0.0,0.0,0.0,0.0,0.0,0.0,0.0,0.0,0.0,0.04258840624051362,-0.00866742470117516,0.48546977971925104,0.0,0.0,0.0,0.0,0.0,0.0,0.0,0.0,0.0,4.348935524851944,7.2988316136338165,12.39252201228241,0.0,0.0,0.0,0.0,0.0,0.0,0.0,0.0,0.0
160160000000,88,160159000000,base_link,-0.004113633513832916,-0.005093248748488633,-0.7071155788687966,0.7070676735345399,0.0,0.0,0.0,0.0,0.0,0.0,0.0,0.0,0.0,-0.09406084613012579,-0.017843666972241767,-0.48488901714037,0.0,0.0,0.0,0.0,0.0,0.0,0.0,0.0,0.0,2.0991793710213416,-7.362320845709743,12.028885340056586,0.0,0.0,0.0,0.0,0.0,0.0,0.0,0.0,0.0
160161000000,89,160160000000,base_link,-0.004114996351325819,-0.005122747195578193,-0.7069436188732428,0.7072393823880301,0.0,0.0,0.0,0.0,0.0,0.0,0.0,0.0,0.0,0.042954752247928905,-0.043307814251241035,0.4857819241549376,0.0,0.0,0.0,0.0,0.0,0.0,0.0,0.0,0.0,4.507298780775116,7.981157315120385,12.117314197524639,0.0,0.0,0.0,0.0,0.0,0.0,0.0,0.0,0.0
160162000000,90,160161000000,base_link,-0.004162856741180975,-0.005107832614315045,-0.707115458107904,0.70706740101251,0.0,0.0,0.0,0.0,0.0,0.0,0.0,0.0,0.0,-0.09196102744203467,-0.04692063594411788,-0.48561213507253775,0.0,0.0,0.0,0.0,0.0,0.0,0.0,0.0,0.0,2.4166077688439915,-7.935012946367395,11.99840953429426,0.0,0.0,0.0,0.0,0.0,0.0,0.0,0.0,0.0
160163000000,91,160162000000,base_link,-0.00416707251190869,-0.005147456685975246,-0.7069440532430281,0.7072384638724517,0.0,0.0,0.0,0.0,0.0,0.0,0.0,0.0,0.0,0.053251155745925094,-0.06167540077301438,0.4840251526145985,0.0,0.0,0.0,0.0,0.0,0.0,0.0,0.0,0.0,4.734805550620329,7.755415193160717,11.537489549584148,0.0,0.0,0.0,0.0,0.0,0.0,0.0,0.0,0.0
160164000000,92,160163000000,base_link,-0.004167729924462799,-0.0050917721287014675,-0.707050292037989,0.7071326526281052,0.0,0.0,0.0,0.0,0.0,0.0,0.0,0.0,0.0,-0.08163719462483064,0.07763110662722708,-0.29940673686633257,0.0,0.0,0.0,0.0,0.0,0.0,0.0,0.0,0.0,-13.845575066398013,-8.645739028676045,11.317525734244423,0.0,0.0,0.0,0.0,0.0,0.0,0.0,0.0,0.0
160165000000,93,160164000000,base_link,-0.004125839943539139,-0.005093535148363746,-0.706890226022472,0.7072928966830866,0.0,0.0,0.0,0.0,0.0,0.0,0.0,0.0,0.0,0.06470238274825428,0.05704089904381706,0.45253575199107454,0.0,0.0,0.0,0.0,0.0,0.0,0.0,0.0,0.0,4.777718806417297,7.252449935458482,10.793542691970195,0.0,0.0,0.0,0.0,0.0,0.0,0.0,0.0,0.0
160166000000,94,160165000000,base_link,-0.004126541962172089,-0.00505012031417355,-0.7070605015951832,0.7071229843670866,0.0,0.0,0.0,0.0,0.0,0.0,0.0,0.0,0.0,-0.06550878271829916,0.06009566005313234,-0.4807227345708928,0.0,0.0,0.0,0.0,0.0,0.0,0.0,0.0,0.0,2.2261333316721306,-8.314426245956675,9.492016956457027,0.0,0.0,0.0,0.0,0.0,0.0,0.0,0.0,0.0
160167000000,95,160166000000,base_link,-0.004090505123291129,-0.00506725672472954,-0.7068897259670863,0.7072937904430519,0.0,0.0,0.0,0.0,0.0,0.0,0.0,0.0,0.0,0.07833246636408617,0.027041108890190676,0.48255380857008395,0.0,0.0,0.0,0.0,0.0,0.0,0.0,0.0,0.0,4.609959848995603,7.101579723327843,9.943921469964785,0.0,0.0,0.0,0.0,0.0,0.0,0.0,0.0,0.0
160168000000,96,160167000000,base_link,-0.004101710843311311,-0.005040594401417151,-0.7070616344794818,0.7071220640196725,0.0,0.0,0.0,0.0,0.0,0.0,0.0,0.0,0.0,-0.05669322367290627,0.02153979692552362,-0.4856312606902319,0.0,0.0,0.0,0.0,0.0,0.0,0.0,0.0,0.0,2.0582095117114116,-8.464779745150853,8.6183654354893,0.0,0.0,0.0,0.0,0.0,0.0,0.0,0.0,0.0
160169000000,97,160168000000,base_link,-0.004078505458422047,-0.005073448574140298,-0.7068901917070606,0.7072933498776488,0.0,0.0,0.0,0.0,0.0,0.0,0.0,0.0,0.0,0.08241140901506647,-0.013328198804196473,0.48417781170996255,0.0,0.0,0.0,0.0,0.0,0.0,0.0,0.0,0.0,4.550662466029497,7.5536816976829035,9.281990160050325,0.0,0.0,0.0,0.0,0.0,0.0,0.0,0.0,0.0
160170000000,98,160169000000,base_link,-0.004101734895660086,-0.005061331889668857,-0.7070618246876186,0.7071217255605738,0.0,0.0,0.0,0.0,0.0,0.0,0.0,0.0,0.0,-0.05313186898973091,-0.01604266466192159,-0.48509429615174404,0.0,0.0,0.0,0.0,0.0,0.0,0.0,0.0,0.0,1.9388997347173753,-8.08310139470246,7.859945714770165,0.0,0.0,0.0,0.0,0.0,0.0,0.0,0.0,0.0
160171000000,99,160170000000,base_link,-0.004040891391262896,-0.005053057809969732,-0.706963725075063,0.7072202126859242,0.0,0.0,0.0,0.0,0.0,0.0,0.0,0.0,0.0,0.07614792228933474,0.0979339974866771,0.27746168875967814,0.0,0.0,0.0,0.0,0.0,0.0,0.0,0.0,0.0,-13.827610749294532,7.85151155336563,8.844447368793782,0.0,0.0,0.0,0.0,0.0,0.0,0.0,0.0,0.0
160172000000,100,160171000000,base_link,-0.00393575381293213,-0.004913796698498552,-0.7069847775660751,0.707200741468628,0.0,0.0,0.0,0.0,0.0,0.0,0.0,0.0,0.0,-0.04856438904703975,0.3456068224809108,-0.057245438329973565,0.0,0.0,0.0,0.0,0.0,0.0,0.0,0.0,0.0,-32.57569858278053,-7.226403847950335,8.84860328461177,0.0,0.0,0.0,0.0,0.0,0.0,0.0,0.0,0.0
160173000000,101,160172000000,base_link,-0.0039240358807319815,-0.004932877166991482,-0.7069759736488004,0.707209474871903,0.0,0.0,0.0,0.0,0.0,0.0,0.0,0.0,0.0,0.04370832861158416,-0.010402115320437454,0.02453568887442041,0.0,0.0,0.0,0.0,0.0,0.0,0.0,0.0,0.0,38.68939968403233,6.647113919535757,7.959351955881035,0.0,0.0,0.0,0.0,0.0,0.0,0.0,0.0,0.0
160174000000,102,160173000000,base_link,-0.0038620779249750694,-0.004843420614068583,-0.7069820656953578,0.7072043441721644,0.0,0.0,0.0,0.0,0.0,0.0,0.0,0.0,0.0,-0.03895312946022521,0.2141318096959362,-0.015780469597616174,0.0,0.0,0.0,0.0,0.0,0.0,0.0,0.0,0.0,-33.75035497866268,-4.151599887678881,9.291380225645455,0.0,0.0,0.0,0.0,0.0,0.0,0.0,0.0,0.0
160175000000,103,160174000000,base_link,-0.0037093299836269606,-0.004696290241606546,-0.7069855455253796,0.7072026754383927,0.0,0.0,0.0,0.0,0.0,0.0,0.0,0.0,0.0,0.0079643481285247,0.42409331087082724,-0.007624618815091516,0.0,0.0,0.0,0.0,0.0,0.0,0.0,0.0,0.0,-34.08657466198386,4.372429384673308,9.489105690601848,0.0,0.0,0.0,0.0,0.0,0.0,0.0,0.0,0.0
160176000000,104,160175000000,base_link,-0.003701570951182151,-0.00466699116228134,-0.7069800304936952,0.7072084233442912,0.0,0.0,0.0,0.0,0.0,0.0,0.0,0.0,0.0,-0.030359192029237536,0.052424895694551735,0.01607234567745968,0.0,0.0,0.0,0.0,0.0,0.0,0.0,0.0,0.0,37.05519576104837,-1.8494842210853848,8.042291799980283,0.0,0.0,0.0,0.0,0.0,0.0,0.0,0.0,0.0
160177000000,105,160176000000,base_link,-0.003617431231662933,-0.0045756335501548435,-0.7069854313193988,0.7072040565996653,0.0,0.0,0.0,0.0,0.0,0.0,0.0,0.0,0.0,-0.010250116971486617,0.2481871744899496,-0.013922446754730922,0.0,0.0,0.0,0.0,0.0,0.0,0.0,0.0,0.0,-34.42611101137685,2.000703100347498,9.552440209545567,0.0,0.0,0.0,0.0,0.0,0.0,0.0,0.0,0.0
160178000000,106,160177000000,base_link,-0.0036708933248080187,-0.00460874726459143,-0.7069794127109347,0.7072095827926478,0.0,0.0,0.0,0.0,0.0,0.0,0.0,0.0,0.0,-0.028700331843859755,-0.12242312070269518,0.016576317258090528,0.0,0.0,0.0,0.0,0.0,0.0,0.0,0.0,0.0,37.14852661688874,-0.7079887074142047,8.371204057347255,0.0,0.0,0.0,0.0,0.0,0.0,0.0,0.0,0.0
160179000000,107,160178000000,base_link,-0.0036461793957748866,-0.00457291675677376,-0.7069848945217712,0.7072044631690256,0.0,0.0,0.0,0.0,0.0,0.0,0.0,0.0,0.0,-0.015795123627928676,0.085616891303613,-0.014957255888987732,0.0,0.0,0.0,0.0,0.0,0.0,0.0,0.0,0.0,-33.98540974938959,0.9806885228799557,9.654322637097403,0.0,0.0,0.0,0.0,0.0,0.0,0.0,0.0,0.0
160180000000,108,160179000000,base_link,-0.003753429072144138,-0.004659599555948922,-0.7069785160042252,0.7072097127519124,0.0,0.0,0.0,0.0,0.0,0.0,0.0,0.0,0.0,-0.02903142191570067,-0.27425123242853644,0.016793349532756293,0.0,0.0,0.0,0.0,0.0,0.0,0.0,0.0,0.0,37.86478543534841,-0.4961751306601736,9.579204931292951,0.0,0.0,0.0,0.0,0.0,0.0,0.0,0.0,0.0
160181000000,109,160180000000,base_link,-0.003774278079309649,-0.0046623522228098025,-0.7069833194282171,0.7072047817619661,0.0,0.0,0.0,0.0,0.0,0.0,0.0,0.0,0.0,-0.025678868385571024,-0.03338292003482671,-0.013592631946095949,0.0,0.0,0.0,0.0,0.0,0.0,0.0,0.0,0.0,-33.75736697308619,0.7639073770277716,8.427123825316013,0.0,0.0,0.0,0.0,0.0,0.0,0.0,0.0,0.0
160182000000,110,160181000000,base_link,-0.0037146298809673495,-0.004582280070300578,-0.706986941135814,0.7072020003490019,0.0,0.0,0.0,0.0,0.0,0.0,0.0,0.0,0.0,-0.02890713731643177,0.19759678460127694,-0.00900717572674982,0.0,0.0,0.0,0.0,0.0,0.0,0.0,0.0,0.0,-33.597627356011124,0.014663142638080759,9.155166607747217,0.0,0.0,0.0,0.0,0.0,0.0,0.0,0.0,0.0
160183000000,111,160182000000,base_link,-0.0037817105602631785,-0.004625656475216299,-0.706980580970185,0.7072077206157122,0.0,0.0,0.0,0.0,0.0,0.0,0.0,0.0,0.0,-0.03344529214812015,-0.15619691727642024,0.017376661834612353,0.0,0.0,0.0,0.0,0.0,0.0,0.0,0.0,0.0,38.119755654007676,0.26388645155323537,9.784293281106375,0.0,0.0,0.0,0.0,0.0,0.0,0.0,0.0,0.0
160184000000,112,160183000000,base_link,-0.003769774411902221,-0.004592313273071891,-0.7069855576970326,0.7072030264835559,0.0,0.0,0.0,0.0,0.0,0.0,0.0,0.0,0.0,-0.03034486527192234,0.06403260441569891,-0.013534716231594001,0.0,0.0,0.0,0.0,0.0,0.0,0.0,0.0,0.0,-33.46443906822666,0.34963112000256485,10.023497540386547,0.0,0.0,0.0,0.0,0.0,0.0,0.0,0.0,0.0
160185000000,113,160184000000,base_link,-0.0038842096101723575,-0.00468096562812453,-0.7069785434679206,0.7072088380050621,0.0,0.0,0.0,0.0,0.0,0.0,0.0,0.0,0.0,-0.03639772880750117,-0.28719800302374343,0.018520937654733297,0.0,0.0,0.0,0.0,0.0,0.0,0.0,0.0,0.0,38.284148908446475,-0.04150740374227095,9.758851242823212,0.0,0.0,0.0,0.0,0.0,0.0,0.0,0.0,0.0
160186000000,114,160185000000,base_link,-0.003905993619782715,-0.004686578953144536,-0.7069835671690834,0.7072036587465005,0.0,0.0,0.0,0.0,0.0,0.0,0.0,0.0,0.0,-0.022961953757056622,-0.038750702556684315,-0.014268527337440572,0.0,0.0,0.0,0.0,0.0,0.0,0.0,0.0,0.0,-33.56067355845958,0.2579319115392763,8.285983594058337,0.0,0.0,0.0,0.0,0.0,0.0,0.0,0.0,0.0
160187000000,115,160186000000,base_link,-0.004039930233229672,-0.0048081541137871215,-0.7069769651921596,0.7072086900663853,0.0,0.0,0.0,0.0,0.0,0.0,0.0,0.0,0.0,-0.017436458946026162,-0.36134318746447913,0.01675767112878913,0.0,0.0,0.0,0.0,0.0,0.0,0.0,0.0,0.0,38.32254734792327,-0.9133736997734198,8.364575485396903,0.0,0.0,0.0,0.0,0.0,0.0,0.0,0.0,0.0
160188000000,116,160187000000,base_link,-0.004059087951313086,-0.004836320282591852,-0.7069821829541661,0.7072031722189105,0.0,0.0,0.0,0.0,0.0,0.0,0.0,0.0,0.0,0.012633896626761225,-0.06693775204427829,-0.015225427592909062,0.0,0.0,0.0,0.0,0.0,0.0,0.0,0.0,0.0,-33.42742086038646,-0.943023087704824,7.12540171492196,0.0,0.0,0.0,0.0,0.0,0.0,0.0,0.0,0.0
160189000000,117,160188000000,base_link,-0.00417155657349654,-0.004963091792119568,-0.7069755802702109,0.7072082400094158,0.0,0.0,0.0,0.0,0.0,0.0,0.0,0.0,0.0,0.020279071213477995,-0.33833763912421655,0.01656326864697571,0.0,0.0,0.0,0.0,0.0,0.0,0.0,0.0,0.0,38.48549265206449,-2.353855930392683,7.126647622827234,0.0,0.0,0.0,0.0,0.0,0.0,0.0,0.0,0.0
160190000000,118,160189000000,base_link,-0.004164566123532822,-0.00497453956513301,-0.7069803434471695,0.7072034391350481,0.0,0.0,0.0,0.0,0.0,0.0,0.0,0.0,0.0,0.025986665165330755,-0.006315678607574543,-0.01369021642815468,0.0,0.0,0.0,0.0,0.0,0.0,0.0,0.0,0.0,-33.253879161257245,-1.1652898666686664,7.392136820091212,0.0,0.0,0.0,0.0,0.0,0.0,0.0,0.0,0.0
160191000000,119,160190000000,base_link,-0.004243564454448072,-0.005074375278992368,-0.7069734056932835,0.7072091957254862,0.0,0.0,0.0,0.0,0.0,0.0,0.0,0.0,0.0,0.02954496383285983,-0.2529093693797816,0.01790681531381428,0.0,0.0,0.0,0.0,0.0,0.0,0.0,0.0,0.0,38.772664011984965,-0.6335772108831771,8.18073086884375,0.0,0.0,0.0,0.0,0.0,0.0,0.0,0.0,0.0
160192000000,120,160191000000,base_link,-0.004210967107724065,-0.005047685254485779,-0.7069778132720572,0.7072051754410806,0.0,0.0,0.0,0.0,0.0,0.0,0.0,0.0,0.0,0.008289159589981901,0.0838383828919882,-0.012022929468778401,0.0,0.0,0.0,0.0,0.0,0.0,0.0,0.0,0.0,-32.85005657872779,-0.2143377240095703,9.376234036310697,0.0,0.0,0.0,0.0,0.0,0.0,0.0,0.0,0.0
160193000000,121,160192000000,base_link,-0.00426579358357098,-0.005113224072654436,-0.70697074145047,0.7072114455222414,0.0,0.0,0.0,0.0,0.0,0.0,0.0,0.0,0.0,0.015246044692853691,-0.17021724706241798,0.018869604230714123,0.0,0.0,0.0,0.0,0.0,0.0,0.0,0.0,0.0,39.35169079477994,1.4254119782608543,10.41911012433239,0.0,0.0,0.0,0.0,0.0,0.0,0.0,0.0,0.0
160194000000,122,160193000000,base_link,-0.004219591027049212,-0.005056553806224707,-0.7069752540523447,0.7072076190715085,0.0,0.0,0.0,0.0,0.0,0.0,0.0,0.0,0.0,-0.014857280609892179,0.14548280240968278,-0.01178210557559885,0.0,0.0,0.0,0.0,0.0,0.0,0.0,0.0,0.0,-32.18683475953523,0.10185683592651248,11.828674767893924,0.0,0.0,0.0,0.0,0.0,0.0,0.0,0.0,0.0
160195000000,123,160194000000,base_link,-0.004262002690204939,-0.005098933946466063,-0.7069683943419978,0.7072139178545453,0.0,0.0,0.0,0.0,0.0,0.0,0.0,0.0,0.0,5.824775116520381e-05,-0.11990529911511272,0.018679906348211643,0.0,0.0,0.0,0.0,0.0,0.0,0.0,0.0,0.0,39.64309982281738,2.0446005501226385,11.87036749148238,0.0,0.0,0.0,0.0,0.0,0.0,0.0,0.0,0.0
160196000000,124,160195000000,base_link,-0.0042064193947960234,-0.0050254404887005765,-0.7069732479451724,0.7072099247561672,0.0,0.0,0.0,0.0,0.0,0.0,0.0,0.0,0.0,-0.025380077139691426,0.18254311044937443,-0.01245143265856307,0.0,0.0,0.0,0.0,0.0,0.0,0.0,0.0,0.0,-31.803946361661897,-0.35390131568585004,13.03449669795571,0.0,0.0,0.0,0.0,0.0,0.0,0.0,0.0,0.0
160197000000,125,160196000000,base_link,-0.004246178619932964,-0.005057873921660248,-0.7069665613038086,0.7072161402830034,0.0,0.0,0.0,0.0,0.0,0.0,0.0,0.0,0.0,-0.010257601504076036,-0.10208569068171,0.018372898683103794,0.0,0.0,0.0,0.0,0.0,0.0,0.0,0.0,0.0,39.79710187644529,1.6054343875718085,12.586434203596749,0.0,0.0,0.0,0.0,0.0,0.0,0.0,0.0,0.0
160198000000,126,160197000000,base_link,-0.004191101808289508,-0.004982273717221168,-0.7069715926898535,0.707211975820412,0.0,0.0,0.0,0.0,0.0,0.0,0.0,0.0,0.0,-0.029077475297555208,0.18480690033292174,-0.012919945685635629,0.0,0.0,0.0,0.0,0.0,0.0,0.0,0.0,0.0,-31.594152600724616,-0.5274038298533484,13.860674314102567,0.0,0.0,0.0,0.0,0.0,0.0,0.0,0.0,0.0
160199000000,127,160198000000,base_link,-0.004236347651798855,-0.0050177136379178965,-0.7069651323216747,0.7072179137930672,0.0,0.0,0.0,0.0,0.0,0.0,0.0,0.0,0.0,-0.013772622494523885,-0.11409710787866195,0.017687445211877262,0.0,0.0,0.0,0.0,0.0,0.0,0.0,0.0,0.0,39.94551045204835,1.0916074192196732,12.895951235908448,0.0,0.0,0.0,0.0,0.0,0.0,0.0,0.0,0.0
160200000000,128,160199000000,base_link,-0.004186189055441672,-0.004950238339402512,-0.7069703350791944,0.7072134870600156,0.0,0.0,0.0,0.0,0.0,0.0,0.0,0.0,0.0,-0.024548969280114477,0.1663598949321383,-0.013549723822730945,0.0,0.0,0.0,0.0,0.0,0.0,0.0,0.0,0.0,-31.452735067999434,-0.74044579148784,13.697380039860597,0.0,0.0,0.0,0.0,0.0,0.0,0.0,0.0,0.0
160201000000,129,160200000000,base_link,-0.004040116285657944,-0.004798987660643937,-0.7069744537606829,0.7072112618642433,0.0,0.0,0.0,0.0,0.0,0.0,0.0,0.0,0.0,-0.007309627571355337,0.4204837318501248,-0.00915173137754272,0.0,0.0,0.0,0.0,0.0,0.0,0.0,0.0,0.0,-31.642383353319474,0.462297326216399,13.409939809098784,0.0,0.0,0.0,0.0,0.0,0.0,0.0,0.0,0.0
160202000000,130,160201000000,base_link,-0.0040247493562663135,-0.004774307653990276,-0.7069692945276708,0.707216673993262,0.0,0.0,0.0,0.0,0.0,0.0,0.0,0.0,0.0,-0.01306768794708104,0.0566462680256167,0.015001738082120169,0.0,0.0,0.0,0.0,0.0,0.0,0.0,0.0,0.0,38.743925238463355,-1.0756663128569435,9.820759400228606,0.0,0.0,0.0,0.0,0.0,0.0,0.0,0.0,0.0
160203000000,131,160202000000,base_link,-0.003935015147965751,-0.004684243135575976,-0.7069748262077378,0.7072122514709224,0.0,0.0,0.0,0.0,0.0,0.0,0.0,0.0,0.0,-0.0005110603921694157,0.2542712185384713,-0.014209231079515293,0.0,0.0,0.0,0.0,0.0,0.0,0.0,0.0,0.0,-32.89879846247817,0.018465922207264826,10.620593778359664,0.0,0.0,0.0,0.0,0.0,0.0,0.0,0.0,0.0
160204000000,132,160203000000,base_link,-0.0039890181812058684,-0.004720876126355905,-0.706968829531289,0.7072176999578765,0.0,0.0,0.0,0.0,0.0,0.0,0.0,0.0,0.0,-0.024486949382348244,-0.12816832008161505,0.016403356303917607,0.0,0.0,0.0,0.0,0.0,0.0,0.0,0.0,0.0,38.31899624935115,-0.5865522260143772,8.271166473365717,0.0,0.0,0.0,0.0,0.0,0.0,0.0,0.0,0.0
160205000000,133,160204000000,base_link,-0.003962653495845254,-0.0046877152591349395,-0.7069748842848513,0.7072120160838206,0.0,0.0,0.0,0.0,0.0,0.0,0.0,0.0,0.0,-0.00969876833522483,0.08417656538180275,-0.016585071591800792,0.0,0.0,0.0,0.0,0.0,0.0,0.0,0.0,0.0,-33.6073044473866,1.3692044116550652,8.596642378411632,0.0,0.0,0.0,0.0,0.0,0.0,0.0,0.0,0.0
160206000000,134,160205000000,base_link,-0.004069103571752735,-0.004778583134875059,-0.7069680674244403,0.7072176179801358,0.0,0.0,0.0,0.0,0.0,0.0,0.0,0.0,0.0,-0.021974626183359047,-0.2790422756581456,0.017840590842648607,0.0,0.0,0.0,0.0,0.0,0.0,0.0,0.0,0.0,38.51478173775047,-0.5540570035649839,8.190249013745092,0.0,0.0,0.0,0.0,0.0,0.0,0.0,0.0,0.0
160207000000,135,160206000000,base_link,-0.004080371653619491,-0.004783738042139298,-0.7069730110669079,0.7072125762742787,0.0,0.0,0.0,0.0,0.0,0.0,0.0,0.0,0.0,-0.008737540041875567,-0.02323158263156753,-0.014055372965534212,0.0,0.0,0.0,0.0,0.0,0.0,0.0,0.0,0.0,-32.93693412980258,0.580166182842495,7.610758139399509,0.0,0.0,0.0,0.0,0.0,0.0,0.0,0.0,0.0
160208000000,136,160207000000,base_link,-0.004005258052573818,-0.004696771891394734,-0.7069763339754647,0.7072102667809231,0.0,0.0,0.0,0.0,0.0,0.0,0.0,0.0,0.0,-0.01677351542954672,0.22921871133674887,-0.007974443587281622,0.0,0.0,0.0,0.0,0.0,0.0,0.0,0.0,0.0,-32.66013989064621,-0.6748706277691611,8.202753229185957,0.0,0.0,0.0,0.0,0.0,0.0,0.0,0.0,0.0
160209000000,137,160208000000,base_link,-0.004053799572175116,-0.004733316569637143,-0.7069699273455993,0.7072161510120073,0.0,0.0,0.0,0.0,0.0,0.0,0.0,0.0,0.0,-0.016878360099895365,-0.12032100130117279,0.017544928262054935,0.0,0.0,0.0,0.0,0.0,0.0,0.0,0.0,0.0,39.15234098458338,0.4049804348073973,8.79566829263165,0.0,0.0,0.0,0.0,0.0,0.0,0.0,0.0,0.0
160210000000,138,160209000000,base_link,-0.004023789708010283,-0.004686848539331396,-0.7069743211282898,0.7072122395945566,0.0,0.0,0.0,0.0,0.0,0.0,0.0,0.0,0.0,-0.023329385333897723,0.10815662129447202,-0.011652565417222906,0.0,0.0,0.0,0.0,0.0,0.0,0.0,0.0,0.0,-32.179356053827334,0.16198758118517112,9.823794644644114,0.0,0.0,0.0,0.0,0.0,0.0,0.0,0.0,0.0
160211000000,139,160210000000,base_link,-0.004116707065759775,-0.0047608643112884395,-0.706966876146131,0.7072186528409196,0.0,0.0,0.0,0.0,0.0,0.0,0.0,0.0,0.0,-0.026648687150603395,-0.23606989146766388,0.01987369750327153,0.0,0.0,0.0,0.0,0.0,0.0,0.0,0.0,0.0,39.574362876286955,0.5690268722951957,9.377676663985824,0.0,0.0,0.0,0.0,0.0,0.0,0.0,0.0,0.0
160212000000,140,160211000000,base_link,-0.004116332206282418,-0.004747660532630052,-0.7069713276524013,0.7072142938360589,0.0,0.0,0.0,0.0,0.0,0.0,0.0,0.0,0.0,-0.0182173286025566,0.019201089413123568,-0.012354577767760734,0.0,0.0,0.0,0.0,0.0,0.0,0.0,0.0,0.0,-32.33044952949246,0.2564848320069164,8.659678764572362,0.0,0.0,0.0,0.0,0.0,0.0,0.0,0.0,0.0
160213000000,141,160212000000,base_link,-0.004230972417019571,-0.004848848566350648,-0.7069641405537375,0.7072201153184928,0.0,0.0,0.0,0.0,0.0,0.0,0.0,0.0,0.0,-0.018960144381278965,-0.3052218273070575,0.018652378845622673,0.0,0.0,0.0,0.0,0.0,0.0,0.0,0.0,0.0,39.627224729440755,-0.5001603570182643,8.873616716118645,0.0,0.0,0.0,0.0,0.0,0.0,0.0,0.0,0.0
160214000000,142,160213000000,base_link,-0.004238661892495346,-0.004856144011734347,-0.706968853513627,0.7072153079312737,0.0,0.0,0.0,0.0,0.0,0.0,0.0,0.0,0.0,-0.0006474516172498626,-0.021198078073530538,-0.013450664273723536,0.0,0.0,0.0,0.0,0.0,0.0,0.0,0.0,0.0,-32.4214518209461,-0.28491273219655355,7.956352458408201,0.0,0.0,0.0,0.0,0.0,0.0,0.0,0.0,0.0
160215000000,143,160214000000,base_link,-0.004341552209125652,-0.004970768983989867,-0.7069634762513981,0.7072192627655599,0.0,0.0,0.0,0.0,0.0,0.0,0.0,0.0,0.0,0.016627108649254707,-0.30761674643148873,0.013225241191965567,0.0,0.0,0.0,0.0,0.0,0.0,0.0,0.0,0.0,39.09981876210176,-1.5155895376988435,8.07281265146492,0.0,0.0,0.0,0.0,0.0,0.0,0.0,0.0,0.0
160216000000,144,160215000000,base_link,-0.004329731425802262,-0.004970209099000931,-0.7069682609295013,0.7072145561890036,0.0,0.0,0.0,0.0,0.0,0.0,0.0,0.0,0.0,0.01583970010514807,0.017500402290518056,-0.013535043715885785,0.0,0.0,0.0,0.0,0.0,0.0,0.0,0.0,0.0,-32.569579161522384,-1.5918724969911044,8.769226450190464,0.0,0.0,0.0,0.0,0.0,0.0,0.0,0.0,0.0
160217000000,145,160216000000,base_link,-0.004301034118682031,-0.004984732788177996,-0.706824157479726,0.7073586529813682,0.0,0.0,0.0,0.0,0.0,0.0,0.0,0.0,0.0,0.06380613193027175,0.020217966162389772,0.40715681004740467,0.0,0.0,0.0,0.0,0.0,0.0,0.0,0.0,0.0,4.375284563344267,-0.7848971801571707,9.840026843701773,0.0,0.0,0.0,0.0,0.0,0.0,0.0,0.0,0.0
160218000000,146,160217000000,base_link,-0.004276678047947278,-0.004981837130971529,-0.70698976233919,0.7071933026204721,0.0,0.0,0.0,0.0,0.0,0.0,0.0,0.0,0.0,0.027290167565372742,0.03830354534627935,-0.46824924102466436,0.0,0.0,0.0,0.0,0.0,0.0,0.0,0.0,0.0,1.9324999374610448,-3.600428449685672,10.103325765383772,0.0,0.0,0.0,0.0,0.0,0.0,0.0,0.0,0.0
160219000000,147,160218000000,base_link,-0.004241141970901324,-0.0050023070356453965,-0.7068184503670311,0.7073645933038016,0.0,0.0,0.0,0.0,0.0,0.0,0.0,0.0,0.0,0.08237778684234014,0.021536319270605307,0.48397373606368443,0.0,0.0,0.0,0.0,0.0,0.0,0.0,0.0,0.0,4.110623613091553,2.2272302044577406,11.267024336772081,0.0,0.0,0.0,0.0,0.0,0.0,0.0,0.0,0.0
160220000000,148,160219000000,base_link,-0.004221123519246913,-0.004997708662480193,-0.7069899394092162,0.707193347394129,0.0,0.0,0.0,0.0,0.0,0.0,0.0,0.0,0.0,0.018652020273963003,0.03454564521490634,-0.4848513766929232,0.0,0.0,0.0,0.0,0.0,0.0,0.0,0.0,0.0,1.699340117415943,-3.7823165477203586,10.176690779767947,0.0,0.0,0.0,0.0,0.0,0.0,0.0,0.0,0.0
160221000000,149,160220000000,base_link,-0.0041860007593739834,-0.005020407109792567,-0.7068175718675337,0.7073656713534933,0.0,0.0,0.0,0.0,0.0,0.0,0.0,0.0,0.0,0.08495000157418592,0.017825774943622225,0.4869142910949532,0.0,0.0,0.0,0.0,0.0,0.0,0.0,0.0,0.0,4.1867172479227985,4.058530659321868,10.665637178956855,0.0,0.0,0.0,0.0,0.0,0.0,0.0,0.0,0.0
160222000000,150,160221000000,base_link,-0.004175223067923943,-0.005010586465977334,-0.706989171780915,0.707194296159221,0.0,0.0,0.0,0.0,0.0,0.0,0.0,0.0,0.0,-0.0017930256249225965,0.0288451851123409,-0.4850557859228073,0.0,0.0,0.0,0.0,0.0,0.0,0.0,0.0,0.0,1.7530042083541364,-3.9633300558045046,9.672829243849888,0.0,0.0,0.0,0.0,0.0,0.0,0.0,0.0,0.0
160223000000,151,160222000000,base_link,-0.004147457229418247,-0.00503062776190407,-0.7068167377940007,0.7073666592065945,0.0,0.0,0.0,0.0,0.0,0.0,0.0,0.0,0.0,0.07077694494612617,0.011201493528416834,0.4871606949693603,0.0,0.0,0.0,0.0,0.0,0.0,0.0,0.0,0.0,4.251062109017661,5.598004962521806,10.103539330750603,0.0,0.0,0.0,0.0,0.0,0.0,0.0,0.0,0.0
160224000000,152,160223000000,base_link,-0.004144355832720908,-0.005015062033455287,-0.7069883745977827,0.7071952429500056,0.0,0.0,0.0,0.0,0.0,0.0,0.0,0.0,0.0,-0.02076535110473075,0.02610464347251066,-0.485042165440852,0.0,0.0,0.0,0.0,0.0,0.0,0.0,0.0,0.0,1.8660197533226375,-4.039737341018511,9.521298919798387,0.0,0.0,0.0,0.0,0.0,0.0,0.0,0.0,0.0
160225000000,153,160224000000,base_link,-0.0041226298598831534,-0.005028914470828751,-0.7068159642228624,0.7073675894907747,0.0,0.0,0.0,0.0,0.0,0.0,0.0,0.0,0.0,0.05347386348494391,0.011426862462593269,0.48721687698641847,0.0,0.0,0.0,0.0,0.0,0.0,0.0,0.0,0.0,4.341263271921004,5.9336640025116925,9.843529097081229,0.0,0.0,0.0,0.0,0.0,0.0,0.0,0.0,0.0
160226000000,154,160225000000,base_link,-0.004129943939655725,-0.005006004130995191,-0.7069876599556773,0.707196105868868,0.0,0.0,0.0,0.0,0.0,0.0,0.0,0.0,0.0,-0.045875088511336225,0.02176357065273144,-0.48505626538341007,0.0,0.0,0.0,0.0,0.0,0.0,0.0,0.0,0.0,1.8720787413428637,-4.02599260532913,8.88474381077525,0.0,0.0,0.0,0.0,0.0,0.0,0.0,0.0,0.0
160227000000,155,160226000000,base_link,-0.004117870752952064,-0.005015624468644082,-0.7068152908037671,0.707368384462889,0.0,0.0,0.0,0.0,0.0,0.0,0.0,0.0,0.0,0.03382790550148321,0.003765362337115245,0.4871949408703945,0.0,0.0,0.0,0.0,0.0,0.0,0.0,0.0,0.0,4.348726956357173,6.457860879640139,9.307377232166338,0.0,0.0,0.0,0.0,0.0,0.0,0.0,0.0,0.0
160228000000,156,160227000000,base_link,-0.0041349579361242865,-0.004988605796178533,-0.706987040778517,0.7071968185069221,0.0,0.0,0.0,0.0,0.0,0.0,0.0,0.0,0.0,-0.06550412956274428,0.013762812693582791,-0.4851179764106442,0.0,0.0,0.0,0.0,0.0,0.0,0.0,0.0,0.0,1.9329660498443593,-4.323394060175165,8.614603515262925,0.0,0.0,0.0,0.0,0.0,0.0,0.0,0.0,0.0
160229000000,157,160228000000,base_link,-0.004128635788377973,-0.004995501194059046,-0.7068147357178313,0.7073690187635301,0.0,0.0,0.0,0.0,0.0,0.0,0.0,0.0,0.0,0.021835125762764453,-0.0005203238090730634,0.4870737938475957,0.0,0.0,0.0,0.0,0.0,0.0,0.0,0.0,0.0,4.447711128866698,6.343953458048113,9.296376768301933,0.0,0.0,0.0,0.0,0.0,0.0,0.0,0.0,0.0
160230000000,158,160229000000,base_link,-0.004149060023975572,-0.004964857461864898,-0.7069865642753993,0.7071973793965638,0.0,0.0,0.0,0.0,0.0,0.0,0.0,0.0,0.0,-0.07534784060037372,0.014184538341724739,-0.4852697863625829,0.0,0.0,0.0,0.0,0.0,0.0,0.0,0.0,0.0,2.055845876549726,-4.938420787861498,8.692803883723837,0.0,0.0,0.0,0.0,0.0,0.0,0.0,0.0,0.0
160231000000,159,160230000000,base_link,-0.0041412953067567326,-0.004970675269560693,-0.7068143366753664,0.7073695183782719,0.0,0.0,0.0,0.0,0.0,0.0,0.0,0.0,0.0,0.02234720065581952,0.003030550590605856,0.48687234547955904,0.0,0.0,0.0,0.0,0.0,0.0,0.0,0.0,0.0,4.617803575008964,5.974253224501101,9.554496169743475,0.0,0.0,0.0,0.0,0.0,0.0,0.0,0.0,0.0
160232000000,160,160231000000,base_link,-0.00415927246042139,-0.004938398745279938,-0.7069861146061336,0.7071979541999223,0.0,0.0,0.0,0.0,0.0,0.0,0.0,0.0,0.0,-0.07418870397343706,0.019967026227339892,-0.4851029503484455,0.0,0.0,0.0,0.0,0.0,0.0,0.0,0.0,0.0,2.2480834906902945,-5.777358180640777,8.933811662410452,0.0,0.0,0.0,0.0,0.0,0.0,0.0,0.0,0.0
160233000000,161,160232000000,base_link,-0.0041465444316876095,-0.004945491133857006,-0.7068139018025129,0.7073700986792052,0.0,0.0,0.0,0.0,0.0,0.0,0.0,0.0,0.0,0.031163815747419922,0.008233310241081662,0.48679990190135203,0.0,0.0,0.0,0.0,0.0,0.0,0.0,0.0,0.0,4.817385128571085,5.676253566515422,10.019207220332866,0.0,0.0,0.0,0.0,0.0,0.0,0.0,0.0,0.0
160234000000,162,160233000000,base_link,-0.004159649071850763,-0.004914780492869877,-0.7069858167063142,0.7071984143282647,0.0,0.0,0.0,0.0,0.0,0.0,0.0,0.0,0.0,-0.06507727997756385,0.024650074044917286,-0.4855284076289351,0.0,0.0,0.0,0.0,0.0,0.0,0.0,0.0,0.0,2.4837360725061197,-6.411915316535644,9.484521925739413,0.0,0.0,0.0,0.0,0.0,0.0,0.0,0.0,0.0
160235000000,163,160234000000,base_link,-0.004141418637820066,-0.004926105780620261,-0.706813785735135,0.7073703799483485,0.0,0.0,0.0,0.0,0.0,0.0,0.0,0.0,0.0,0.04492032722315761,0.01001803541598904,0.4862011676743431,0.0,0.0,0.0,0.0,0.0,0.0,0.0,0.0,0.0,5.073343873215574,5.495573125113798,10.670876099325064,0.0,0.0,0.0,0.0,0.0,0.0,0.0,0.0,0.0
160236000000,164,160235000000,base_link,-0.0041503042484540556,-0.004899907941506897,-0.7069857608046988,0.707198628318955,0.0,0.0,0.0,0.0,0.0,0.0,0.0,0.0,0.0,-0.05272175036818015,0.024234515486314397,-0.4857884585338519,0.0,0.0,0.0,0.0,0.0,0.0,0.0,0.0,0.0,2.710631876265335,-6.802908078636441,9.983136428846006,0.0,0.0,0.0,0.0,0.0,0.0,0.0,0.0,0.0
160237000000,165,160236000000,base_link,-0.004128324456661458,-0.004917901665046099,-0.7068138375783994,0.7073704617723937,0.0,0.0,0.0,0.0,0.0,0.0,0.0,0.0,0.0,0.05964190983849403,0.005885395424536463,0.4857706070317893,0.0,0.0,0.0,0.0,0.0,0.0,0.0,0.0,0.0,5.322860916087211,5.513393903877732,11.160138207221028,0.0,0.0,0.0,0.0,0.0,0.0,0.0,0.0,0.0
160238000000,166,160237000000,base_link,-0.004135552597752174,-0.004898219969449675,-0.7069857719377468,0.7071987153010321,0.0,0.0,0.0,0.0,0.0,0.0,0.0,0.0,0.0,-0.04115770067606674,0.017356937561906316,-0.48579455438672725,0.0,0.0,0.0,0.0,0.0,0.0,0.0,0.0,0.0,2.913434327752755,-6.9729270022984915,10.28940663221373,0.0,0.0,0.0,0.0,0.0,0.0,0.0,0.0,0.0
160239000000,167,160238000000,base_link,-0.004066089304993487,-0.0048749546327035926,-0.7068834396230306,0.7073015654738835,0.0,0.0,0.0,0.0,0.0,0.0,0.0,0.0,0.0,0.06720535654302612,0.13128671775561973,0.2896777215950712,0.0,0.0,0.0,0.0,0.0,0.0,0.0,0.0,0.0,-11.756474158769569,5.800653303493224,11.653360770595077,0.0,0.0,0.0,0.0,0.0,0.0,0.0,0.0,0.0
