%time,field.header.seq,field.header.stamp,field.header.frame_id,field.name0,field.name1,field.name2,field.name3,field.position0,field.position1,field.position2,field.position3,field.velocity0,field.velocity1,field.velocity2,field.velocity3,field.effort0,field.effort1,field.effort2,field.effort3
160077000000,1386,160072000000,,BL_TO_BASELINK,BR_TO_BASELINK,FL_TO_BASELINK,FR_TO_BASELINK,0.0,0.0,0.0,0.0,-2.6020852139652106e-18,-3.469446951953614e-18,5.204170427930421e-18,6.071532165918825e-18,0.0,0.0,0.0,0.0
160077000000,1387,160073000000,,BL_TO_BASELINK,BR_TO_BASELINK,FL_TO_BASELINK,FR_TO_BASELINK,0.0,0.0,0.0,0.0,1.734723475976807e-18,3.0357660829594124e-18,1.734723475976807e-18,8.673617379884035e-18,0.0,0.0,0.0,0.0
160077000000,1388,160074000000,,BL_TO_BASELINK,BR_TO_BASELINK,FL_TO_BASELINK,FR_TO_BASELINK,0.0,0.0,0.0,0.0,-2.6020852139652106e-18,-1.6479873021779667e-17,-9.540979117872439e-18,2.6020852139652106e-18,0.0,0.0,0.0,0.0
160077000000,1389,160075000000,,BL_TO_BASELINK,BR_TO_BASELINK,FL_TO_BASELINK,FR_TO_BASELINK,0.0,0.0,0.0,0.0,6.938893903907228e-18,1.5612511283791264e-17,1.0408340855860843e-17,-3.469446951953614e-18,0.0,0.0,0.0,0.0
160077000000,1390,160076000000,,BL_TO_BASELINK,BR_TO_BASELINK,FL_TO_BASELINK,FR_TO_BASELINK,0.0,0.0,0.0,0.0,1.734723475976807e-18,5.204170427930421e-18,6.938893903907228e-18,-3.469446951953614e-18,0.0,0.0,0.0,0.0
160077000000,1391,160077000000,,BL_TO_BASELINK,BR_TO_BASELINK,FL_TO_BASELINK,FR_TO_BASELINK,0.0,0.0,0.0,0.0,-3.469446951953614e-18,0.0,-8.673617379884035e-18,-8.673617379884035e-18,0.0,0.0,0.0,0.0
160078000000,1392,160078000000,,BL_TO_BASELINK,BR_TO_BASELINK,FL_TO_BASELINK,FR_TO_BASELINK,0.0,0.0,0.0,0.0,2.6020852139652106e-18,-8.673617379884035e-19,9.75781955236954e-18,1.452830911130576e-17,0.0,0.0,0.0,0.0
160079000000,1393,160079000000,,BL_TO_BASELINK,BR_TO_BASELINK,FL_TO_BASELINK,FR_TO_BASELINK,0.0,0.0,0.0,0.0,2.6020852139652106e-18,-4.336808689942018e-18,-4.336808689942018e-18,-6.071532165918825e-18,0.0,0.0,0.0,0.0
160080000000,1394,160080000000,,BL_TO_BASELINK,BR_TO_BASELINK,FL_TO_BASELINK,FR_TO_BASELINK,0.0,0.0,0.0,0.0,3.0357660829594124e-18,3.0357660829594124e-18,-2.168404344971009e-18,-2.168404344971009e-18,0.0,0.0,0.0,0.0
160081000000,1395,160081000000,,BL_TO_BASELINK,BR_TO_BASELINK,FL_TO_BASELINK,FR_TO_BASELINK,0.0,0.0,0.0,0.0,4.336808689942018e-18,8.673617379884035e-19,1.1275702593849246e-17,9.540979117872439e-18,0.0,0.0,0.0,0.0
160082000000,1396,160082000000,,BL_TO_BASELINK,BR_TO_BASELINK,FL_TO_BASELINK,FR_TO_BASELINK,0.0,0.0,0.0,0.0,1.734723475976807e-18,3.469446951953614e-18,9.540979117872439e-18,1.214306433183765e-17,0.0,0.0,0.0,0.0
160083000000,1397,160083000000,,BL_TO_BASELINK,BR_TO_BASELINK,FL_TO_BASELINK,FR_TO_BASELINK,0.0,0.0,0.0,0.0,-6.071532165918825e-18,-4.336808689942018e-18,-9.540979117872439e-18,8.673617379884035e-19,0.0,0.0,0.0,0.0
160084000000,1398,160084000000,,BL_TO_BASELINK,BR_TO_BASELINK,FL_TO_BASELINK,FR_TO_BASELINK,0.0,0.0,0.0,0.0,8.673617379884035e-19,-6.938893903907228e-18,0.0,1.214306433183765e-17,0.0,0.0,0.0,0.0
160085000000,1399,160085000000,,BL_TO_BASELINK,BR_TO_BASELINK,FL_TO_BASELINK,FR_TO_BASELINK,0.0,0.0,0.0,0.0,-3.469446951953614e-18,-1.3010426069826053e-18,4.336808689942018e-19,-3.0357660829594124e-18,0.0,0.0,0.0,0.0
160086000000,1400,160086000000,,BL_TO_BASELINK,BR_TO_BASELINK,FL_TO_BASELINK,FR_TO_BASELINK,0.0,0.0,0.0,0.0,6.071532165918825e-18,-2.6020852139652106e-18,-8.673617379884035e-19,-6.071532165918825e-18,0.0,0.0,0.0,0.0
160087000000,1401,160087000000,,BL_TO_BASELINK,BR_TO_BASELINK,FL_TO_BASELINK,FR_TO_BASELINK,0.0,0.0,0.0,0.0,-1.734723475976807e-18,1.734723475976807e-18,-6.938893903907228e-18,-5.204170427930421e-18,0.0,0.0,0.0,0.0
160088000000,1402,160088000000,,BL_TO_BASELINK,BR_TO_BASELINK,FL_TO_BASELINK,FR_TO_BASELINK,0.0,0.0,0.0,0.0,-4.7704895589362195e-18,1.0842021724855044e-17,1.431146867680866e-17,1.431146867680866e-17,0.0,0.0,0.0,0.0
160089000000,1403,160089000000,,BL_TO_BASELINK,BR_TO_BASELINK,FL_TO_BASELINK,FR_TO_BASELINK,0.0,0.0,0.0,0.0,-2.6020852139652106e-18,-4.336808689942018e-18,-2.6020852139652106e-18,-4.336808689942018e-18,0.0,0.0,0.0,0.0
160090000000,1404,160090000000,,BL_TO_BASELINK,BR_TO_BASELINK,FL_TO_BASELINK,FR_TO_BASELINK,0.0,0.0,0.0,0.0,1.0408340855860843e-17,1.0842021724855044e-17,-1.9081958235744878e-17,-1.5612511283791264e-17,0.0,0.0,0.0,0.0
160091000000,1405,160091000000,,BL_TO_BASELINK,BR_TO_BASELINK,FL_TO_BASELINK,FR_TO_BASELINK,0.0,0.0,0.0,0.0,-5.204170427930421e-18,0.0,-4.336808689942018e-18,-5.204170427930421e-18,0.0,0.0,0.0,0.0
160092000000,1406,160092000000,,BL_TO_BASELINK,BR_TO_BASELINK,FL_TO_BASELINK,FR_TO_BASELINK,0.0,0.0,0.0,0.0,-2.6020852139652106e-18,-8.673617379884035e-19,9.540979117872439e-18,9.540979117872439e-18,0.0,0.0,0.0,0.0
160093000000,1407,160093000000,,BL_TO_BASELINK,BR_TO_BASELINK,FL_TO_BASELINK,FR_TO_BASELINK,0.0,0.0,0.0,0.0,-6.071532165918825e-18,8.673617379884035e-19,2.6020852139652106e-18,7.806255641895632e-18,0.0,0.0,0.0,0.0
160094000000,1408,160094000000,,BL_TO_BASELINK,BR_TO_BASELINK,FL_TO_BASELINK,FR_TO_BASELINK,0.0,0.0,0.0,0.0,8.673617379884035e-19,6.071532165918825e-18,6.071532165918825e-18,6.071532165918825e-18,0.0,0.0,0.0,0.0
160095000000,1409,160095000000,,BL_TO_BASELINK,BR_TO_BASELINK,FL_TO_BASELINK,FR_TO_BASELINK,0.0,0.0,0.0,0.0,6.938893903907228e-18,-1.0408340855860843e-17,-3.9898639947466563e-17,-3.9898639947466563e-17,0.0,0.0,0.0,0.0
160096000000,1410,160096000000,,BL_TO_BASELINK,BR_TO_BASELINK,FL_TO_BASELINK,FR_TO_BASELINK,0.0,0.0,0.0,0.0,7.806255641895632e-18,7.806255641895632e-18,-1.9949319973733282e-17,-1.3010426069826053e-17,0.0,0.0,0.0,0.0
160097000000,1411,160097000000,,BL_TO_BASELINK,BR_TO_BASELINK,FL_TO_BASELINK,FR_TO_BASELINK,0.0,0.0,0.0,0.0,-3.469446951953614e-18,-3.469446951953614e-18,-6.071532165918825e-18,-3.469446951953614e-18,0.0,0.0,0.0,0.0
160098000000,1412,160098000000,,BL_TO_BASELINK,BR_TO_BASELINK,FL_TO_BASELINK,FR_TO_BASELINK,0.0,0.0,0.0,0.0,6.5052130349130266e-18,7.806255641895632e-18,-2.2551405187698492e-17,-9.107298248878237e-18,0.0,0.0,0.0,0.0
160099000000,1413,160099000000,,BL_TO_BASELINK,BR_TO_BASELINK,FL_TO_BASELINK,FR_TO_BASELINK,0.0,0.0,0.0,0.0,-1.1275702593849246e-17,-7.806255641895632e-18,-7.806255641895632e-18,6.071532165918825e-18,0.0,0.0,0.0,0.0
160100000000,1414,160100000000,,BL_TO_BASELINK,BR_TO_BASELINK,FL_TO_BASELINK,FR_TO_BASELINK,0.0,0.0,0.0,0.0,2.8189256484623115e-18,-1.8214596497756474e-17,-1.452830911130576e-17,-4.7704895589362195e-18,0.0,0.0,0.0,0.0
160101000000,1415,160101000000,,BL_TO_BASELINK,BR_TO_BASELINK,FL_TO_BASELINK,FR_TO_BASELINK,0.0,0.0,0.0,0.0,1.1275702593849246e-17,1.3010426069826053e-17,-1.1275702593849246e-17,-2.5153490401663703e-17,0.0,0.0,0.0,0.0
160102000000,1416,160102000000,,BL_TO_BASELINK,BR_TO_BASELINK,FL_TO_BASELINK,FR_TO_BASELINK,0.0,0.0,0.0,0.0,2.168404344971009e-18,5.637851296924623e-18,5.637851296924623e-18,-1.3010426069826053e-18,0.0,0.0,0.0,0.0
160103000000,1417,160103000000,,BL_TO_BASELINK,BR_TO_BASELINK,FL_TO_BASELINK,FR_TO_BASELINK,0.0,0.0,0.0,0.0,0.0,1.214306433183765e-17,1.734723475976807e-18,1.734723475976807e-18,0.0,0.0,0.0,0.0
160104000000,1418,160104000000,,BL_TO_BASELINK,BR_TO_BASELINK,FL_TO_BASELINK,FR_TO_BASELINK,0.0,0.0,0.0,0.0,1.734723475976807e-18,1.0408340855860843e-17,2.6020852139652106e-18,1.734723475976807e-18,0.0,0.0,0.0,0.0
160105000000,1419,160105000000,,BL_TO_BASELINK,BR_TO_BASELINK,FL_TO_BASELINK,FR_TO_BASELINK,0.0,0.0,0.0,0.0,1.734723475976807e-18,0.0,-7.806255641895632e-18,-1.214306433183765e-17,0.0,0.0,0.0,0.0
160106000000,1420,160106000000,,BL_TO_BASELINK,BR_TO_BASELINK,FL_TO_BASELINK,FR_TO_BASELINK,0.0,0.0,0.0,0.0,2.6020852139652106e-18,8.673617379884035e-19,1.734723475976807e-18,-4.336808689942018e-18,0.0,0.0,0.0,0.0
160107000000,1421,160107000000,,BL_TO_BASELINK,BR_TO_BASELINK,FL_TO_BASELINK,FR_TO_BASELINK,0.0,0.0,0.0,0.0,4.336808689942018e-18,-3.0357660829594124e-18,-1.5612511283791264e-17,-6.071532165918825e-18,0.0,0.0,0.0,0.0
160108000000,1422,160108000000,,BL_TO_BASELINK,BR_TO_BASELINK,FL_TO_BASELINK,FR_TO_BASELINK,0.0,0.0,0.0,0.0,-8.673617379884035e-19,8.673617379884035e-19,0.0,-2.6020852139652106e-18,0.0,0.0,0.0,0.0
160109000000,1423,160109000000,,BL_TO_BASELINK,BR_TO_BASELINK,FL_TO_BASELINK,FR_TO_BASELINK,0.0,0.0,0.0,0.0,5.204170427930421e-18,1.214306433183765e-17,2.6020852139652106e-18,0.0,0.0,0.0,0.0,0.0
160110000000,1424,160110000000,,BL_TO_BASELINK,BR_TO_BASELINK,FL_TO_BASELINK,FR_TO_BASELINK,0.0,0.0,0.0,0.0,6.071532165918825e-18,6.071532165918825e-18,-3.469446951953614e-18,-6.071532165918825e-18,0.0,0.0,0.0,0.0
160111000000,1425,160111000000,,BL_TO_BASELINK,BR_TO_BASELINK,FL_TO_BASELINK,FR_TO_BASELINK,0.0,0.0,0.0,0.0,3.469446951953614e-18,1.734723475976807e-18,9.540979117872439e-18,0.0,0.0,0.0,0.0,0.0
160112000000,1426,160112000000,,BL_TO_BASELINK,BR_TO_BASELINK,FL_TO_BASELINK,FR_TO_BASELINK,0.0,0.0,0.0,0.0,1.734723475976807e-18,3.903127820947816e-18,1.5178830414797062e-17,1.7780915628762273e-17,0.0,0.0,0.0,0.0
160113000000,1427,160113000000,,BL_TO_BASELINK,BR_TO_BASELINK,FL_TO_BASELINK,FR_TO_BASELINK,0.0,0.0,0.0,0.0,-1.734723475976807e-18,1.0408340855860843e-17,1.0408340855860843e-17,3.469446951953614e-18,0.0,0.0,0.0,0.0
160114000000,1428,160114000000,,BL_TO_BASELINK,BR_TO_BASELINK,FL_TO_BASELINK,FR_TO_BASELINK,0.0,0.0,0.0,0.0,-3.2526065174565133e-18,-8.239936510889834e-18,-6.5052130349130266e-18,-9.974659986866641e-18,0.0,0.0,0.0,0.0
160115000000,1429,160115000000,,BL_TO_BASELINK,BR_TO_BASELINK,FL_TO_BASELINK,FR_TO_BASELINK,0.0,0.0,0.0,0.0,-2.6020852139652106e-18,-2.6020852139652106e-18,-1.1275702593849246e-17,7.806255641895632e-18,0.0,0.0,0.0,0.0
160116000000,1430,160116000000,,BL_TO_BASELINK,BR_TO_BASELINK,FL_TO_BASELINK,FR_TO_BASELINK,0.0,0.0,0.0,0.0,-1.734723475976807e-18,-5.204170427930421e-18,-4.7704895589362195e-18,-8.239936510889834e-18,0.0,0.0,0.0,0.0
160117000000,1431,160117000000,,BL_TO_BASELINK,BR_TO_BASELINK,FL_TO_BASELINK,FR_TO_BASELINK,0.0,0.0,0.0,0.0,-9.107298248878237e-18,1.8648277366750676e-17,1.8648277366750676e-17,2.905661822261152e-17,0.0,0.0,0.0,0.0
160118000000,1432,160118000000,,BL_TO_BASELINK,BR_TO_BASELINK,FL_TO_BASELINK,FR_TO_BASELINK,0.0,0.0,0.0,0.0,-9.540979117872439e-18,-1.8214596497756474e-17,7.806255641895632e-18,1.9949319973733282e-17,0.0,0.0,0.0,0.0
160119000000,1433,160119000000,,BL_TO_BASELINK,BR_TO_BASELINK,FL_TO_BASELINK,FR_TO_BASELINK,0.0,0.0,0.0,0.0,9.540979117872439e-18,-1.2576745200831851e-17,-1.3010426069826053e-17,-2.8189256484623115e-17,0.0,0.0,0.0,0.0
160120000000,1434,160120000000,,BL_TO_BASELINK,BR_TO_BASELINK,FL_TO_BASELINK,FR_TO_BASELINK,0.0,0.0,0.0,0.0,-1.474514954580286e-17,2.6020852139652106e-18,2.2551405187698492e-17,3.903127820947816e-17,0.0,0.0,0.0,0.0
160121000000,1435,160121000000,,BL_TO_BASELINK,BR_TO_BASELINK,FL_TO_BASELINK,FR_TO_BASELINK,0.0,0.0,0.0,0.0,4.336808689942018e-18,3.903127820947816e-18,1.0842021724855044e-17,4.336808689942018e-19,0.0,0.0,0.0,0.0
160122000000,1436,160122000000,,BL_TO_BASELINK,BR_TO_BASELINK,FL_TO_BASELINK,FR_TO_BASELINK,0.0,0.0,0.0,0.0,-4.336808689942018e-18,-6.938893903907228e-18,-6.071532165918825e-18,-1.0408340855860843e-17,0.0,0.0,0.0,0.0
160123000000,1437,160123000000,,BL_TO_BASELINK,BR_TO_BASELINK,FL_TO_BASELINK,FR_TO_BASELINK,0.0,0.0,0.0,0.0,1.5612511283791264e-17,-6.071532165918825e-18,-1.214306433183765e-17,-2.949029909160572e-17,0.0,0.0,0.0,0.0
160124000000,1438,160124000000,,BL_TO_BASELINK,BR_TO_BASELINK,FL_TO_BASELINK,FR_TO_BASELINK,0.0,0.0,0.0,0.0,8.673617379884035e-19,7.806255641895632e-18,9.540979117872439e-18,-2.6020852139652106e-18,0.0,0.0,0.0,0.0
160125000000,1439,160125000000,,BL_TO_BASELINK,BR_TO_BASELINK,FL_TO_BASELINK,FR_TO_BASELINK,0.0,0.0,0.0,0.0,5.204170427930421e-18,5.204170427930421e-18,1.734723475976807e-18,-8.673617379884035e-18,0.0,0.0,0.0,0.0
160126000000,1440,160126000000,,BL_TO_BASELINK,BR_TO_BASELINK,FL_TO_BASELINK,FR_TO_BASELINK,0.0,0.0,0.0,0.0,-4.336808689942018e-18,1.3010426069826053e-18,2.3852447794681098e-17,2.688821387764051e-17,0.0,0.0,0.0,0.0
160127000000,1441,160127000000,,BL_TO_BASELINK,BR_TO_BASELINK,FL_TO_BASELINK,FR_TO_BASELINK,0.0,0.0,0.0,0.0,-6.071532165918825e-18,2.168404344971009e-17,1.9949319973733282e-17,2.168404344971009e-17,0.0,0.0,0.0,0.0
160128000000,1442,160128000000,,BL_TO_BASELINK,BR_TO_BASELINK,FL_TO_BASELINK,FR_TO_BASELINK,0.0,0.0,0.0,0.0,-6.071532165918825e-18,4.336808689942018e-18,8.673617379884035e-19,-2.6020852139652106e-18,0.0,0.0,0.0,0.0
160129000000,1443,160129000000,,BL_TO_BASELINK,BR_TO_BASELINK,FL_TO_BASELINK,FR_TO_BASELINK,0.0,0.0,0.0,0.0,0.0,-3.469446951953614e-18,-1.734723475976807e-18,-5.204170427930421e-18,0.0,0.0,0.0,0.0
160130000000,1444,160130000000,,BL_TO_BASELINK,BR_TO_BASELINK,FL_TO_BASELINK,FR_TO_BASELINK,0.00019999999346786979,0.00019999999346786979,0.00019999999346786979,0.00019999999346786979,0.19999997612727224,0.19999997612727222,0.1999999761272722,0.19999997612727216,0.0,0.0,0.0,0.0
160131000000,1445,160131000000,,BL_TO_BASELINK,BR_TO_BASELINK,FL_TO_BASELINK,FR_TO_BASELINK,0.0005999999590935445,0.0005999999590935445,0.0005999999590935445,0.0005999999590935445,0.39999994753331586,0.39999994753331586,0.3999999475333158,0.39999994753331586,0.0,0.0,0.0,0.0
160132000000,1446,160132000000,,BL_TO_BASELINK,BR_TO_BASELINK,FL_TO_BASELINK,FR_TO_BASELINK,0.0011999999048137866,0.0011999999048137866,0.0011999999048137866,0.0011999999048137866,0.599999922570699,0.599999922570699,0.599999922570699,0.5999999225706989,0.0,0.0,0.0,0.0
160133000000,1447,160133000000,,BL_TO_BASELINK,BR_TO_BASELINK,FL_TO_BASELINK,FR_TO_BASELINK,0.0019999998081265957,0.0019999998081265957,0.0019999998081265957,0.0019999998081265957,0.7999998949776413,0.7999998949776413,0.7999998949776413,0.7999998949776413,0.0,0.0,0.0,0.0
160134000000,1448,160134000000,,BL_TO_BASELINK,BR_TO_BASELINK,FL_TO_BASELINK,FR_TO_BASELINK,0.002930411256275356,0.002930411256275356,0.002930411256275356,0.002930411256275356,0.9304114556306291,0.9304114556306292,0.9304114556306291,0.9304114556306291,0.0,0.0,0.0,0.0
160135000000,1449,160135000000,,BL_TO_BASELINK,BR_TO_BASELINK,FL_TO_BASELINK,FR_TO_BASELINK,0.0038608226982788096,0.0038608226982788096,0.0038608226982788096,0.0038608226982788096,0.9304114532854378,0.9304114532854378,0.9304114532854378,0.930411453285438,0.0,0.0,0.0,0.0
160136000000,1450,160136000000,,BL_TO_BASELINK,BR_TO_BASELINK,FL_TO_BASELINK,FR_TO_BASELINK,0.004791234145443468,0.004791234145443468,0.004791234145443468,0.004791234145443468,0.930411455519078,0.930411455519078,0.930411455519078,0.930411455519078,0.0,0.0,0.0,0.0
160137000000,1451,160137000000,,BL_TO_BASELINK,BR_TO_BASELINK,FL_TO_BASELINK,FR_TO_BASELINK,0.005721645590544,0.005721645590544,0.005721645590544,0.005721645590544,0.9304114532578018,0.9304114532578018,0.9304114532578018,0.9304114532578018,0.0,0.0,0.0,0.0
160138000000,1452,160138000000,,BL_TO_BASELINK,BR_TO_BASELINK,FL_TO_BASELINK,FR_TO_BASELINK,0.0066520570408643565,0.0066520570408643565,0.0066520570408643565,0.0066520570408643565,0.9304114552028375,0.9304114552028375,0.9304114552028375,0.9304114552028375,0.0,0.0,0.0,0.0
160139000000,1453,160139000000,,BL_TO_BASELINK,BR_TO_BASELINK,FL_TO_BASELINK,FR_TO_BASELINK,0.0075824684904457484,0.0075824684904457484,0.0075824684904457484,0.0075824684904457484,0.9304114534339871,0.9304114534339871,0.9304114534339871,0.9304114534339871,0.0,0.0,0.0,0.0
160140000000,1454,160140000000,,BL_TO_BASELINK,BR_TO_BASELINK,FL_TO_BASELINK,FR_TO_BASELINK,0.008512879944858831,0.008512879944858831,0.008512879944858831,0.008512879944858831,0.9304114547048893,0.9304114547048893,0.9304114547048893,0.9304114547048893,0.0,0.0,0.0,0.0
160141000000,1455,160141000000,,BL_TO_BASELINK,BR_TO_BASELINK,FL_TO_BASELINK,FR_TO_BASELINK,0.009443291398356202,0.009443291398356202,0.009443291398356202,0.009443291398356202,0.930411454330445,0.930411454330445,0.930411454330445,0.930411454330445,0.0,0.0,0.0,0.0
160142000000,1456,160142000000,,BL_TO_BASELINK,BR_TO_BASELINK,FL_TO_BASELINK,FR_TO_BASELINK,0.010373702854142408,0.010373702854142408,0.010373702854142408,0.010373702854142408,0.9304114540741103,0.9304114540741103,0.9304114540741103,0.9304114540741103,0.0,0.0,0.0,0.0
160143000000,1457,160143000000,,BL_TO_BASELINK,BR_TO_BASELINK,FL_TO_BASELINK,FR_TO_BASELINK,0.011304114308438251,0.011304114308438251,0.011304114308438251,0.011304114308438251,0.930411455026849,0.930411455026849,0.930411455026849,0.930411455026849,0.0,0.0,0.0,0.0
160144000000,1458,160144000000,,BL_TO_BASELINK,BR_TO_BASELINK,FL_TO_BASELINK,FR_TO_BASELINK,0.012234525763594739,0.012234525763594739,0.012234525763594739,0.012234525763594739,0.9304114538806803,0.9304114538806803,0.9304114538806804,0.9304114538806804,0.0,0.0,0.0,0.0
160145000000,1459,160145000000,,BL_TO_BASELINK,BR_TO_BASELINK,FL_TO_BASELINK,FR_TO_BASELINK,0.013164937216740391,0.013164937216740391,0.013164937216740391,0.013164937216740391,0.9304114552490835,0.9304114552490835,0.9304114552490835,0.9304114552490835,0.0,0.0,0.0,0.0
160146000000,1460,160146000000,,BL_TO_BASELINK,BR_TO_BASELINK,FL_TO_BASELINK,FR_TO_BASELINK,0.014095348670666752,0.014095348670666752,0.014095348670666752,0.014095348670666752,0.9304114540214596,0.9304114540214596,0.9304114540214596,0.9304114540214596,0.0,0.0,0.0,0.0
160147000000,1461,160147000000,,BL_TO_BASELINK,BR_TO_BASELINK,FL_TO_BASELINK,FR_TO_BASELINK,0.01502576012272172,0.01502576012272172,0.01502576012272172,0.01502576012272172,0.9304114553840711,0.9304114553840711,0.9304114553840711,0.9304114553840711,0.0,0.0,0.0,0.0
160148000000,1462,160148000000,,BL_TO_BASELINK,BR_TO_BASELINK,FL_TO_BASELINK,FR_TO_BASELINK,0.015956171575499667,0.015956171575499667,0.015956171575499667,0.015956171575499667,0.9304114540319743,0.9304114540319743,0.9304114540319743,0.9304114540319743,0.0,0.0,0.0,0.0
160149000000,1463,160149000000,,BL_TO_BASELINK,BR_TO_BASELINK,FL_TO_BASELINK,FR_TO_BASELINK,0.016886583025108592,0.016886583025108592,0.016886583025108592,0.016886583025108592,0.9304114549071422,0.9304114549071422,0.9304114549071422,0.9304114549071422,0.0,0.0,0.0,0.0
160150000000,1464,160150000000,,BL_TO_BASELINK,BR_TO_BASELINK,FL_TO_BASELINK,FR_TO_BASELINK,0.01781699447447238,0.01781699447447238,0.01781699447447238,0.01781699447447238,0.9304114539554634,0.9304114539554634,0.9304114539554634,0.9304114539554634,0.0,0.0,0.0,0.0
160151000000,1465,160151000000,,BL_TO_BASELINK,BR_TO_BASELINK,FL_TO_BASELINK,FR_TO_BASELINK,0.018747405920156446,0.018747405920156446,0.018747405920156446,0.018747405920156446,0.9304114546104384,0.9304114546104384,0.9304114546104384,0.9304114546104384,0.0,0.0,0.0,0.0
160152000000,1466,160152000000,,BL_TO_BASELINK,BR_TO_BASELINK,FL_TO_BASELINK,FR_TO_BASELINK,0.019677817366324568,0.019677817366324568,0.019677817366324568,0.019677817366324568,0.9304114543290846,0.9304114543290846,0.9304114543290846,0.9304114543290846,0.0,0.0,0.0,0.0
160153000000,1467,160153000000,,BL_TO_BASELINK,BR_TO_BASELINK,FL_TO_BASELINK,FR_TO_BASELINK,0.020608228808727702,0.020608228808727702,0.020608228808727702,0.020608228808727702,0.9304114542199193,0.9304114542199193,0.9304114542199193,0.9304114542199193,0.0,0.0,0.0,0.0
160154000000,1468,160154000000,,BL_TO_BASELINK,BR_TO_BASELINK,FL_TO_BASELINK,FR_TO_BASELINK,0.021538640252920516,0.021538640252920516,0.021538640252920516,0.021538640252920516,0.9304114546306967,0.9304114546306967,0.9304114546306967,0.9304114546306967,0.0,0.0,0.0,0.0
160155000000,1469,160155000000,,BL_TO_BASELINK,BR_TO_BASELINK,FL_TO_BASELINK,FR_TO_BASELINK,0.022469051694661957,0.022469051694661957,0.022469051694661957,0.022469051694661957,0.930411453717535,0.930411453717535,0.930411453717535,0.930411453717535,0.0,0.0,0.0,0.0
160156000000,1470,160156000000,,BL_TO_BASELINK,BR_TO_BASELINK,FL_TO_BASELINK,FR_TO_BASELINK,0.023399463140145293,0.023399463140145293,0.023399463140145293,0.023399463140145293,0.930411454888941,0.930411454888941,0.930411454888941,0.930411454888941,0.0,0.0,0.0,0.0
160157000000,1471,160157000000,,BL_TO_BASELINK,BR_TO_BASELINK,FL_TO_BASELINK,FR_TO_BASELINK,0.024329874585847122,0.024329874585847122,0.024329874585847122,0.024329874585847122,0.9304114528023043,0.9304114528023043,0.9304114528023043,0.9304114528023043,0.0,0.0,0.0,0.0
160158000000,1472,160158000000,,BL_TO_BASELINK,BR_TO_BASELINK,FL_TO_BASELINK,FR_TO_BASELINK,0.02526028603699082,0.02526028603699082,0.02526028603699082,0.02526028603699082,0.9304114550181714,0.9304114550181714,0.9304114550181714,0.9304114550181714,0.0,0.0,0.0,0.0
160159000000,1473,160159000000,,BL_TO_BASELINK,BR_TO_BASELINK,FL_TO_BASELINK,FR_TO_BASELINK,0.02619069748870384,0.02619069748870384,0.02619069748870384,0.02619069748870384,0.9304114522135597,0.9304114522135596,0.9304114522135597,0.9304114522135596,0.0,0.0,0.0,0.0
160160000000,1474,160160000000,,BL_TO_BASELINK,BR_TO_BASELINK,FL_TO_BASELINK,FR_TO_BASELINK,0.027121108946746908,0.027121108946746908,0.027121108946746908,0.027121108946746908,0.930411454693938,0.930411454693938,0.930411454693938,0.930411454693938,0.0,0.0,0.0,0.0
160161000000,1475,160161000000,,BL_TO_BASELINK,BR_TO_BASELINK,FL_TO_BASELINK,FR_TO_BASELINK,0.02805152040435388,0.02805152040435388,0.02805152040435388,0.02805152040435388,0.930411452271774,0.930411452271774,0.930411452271774,0.930411452271774,0.0,0.0,0.0,0.0
160162000000,1476,160162000000,,BL_TO_BASELINK,BR_TO_BASELINK,FL_TO_BASELINK,FR_TO_BASELINK,0.02898193186597542,0.02898193186597542,0.02898193186597542,0.02898193186597542,0.9304114548329906,0.9304114548329906,0.9304114548329906,0.9304114548329906,0.0,0.0,0.0,0.0
160163000000,1477,160163000000,,BL_TO_BASELINK,BR_TO_BASELINK,FL_TO_BASELINK,FR_TO_BASELINK,0.02991234333230519,0.02991234333230519,0.02991234333230519,0.02991234333230519,0.93041152588181,0.93041152588181,0.93041152588181,0.93041152588181,0.0,0.0,0.0,0.0
160164000000,1478,160164000000,,BL_TO_BASELINK,BR_TO_BASELINK,FL_TO_BASELINK,FR_TO_BASELINK,0.030842754779637716,0.030842754779637716,0.030842754779637716,0.030842754779637716,0.9304114763711511,0.9304114763711511,0.9304114763711511,0.9304114763711511,0.0,0.0,0.0,0.0
160165000000,1479,160165000000,,BL_TO_BASELINK,BR_TO_BASELINK,FL_TO_BASELINK,FR_TO_BASELINK,0.03177316621282422,0.03177316621282422,0.03177316621282422,0.03177316621282422,0.9304114512703305,0.9304114512703305,0.9304114512703305,0.9304114512703305,0.0,0.0,0.0,0.0
160166000000,1480,160166000000,,BL_TO_BASELINK,BR_TO_BASELINK,FL_TO_BASELINK,FR_TO_BASELINK,0.032703577657992255,0.032703577657992255,0.032703577657992255,0.032703577657992255,0.9304114582558385,0.9304114582558385,0.9304114582558385,0.9304114582558385,0.0,0.0,0.0,0.0
160167000000,1481,160167000000,,BL_TO_BASELINK,BR_TO_BASELINK,FL_TO_BASELINK,FR_TO_BASELINK,0.03363398910028259,0.03363398910028259,0.03363398910028259,0.03363398910028259,0.9304114510136979,0.9304114510136979,0.9304114510136979,0.9304114510136979,0.0,0.0,0.0,0.0
160168000000,1482,160168000000,,BL_TO_BASELINK,BR_TO_BASELINK,FL_TO_BASELINK,FR_TO_BASELINK,0.03456440055296994,0.03456440055296994,0.03456440055296994,0.03456440055296994,0.9304114557610886,0.9304114557610887,0.9304114557610887,0.9304114557610887,0.0,0.0,0.0,0.0
160169000000,1483,160169000000,,BL_TO_BASELINK,BR_TO_BASELINK,FL_TO_BASELINK,FR_TO_BASELINK,0.035494812004311704,0.035494812004311704,0.035494812004311704,0.035494812004311704,0.9304114525697071,0.9304114525697071,0.9304114525697071,0.9304114525697073,0.0,0.0,0.0,0.0
160170000000,1484,160170000000,,BL_TO_BASELINK,BR_TO_BASELINK,FL_TO_BASELINK,FR_TO_BASELINK,0.036425223469140455,0.036425223469140455,0.036425223469140455,0.036425223469140455,0.9304115331819275,0.9304115331819275,0.9304115331819275,0.9304115331819275,0.0,0.0,0.0,0.0
160171000000,1485,160171000000,,BL_TO_BASELINK,BR_TO_BASELINK,FL_TO_BASELINK,FR_TO_BASELINK,0.03735563487555016,0.03735563487555016,0.03735563487555016,0.03735563487555016,0.9304115744490146,0.9304115744490146,0.9304115744490146,0.9304115744490146,0.0,0.0,0.0,0.0
160172000000,1486,160172000000,,BL_TO_BASELINK,BR_TO_BASELINK,FL_TO_BASELINK,FR_TO_BASELINK,0.03828604638792843,0.03828604638792843,0.03828604638792843,0.03828604638792843,0.9304115766948924,0.9304115766948925,0.9304115766948926,0.9304115766948925,0.0,0.0,0.0,0.0
160173000000,1487,160173000000,,BL_TO_BASELINK,BR_TO_BASELINK,FL_TO_BASELINK,FR_TO_BASELINK,0.03921645784110872,0.03921645784110872,0.03921645784110872,0.03921645784110872,0.9304115767973344,0.9304115767973344,0.9304115767973344,0.9304115767973344,0.0,0.0,0.0,0.0
160174000000,1488,160174000000,,BL_TO_BASELINK,BR_TO_BASELINK,FL_TO_BASELINK,FR_TO_BASELINK,0.040146869218169456,0.040146869218169456,0.040146869218169456,0.040146869218169456,0.930411577760833,0.930411577760833,0.930411577760833,0.930411577760833,0.0,0.0,0.0,0.0
160175000000,1489,160175000000,,BL_TO_BASELINK,BR_TO_BASELINK,FL_TO_BASELINK,FR_TO_BASELINK,0.04107728071662198,0.04107728071662198,0.04107728071662198,0.04107728071662198,0.9304115772752325,0.9304115772752325,0.9304115772752325,0.9304115772752325,0.0,0.0,0.0,0.0
160176000000,1490,160176000000,,BL_TO_BASELINK,BR_TO_BASELINK,FL_TO_BASELINK,FR_TO_BASELINK,0.04200769215922584,0.04200769215922584,0.04200769215922584,0.04200769215922584,0.9304115776923608,0.9304115776923608,0.9304115776923608,0.9304115776923608,0.0,0.0,0.0,0.0
160177000000,1491,160177000000,,BL_TO_BASELINK,BR_TO_BASELINK,FL_TO_BASELINK,FR_TO_BASELINK,0.04293810369274009,0.04293810369274009,0.04293810369274009,0.04293810369274009,0.9304115774070846,0.9304115774070846,0.9304115774070846,0.9304115774070846,0.0,0.0,0.0,0.0
160178000000,1492,160178000000,,BL_TO_BASELINK,BR_TO_BASELINK,FL_TO_BASELINK,FR_TO_BASELINK,0.04386851518313595,0.04386851518313595,0.04386851518313595,0.04386851518313595,0.9304115776653632,0.9304115776653632,0.9304115776653632,0.9304115776653632,0.0,0.0,0.0,0.0
160179000000,1493,160179000000,,BL_TO_BASELINK,BR_TO_BASELINK,FL_TO_BASELINK,FR_TO_BASELINK,0.04479892673552932,0.04479892673552932,0.04479892673552932,0.04479892673552932,0.9304115774664503,0.9304115774664503,0.9304115774664503,0.9304115774664503,0.0,0.0,0.0,0.0
160180000000,1494,160180000000,,BL_TO_BASELINK,BR_TO_BASELINK,FL_TO_BASELINK,FR_TO_BASELINK,0.045729338253094554,0.045729338253094554,0.045729338253094554,0.045729338253094554,0.9304115775998013,0.9304115775998013,0.9304115775998013,0.9304115775998014,0.0,0.0,0.0,0.0
160181000000,1495,160181000000,,BL_TO_BASELINK,BR_TO_BASELINK,FL_TO_BASELINK,FR_TO_BASELINK,0.04665974971187037,0.04665974971187037,0.04665974971187037,0.04665974971187037,0.9304115776375905,0.9304115776375905,0.9304115776375905,0.9304115776375905,0.0,0.0,0.0,0.0
160182000000,1496,160182000000,,BL_TO_BASELINK,BR_TO_BASELINK,FL_TO_BASELINK,FR_TO_BASELINK,0.04759016125053339,0.04759016125053339,0.04759016125053339,0.04759016125053339,0.9304115774607316,0.9304115774607316,0.9304115774607316,0.9304115774607316,0.0,0.0,0.0,0.0
160183000000,1497,160183000000,,BL_TO_BASELINK,BR_TO_BASELINK,FL_TO_BASELINK,FR_TO_BASELINK,0.048520572746332924,0.048520572746332924,0.048520572746332924,0.048520572746332924,0.9304115776209837,0.9304115776209837,0.9304115776209837,0.9304115776209837,0.0,0.0,0.0,0.0
160184000000,1498,160184000000,,BL_TO_BASELINK,BR_TO_BASELINK,FL_TO_BASELINK,FR_TO_BASELINK,0.04945098429983119,0.04945098429983119,0.04945098429983119,0.04945098429983119,0.9304115774520648,0.9304115774520648,0.9304115774520648,0.9304115774520648,0.0,0.0,0.0,0.0
160185000000,1499,160185000000,,BL_TO_BASELINK,BR_TO_BASELINK,FL_TO_BASELINK,FR_TO_BASELINK,0.05038139581853862,0.05038139581853862,0.05038139581853862,0.05038139581853862,0.9304115777548477,0.9304115777548476,0.9304115777548476,0.9304115777548476,0.0,0.0,0.0,0.0
160186000000,1500,160186000000,,BL_TO_BASELINK,BR_TO_BASELINK,FL_TO_BASELINK,FR_TO_BASELINK,0.05131180737704266,0.05131180737704266,0.05131180737704266,0.05131180737704266,0.9304115777630069,0.9304115777630069,0.9304115777630069,0.9304115777630069,0.0,0.0,0.0,0.0
160187000000,1501,160187000000,,BL_TO_BASELINK,BR_TO_BASELINK,FL_TO_BASELINK,FR_TO_BASELINK,0.052242218901009885,0.052242218901009885,0.052242218901009885,0.052242218901009885,0.9304115774864568,0.9304115774864568,0.9304115774864568,0.9304115774864568,0.0,0.0,0.0,0.0
160188000000,1502,160188000000,,BL_TO_BASELINK,BR_TO_BASELINK,FL_TO_BASELINK,FR_TO_BASELINK,0.053172630458065306,0.053172630458065306,0.053172630458065306,0.053172630458065306,0.930411577346919,0.930411577346919,0.930411577346919,0.930411577346919,0.0,0.0,0.0,0.0
160189000000,1503,160189000000,,BL_TO_BASELINK,BR_TO_BASELINK,FL_TO_BASELINK,FR_TO_BASELINK,0.0541030419698636,0.0541030419698636,0.0541030419698636,0.0541030419698636,0.9304115772991829,0.9304115772991829,0.930411577299183,0.930411577299183,0.0,0.0,0.0,0.0
160190000000,1504,160190000000,,BL_TO_BASELINK,BR_TO_BASELINK,FL_TO_BASELINK,FR_TO_BASELINK,0.055033453520136,0.055033453520136,0.055033453520136,0.055033453520136,0.9304115772385244,0.9304115772385244,0.9304115772385244,0.9304115772385244,0.0,0.0,0.0,0.0
160191000000,1505,160191000000,,BL_TO_BASELINK,BR_TO_BASELINK,FL_TO_BASELINK,FR_TO_BASELINK,0.055963865011018576,0.055963865011018576,0.055963865011018576,0.055963865011018576,0.930411577729855,0.930411577729855,0.930411577729855,0.930411577729855,0.0,0.0,0.0,0.0
160192000000,1506,160192000000,,BL_TO_BASELINK,BR_TO_BASELINK,FL_TO_BASELINK,FR_TO_BASELINK,0.05689427655171109,0.05689427655171109,0.05689427655171109,0.05689427655171109,0.9304115775923121,0.9304115775923121,0.9304115775923122,0.9304115775923122,0.0,0.0,0.0,0.0
160193000000,1507,160193000000,,BL_TO_BASELINK,BR_TO_BASELINK,FL_TO_BASELINK,FR_TO_BASELINK,0.05782468802589413,0.05782468802589413,0.05782468802589413,0.05782468802589413,0.930411577593674,0.930411577593674,0.930411577593674,0.930411577593674,0.0,0.0,0.0,0.0
160194000000,1508,160194000000,,BL_TO_BASELINK,BR_TO_BASELINK,FL_TO_BASELINK,FR_TO_BASELINK,0.05875509955913394,0.05875509955913394,0.05875509955913394,0.05875509955913394,0.9304115776745719,0.9304115776745719,0.9304115776745719,0.9304115776745719,0.0,0.0,0.0,0.0
160195000000,1509,160195000000,,BL_TO_BASELINK,BR_TO_BASELINK,FL_TO_BASELINK,FR_TO_BASELINK,0.05968551102237818,0.05968551102237818,0.05968551102237818,0.05968551102237818,0.9304115774084313,0.9304115774084313,0.9304115774084313,0.9304115774084313,0.0,0.0,0.0,0.0
160196000000,1510,160196000000,,BL_TO_BASELINK,BR_TO_BASELINK,FL_TO_BASELINK,FR_TO_BASELINK,0.06061592255267012,0.06061592255267012,0.06061592255267012,0.06061592255267012,0.930411577649084,0.930411577649084,0.930411577649084,0.930411577649084,0.0,0.0,0.0,0.0
160197000000,1511,160197000000,,BL_TO_BASELINK,BR_TO_BASELINK,FL_TO_BASELINK,FR_TO_BASELINK,0.06154633401522869,0.06154633401522869,0.06154633401522869,0.06154633401522869,0.9304115773968106,0.9304115773968106,0.9304115773968106,0.9304115773968106,0.0,0.0,0.0,0.0
160198000000,1512,160198000000,,BL_TO_BASELINK,BR_TO_BASELINK,FL_TO_BASELINK,FR_TO_BASELINK,0.06247674554752436,0.06247674554752436,0.06247674554752436,0.06247674554752436,0.9304115776666424,0.9304115776666425,0.9304115776666425,0.9304115776666425,0.0,0.0,0.0,0.0
160199000000,1513,160199000000,,BL_TO_BASELINK,BR_TO_BASELINK,FL_TO_BASELINK,FR_TO_BASELINK,0.06340715701566157,0.06340715701566157,0.06340715701566157,0.06340715701566157,0.9304115775566728,0.9304115775566728,0.9304115775566728,0.9304115775566728,0.0,0.0,0.0,0.0
160200000000,1514,160200000000,,BL_TO_BASELINK,BR_TO_BASELINK,FL_TO_BASELINK,FR_TO_BASELINK,0.06433756839423577,0.06433756839423577,0.06433756839423577,0.06433756839423577,0.9304115778087186,0.9304115778087186,0.9304115778087186,0.9304115778087186,0.0,0.0,0.0,0.0
160201000000,1515,160201000000,,BL_TO_BASELINK,BR_TO_BASELINK,FL_TO_BASELINK,FR_TO_BASELINK,0.0652679798918836,0.0652679798918836,0.0652679798918836,0.0652679798918836,0.9304115777113633,0.9304115777113633,0.9304115777113633,0.9304115777113633,0.0,0.0,0.0,0.0
160202000000,1516,160202000000,,BL_TO_BASELINK,BR_TO_BASELINK,FL_TO_BASELINK,FR_TO_BASELINK,0.06619839133247307,0.06619839133247307,0.06619839133247307,0.06619839133247307,0.9304115777262698,0.93041157772627,0.9304115777262698,0.9304115777262698,0.0,0.0,0.0,0.0
160203000000,1517,160203000000,,BL_TO_BASELINK,BR_TO_BASELINK,FL_TO_BASELINK,FR_TO_BASELINK,0.06712880286695544,0.06712880286695544,0.06712880286695544,0.06712880286695544,0.9304115775305637,0.9304115775305637,0.9304115775305637,0.9304115775305637,0.0,0.0,0.0,0.0
160204000000,1518,160204000000,,BL_TO_BASELINK,BR_TO_BASELINK,FL_TO_BASELINK,FR_TO_BASELINK,0.06805921435773499,0.06805921435773499,0.06805921435773499,0.06805921435773499,0.9304115776990438,0.9304115776990438,0.9304115776990438,0.930411577699044,0.0,0.0,0.0,0.0
160205000000,1519,160205000000,,BL_TO_BASELINK,BR_TO_BASELINK,FL_TO_BASELINK,FR_TO_BASELINK,0.06898962591059732,0.06898962591059732,0.06898962591059732,0.06898962591059732,0.9304115775709739,0.9304115775709739,0.9304115775709737,0.9304115775709737,0.0,0.0,0.0,0.0
160206000000,1520,160206000000,,BL_TO_BASELINK,BR_TO_BASELINK,FL_TO_BASELINK,FR_TO_BASELINK,0.06992003742616681,0.06992003742616681,0.06992003742616681,0.06992003742616681,0.9304115777451121,0.9304115777451121,0.9304115777451119,0.9304115777451119,0.0,0.0,0.0,0.0
160207000000,1521,160207000000,,BL_TO_BASELINK,BR_TO_BASELINK,FL_TO_BASELINK,FR_TO_BASELINK,0.07085044887502523,0.07085044887502523,0.07085044887502523,0.07085044887502523,0.930411577775313,0.930411577775313,0.930411577775313,0.930411577775313,0.0,0.0,0.0,0.0
160208000000,1522,160208000000,,BL_TO_BASELINK,BR_TO_BASELINK,FL_TO_BASELINK,FR_TO_BASELINK,0.07178086040831655,0.07178086040831655,0.07178086040831655,0.07178086040831655,0.9304115776446646,0.9304115776446648,0.9304115776446648,0.9304115776446648,0.0,0.0,0.0,0.0
160209000000,1523,160209000000,,BL_TO_BASELINK,BR_TO_BASELINK,FL_TO_BASELINK,FR_TO_BASELINK,0.07271127189281845,0.07271127189281845,0.07271127189281845,0.07271127189281845,0.9304115776616759,0.9304115776616759,0.9304115776616759,0.9304115776616759,0.0,0.0,0.0,0.0
160210000000,1524,160210000000,,BL_TO_BASELINK,BR_TO_BASELINK,FL_TO_BASELINK,FR_TO_BASELINK,0.07364168344149924,0.07364168344149924,0.07364168344149924,0.07364168344149924,0.9304115775086759,0.9304115775086759,0.9304115775086759,0.9304115775086759,0.0,0.0,0.0,0.0
160211000000,1525,160211000000,,BL_TO_BASELINK,BR_TO_BASELINK,FL_TO_BASELINK,FR_TO_BASELINK,0.07457209494792494,0.07457209494792494,0.07457209494792494,0.07457209494792494,0.930411577741938,0.930411577741938,0.930411577741938,0.930411577741938,0.0,0.0,0.0,0.0
160212000000,1526,160212000000,,BL_TO_BASELINK,BR_TO_BASELINK,FL_TO_BASELINK,FR_TO_BASELINK,0.07550250650294021,0.07550250650294021,0.07550250650294021,0.07550250650294021,0.9304115776636883,0.9304115776636883,0.9304115776636883,0.9304115776636883,0.0,0.0,0.0,0.0
160213000000,1527,160213000000,,BL_TO_BASELINK,BR_TO_BASELINK,FL_TO_BASELINK,FR_TO_BASELINK,0.07643291801807894,0.07643291801807894,0.07643291801807894,0.07643291801807894,0.9304115777280436,0.9304115777280436,0.9304115777280436,0.9304115777280436,0.0,0.0,0.0,0.0
160214000000,1528,160214000000,,BL_TO_BASELINK,BR_TO_BASELINK,FL_TO_BASELINK,FR_TO_BASELINK,0.07736332957318659,0.07736332957318659,0.07736332957318659,0.07736332957318659,0.93041157750715,0.93041157750715,0.93041157750715,0.93041157750715,0.0,0.0,0.0,0.0
160215000000,1529,160215000000,,BL_TO_BASELINK,BR_TO_BASELINK,FL_TO_BASELINK,FR_TO_BASELINK,0.07829374107989562,0.07829374107989562,0.07829374107989562,0.07829374107989562,0.9304115775473288,0.9304115775473287,0.9304115775473288,0.9304115775473288,0.0,0.0,0.0,0.0
160216000000,1530,160216000000,,BL_TO_BASELINK,BR_TO_BASELINK,FL_TO_BASELINK,FR_TO_BASELINK,0.0792241525467654,0.0792241525467654,0.0792241525467654,0.0792241525467654,0.9304114986353442,0.9304114986353442,0.9304114986353442,0.9304114986353442,0.0,0.0,0.0,0.0
160217000000,1531,160217000000,,BL_TO_BASELINK,BR_TO_BASELINK,FL_TO_BASELINK,FR_TO_BASELINK,0.08015456398871112,0.08015456398871112,0.08015456398871112,0.08015456398871112,0.9304114579405771,0.9304114579405771,0.9304114579405771,0.9304114579405771,0.0,0.0,0.0,0.0
160218000000,1532,160218000000,,BL_TO_BASELINK,BR_TO_BASELINK,FL_TO_BASELINK,FR_TO_BASELINK,0.08108497543577542,0.08108497543577542,0.08108497543577542,0.08108497543577542,0.9304114597416524,0.9304114597416523,0.9304114597416524,0.9304114597416523,0.0,0.0,0.0,0.0
160219000000,1533,160219000000,,BL_TO_BASELINK,BR_TO_BASELINK,FL_TO_BASELINK,FR_TO_BASELINK,0.08201538687564014,0.08201538687564014,0.08201538687564014,0.08201538687564014,0.9304114519042019,0.9304114519042019,0.9304114519042019,0.9304114519042019,0.0,0.0,0.0,0.0
160220000000,1534,160220000000,,BL_TO_BASELINK,BR_TO_BASELINK,FL_TO_BASELINK,FR_TO_BASELINK,0.08294579832191129,0.08294579832191129,0.08294579832191129,0.08294579832191129,0.9304114565860385,0.9304114565860385,0.9304114565860385,0.9304114565860385,0.0,0.0,0.0,0.0
160221000000,1535,160221000000,,BL_TO_BASELINK,BR_TO_BASELINK,FL_TO_BASELINK,FR_TO_BASELINK,0.0838762097637904,0.0838762097637904,0.0838762097637904,0.0838762097637904,0.9304114532246814,0.9304114532246814,0.9304114532246814,0.9304114532246814,0.0,0.0,0.0,0.0
160222000000,1536,160222000000,,BL_TO_BASELINK,BR_TO_BASELINK,FL_TO_BASELINK,FR_TO_BASELINK,0.08480662121131921,0.08480662121131921,0.08480662121131921,0.08480662121131921,0.9304114562286858,0.9304114562286858,0.9304114562286858,0.9304114562286858,0.0,0.0,0.0,0.0
160223000000,1537,160223000000,,BL_TO_BASELINK,BR_TO_BASELINK,FL_TO_BASELINK,FR_TO_BASELINK,0.0857370326540714,0.0857370326540714,0.0857370326540714,0.0857370326540714,0.9304114536697086,0.9304114536697086,0.9304114536697086,0.9304114536697086,0.0,0.0,0.0,0.0
160224000000,1538,160224000000,,BL_TO_BASELINK,BR_TO_BASELINK,FL_TO_BASELINK,FR_TO_BASELINK,0.0866674441014581,0.0866674441014581,0.0866674441014581,0.0866674441014581,0.9304114560997372,0.9304114560997372,0.9304114560997372,0.9304114560997372,0.0,0.0,0.0,0.0
160225000000,1539,160225000000,,BL_TO_BASELINK,BR_TO_BASELINK,FL_TO_BASELINK,FR_TO_BASELINK,0.08759785554497768,0.08759785554497768,0.08759785554497768,0.08759785554497768,0.9304114531931738,0.9304114531931738,0.9304114531931738,0.9304114531931738,0.0,0.0,0.0,0.0
160226000000,1540,160226000000,,BL_TO_BASELINK,BR_TO_BASELINK,FL_TO_BASELINK,FR_TO_BASELINK,0.08852826699399241,0.08852826699399241,0.08852826699399241,0.08852826699399241,0.9304114560169924,0.9304114560169924,0.9304114560169924,0.9304114560169924,0.0,0.0,0.0,0.0
160227000000,1541,160227000000,,BL_TO_BASELINK,BR_TO_BASELINK,FL_TO_BASELINK,FR_TO_BASELINK,0.08945867843904054,0.08945867843904054,0.08945867843904054,0.08945867843904054,0.9304114526170829,0.9304114526170829,0.9304114526170829,0.9304114526170829,0.0,0.0,0.0,0.0
160228000000,1542,160228000000,,BL_TO_BASELINK,BR_TO_BASELINK,FL_TO_BASELINK,FR_TO_BASELINK,0.09038908988888927,0.09038908988888927,0.09038908988888927,0.09038908988888927,0.9304114558392614,0.9304114558392614,0.9304114558392614,0.9304114558392614,0.0,0.0,0.0,0.0
160229000000,1543,160229000000,,BL_TO_BASELINK,BR_TO_BASELINK,FL_TO_BASELINK,FR_TO_BASELINK,0.09131950133381839,0.09131950133381839,0.09131950133381839,0.09131950133381839,0.9304114525313363,0.9304114525313364,0.9304114525313364,0.9304114525313364,0.0,0.0,0.0,0.0
160230000000,1544,160230000000,,BL_TO_BASELINK,BR_TO_BASELINK,FL_TO_BASELINK,FR_TO_BASELINK,0.09224991278276029,0.09224991278276029,0.09224991278276029,0.09224991278276029,0.9304114555797595,0.9304114555797595,0.9304114555797595,0.9304114555797595,0.0,0.0,0.0,0.0
160231000000,1545,160231000000,,BL_TO_BASELINK,BR_TO_BASELINK,FL_TO_BASELINK,FR_TO_BASELINK,0.09318032422674527,0.09318032422674527,0.09318032422674527,0.09318032422674527,0.9304114532182078,0.9304114532182078,0.930411453218208,0.930411453218208,0.0,0.0,0.0,0.0
160232000000,1546,160232000000,,BL_TO_BASELINK,BR_TO_BASELINK,FL_TO_BASELINK,FR_TO_BASELINK,0.0941107356743025,0.0941107356743025,0.0941107356743025,0.0941107356743025,0.9304114551042683,0.9304114551042683,0.9304114551042683,0.9304114551042683,0.0,0.0,0.0,0.0
160233000000,1547,160233000000,,BL_TO_BASELINK,BR_TO_BASELINK,FL_TO_BASELINK,FR_TO_BASELINK,0.09504114711753786,0.09504114711753786,0.09504114711753786,0.09504114711753786,0.930411453837739,0.930411453837739,0.930411453837739,0.930411453837739,0.0,0.0,0.0,0.0
160234000000,1548,160234000000,,BL_TO_BASELINK,BR_TO_BASELINK,FL_TO_BASELINK,FR_TO_BASELINK,0.09597155856446538,0.09597155856446538,0.09597155856446538,0.09597155856446538,0.9304114546434403,0.9304114546434403,0.9304114546434403,0.9304114546434403,0.0,0.0,0.0,0.0
160235000000,1549,160235000000,,BL_TO_BASELINK,BR_TO_BASELINK,FL_TO_BASELINK,FR_TO_BASELINK,0.09690197000809064,0.09690197000809064,0.09690197000809064,0.09690197000809064,0.930411454427879,0.930411454427879,0.930411454427879,0.930411454427879,0.0,0.0,0.0,0.0
160236000000,1550,160236000000,,BL_TO_BASELINK,BR_TO_BASELINK,FL_TO_BASELINK,FR_TO_BASELINK,0.0978323814556008,0.0978323814556008,0.0978323814556008,0.0978323814556008,0.9304114539942019,0.930411453994202,0.930411453994202,0.9304114539942019,0.0,0.0,0.0,0.0
160237000000,1551,160237000000,,BL_TO_BASELINK,BR_TO_BASELINK,FL_TO_BASELINK,FR_TO_BASELINK,0.0987627929010122,0.0987627929010122,0.0987627929010122,0.0987627929010122,0.930411454888536,0.930411454888536,0.930411454888536,0.930411454888536,0.0,0.0,0.0,0.0
160238000000,1552,160238000000,,BL_TO_BASELINK,BR_TO_BASELINK,FL_TO_BASELINK,FR_TO_BASELINK,0.0996932043549279,0.0996932043549279,0.0996932043549279,0.0996932043549279,0.9304115292312909,0.9304115292312909,0.9304115292312909,0.9304115292312909,0.0,0.0,0.0,0.0
160239000000,1553,160239000000,,BL_TO_BASELINK,BR_TO_BASELINK,FL_TO_BASELINK,FR_TO_BASELINK,0.10062361574160406,0.10062361574160406,0.10062361574160406,0.10062361574160406,0.9304115753161193,0.9304115753161193,0.9304115753161193,0.9304115753161193,0.0,0.0,0.0,0.0
160240000000,1554,160240000000,,BL_TO_BASELINK,BR_TO_BASELINK,FL_TO_BASELINK,FR_TO_BASELINK,0.10155402723900497,0.10155402723900497,0.10155402723900497,0.10155402723900497,0.9304115764145585,0.9304115764145585,0.9304115764145585,0.9304115764145585,0.0,0.0,0.0,0.0
160241000000,1555,160241000000,,BL_TO_BASELINK,BR_TO_BASELINK,FL_TO_BASELINK,FR_TO_BASELINK,0.10248443867257961,0.10248443867257961,0.10248443867257961,0.10248443867257961,0.9304115775080047,0.930411577508005,0.930411577508005,0.930411577508005,0.0,0.0,0.0,0.0
160242000000,1556,160242000000,,BL_TO_BASELINK,BR_TO_BASELINK,FL_TO_BASELINK,FR_TO_BASELINK,0.10341485002349415,0.10341485002349415,0.10341485002349415,0.10341485002349415,0.9304115775423321,0.9304115775423321,0.9304115775423321,0.9304115775423321,0.0,0.0,0.0,0.0
160243000000,1557,160243000000,,BL_TO_BASELINK,BR_TO_BASELINK,FL_TO_BASELINK,FR_TO_BASELINK,0.10434526150456325,0.10434526150456325,0.10434526150456325,0.10434526150456325,0.9304115774087378,0.930411577408738,0.930411577408738,0.930411577408738,0.0,0.0,0.0,0.0
160244000000,1558,160244000000,,BL_TO_BASELINK,BR_TO_BASELINK,FL_TO_BASELINK,FR_TO_BASELINK,0.10527567292130424,0.10527567292130424,0.10527567292130424,0.10527567292130424,0.9304115777282617,0.9304115777282614,0.9304115777282614,0.9304115777282614,0.0,0.0,0.0,0.0
160245000000,1559,160245000000,,BL_TO_BASELINK,BR_TO_BASELINK,FL_TO_BASELINK,FR_TO_BASELINK,0.10620608444128976,0.10620608444128976,0.10620608444128976,0.10620608444128976,0.9304115771751155,0.9304115771751156,0.9304115771751156,0.9304115771751156,0.0,0.0,0.0,0.0
160246000000,1560,160246000000,,BL_TO_BASELINK,BR_TO_BASELINK,FL_TO_BASELINK,FR_TO_BASELINK,0.1071364959126786,0.1071364959126786,0.1071364959126786,0.1071364959126786,0.9304115775731056,0.9304115775731056,0.9304115775731056,0.9304115775731056,0.0,0.0,0.0,0.0
160247000000,1561,160247000000,,BL_TO_BASELINK,BR_TO_BASELINK,FL_TO_BASELINK,FR_TO_BASELINK,0.10806690745764147,0.10806690745764147,0.10806690745764147,0.10806690745764147,0.9304115773167192,0.9304115773167192,0.9304115773167192,0.9304115773167192,0.0,0.0,0.0,0.0
160248000000,1562,160248000000,,BL_TO_BASELINK,BR_TO_BASELINK,FL_TO_BASELINK,FR_TO_BASELINK,0.10899731896309284,0.10899731896309284,0.10899731896309284,0.10899731896309284,0.9304115776312213,0.9304115776312214,0.9304115776312214,0.9304115776312214,0.0,0.0,0.0,0.0
160249000000,1563,160249000000,,BL_TO_BASELINK,BR_TO_BASELINK,FL_TO_BASELINK,FR_TO_BASELINK,0.10992773040669324,0.10992773040669324,0.10992773040669324,0.10992773040669324,0.930411577550625,0.930411577550625,0.930411577550625,0.930411577550625,0.0,0.0,0.0,0.0
160250000000,1564,160250000000,,BL_TO_BASELINK,BR_TO_BASELINK,FL_TO_BASELINK,FR_TO_BASELINK,0.1108581419372463,0.1108581419372463,0.1108581419372463,0.1108581419372463,0.9304115776556142,0.9304115776556142,0.9304115776556142,0.9304115776556142,0.0,0.0,0.0,0.0
160251000000,1565,160251000000,,BL_TO_BASELINK,BR_TO_BASELINK,FL_TO_BASELINK,FR_TO_BASELINK,0.11178855341948601,0.11178855341948601,0.11178855341948601,0.11178855341948601,0.9304115775327835,0.9304115775327835,0.9304115775327835,0.9304115775327835,0.0,0.0,0.0,0.0
160252000000,1566,160252000000,,BL_TO_BASELINK,BR_TO_BASELINK,FL_TO_BASELINK,FR_TO_BASELINK,0.11271896496733014,0.11271896496733014,0.11271896496733014,0.11271896496733014,0.9304115776242905,0.9304115776242906,0.9304115776242905,0.9304115776242906,0.0,0.0,0.0,0.0
160253000000,1567,160253000000,,BL_TO_BASELINK,BR_TO_BASELINK,FL_TO_BASELINK,FR_TO_BASELINK,0.11364937647605977,0.11364937647605977,0.11364937647605977,0.11364937647605977,0.9304115776868221,0.9304115776868221,0.9304115776868221,0.9304115776868221,0.0,0.0,0.0,0.0
160254000000,1568,160254000000,,BL_TO_BASELINK,BR_TO_BASELINK,FL_TO_BASELINK,FR_TO_BASELINK,0.11457978803280877,0.11457978803280877,0.11457978803280877,0.11457978803280877,0.930411577728448,0.930411577728448,0.930411577728448,0.9304115777284478,0.0,0.0,0.0,0.0
160255000000,1569,160255000000,,BL_TO_BASELINK,BR_TO_BASELINK,FL_TO_BASELINK,FR_TO_BASELINK,0.11551019955718278,0.11551019955718278,0.11551019955718278,0.11551019955718278,0.930411577716909,0.930411577716909,0.930411577716909,0.930411577716909,0.0,0.0,0.0,0.0
160256000000,1570,160256000000,,BL_TO_BASELINK,BR_TO_BASELINK,FL_TO_BASELINK,FR_TO_BASELINK,0.11644061102050518,0.11644061102050518,0.11644061102050518,0.11644061102050518,0.9304115777384335,0.9304115777384335,0.9304115777384335,0.9304115777384335,0.0,0.0,0.0,0.0
160257000000,1571,160257000000,,BL_TO_BASELINK,BR_TO_BASELINK,FL_TO_BASELINK,FR_TO_BASELINK,0.11737102255892928,0.11737102255892928,0.11737102255892928,0.11737102255892928,0.9304115776820397,0.9304115776820397,0.9304115776820399,0.9304115776820399,0.0,0.0,0.0,0.0
160258000000,1572,160258000000,,BL_TO_BASELINK,BR_TO_BASELINK,FL_TO_BASELINK,FR_TO_BASELINK,0.11830143405042204,0.11830143405042204,0.11830143405042204,0.11830143405042204,0.9304115775416922,0.9304115775416922,0.9304115775416922,0.9304115775416922,0.0,0.0,0.0,0.0
160259000000,1573,160259000000,,BL_TO_BASELINK,BR_TO_BASELINK,FL_TO_BASELINK,FR_TO_BASELINK,0.11923184560093869,0.11923184560093869,0.11923184560093869,0.11923184560093869,0.9304115775713906,0.9304115775713906,0.9304115775713906,0.9304115775713906,0.0,0.0,0.0,0.0
160260000000,1574,160260000000,,BL_TO_BASELINK,BR_TO_BASELINK,FL_TO_BASELINK,FR_TO_BASELINK,0.12016225711048012,0.12016225711048012,0.12016225711048012,0.12016225711048012,0.9304115774778235,0.9304115774778235,0.9304115774778235,0.9304115774778235,0.0,0.0,0.0,0.0
160261000000,1575,160261000000,,BL_TO_BASELINK,BR_TO_BASELINK,FL_TO_BASELINK,FR_TO_BASELINK,0.12109266866590929,0.12109266866590929,0.12109266866590929,0.12109266866590929,0.9304115774971508,0.9304115774971508,0.9304115774971508,0.9304115774971508,0.0,0.0,0.0,0.0
160262000000,1576,160262000000,,BL_TO_BASELINK,BR_TO_BASELINK,FL_TO_BASELINK,FR_TO_BASELINK,0.12202308018077979,0.12202308018077979,0.12202308018077979,0.12202308018077979,0.9304115776138543,0.9304115776138543,0.9304115776138543,0.9304115776138543,0.0,0.0,0.0,0.0
160263000000,1577,160263000000,,BL_TO_BASELINK,BR_TO_BASELINK,FL_TO_BASELINK,FR_TO_BASELINK,0.12295349173577463,0.12295349173577463,0.12295349173577463,0.12295349173577463,0.930411577602793,0.930411577602793,0.930411577602793,0.930411577602793,0.0,0.0,0.0,0.0
160264000000,1578,160264000000,,BL_TO_BASELINK,BR_TO_BASELINK,FL_TO_BASELINK,FR_TO_BASELINK,0.123883903244006,0.123883903244006,0.123883903244006,0.123883903244006,0.9304115777607954,0.9304115777607955,0.9304115777607953,0.9304115777607954,0.0,0.0,0.0,0.0
160265000000,1579,160265000000,,BL_TO_BASELINK,BR_TO_BASELINK,FL_TO_BASELINK,FR_TO_BASELINK,0.1248143147043912,0.1248143147043912,0.1248143147043912,0.1248143147043912,0.9304115571630323,0.9304115571630323,0.9304115571630323,0.9304115571630323,0.0,0.0,0.0,0.0
160266000000,1580,160266000000,,BL_TO_BASELINK,BR_TO_BASELINK,FL_TO_BASELINK,FR_TO_BASELINK,0.12574472612272913,0.12574472612272913,0.12574472612272913,0.12574472612272913,0.9304114808005974,0.9304114808005974,0.9304114808005974,0.9304114808005974,0.0,0.0,0.0,0.0
160267000000,1581,160267000000,,BL_TO_BASELINK,BR_TO_BASELINK,FL_TO_BASELINK,FR_TO_BASELINK,0.12667513754141257,0.12667513754141257,0.12667513754141257,0.12667513754141257,0.9304114564888307,0.9304114564888307,0.9304114564888307,0.9304114564888307,0.0,0.0,0.0,0.0
160268000000,1582,160268000000,,BL_TO_BASELINK,BR_TO_BASELINK,FL_TO_BASELINK,FR_TO_BASELINK,0.1276055489661534,0.1276055489661534,0.1276055489661534,0.1276055489661534,0.9304114562623327,0.9304114562623327,0.9304114562623327,0.9304114562623327,0.0,0.0,0.0,0.0
160269000000,1583,160269000000,,BL_TO_BASELINK,BR_TO_BASELINK,FL_TO_BASELINK,FR_TO_BASELINK,0.12853596040551007,0.12853596040551007,0.12853596040551007,0.12853596040551007,0.9304114534882787,0.9304114534882787,0.9304114534882787,0.9304114534882787,0.0,0.0,0.0,0.0
160270000000,1584,160270000000,,BL_TO_BASELINK,BR_TO_BASELINK,FL_TO_BASELINK,FR_TO_BASELINK,0.1294663718524527,0.1294663718524527,0.1294663718524527,0.1294663718524527,0.9304114545846621,0.9304114545846621,0.9304114545846621,0.9304114545846621,0.0,0.0,0.0,0.0
160271000000,1585,160271000000,,BL_TO_BASELINK,BR_TO_BASELINK,FL_TO_BASELINK,FR_TO_BASELINK,0.13039678331224724,0.13039678331224724,0.13039678331224724,0.13039678331224724,0.9304114535328278,0.9304114535328278,0.9304114535328278,0.9304114535328278,0.0,0.0,0.0,0.0
160272000000,1586,160272000000,,BL_TO_BASELINK,BR_TO_BASELINK,FL_TO_BASELINK,FR_TO_BASELINK,0.13132719477709642,0.13132719477709642,0.13132719477709642,0.13132719477709642,0.9304114540428516,0.9304114540428516,0.9304114540428516,0.9304114540428516,0.0,0.0,0.0,0.0
160273000000,1587,160273000000,,BL_TO_BASELINK,BR_TO_BASELINK,FL_TO_BASELINK,FR_TO_BASELINK,0.13225760625070926,0.13225760625070926,0.13225760625070926,0.13225760625070926,0.9304114541731582,0.9304114541731582,0.9304114541731582,0.9304114541731582,0.0,0.0,0.0,0.0
160274000000,1588,160274000000,,BL_TO_BASELINK,BR_TO_BASELINK,FL_TO_BASELINK,FR_TO_BASELINK,0.1331880177252991,0.1331880177252991,0.1331880177252991,0.1331880177252991,0.9304114542170137,0.9304114542170137,0.9304114542170137,0.9304114542170137,0.0,0.0,0.0,0.0
160275000000,1589,160275000000,,BL_TO_BASELINK,BR_TO_BASELINK,FL_TO_BASELINK,FR_TO_BASELINK,0.13411842920320982,0.13411842920320982,0.13411842920320982,0.13411842920320982,0.9304114542001889,0.9304114542001889,0.9304114542001889,0.9304114542001889,0.0,0.0,0.0,0.0
160276000000,1590,160276000000,,BL_TO_BASELINK,BR_TO_BASELINK,FL_TO_BASELINK,FR_TO_BASELINK,0.13504884067851375,0.13504884067851375,0.13504884067851375,0.13504884067851375,0.9304114552133178,0.9304114552133178,0.9304114552133178,0.9304114552133178,0.0,0.0,0.0,0.0
160277000000,1591,160277000000,,BL_TO_BASELINK,BR_TO_BASELINK,FL_TO_BASELINK,FR_TO_BASELINK,0.1359792521530112,0.1359792521530112,0.1359792521530112,0.1359792521530112,0.9304114539341707,0.9304114539341707,0.9304114539341707,0.9304114539341707,0.0,0.0,0.0,0.0
160278000000,1592,160278000000,,BL_TO_BASELINK,BR_TO_BASELINK,FL_TO_BASELINK,FR_TO_BASELINK,0.13690966362237056,0.13690966362237056,0.13690966362237056,0.13690966362237056,0.9304114546757951,0.9304114546757951,0.9304114546757951,0.9304114546757951,0.0,0.0,0.0,0.0
160279000000,1593,160279000000,,BL_TO_BASELINK,BR_TO_BASELINK,FL_TO_BASELINK,FR_TO_BASELINK,0.13784007509010454,0.13784007509010454,0.13784007509010454,0.13784007509010454,0.9304114548347008,0.9304114548347008,0.9304114548347008,0.9304114548347008,0.0,0.0,0.0,0.0
160280000000,1594,160280000000,,BL_TO_BASELINK,BR_TO_BASELINK,FL_TO_BASELINK,FR_TO_BASELINK,0.13877048655084945,0.13877048655084945,0.13877048655084945,0.13877048655084945,0.9304114536827564,0.9304114536827564,0.9304114536827564,0.9304114536827564,0.0,0.0,0.0,0.0
160281000000,1595,160281000000,,BL_TO_BASELINK,BR_TO_BASELINK,FL_TO_BASELINK,FR_TO_BASELINK,0.1397008980110508,0.1397008980110508,0.1397008980110508,0.1397008980110508,0.9304114554196055,0.9304114554196055,0.9304114554196055,0.9304114554196055,0.0,0.0,0.0,0.0
160282000000,1596,160282000000,,BL_TO_BASELINK,BR_TO_BASELINK,FL_TO_BASELINK,FR_TO_BASELINK,0.1406313094652356,0.1406313094652356,0.1406313094652356,0.1406313094652356,0.9304114528781611,0.9304114528781611,0.9304114528781611,0.9304114528781611,0.0,0.0,0.0,0.0
160283000000,1597,160283000000,,BL_TO_BASELINK,BR_TO_BASELINK,FL_TO_BASELINK,FR_TO_BASELINK,0.14156172091978902,0.14156172091978902,0.14156172091978902,0.14156172091978902,0.9304114548597235,0.9304114548597235,0.9304114548597235,0.9304114548597235,0.0,0.0,0.0,0.0
160284000000,1598,160284000000,,BL_TO_BASELINK,BR_TO_BASELINK,FL_TO_BASELINK,FR_TO_BASELINK,0.14249213236984293,0.14249213236984293,0.14249213236984293,0.14249213236984293,0.9304114527710087,0.9304114527710087,0.9304114527710087,0.9304114527710087,0.0,0.0,0.0,0.0
160285000000,1599,160285000000,,BL_TO_BASELINK,BR_TO_BASELINK,FL_TO_BASELINK,FR_TO_BASELINK,0.14342254382163855,0.14342254382163855,0.14342254382163855,0.14342254382163855,0.9304114542895514,0.9304114542895514,0.9304114542895514,0.9304114542895514,0.0,0.0,0.0,0.0
160286000000,1600,160286000000,,BL_TO_BASELINK,BR_TO_BASELINK,FL_TO_BASELINK,FR_TO_BASELINK,0.14435295527068348,0.14435295527068348,0.14435295527068348,0.14435295527068348,0.9304114527846333,0.9304114527846333,0.9304114527846333,0.9304114527846333,0.0,0.0,0.0,0.0
160287000000,1601,160287000000,,BL_TO_BASELINK,BR_TO_BASELINK,FL_TO_BASELINK,FR_TO_BASELINK,0.14528336672297204,0.14528336672297204,0.14528336672297204,0.14528336672297204,0.9304114538150332,0.9304114538150332,0.9304114538150332,0.9304114538150332,0.0,0.0,0.0,0.0
160288000000,1602,160288000000,,BL_TO_BASELINK,BR_TO_BASELINK,FL_TO_BASELINK,FR_TO_BASELINK,0.14621377815807968,0.14621377815807968,0.14621377815807968,0.14621377815807968,0.9304115687120635,0.9304115687120635,0.9304115687120635,0.9304115687120635,0.0,0.0,0.0,0.0
160289000000,1603,160289000000,,BL_TO_BASELINK,BR_TO_BASELINK,FL_TO_BASELINK,FR_TO_BASELINK,0.14714418949804742,0.14714418949804742,0.14714418949804742,0.14714418949804742,0.9304115780939239,0.9304115780939239,0.9304115780939239,0.9304115780939239,0.0,0.0,0.0,0.0
160290000000,1604,160290000000,,BL_TO_BASELINK,BR_TO_BASELINK,FL_TO_BASELINK,FR_TO_BASELINK,0.14807460096636316,0.14807460096636316,0.14807460096636316,0.14807460096636316,0.9304115779452227,0.9304115779452227,0.9304115779452227,0.9304115779452227,0.0,0.0,0.0,0.0
160291000000,1605,160291000000,,BL_TO_BASELINK,BR_TO_BASELINK,FL_TO_BASELINK,FR_TO_BASELINK,0.1490050123596287,0.1490050123596287,0.1490050123596287,0.1490050123596287,0.9304115771821545,0.9304115771821545,0.9304115771821545,0.9304115771821545,0.0,0.0,0.0,0.0
160292000000,1606,160292000000,,BL_TO_BASELINK,BR_TO_BASELINK,FL_TO_BASELINK,FR_TO_BASELINK,0.1499354238651076,0.1499354238651076,0.1499354238651076,0.1499354238651076,0.9304115779779412,0.9304115779779412,0.930411577977941,0.9304115779779412,0.0,0.0,0.0,0.0
160293000000,1607,160293000000,,BL_TO_BASELINK,BR_TO_BASELINK,FL_TO_BASELINK,FR_TO_BASELINK,0.15086583531309294,0.15086583531309294,0.15086583531309294,0.15086583531309294,0.9304115772727211,0.9304115772727211,0.9304115772727213,0.9304115772727213,0.0,0.0,0.0,0.0
160294000000,1608,160294000000,,BL_TO_BASELINK,BR_TO_BASELINK,FL_TO_BASELINK,FR_TO_BASELINK,0.1517962468386811,0.1517962468386811,0.1517962468386811,0.1517962468386811,0.9304115748918662,0.9304115748918662,0.9304115748918662,0.9304115748918662,0.0,0.0,0.0,0.0
160295000000,1609,160295000000,,BL_TO_BASELINK,BR_TO_BASELINK,FL_TO_BASELINK,FR_TO_BASELINK,0.15272665831862486,0.15272665831862486,0.15272665831862486,0.15272665831862486,0.9304115771358972,0.9304115771358972,0.9304115771358972,0.9304115771358972,0.0,0.0,0.0,0.0
160296000000,1610,160296000000,,BL_TO_BASELINK,BR_TO_BASELINK,FL_TO_BASELINK,FR_TO_BASELINK,0.15365706973453186,0.15365706973453186,0.15365706973453186,0.15365706973453186,0.9304115778019222,0.9304115778019222,0.9304115778019222,0.9304115778019222,0.0,0.0,0.0,0.0
160297000000,1611,160297000000,,BL_TO_BASELINK,BR_TO_BASELINK,FL_TO_BASELINK,FR_TO_BASELINK,0.15458748125323307,0.15458748125323307,0.15458748125323307,0.15458748125323307,0.9304115777836418,0.9304115777836417,0.9304115777836416,0.9304115777836417,0.0,0.0,0.0,0.0
160298000000,1612,160298000000,,BL_TO_BASELINK,BR_TO_BASELINK,FL_TO_BASELINK,FR_TO_BASELINK,0.15551789272216165,0.15551789272216165,0.15551789272216165,0.15551789272216165,0.930411577599731,0.930411577599731,0.9304115775997308,0.930411577599731,0.0,0.0,0.0,0.0
160299000000,1613,160299000000,,BL_TO_BASELINK,BR_TO_BASELINK,FL_TO_BASELINK,FR_TO_BASELINK,0.15644830426630296,0.15644830426630296,0.15644830426630296,0.15644830426630296,0.9304115776057211,0.9304115776057211,0.9304115776057212,0.9304115776057211,0.0,0.0,0.0,0.0
160300000000,1614,160300000000,,BL_TO_BASELINK,BR_TO_BASELINK,FL_TO_BASELINK,FR_TO_BASELINK,0.15737871577362217,0.15737871577362217,0.15737871577362217,0.15737871577362217,0.9304115774612316,0.9304115774612316,0.9304115774612316,0.9304115774612316,0.0,0.0,0.0,0.0
160301000000,1615,160301000000,,BL_TO_BASELINK,BR_TO_BASELINK,FL_TO_BASELINK,FR_TO_BASELINK,0.15830912722461754,0.15830912722461754,0.15830912722461754,0.15830912722461754,0.9304115775637766,0.9304115775637766,0.9304115775637763,0.9304115775637763,0.0,0.0,0.0,0.0
160302000000,1616,160302000000,,BL_TO_BASELINK,BR_TO_BASELINK,FL_TO_BASELINK,FR_TO_BASELINK,0.15923953876023855,0.15923953876023855,0.15923953876023855,0.15923953876023855,0.9304115770714003,0.9304115770714003,0.9304115770714003,0.9304115770714003,0.0,0.0,0.0,0.0
160303000000,1617,160303000000,,BL_TO_BASELINK,BR_TO_BASELINK,FL_TO_BASELINK,FR_TO_BASELINK,0.16016995025340464,0.16016995025340464,0.16016995025340464,0.16016995025340464,0.9304115775305655,0.9304115775305655,0.9304115775305655,0.9304115775305655,0.0,0.0,0.0,0.0
160304000000,1618,160304000000,,BL_TO_BASELINK,BR_TO_BASELINK,FL_TO_BASELINK,FR_TO_BASELINK,0.16110036180599252,0.16110036180599252,0.16110036180599252,0.16110036180599252,0.9304115770344273,0.9304115770344273,0.9304115770344273,0.9304115770344272,0.0,0.0,0.0,0.0
160305000000,1619,160305000000,,BL_TO_BASELINK,BR_TO_BASELINK,FL_TO_BASELINK,FR_TO_BASELINK,0.16203077332497795,0.16203077332497795,0.16203077332497795,0.16203077332497795,0.9304115778387942,0.9304115778387942,0.9304115778387942,0.9304115778387942,0.0,0.0,0.0,0.0
160306000000,1620,160306000000,,BL_TO_BASELINK,BR_TO_BASELINK,FL_TO_BASELINK,FR_TO_BASELINK,0.16296118488402467,0.16296118488402467,0.16296118488402467,0.16296118488402467,0.9304115776727597,0.9304115776727597,0.9304115776727598,0.9304115776727597,0.0,0.0,0.0,0.0
160307000000,1621,160307000000,,BL_TO_BASELINK,BR_TO_BASELINK,FL_TO_BASELINK,FR_TO_BASELINK,0.16389159641372242,0.16389159641372242,0.16389159641372242,0.16389159641372242,0.9304115777378235,0.9304115777378235,0.9304115777378235,0.9304115777378235,0.0,0.0,0.0,0.0
160308000000,1622,160308000000,,BL_TO_BASELINK,BR_TO_BASELINK,FL_TO_BASELINK,FR_TO_BASELINK,0.1648220078806384,0.1648220078806384,0.1648220078806384,0.1648220078806384,0.9304115778423919,0.9304115778423917,0.9304115778423917,0.9304115778423917,0.0,0.0,0.0,0.0
