%time,field.header.seq,field.header.stamp,field.header.frame_id,field.wrench.force.x,field.wrench.force.y,field.wrench.force.z,field.wrench.torque.x,field.wrench.torque.y,field.wrench.torque.z
515054000000,0,515046000000,FR_wheel_link,-1.3261496977259486,-16.66113430536771,12.494590573922565,-0.8662789569711633,0.11151600896902336,0.07005443178546633
515054000000,1,515047000000,FR_wheel_link,0.1920638216882947,-0.5174576885196086,1.100537293478168,-0.008042827369151061,-0.006712195672959026,-0.008296009401843695
515054000000,2,515048000000,FR_wheel_link,-1.1646374753272974,-16.671233671857767,12.174339262232987,-0.8850878827680297,0.09515027419146527,0.060836590687404934
515054000000,3,515049000000,FR_wheel_link,0.19244642427067105,-0.5125054078429315,1.0395118009613067,-0.009256301857279131,-0.00647157723237444,-0.008579807175826718
515054000000,4,515050000000,FR_wheel_link,-1.3221457675957127,-16.66304318304434,12.487571632910605,-0.8668951998078496,0.11114076590323929,0.06983907023604238
515054000000,5,515051000000,FR_wheel_link,0.19216952944693122,-0.5175715789551214,1.0991493486364665,-0.008072897986282457,-0.006714180777710496,-0.00830636229012498
515054000000,6,515052000000,FR_wheel_link,-1.1699765967132043,-16.67511250847944,12.191021593912696,-0.884551411045507,0.09572904445666203,0.06115040548808007
515054000000,7,515053000000,FR_wheel_link,0.19243760933704618,-0.5128177161800911,1.0413561347206501,-0.00921914354415442,-0.006494348961869312,-0.008569510823615754
515054000000,8,515054000000,FR_wheel_link,-1.3127318750945243,-16.664919167322232,12.476456367800417,-0.867733659851101,0.11026443283597276,0.0693256283841106
515055000000,9,515055000000,FR_wheel_link,0.19239351413500017,-0.5175115504869324,1.0961077545807132,-0.008140869340252115,-0.0067241457516591914,-0.008325226706273416
515056000000,10,515056000000,FR_wheel_link,-1.1788549964711121,-16.68245554266143,12.231756421089768,-0.882966306832861,0.09676276622516888,0.06169024102587198
515057000000,11,515057000000,FR_wheel_link,0.192512052718029,-0.5132281992677362,1.0454172541978337,-0.009143005950848139,-0.0065581991093760705,-0.008549426609881504
515058000000,12,515058000000,FR_wheel_link,-1.2915217132378745,-16.665114871535085,12.454809582857582,-0.8690100081687778,0.1082748128384724,0.06815740193334338
515059000000,13,515059000000,FR_wheel_link,0.19291249742581795,-0.5170817898664816,1.0898045406093946,-0.008282532849780852,-0.006755322361224893,-0.008364054896313082
515060000000,14,515060000000,FR_wheel_link,-1.1942524118170015,-16.694503742422476,12.322425270373964,-0.8789567526150399,0.09866848578395893,0.06265462504034744
515061000000,15,515061000000,FR_wheel_link,0.192824086059712,-0.5138878720292461,1.0541980308564656,-0.00898764394939205,-0.006711825927359316,-0.008512479621791125
515062000000,16,515062000000,FR_wheel_link,-1.2449731667447006,-16.661859574524783,12.409778062861015,-0.8712966677472214,0.1038672292018541,0.06557670816174321
515063000000,17,515063000000,FR_wheel_link,0.19326125749793946,-0.515723829825319,1.0766829617009726,-0.008572639317168422,-0.006833716741658429,-0.008420415155339901
515064000000,18,515064000000,FR_wheel_link,-1.1907535802306715,-16.67910911384697,12.349991698201316,-0.8761687458927323,0.09860474901827093,0.06253132527692087
515065000000,19,515065000000,FR_wheel_link,0.19355387633299584,-0.5142170104709687,1.0602498503902629,-0.008893353849300794,-0.006878604250050196,-0.008512411930173387
515066000000,20,515066000000,FR_wheel_link,-1.2022899276924477,-16.656159927247355,12.36555222917478,-0.8733659995611676,0.09977636074549173,0.06319851101710056
515066000000,21,515067000000,FR_wheel_link,0.19390752053409815,-0.5147015844113759,1.0678797578020702,-0.008747781384339244,-0.006942916505577139,-0.008491253316961165
515068000000,22,515068000000,FR_wheel_link,-1.1776581435314917,-16.657308793353778,12.336887951277985,-0.8750921088074426,0.09739154139771522,0.06181396527641153
515069000000,23,515069000000,FR_wheel_link,0.19427482212496097,-0.514108445860773,1.0621898725272356,-0.008843683749555305,-0.006983851805920115,-0.008540877103800514
515071000000,24,515070000000,FR_wheel_link,-1.1815970634791357,-16.64822663630173,12.3435874526193,-0.873946471317198,0.09778265971312855,0.06204121654810624
515071000000,25,515071000000,FR_wheel_link,0.19452447757668054,-0.5142890557332089,1.0653848846619842,-0.008767275731359955,-0.007016767458845713,-0.008540762551844059
515072000000,26,515072000000,FR_wheel_link,-1.1715351219488435,-16.648116423545737,12.333947053552125,-0.8744825699641197,0.09682108072788231,0.06147813220643941
515073000000,27,515073000000,FR_wheel_link,0.19468596963312518,-0.5140188245299034,1.0631827344626563,-0.008792696848561788,-0.007035822536674411,-0.008561939218444146
515074000000,28,515074000000,FR_wheel_link,-1.1732178706875525,-16.644223911425584,12.335687491189825,-0.874055308970876,0.09698831535735214,0.0615773334046926
515075000000,29,515075000000,FR_wheel_link,0.19479516753989384,-0.514120330212747,1.0644530766491092,-0.008756054796992882,-0.007047743000912017,-0.008563401314745622
515076000000,30,515076000000,FR_wheel_link,-1.16916851748232,-16.644685927672125,12.331551252069392,-0.8743397236335135,0.09660879948320344,0.06135423267785933
515077000000,31,515077000000,FR_wheel_link,0.1948796256536783,-0.5140758683274127,1.0636239159814436,-0.008761749855267707,-0.007055601634488023,-0.008573776417103083
515078000000,32,515078000000,FR_wheel_link,-1.1699859942784423,-16.644160155459787,12.332371440724005,-0.8742663491620157,0.09669349027209106,0.06140463161176338
515079000000,33,515079000000,FR_wheel_link,0.19492894154759546,-0.5141829987172076,1.0641326109595768,-0.008745104967708594,-0.007059911945280738,-0.008575426180695952
515080000000,34,515080000000,FR_wheel_link,-1.1684212232567672,-16.645307159336184,12.330339216544292,-0.874501641822933,0.09654959820820891,0.061320954767270675
515081000000,35,515081000000,FR_wheel_link,0.1949647335259368,-0.5142375775065791,1.0637655632364078,-0.008747413230009379,-0.007062185514325527,-0.00858049950792693
515082000000,36,515082000000,FR_wheel_link,-1.1687894721291059,-16.64616528267625,12.330131008650135,-0.8746144311746871,0.09658959128075917,0.06134585345514337
515083000000,37,515083000000,FR_wheel_link,0.19498791197930937,-0.514358193648991,1.0639305857588595,-0.008741524951910527,-0.0070631805870549295,-0.008582206690934858
515084000000,38,515084000000,FR_wheel_link,-1.1681604093921214,-16.647669087294403,12.328637609581614,-0.8748575504636262,0.09653270411672132,0.061314352344947115
515085000000,39,515085000000,FR_wheel_link,0.19500422733799344,-0.5144580783218607,1.0637290637852028,-0.008743920273001589,-0.007063138123782809,-0.008585253773398902
515086000000,40,515086000000,FR_wheel_link,-1.1682578779539199,-16.649052017815738,12.32772139992178,-0.8750606336780853,0.09654475123838963,0.061323635204369537
515087000000,41,515087000000,FR_wheel_link,0.19501834487750125,-0.514586533551884,1.0637437025776297,-0.00874304258471361,-0.007062797062765552,-0.008587201248158817
515088000000,42,515088000000,FR_wheel_link,-1.1679667313878088,-16.650678009223707,12.326307786886485,-0.8753136677929794,0.09651842296702784,0.061310752312326605
515089000000,43,515089000000,FR_wheel_link,0.19502712925236088,-0.5147043245797991,1.0636031409948843,-0.008745645004633141,-0.007061813750375062,-0.008589558932399335
515090000000,44,515090000000,FR_wheel_link,-1.167916345747499,-16.652193443611303,12.324970525405986,-0.8755539463285162,0.0965148692670359,0.061311392367302875
515091000000,45,515091000000,FR_wheel_link,0.19503540791186053,-0.5148323454779102,1.0635394934038216,-0.008747139917090202,-0.007060694318470075,-0.008591565836426703
515092000000,46,515092000000,FR_wheel_link,-1.1677064450690553,-16.65377457569048,12.323396699961616,-0.8758136325263164,0.0964954284511031,0.06130289155278165
515093000000,47,515093000000,FR_wheel_link,0.19504228574664445,-0.5149561402863888,1.0634187122053933,-0.00874987566054761,-0.007059354745285331,-0.00859378951232484
515094000000,48,515094000000,FR_wheel_link,-1.1675821858956628,-16.655297413193654,12.32183449368908,-0.8760679774461102,0.09648394113832942,0.06129914701424222
515095000000,49,515095000000,FR_wheel_link,0.19504885049091228,-0.5150830063630389,1.0633261801984488,-0.008752133016090163,-0.007057942411562481,-0.008595899501278634
515096000000,50,515096000000,FR_wheel_link,-1.167397276970597,-16.656826075259744,12.320167886801332,-0.8763287393533812,0.0964663583076743,0.06129189984600805
515097000000,51,515097000000,FR_wheel_link,0.19505456807500515,-0.5152075634649862,1.0632115856847288,-0.008754806137656616,-0.0070564135338610735,-0.008598088620856271
515098000000,52,515098000000,FR_wheel_link,-1.1672451255804939,-16.658318514882335,12.318493454874679,-0.876586838190976,0.09645179383489211,0.06128645525832502
515099000000,53,515099000000,FR_wheel_link,0.19505987591888577,-0.5153329878024748,1.0631085106968254,-0.008757231916440872,-0.007054819899241484,-0.00860023022125845
515103000000,54,515100000000,FR_wheel_link,-1.167078346232791,-16.65981002473798,12.316787488488387,-0.87684656405921,0.09643571365123882,0.061280139577918974
515103000000,55,515101000000,FR_wheel_link,0.19506432255406972,-0.5154573064668051,1.0629975458339151,-0.008759770962927328,-0.007053135286260594,-0.008602376206418074
515103000000,56,515102000000,FR_wheel_link,-1.1669289866264414,-16.661285094212246,12.315078893978654,-0.8771049663434468,0.09642126376679877,0.0612747836519823
515103000000,57,515103000000,FR_wheel_link,0.19506815953044002,-0.5155816740880899,1.0628898271789535,-0.008762225765804864,-0.007051392485432844,-0.00860448352470493
515103000000,58,515104000000,FR_wheel_link,-1.1667760028262508,-16.662755228764755,12.313351623499196,-0.877363943277216,0.09640641948743273,0.0612692018580884
515105000000,59,515105000000,FR_wheel_link,0.1950715339663529,-0.5157055787715998,1.0627790890046305,-0.00876472150962203,-0.007049604453358204,-0.008606586859491786
515106000000,60,515106000000,FR_wheel_link,-1.1666318513848886,-16.664218238492943,12.311622698466913,-0.8776223714635165,0.09639238801430844,0.06126410044216571
515107000000,61,515107000000,FR_wheel_link,0.19507463134398934,-0.5158295695226679,1.0626701752835728,-0.008767166603448394,-0.007047790425449246,-0.008608674273623768
515108000000,62,515108000000,FR_wheel_link,-1.1664898908610093,-16.66568050301032,12.3098912495238,-0.8778808481682396,0.09637853155292636,0.06125910453881919
515109000000,63,515109000000,FR_wheel_link,0.19507764714334191,-0.5159537769583623,1.0625619746642485,-0.008769570366588344,-0.007045968508423254,-0.00861076764719321
515110000000,64,515110000000,FR_wheel_link,-1.1663584493896977,-16.66714527421026,12.308174877964069,-0.8781386684841339,0.09636564913470103,0.06125468127634176
515111000000,65,515111000000,FR_wheel_link,0.19507993711161492,-0.5160777073975961,1.0624532209607997,-0.008771975716924296,-0.007044091746030432,-0.008612819311409859
515112000000,66,515112000000,FR_wheel_link,-1.1662271728055336,-16.66860594263915,12.306447019099974,-0.8783967554181173,0.09635279589388202,0.06125026938873357
515113000000,67,515113000000,FR_wheel_link,0.19508186858140053,-0.5162014704296041,1.062342885016042,-0.00877442238928941,-0.0070421832135366125,-0.00861485563716152
515114000000,68,515114000000,FR_wheel_link,-1.166098751109872,-16.670064991331465,12.304715227658443,-0.8786549357256614,0.09634021194415615,0.061246015422874694
515115000000,69,515115000000,FR_wheel_link,0.19508371005337224,-0.5163253549893433,1.0622330917518492,-0.008776867162999595,-0.007040264845713613,-0.008616885517641351
515116000000,70,515116000000,FR_wheel_link,-1.1659718491163211,-16.671525650090114,12.302983643951709,-0.8789132545958391,0.09632775610339117,0.06124183891946072
515117000000,71,515117000000,FR_wheel_link,0.19508544145025428,-0.51644924015236,1.0621231601289511,-0.00877931671979961,-0.007038336757015656,-0.00861891050560617
515118000000,72,515118000000,FR_wheel_link,-1.1658473972103254,-16.67298667765337,12.301253244859556,-0.8791715406131566,0.09631552452007386,0.06123779464922899
515119000000,73,515119000000,FR_wheel_link,0.19508705162490755,-0.5165731211934703,1.0620133407552965,-0.008781765058510301,-0.00703639866972633,-0.008620927965173567
515120000000,74,515120000000,FR_wheel_link,-1.1657242504531578,-16.67444789381628,12.299522593195228,-0.8794298553378552,0.09630341184551094,0.06123381996713756
515121000000,75,515121000000,FR_wheel_link,0.1950885619369398,-0.5166969742672028,1.0619033851576467,-0.008784217103386192,-0.007034452095713253,-0.008622939990728998
515122000000,76,515122000000,FR_wheel_link,-1.1656025353425798,-16.675909100944605,12.297792048172974,-0.8796881620884964,0.09629143191409323,0.06122992284254969
515123000000,77,515123000000,FR_wheel_link,0.1950900008219839,-0.5168208209708258,1.0617934811982663,-0.008786669078787841,-0.007032499365444698,-0.0086249473884633
515124000000,78,515124000000,FR_wheel_link,-1.165471366921742,-16.677349842716918,12.296037617039879,-0.8799459606862043,0.09627832563946842,0.061225448364501084
515125000000,79,515125000000,FR_wheel_link,0.19509120954093181,-0.5169450097323097,1.0616850581296289,-0.008789081243620782,-0.007030464386126756,-0.008626936345080933
515126000000,80,515126000000,FR_wheel_link,-1.1653364259849983,-16.67878293130427,12.294273895597057,-0.8802035583661936,0.0962647742498774,0.06122074428492616
515127000000,81,515127000000,FR_wheel_link,0.19509213690108834,-0.5170696414275114,1.0615779278639814,-0.008791459790070738,-0.007028338421331004,-0.008628905905662586
515128000000,82,515128000000,FR_wheel_link,-1.165209488536311,-16.68022770504336,12.292526289086142,-0.8804612709782256,0.09625209002855567,0.06121650985076041
515129000000,83,515129000000,FR_wheel_link,0.19509296340759827,-0.5171946022961719,1.0614714454155967,-0.008793828623216175,-0.007026189895987752,-0.008630867234486408
515130000000,84,515130000000,FR_wheel_link,-1.165087120090333,-16.68167860393752,12.29078749083593,-0.8807190351502814,0.09623986596481748,0.061212535237816695
515131000000,85,515131000000,FR_wheel_link,0.1950936131595191,-0.5173196354138039,1.0613648943833378,-0.008796208424172659,-0.007024023755415357,-0.00863281473457745
515132000000,86,515132000000,FR_wheel_link,-1.1649666181837741,-16.683132028535216,12.289050021647975,-0.8809769577751144,0.09622783357376186,0.061208668582402787
515133000000,87,515133000000,FR_wheel_link,0.1950941504075177,-0.517444705858282,1.0612581406752468,-0.008798605187128234,-0.0070218458040791215,-0.008634752757081681
515134000000,88,515134000000,FR_wheel_link,-1.1648475070663,-16.684587452356126,12.287313332981828,-0.881235026503336,0.09621594012439144,0.06120488153481041
515135000000,89,515135000000,FR_wheel_link,0.1950946540358759,-0.5175698483395804,1.061151488023452,-0.008801010532532894,-0.007019663099746966,-0.008636685953211654
515136000000,90,515136000000,FR_wheel_link,-1.1647294550685814,-16.686044879378837,12.285578096616014,-0.8814932007085807,0.09620414814198819,0.06120115357528216
515137000000,91,515137000000,FR_wheel_link,0.19509519595569766,-0.5176950695339084,1.0610449613719042,-0.008803418744640617,-0.007017484369005467,-0.008638619500160009
515138000000,92,515138000000,FR_wheel_link,-1.1646119395459715,-16.687503352590433,12.283844011363955,-0.8817514095185355,0.09619240134113316,0.06119745356292164
515139000000,93,515139000000,FR_wheel_link,0.19509582093941838,-0.5178203375324784,1.0609384932179726,-0.008805826756901565,-0.007015315461411679,-0.008640556502585788
515140000000,94,515140000000,FR_wheel_link,-1.1644940835723405,-16.688961552662857,12.282109649184633,-0.8820096143123728,0.09618061254834342,0.061193731130322865
515141000000,95,515141000000,FR_wheel_link,0.1950964238048819,-0.5179455201433796,1.0608318097120912,-0.008808240061018487,-0.007013144088942485,-0.00864249092362583
515141000000,96,515142000000,FR_wheel_link,-1.1643759911630864,-16.690418931343025,12.280373877179388,-0.8822678247133292,0.09616880445154719,0.06118999643679862
515143000000,97,515143000000,FR_wheel_link,0.1950972010127005,-0.5180707502193168,1.0607251532600674,-0.008810650999140407,-0.007010990997225437,-0.008644434401955912
515144000000,98,515144000000,FR_wheel_link,-1.1642565122188486,-16.691874988502523,12.278636608842401,-0.882526007476792,0.09615684971406041,0.06118617942116991
515145000000,99,515145000000,FR_wheel_link,0.19509809601532335,-0.5181959043967833,1.0606183773743,-0.008813060595126123,-0.007008848789825376,-0.00864638353069842
515146000000,100,515146000000,FR_wheel_link,-1.1641359968983167,-16.69332919689989,12.276897717961862,-0.8827841161298133,0.09614479098393919,0.061182302005427236
515147000000,101,515147000000,FR_wheel_link,0.1950990307343515,-0.5183209531141745,1.0605115857807497,-0.00881546703127807,-0.007006707135484465,-0.008648333186172138
515148000000,102,515148000000,FR_wheel_link,-1.1640153367688777,-16.69478246715739,12.275158527214444,-0.8830421515431429,0.09613272379031101,0.06117841679832653
515149000000,103,515149000000,FR_wheel_link,0.195099991258814,-0.5184459436513715,1.0604049011593215,-0.008817868186080643,-0.0070045646518151,-0.008650282530919411
515150000000,104,515150000000,FR_wheel_link,-0.980364393143911,-22.343866517766706,13.656983572764076,-1.424713576300047,0.0745749169210318,0.05041747178133427
515151000000,105,515151000000,FR_wheel_link,-0.059243354032429585,-0.6627520535257672,0.10739392932689351,-0.11677463565765508,0.006310315151636735,0.0028285759384049473
515152000000,106,515152000000,FR_wheel_link,2.0218474662184143,-36.62423658806124,9.146050018003972,-3.124000467499725,-0.21292412318016596,-0.11660376894883828
515153000000,107,515153000000,FR_wheel_link,-0.008550280031504154,-0.6726914893136733,-0.1616943758005151,-0.13319122861347857,-0.0010960716651576413,0.0005322802963614835
515154000000,108,515154000000,FR_wheel_link,-12.312508305740643,-40.63998564175862,13.720518623840947,-3.194028640932968,1.047973708094324,0.6584147071190964
515155000000,109,515155000000,FR_wheel_link,0.8108902097026636,-1.1331905253599228,-0.5189300800602846,-0.09715139148083751,0.025119542555792376,-0.026667310195454885
515156000000,110,515156000000,FR_wheel_link,-5.881719027464053,-28.904182626568783,9.167049493122514,-2.306569106967237,0.45740239590917475,0.3051123075161857
515157000000,111,515157000000,FR_wheel_link,0.49400829725131007,-0.6598835933037803,0.36826285593818675,-0.04336811796122669,0.021411158617097754,-0.019197789400847334
515160000000,112,515158000000,FR_wheel_link,-4.667306837206024,-20.36904548878762,12.531568873340166,-1.2395743233388319,0.38313326245332385,0.24431735732348714
515160000000,113,515159000000,FR_wheel_link,-0.3276132818494007,-0.5833215509730444,-0.11518967225765184,-0.05605372905402907,0.02903028910905599,0.016811244279813516
515160000000,114,515160000000,FR_wheel_link,0.6624386101936084,-11.53992959719369,2.468849874852613,-0.9804797469604445,-0.031263186615710314,-0.030287842948291482
515161000000,115,515161000000,FR_wheel_link,0.06764720374886649,-0.16389746532485802,0.14897499773396694,-0.012310049309970952,-0.00477034979520767,-0.0041337883078705045
515162000000,116,515162000000,FR_wheel_link,-5.099926832778859,-21.32373108042284,11.755368549848455,-1.376720132758608,0.41923743767603505,0.26815284170586684
515163000000,117,515163000000,FR_wheel_link,0.6645435748115476,-0.7187041120828388,0.4194238486298404,-0.04809965696529525,0.021882509731568748,-0.025373201526367163
515164000000,118,515164000000,FR_wheel_link,-3.273524386435048,-17.482833973503734,9.786686768134905,-1.1293086124142762,0.25195592474655104,0.1675115570929929
515165000000,119,515165000000,FR_wheel_link,0.28436028716199346,-0.5033551368218323,0.018926598698570454,-0.04815151887327099,0.01323884368842166,-0.011924512805616143
515166000000,120,515166000000,FR_wheel_link,-6.1625018887271015,-18.72589573412361,9.183408304321832,-1.2764275486158887,0.5366049389352863,0.3300274304265471
515167000000,121,515167000000,FR_wheel_link,0.28622392789437595,-0.22919860356032917,-0.23554671588245157,-0.04543803162973013,0.007231376222120171,-0.016663426233894017
515168000000,122,515168000000,FR_wheel_link,-3.511633057776667,-15.94575194839382,6.221271073733538,-1.1989015717549945,0.27800342045841303,0.18266728846564462
515169000000,123,515169000000,FR_wheel_link,0.26253815823140436,-0.2772244007782322,-0.6818778479644707,-0.04902399699236487,0.0019196509573841634,-0.012117672183714592
515170000000,124,515170000000,FR_wheel_link,-1.8793081304985884,-12.149482436798131,4.913707796577819,-0.9113819556229397,0.13068348521976897,0.09322290554799997
515171000000,125,515171000000,FR_wheel_link,0.22089042026979808,-0.23343129027110734,-0.035508027120513236,-0.035143544554529324,0.007575292998439806,-0.01316702944445997
515172000000,126,515172000000,FR_wheel_link,-4.187123688927002,-17.492476013671975,10.924342172077438,-1.0518384532108611,0.3450160618459506,0.21912704734667626
515173000000,127,515173000000,FR_wheel_link,0.2338884689213378,-0.5581815491124127,0.05608804524958903,-0.04460653226512949,0.019255510531129453,-0.0067468801517297965
515174000000,128,515174000000,FR_wheel_link,-6.567407177143387,-19.88413435390791,8.26146975493664,-1.4490838926658582,0.5705492136868621,0.3527372660800357
515175000000,129,515175000000,FR_wheel_link,0.2633586810166937,-0.3816289982507739,-0.47872727472413035,-0.04750313040553603,0.009734475248875872,-0.011098423897570427
515176000000,130,515176000000,FR_wheel_link,-3.610639691584534,-15.09204140478198,5.89302116143672,-1.1332952867061257,0.293179322011655,0.18940730831009678
515177000000,131,515177000000,FR_wheel_link,0.20249470315468765,-0.25935785638696296,-0.05523347116532202,-0.035726597846588,0.008836993406632219,-0.01236672488618926
515178000000,132,515178000000,FR_wheel_link,-4.035251811179338,-16.618523664326748,10.204753109885683,-1.010433748362998,0.33302652534334576,0.21127968399878652
515179000000,133,515179000000,FR_wheel_link,0.19064079364984582,-0.4888036263325482,0.0005203554695259668,-0.0444638105358391,0.017938544396506398,-0.006555047678844094
515180000000,134,515180000000,FR_wheel_link,-6.557368290854331,-19.608092283423773,8.236353305700998,-1.4234892867805382,0.5706198372555827,0.35226561756606045
515181000000,135,515181000000,FR_wheel_link,0.2455211955155035,-0.3780938936093594,-0.4723140831069697,-0.04685634794103336,0.009797350772922703,-0.010257687582466058
515181000000,136,515182000000,FR_wheel_link,-3.75122504945857,-15.19639666339642,6.00068436422708,-1.1366041183896145,0.306812599203729,0.197201073913178
515181000000,137,515183000000,FR_wheel_link,0.19511325237531435,-0.2584099765988612,-0.06575012844864665,-0.0356251566238284,0.009060816077859149,-0.011898111530763464
515181000000,138,515184000000,FR_wheel_link,-4.019713380427014,-16.374375572854714,10.095492355160973,-0.9930450038615612,0.332316379423418,0.2104824071741272
515181000000,139,515185000000,FR_wheel_link,0.19048070896089742,-0.4992241029437419,-0.002298185139790382,-0.04446530414421589,0.017776691235588147,-0.006113063451846897
515181000000,140,515186000000,FR_wheel_link,-6.813564101927034,-19.80873798347264,8.714115431093454,-1.413141229012147,0.5958619564793122,0.36626153360790525
515181000000,141,515187000000,FR_wheel_link,0.22910647754795307,-0.3819436952805282,-0.47931483328258917,-0.04763504821389307,0.009984261890303473,-0.00927937891052259
515188000000,142,515188000000,FR_wheel_link,-3.0770130901675703,-13.498389283025423,5.460505526116205,-1.0041098693936856,0.24684502663201624,0.16050053654667423
515189000000,143,515189000000,FR_wheel_link,0.2112023245524052,-0.25406097369336206,-0.12892939687199118,-0.039698026945215056,0.0078831791004988,-0.013060155026680486
515190000000,144,515190000000,FR_wheel_link,-3.9493946892525034,-16.664050514102595,10.104744503155162,-1.0225152713259287,0.3232879602662013,0.20595339904288468
515190000000,145,515191000000,FR_wheel_link,0.20273209598120154,-0.5441325735392302,0.00618525864414729,-0.046152463660506335,0.01765663227540333,-0.005798358347777671
515192000000,146,515192000000,FR_wheel_link,-8.478474264066117,1.0065935302817008,9.795138008288184,0.594390594889151,0.8257781805952911,0.4854330992629582
515193000000,147,515193000000,FR_wheel_link,0.18101747447052247,0.33410608145983256,-0.6844130161314139,0.007600343252504119,-0.020070036423393396,-0.014836003653991871
515194000000,148,515194000000,FR_wheel_link,-0.2858694543398233,0.4994962263218069,-0.13718019974399054,0.028976202874100854,0.018809533713365745,0.012758528099323
515195000000,149,515195000000,FR_wheel_link,0.06972037854123414,0.154470199570069,-1.3753839250162871,-0.03771802547444686,-0.01675080394277191,-0.008044117432468922
515196000000,150,515196000000,FR_wheel_link,-0.3134398922403414,0.6263509643725123,0.2885009184792341,0.03734040569252976,0.016443514751501832,0.015459705592237654
515197000000,151,515197000000,FR_wheel_link,0.29080005763547373,0.0754739458436175,-1.292739916893134,-0.036944778218667186,-0.019262637676371507,-0.01530484485030477
515198000000,152,515198000000,FR_wheel_link,-0.33329079043293175,0.6578329472109187,0.4015537115641265,0.03954962797676689,0.01625328421533568,0.01613268236748347
515199000000,153,515199000000,FR_wheel_link,0.3432148175798375,0.0653990671438422,-1.2744871225554528,-0.036645916129257425,-0.019846968331882844,-0.01734372634330359
515200000000,154,515200000000,FR_wheel_link,-0.3468994624493203,0.6640488845044505,0.4334553526591026,0.03996070067796368,0.016413176226782462,0.01625104932771987
515201000000,155,515201000000,FR_wheel_link,0.3480124133262096,0.07412719905412296,-1.2728391212052297,-0.036464265325139196,-0.019906390830136393,-0.01786839531499887
515202000000,156,515202000000,FR_wheel_link,-0.35710937431791645,0.6633663354246232,0.44222522163273364,0.03985136850253998,0.016594351415451583,0.016199670027676437
515203000000,157,515203000000,FR_wheel_link,0.3412623098101675,0.08563225239606365,-1.274355270987563,-0.03631367007762775,-0.019839760640319948,-0.017961414420539275
515206000000,158,515204000000,FR_wheel_link,-0.3651527811360449,0.6618138284946171,0.44603852379750203,0.03964799241654118,0.016722220696637334,0.016114037288325916
515206000000,159,515205000000,FR_wheel_link,0.33355057615121153,0.09523131018285175,-1.276419116742354,-0.03620251196170922,-0.019768913042164934,-0.017945675736935382
515206000000,160,515206000000,FR_wheel_link,-0.37150512974111805,0.6607539328493022,0.4480237491835598,0.03946651000503157,0.016822598821228416,0.016030223291623156
515208000000,161,515207000000,FR_wheel_link,0.3279741519930763,0.10192117507977516,-1.2776519874688463,-0.036110519148447616,-0.019722558612867647,-0.017927371922723048
515208000000,162,515208000000,FR_wheel_link,-0.3764120130219675,0.6607197474413287,0.4504931579820456,0.03934170480967023,0.01688060467322147,0.015965617293976112
515209000000,163,515209000000,FR_wheel_link,0.324489317131888,0.1058852655926516,-1.2787219091021869,-0.03605269275125847,-0.01970190698181467,-0.017913297656553806
515210000000,164,515210000000,FR_wheel_link,-0.3801789128508617,0.6615048522492888,0.4527584863613232,0.039269697539509055,0.016921911175687396,0.01591913514582114
515211000000,165,515211000000,FR_wheel_link,0.322526559397998,0.10782905163753415,-1.2795504285944013,-0.036016142685896896,-0.019697724787348738,-0.017901156619401025
515212000000,166,515212000000,FR_wheel_link,-7.00978935603864,-12.600826602215472,13.583723259385994,-0.5147025027283123,0.6234540550677761,0.36724199096379984
515213000000,167,515213000000,FR_wheel_link,0.14922815017970886,-0.15437770070140178,-0.3772153682943345,-0.026381781917020397,0.007116347179209603,-0.006840056833498076
515214000000,168,515214000000,FR_wheel_link,-6.148783580763416,-11.081827206988091,9.93802740956659,-0.5607814726556815,0.553606835764091,0.3248973324130195
515215000000,169,515215000000,FR_wheel_link,-0.03317545047519602,0.20681685045717235,0.0631433315379814,-0.011444023393574164,0.005873836036248225,-0.0015355117594257825
515216000000,170,515216000000,FR_wheel_link,-3.3713083230425207,-10.03646574263228,7.94320094480038,-0.5158684091210934,0.2991143998607513,0.17466361274869868
515217000000,171,515217000000,FR_wheel_link,-0.38765628209607694,0.03926663427444932,0.34028150912346705,-0.006623187034072959,0.02506652718723316,0.01919668044403447
515218000000,172,515218000000,FR_wheel_link,-1.3970230872853286,-12.654414138392518,6.65532156090769,-0.830002353872655,0.15783007274102812,0.08098369126995206
515219000000,173,515219000000,FR_wheel_link,-0.3740731053550059,0.15560647095022995,0.4052370324063561,-0.0005182954905221197,0.01998060738439287,0.016065908071484933
515220000000,174,515220000000,FR_wheel_link,-0.13982652683996433,-8.549729627307121,2.869424769349002,-0.6474613197454575,0.03234560916128343,0.013002737165848002
515221000000,175,515221000000,FR_wheel_link,-0.2792844095677515,0.23589885733703728,0.24653138358437837,0.0033712477562858325,0.01420426781713438,0.011002898059994225
515222000000,176,515222000000,FR_wheel_link,0.03245093726164594,-8.699726327758881,3.6386434048689735,-0.6183795541001063,0.011772146220516921,0.0024103990964585154
515223000000,177,515223000000,FR_wheel_link,-0.24393854700921938,0.16919610280002334,0.2336474828479248,0.0020320053588111725,0.011320181284307743,0.009529749883077825
515224000000,178,515224000000,FR_wheel_link,0.2997783822453064,-8.510372476152906,3.4023556504547074,-0.6167803848601285,-0.01562247670625272,-0.01224207790399258
515225000000,179,515225000000,FR_wheel_link,-0.23928088862266914,0.18579892911829687,0.21507938911533428,0.002769371027685305,0.01100878773067374,0.009201773336527455
515226000000,180,515226000000,FR_wheel_link,0.3965603081739464,-8.502706756678913,3.3736459294624543,-0.6166817705403698,-0.024294958127614896,-0.017038877245543593
515227000000,181,515227000000,FR_wheel_link,-0.23734478021477906,0.1986206275568139,0.20851662869411272,0.0034172128254984814,0.010936980176725354,0.009159710945574901
515228000000,182,515228000000,FR_wheel_link,0.5560114150736708,-8.193058971606359,3.0116945349952395,-0.6065498551327304,-0.039085843500439615,-0.025190725399941327
515229000000,183,515229000000,FR_wheel_link,-0.23020733011264088,0.20871418975772416,0.1938625934194439,0.0040348962431716075,0.010500501121410648,0.008794856472552109
515230000000,184,515230000000,FR_wheel_link,0.6406893016062449,-8.121352586991199,2.958126498724911,-0.6021403261169669,-0.04703927970216096,-0.029549142805320894
515231000000,185,515231000000,FR_wheel_link,-0.22351055316693758,0.2103804082541556,0.18917229393694418,0.004086986633727815,0.010034925611634455,0.008497544067509495
515232000000,186,515232000000,FR_wheel_link,0.7199102425253492,-8.04862937608388,2.8943943255798046,-0.5986477112897672,-0.05455028811713902,-0.03366831926462861
515233000000,187,515233000000,FR_wheel_link,-0.2191556617870094,0.21354913777312678,0.1843852601662212,0.00423951198867586,0.009732998153233455,0.008282221235871922
515234000000,188,515234000000,FR_wheel_link,0.7707154459553278,-8.02642271728979,2.8865338104701133,-0.596683681192574,-0.05923683117373854,-0.036256693097021245
515235000000,189,515235000000,FR_wheel_link,-0.21586715511298557,0.2152999817854032,0.181956278728087,0.0043010624816804555,0.009499321959162204,0.008124097160718647
515236000000,190,515236000000,FR_wheel_link,0.8171486152359537,-7.989720520539447,2.8589730292306346,-0.5945067296185267,-0.06353222811804451,-0.03862605612596466
515237000000,191,515237000000,FR_wheel_link,-0.21315687118264032,0.2170878989311813,0.17909931276864693,0.004372584916609842,0.00930732264331958,0.007978933901676172
515238000000,192,515238000000,FR_wheel_link,0.8512002746590257,-7.971089892692863,2.8528524354685487,-0.592849125117126,-0.06666530880189056,-0.04035199393786114
515239000000,193,515239000000,FR_wheel_link,-0.21096893974461273,0.21822198172962748,0.17698708202789465,0.004401337799693002,0.009149291572727872,0.007856851889634042
515240000000,194,515240000000,FR_wheel_link,1.6718063544630706,-10.004410458580068,15.990098217325649,-0.08621166075690012,-0.13868751067073443,-0.08750564594973069
515241000000,195,515241000000,FR_wheel_link,-0.1734915680573632,-2.635403812161826,1.3945431576090843,-0.18392412406416386,0.003979474892141802,0.006570587235629678
515242000000,196,515242000000,FR_wheel_link,0.05564014887895903,-0.07284171122985629,0.5386119581753349,0.011197751250890502,-0.0028067588608691784,-0.003994452804798373
515243000000,197,515243000000,FR_wheel_link,-0.9471050926134641,-14.287132064899945,12.33023457631879,-0.6647401815253928,0.0923882201914662,0.04977317972054619
515244000000,198,515244000000,FR_wheel_link,0.2344406717640476,-0.40737237737587434,1.412455969223534,0.006109828308484609,-0.00979951852468245,-0.009728205384716901
515245000000,199,515245000000,FR_wheel_link,-1.6536426529877324,-16.591121220510168,23.714555265300987,-0.2869182247068279,0.13828001328749012,0.08164722315653514
515246000000,200,515246000000,FR_wheel_link,-0.10755267950407868,-0.1863708180581467,0.0007585691113665624,-0.01598894609624243,0.010362580257017463,0.005532691215113592
515247000000,201,515247000000,FR_wheel_link,-1.2532947298258446,-9.942660427606185,15.066874857769779,-0.15513381669835696,0.120311078287153,0.06866041657587159
515248000000,202,515248000000,FR_wheel_link,-2.423659618934444,-5.9860001132210785,4.105036140201578,-0.34352737586122156,0.2200225393562935,0.12692647523587228
515249000000,203,515249000000,FR_wheel_link,0.03881306195873824,-0.206931492259467,0.8626685956351704,0.004225931973106553,0.004572214385339085,0.0003866451651077052
515250000000,204,515250000000,FR_wheel_link,-1.1118296110950086,-18.239274528968505,23.073798237571147,-0.46914265303211394,0.11943812157417058,0.06046189803774239
515251000000,205,515251000000,FR_wheel_link,0.032893807689275606,-0.27928771385965834,0.02581612225184589,-0.0247683880756335,0.006394651555231452,-0.0008193355221036889
515252000000,206,515252000000,FR_wheel_link,-1.0482111649054193,-11.490063486428902,13.889165568143008,-0.3813871147248821,0.0876843669826903,0.05699051568732175
515253000000,207,515253000000,FR_wheel_link,0.05744234046030739,-0.09828324837638039,-0.2318447719615747,-0.019762570849401778,0.00015092987617817358,-0.004083259148157901
515254000000,208,515254000000,FR_wheel_link,-3.1202119149119176,-16.577044983703843,18.419794957351073,-0.604672827711523,0.2789017632896598,0.16335292645337643
515255000000,209,515255000000,FR_wheel_link,-0.0943173047219037,-0.19943097354944755,-0.023899085709095796,-0.018619102180262494,0.00887356407254305,0.005395062467514349
515256000000,210,515256000000,FR_wheel_link,0.12311989589053995,-11.756386750371393,14.93562269868005,-0.3435769670999471,-0.015716015438350217,-0.007204927814135315
515257000000,211,515257000000,FR_wheel_link,-0.035958566427416246,-0.10392787087841496,0.023897904889080314,-0.008697502724701317,0.003614336381275167,0.0015529922962348663
515258000000,212,515258000000,FR_wheel_link,-0.46076023611771344,-14.12915380177906,16.921622755388334,-0.43353695797517927,0.0559575443666048,0.02634624469595999
515259000000,213,515259000000,FR_wheel_link,-1.3273224266492432,-4.976531518219886,1.7154695496520342,-0.39240736278215366,0.11226830938922044,0.06840685681589277
515260000000,214,515260000000,FR_wheel_link,0.5232950831668073,-8.000541817860787,8.809003945604346,-0.3016966383467603,-0.04629149286519364,-0.027429046529665366
515261000000,215,515261000000,FR_wheel_link,-1.6996776461271268,-6.45158987211029,4.028042860447099,-0.39926197265382846,0.14387685130505165,0.08663358847148012
515262000000,216,515262000000,FR_wheel_link,-0.25723612756431535,-9.07246986169606,12.18626011205959,-0.2209378365165287,0.03172133435198583,0.01432782145951441
515263000000,217,515263000000,FR_wheel_link,-2.012722014928535,-5.954581493961603,4.130956608537899,-0.34138665240493415,0.17840547832662598,0.10416380285659613
515264000000,218,515264000000,FR_wheel_link,-0.2857787356445278,-8.60028720073215,10.741617094056041,-0.2506810303372941,0.035594355629131796,0.016038485828706116
515265000000,219,515265000000,FR_wheel_link,-2.165491606211072,-6.38301703319847,4.244844516958151,-0.3770916403373297,0.19195971822506552,0.11218830343740595
515266000000,220,515266000000,FR_wheel_link,-0.4914996513395644,-9.020252720400043,11.548536727968278,-0.24821907683744054,0.05434289119990028,0.02669754997698899
515267000000,221,515267000000,FR_wheel_link,-2.1905487004188293,-6.231960091516906,4.212298156760957,-0.36376093417512273,0.195057603190617,0.11359933488832973
515268000000,222,515268000000,FR_wheel_link,-0.5850053823139032,-8.859747867192198,10.99196380106901,-0.2620378685148883,0.06250056962525904,0.03148996767975788
515269000000,223,515269000000,FR_wheel_link,-2.2928728684992996,-6.428868121297575,4.283553366011443,-0.3789155944834343,0.20450336914071732,0.1190215276979988
515270000000,224,515270000000,FR_wheel_link,-0.6473909756104013,-9.014880152992692,11.285819290049652,-0.26146793437170934,0.0678289953565567,0.03456626939870368
515271000000,225,515271000000,FR_wheel_link,-2.27278881142856,-6.322446292296751,4.23848657279612,-0.3710698708124092,0.20279776532422467,0.11793938826582218
515272000000,226,515272000000,FR_wheel_link,-0.732789943263332,-8.91393230218651,10.988706192835794,-0.26737957871385193,0.07525874068168034,0.03892581036299383
515273000000,227,515273000000,FR_wheel_link,-2.3388507071896076,-6.423313012619893,4.286921770428755,-0.3780545217344418,0.20901248325019983,0.12145034715899186
515274000000,228,515274000000,FR_wheel_link,-0.7530017048408137,-8.993421784826007,11.17380124002267,-0.265294960944215,0.0767950396124819,0.03982147381375422
515275000000,229,515275000000,FR_wheel_link,-2.3087798365833145,-6.326582839445868,4.244492907010349,-0.3710511037616243,0.2062793616111216,0.11983038005841895
515276000000,230,515276000000,FR_wheel_link,-0.8196410427975933,-8.911491861297048,10.973224552879755,-0.2679290642628614,0.08265359533866291,0.04324390073233872
515277000000,231,515277000000,FR_wheel_link,-2.3565199432160475,-6.393277031954174,4.283780667018764,-0.37520022859110436,0.21079917535266685,0.12236395011239215
515278000000,232,515278000000,FR_wheel_link,-0.8251989450994526,-8.97255482357568,11.129244874630238,-0.2656208540584021,0.08289312761455477,0.043405018958319906
515279000000,233,515279000000,FR_wheel_link,-2.329438179164585,-6.305238755574179,4.247513937728988,-0.3686707504351402,0.2083638250114366,0.12092244092655334
515280000000,234,515280000000,FR_wheel_link,-0.8691177821864118,-8.901160302185447,10.979702560047787,-0.26660223869604666,0.08673239333192442,0.04566777785292903
515281000000,235,515281000000,FR_wheel_link,-2.369098344699263,-6.354580980692909,4.281876113725362,-0.3713877174424247,0.2121547698037733,0.12302961110575127
515282000000,236,515282000000,FR_wheel_link,-0.7038791165460161,-8.599754548598295,9.81262420923797,-0.30360448180965427,0.06876831246505989,0.03512105143457872
515283000000,237,515283000000,FR_wheel_link,-1.6371555739270576,-6.590650140043805,7.0409450825831605,-0.2511563261741008,0.15290396340077467,0.08534458998970526
515284000000,238,515284000000,FR_wheel_link,-0.8157503200859153,-6.429933505963725,2.7388267148623155,-0.4718890621111655,0.07517733067049573,0.04169457472685162
515284000000,239,515285000000,FR_wheel_link,-1.1239350061770825,-8.719959560012835,12.029666871712006,-0.1945198819746147,0.10354819710099407,0.058548879374190385
515286000000,240,515286000000,FR_wheel_link,-2.3163418373086753,-6.135196878153362,4.340947650261509,-0.34559101184097096,0.20777799602900815,0.12046428828498745
515287000000,241,515287000000,FR_wheel_link,-0.03967849808985968,-8.78174362043736,11.802587611248413,-0.21640722592927245,0.0038318879806561734,0.0011186459304708476
515288000000,242,515288000000,FR_wheel_link,-1.8615057330825253,-5.498199002214532,3.8867116388407044,-0.3114868983512159,0.1640304418038956,0.0958773106420428
515289000000,243,515289000000,FR_wheel_link,-1.0644759058390472,-8.310897149506165,10.7184231333334,-0.22370536584608325,0.10372276006131444,0.05631715814325988
515290000000,244,515290000000,FR_wheel_link,-2.5571548596707103,-6.484598446599588,4.5814341930773,-0.3653100849248736,0.23076954186733478,0.13311360322888371
515291000000,245,515291000000,FR_wheel_link,-0.5818814627953994,-9.063675964644169,12.460368936966248,-0.20432912325989988,0.06014277949498504,0.030430540994870164
515292000000,246,515292000000,FR_wheel_link,-2.124896095753319,-5.733270196063128,4.079283573913573,-0.32198802619630434,0.19000452128480108,0.11009990049388753
515293000000,247,515293000000,FR_wheel_link,-1.052007741818529,-8.488032808102274,10.308860359804218,-0.2617911359547008,0.10327448730178548,0.05565872264216845
515294000000,248,515294000000,FR_wheel_link,-4.250973086486347,-3.567347518825764,6.120704925557345,-0.014051619305911728,0.40276175950780135,0.22571989959758937
515295000000,249,515295000000,FR_wheel_link,0.2119241074328212,-0.11502055346257589,-0.8991791627275028,-0.030103144691042857,0.0011196800908520165,-0.005830359824695819
515296000000,250,515296000000,FR_wheel_link,-0.3297408525147282,0.6970339868745086,0.5339379509651649,0.04234776450349375,0.015121627925937709,0.012558814085255747
515297000000,251,515297000000,FR_wheel_link,-0.2709662342337238,-4.875313294971395,2.0320687424069686,-0.3580319299427278,0.016775134090625976,0.017347935420531695
515298000000,252,515298000000,FR_wheel_link,-0.01115563880913896,-0.0776915538094562,0.014323515892469886,-0.010830266776228706,-0.0006306613410142501,-0.00010464320196811212
515299000000,253,515299000000,FR_wheel_link,-0.06871118723161276,0.6168669209291275,-0.6850802666076732,0.010428137314261468,0.001839216298206933,-6.071787378870161e-05
515300000000,254,515300000000,FR_wheel_link,-0.04797380808868269,0.09128050686068365,0.11612932144160484,0.004229852694113938,0.0003605784648239203,0.0010513449606943976
515301000000,255,515301000000,FR_wheel_link,-0.4978864875827447,-12.702338599532753,8.855094173502849,-0.7088102575401329,0.04806832428500696,0.026590628246470793
515302000000,256,515302000000,FR_wheel_link,-4.574088445619596,-3.0414015609485086,4.52713026885611,-0.06952071705790344,0.4311782460933128,0.2424089686537601
515303000000,257,515303000000,FR_wheel_link,0.285208935941504,-0.1321380981716213,-0.8590484296337659,-0.029760038444554007,-0.002865824564379926,-0.009447610445427539
515304000000,258,515304000000,FR_wheel_link,-0.3249458869278724,0.6429047087319884,0.5336985544320108,0.03835695280076675,0.014164659999092095,0.011741718818758117
515305000000,259,515305000000,FR_wheel_link,0.07434016435544644,-6.0251746718473775,3.478744558289174,-0.3949450288934564,-0.02024501159443534,-0.003199180745330807
515306000000,260,515306000000,FR_wheel_link,-0.005716433895009053,-0.10871379276678954,0.03695522584145577,-0.012633584229331604,-0.0012491160553861277,-0.0005195321993928873
515307000000,261,515307000000,FR_wheel_link,-1.544345696152776,-3.8793439180585745,4.706199390505909,-0.12944401296569968,0.14565834687640314,0.07991089560117855
515308000000,262,515308000000,FR_wheel_link,-1.8222976319231077,-4.635446981862112,3.236970555404185,-0.2638576316832304,0.16377189438610396,0.09479387303884258
515309000000,263,515309000000,FR_wheel_link,0.07570111204731736,0.32177028553137355,-0.9140017821010922,-0.0204975262526821,-0.0003738092753989876,-0.0030020926713936035
515310000000,264,515310000000,FR_wheel_link,-0.047670719886957424,0.2349719024625581,0.19089268770453663,0.00791368478025143,0.0005914331884503228,-0.003472324248211231
515311000000,265,515311000000,FR_wheel_link,-5.206900663088322,-7.422249946982975,9.547851265433158,-0.20255349990362836,0.47702775873620773,0.2733208070867289
515312000000,266,515312000000,FR_wheel_link,0.25068144548336224,-0.19980558992872216,-0.6500412974001342,-0.029617933955182772,1.0677135113337788e-05,-0.008262232762333592
515313000000,267,515313000000,FR_wheel_link,-0.34286002693860074,0.6749953587715144,0.5328541564255486,0.0406323082541927,0.015532344974130549,0.012135559079885866
515313000000,268,515314000000,FR_wheel_link,-0.9141222982151631,-8.29098844188385,7.186258620435114,-0.4058323762333317,0.07627883870313318,0.051239623592131425
515315000000,269,515315000000,FR_wheel_link,-1.6268048907435666,-4.085785464467197,1.676007053961564,-0.3066950816128641,0.14517814687682268,0.08492938508317743
515316000000,270,515316000000,FR_wheel_link,-0.007066322487843585,0.4118634602726518,-0.43451616321856096,0.0051980525910928005,0.005538171780802388,-0.002261475369583007
515317000000,271,515317000000,FR_wheel_link,-3.2073040459836646,-7.504244190245747,5.389349008765051,-0.41774873287819175,0.2918061587268549,0.16784085280214173
515318000000,272,515318000000,FR_wheel_link,0.061656827393161126,0.0021847101398828894,-0.422122600403369,-0.03433023585355877,0.0045665727682405646,-0.004362189733901048
515319000000,273,515319000000,FR_wheel_link,0.014914862056443295,0.12057415418436457,-0.025246662625695988,0.005657731727591377,-0.0016294257399452376,-0.000796643296553959
515320000000,274,515320000000,FR_wheel_link,-1.6779713527328615,-6.672418979478237,8.517646598253203,-0.18360554294386408,0.16413861715530054,0.09010111524950545
515321000000,275,515321000000,FR_wheel_link,-1.1735182864492455,-3.3487746284582376,1.7089262098185491,-0.23160314166070944,0.10263606137918749,0.06082806960255633
515322000000,276,515322000000,FR_wheel_link,0.8599241960061563,-4.012324198817716,0.95562548052681,-0.3244421308668834,-0.07887865585011876,-0.04420893436898812
515323000000,277,515323000000,FR_wheel_link,-0.058014779164428903,0.7318327951176491,-0.5262718558809285,0.019304454018462765,0.0024627130455660605,0.0005797531548874398
515324000000,278,515324000000,FR_wheel_link,0.004224331801100091,0.014312113916857692,0.010724411395205798,0.0002252799394430936,-0.000420613122641866,-0.00018356231189699604
515325000000,279,515325000000,FR_wheel_link,0.2844833911144504,-9.970530377456535,5.766720206061757,-0.6237566838125559,-0.027188523815709853,-0.014082918399497893
515326000000,280,515326000000,FR_wheel_link,-4.865174590696134,-3.769831293601205,6.098993817048018,-0.05118265427037863,0.45542104852949683,0.25639644743413315
515327000000,281,515327000000,FR_wheel_link,0.30666608979327764,-0.17139437945371216,-0.808877533511998,-0.02905814640825085,-0.0032638044209760287,-0.00941378895870716
515328000000,282,515328000000,FR_wheel_link,-0.32742702193247586,0.6622678346845646,0.5310379005717368,0.038200260316917145,0.014204561093564928,0.011673172818792252
515329000000,283,515329000000,FR_wheel_link,-0.1442364097548534,-6.956811418489478,5.251130597475209,-0.38528615786441356,0.0007960281587422735,0.009518054248845685
515330000000,284,515330000000,FR_wheel_link,0.010613006296492235,-0.11728105465370706,0.05749942483002535,-0.013095952330712049,-0.00240909933259059,-0.001225976634081937
515331000000,285,515331000000,FR_wheel_link,-0.9851979036568053,-2.75866484411668,3.4386957871469206,-0.09036430910341184,0.09709491223675146,0.051498330673971124
515332000000,286,515332000000,FR_wheel_link,-1.4038450020174924,-4.442117285919944,3.3556831014008948,-0.2387130976004695,0.12195502898213965,0.07175767601104109
515333000000,287,515333000000,FR_wheel_link,0.09993849701680613,0.3209896186719797,-0.8007198855902822,-0.01615944087472723,-0.000786196268964881,-0.0030858567504979117
515334000000,288,515334000000,FR_wheel_link,0.01728879192974781,0.1350130667686658,0.06658144872312281,0.0032562446719596695,-0.0009015041626148513,-0.003855926161428228
515335000000,289,515335000000,FR_wheel_link,-1.5671746087637535,-4.750937261133816,6.57289067406305,-0.11148169423134013,0.14023442893845414,0.07996191035194106
515336000000,290,515336000000,FR_wheel_link,-0.4830741495828872,-4.784776612535422,2.380653949385011,-0.329738540840674,0.045551818862399285,0.02580647918745803
515337000000,291,515337000000,FR_wheel_link,-1.7213091450160645,-4.280232141859825,3.2340667422947766,-0.2415230838953641,0.16062739529554465,0.09097977513221789
515338000000,292,515338000000,FR_wheel_link,-0.5444709381831443,-5.064129231027833,3.002866233081294,-0.32228915447379225,0.049739622066669,0.027713386562674656
515339000000,293,515339000000,FR_wheel_link,-1.9799259492095889,-3.211133306827351,1.9437309047902318,-0.2104264080447594,0.18735997754956368,0.10520673340544173
515340000000,294,515340000000,FR_wheel_link,-0.6578414782033843,-2.839032140680553,2.5786397869233975,-0.14375665259079862,0.05449000433580794,0.03300629455205266
515341000000,295,515341000000,FR_wheel_link,-0.5778363917806573,-5.211670868933254,3.6832549706278437,-0.2951289379441391,0.05380739074638746,0.02965475463874307
515342000000,296,515342000000,FR_wheel_link,-0.8723821687944255,-0.6263369743690259,0.534568566264543,-0.03764686686505503,0.08367177269209455,0.04610833673659433
515343000000,297,515343000000,FR_wheel_link,-2.3405735045091336,-4.948257176533526,3.8594065496510863,-0.2568669805629728,0.2159573278187799,0.12317082890162157
515344000000,298,515344000000,FR_wheel_link,-0.0038887081700323747,0.41539424068661507,-0.8146810451968141,-0.014312866430337521,-9.001602116514608e-05,-3.275811874838474e-05
515345000000,299,515345000000,FR_wheel_link,0.0018592767009660768,0.03560859900906435,0.04434882992729769,0.0014332801512395902,-0.00041143851198620856,-0.00034684580217871026
515346000000,300,515346000000,FR_wheel_link,-1.9115736422520353,-3.3452427046549027,3.932197003013778,-0.11343633008730925,0.18089202819120034,0.10068497343255817
515347000000,301,515347000000,FR_wheel_link,0.10099830970320649,-0.0585991067205104,-0.23240945275283842,-0.012789081610515418,-0.0014569089169748023,-0.003917048338894868
515348000000,302,515348000000,FR_wheel_link,-1.4836072964598728,-4.688123303786316,6.068820171415308,-0.1375131624828325,0.13085700070082293,0.07630354142844972
515349000000,303,515349000000,FR_wheel_link,-0.4267706025496809,-4.776216885435288,2.221404438411172,-0.3384749692113369,0.03866185621291468,0.02274816402800168
515350000000,304,515350000000,FR_wheel_link,-1.7479250398016541,-4.126842997631486,2.717177147986849,-0.2555664971457377,0.16319862677821675,0.0922482090651966
515351000000,305,515351000000,FR_wheel_link,-0.8566575974825777,-3.241597042527008,2.8380224444689426,-0.1709476433631971,0.07349591134760058,0.04367303785620247
515352000000,306,515352000000,FR_wheel_link,-0.5532347673868321,-5.290841092534977,3.7922919282140293,-0.29628411021922174,0.0519865466681836,0.028504908747478297
515353000000,307,515353000000,FR_wheel_link,-6.689055549250281,-15.634226506828005,22.860082293511034,-1.0109097230551152,0.6869726711432043,0.20045067204323389
515354000000,308,515354000000,FR_wheel_link,-0.30687461986612086,-0.1570994159200034,0.29561625617108156,-0.01756474260931408,0.02579294936482531,0.009104004517868143
515355000000,309,515355000000,FR_wheel_link,-3.457917919264183,-16.226048856045736,16.450602599385547,-1.2155207197636722,0.4031013664819674,0.10010376208125377
515356000000,310,515356000000,FR_wheel_link,0.0792678343496314,-0.051488238578221865,0.5317088382320986,-0.024041385582183047,0.012705937245546455,-0.00010807036398711761
515357000000,311,515357000000,FR_wheel_link,-4.36314095151236,-14.29553144060566,12.31558517244309,-1.1585545719466854,0.4515143043544805,0.12824506601480387
515358000000,312,515358000000,FR_wheel_link,-0.12794260825214437,-0.26378402959410846,0.07303905993640959,-0.02218128033044784,0.013007171284853541,0.002660135354993545
515359000000,313,515359000000,FR_wheel_link,-1.422423406852624,-7.4445851472967615,7.860383547112382,-0.6262903009070054,0.13893929677213915,0.046247675484442474
515360000000,314,515360000000,FR_wheel_link,0.040658355990052346,-0.16405335708733682,0.17731883283459804,-0.0134817298907394,0.004405335418401471,-0.0026914281115648776
515361000000,315,515361000000,FR_wheel_link,-4.508068873000819,-7.5957889471882645,12.949664864824515,-0.46113419070447775,0.438658977415238,0.13441633788797883
515362000000,316,515362000000,FR_wheel_link,0.3430981557598303,-0.336524194461212,-0.4130815446365613,-0.03003074124193988,0.012713417044738995,-0.013137457959839456
515363000000,317,515363000000,FR_wheel_link,-0.13495047561693502,0.8964221715254939,-0.3759778276073578,0.02657352543067988,0.004495695510194986,0.003907582791929839
515364000000,318,515364000000,FR_wheel_link,0.010346649815919609,0.027588331089508797,0.014453818276039941,0.0003130479671728868,-0.0015274339048401211,-0.00023271057586137997
515365000000,319,515365000000,FR_wheel_link,-0.05598920316941847,-10.584172323757826,7.909113434911807,-0.8938155387349122,0.005623084452859195,0.0014692652432612419
515366000000,320,515366000000,FR_wheel_link,-0.045491125936501675,0.3091791380548476,-0.17333983975812184,-0.011615477602354153,0.002022616719171878,0.0014960381208230689
515367000000,321,515367000000,FR_wheel_link,0.12991065449175215,0.02279796207229974,-0.22525086960121826,-0.006561889773778217,-0.005849789799622473,-0.005449315625980483
515368000000,322,515368000000,FR_wheel_link,-1.8079071742611528,-6.0663437006992815,7.991114337808581,-0.44326702746989366,0.17652609603118313,0.05322692056150034
515369000000,323,515369000000,FR_wheel_link,0.11335389430012331,-0.1207579265999189,-0.13940100693241392,-0.017526040374641984,-0.0008583544678295802,-0.005303998357149842
515370000000,324,515370000000,FR_wheel_link,-1.3268728747980096,-3.765597333212479,5.466717043917191,-0.28398864579481276,0.12772588342970673,0.04006197477474805
515371000000,325,515371000000,FR_wheel_link,0.08669910909514121,-0.0801660036611486,-0.19607467920144755,-0.01481981197017292,-0.0017650187881154107,-0.004495545506237732
515372000000,326,515372000000,FR_wheel_link,-1.3799190427631807,-4.527782895847931,6.625118511916447,-0.32676086510895375,0.13225518135811368,0.04145474987909289
515373000000,327,515373000000,FR_wheel_link,-0.010880165358375701,0.18021427879011143,-0.09094431580337317,-0.009022689164954278,-0.0016974909451901543,-0.00021963800003367735
515374000000,328,515374000000,FR_wheel_link,-2.2053306397620815,-10.061856993706723,8.597728183936823,-0.8228928140584267,0.22146645030971496,0.06372181800904506
515375000000,329,515375000000,FR_wheel_link,-0.022801034111392338,0.2852236807386385,-0.2396155694017108,-0.0054439235808134675,0.0031067809149030864,-0.00024719543373996795
515376000000,330,515376000000,FR_wheel_link,0.12322342286627914,0.02814310208710058,-0.2408569357991787,-0.006498593751606973,-0.005633003136010592,-0.005711786745989563
515377000000,331,515377000000,FR_wheel_link,-2.1797271632103676,-4.516311941707365,8.172799138763677,-0.2750889123755702,0.22359965730590697,0.06460260307383635
515378000000,332,515378000000,FR_wheel_link,0.0065876542337754765,0.08616270213756674,-0.0514457306778726,-0.007968671941248534,0.0006709272950713918,-0.0005629551496529457
515379000000,333,515379000000,FR_wheel_link,-0.9573120158170083,-7.060849074499545,5.404979753675281,-0.5991447279467405,0.09288822311964146,0.02729647201199538
515380000000,334,515380000000,FR_wheel_link,-0.029808755893118405,0.3459295976579718,-0.5842680299703971,-0.005082199706489201,0.0040743988438998345,-6.570978339585954e-05
515381000000,335,515381000000,FR_wheel_link,0.020518664544910137,0.2747220228951126,-0.23165194035199446,0.0005269134323221993,-0.004701553964321838,-0.0013781495963175422
515382000000,336,515382000000,FR_wheel_link,-1.3437555486441661,-7.677082495525658,6.814399268216347,-0.6192962701039898,0.13474393313580643,0.0385378512024252
515383000000,337,515383000000,FR_wheel_link,-0.010355972811461625,0.2812594464115283,-0.5963311389126276,-0.00620585698135292,0.005153970226930636,-0.000731974208302896
515384000000,338,515384000000,FR_wheel_link,0.020619485961117567,0.3138357287356426,-0.163321631475094,0.002154894128682295,-0.004874448508793654,-0.0008826422085683286
515385000000,339,515385000000,FR_wheel_link,-1.7993812127804238,-8.69280891435691,7.921437516800314,-0.692545644038741,0.1828777098182718,0.051953671477899505
515386000000,340,515386000000,FR_wheel_link,-0.023852840028303526,0.3347325843485032,-0.34174825900545025,-0.0038671971142171598,0.0038177864328383286,0.0006460021774449279
515387000000,341,515387000000,FR_wheel_link,0.1303524740890766,0.00349916845548362,-0.2460477306274566,-0.006857557044067811,-0.005579814171978674,-0.005427437908926739
515388000000,342,515388000000,FR_wheel_link,-2.1431149509111167,-5.258056259650467,9.281282417813836,-0.31738778518340627,0.22038527976573752,0.06387380695304926
515389000000,343,515389000000,FR_wheel_link,0.002422715258869515,0.127588938050334,0.02881772191652821,-0.007554923807779949,0.0003890227375273666,0.00033772096933543994
515390000000,344,515390000000,FR_wheel_link,-1.3693194548608636,-8.013934756317427,6.58765504443865,-0.6635101802098327,0.13642650309329807,0.039607518226003724
515391000000,345,515391000000,FR_wheel_link,0.005259592568710315,0.28528039985200465,-0.557104111333013,-0.005081421675785217,0.003760645178848054,-0.0008135314641345086
515392000000,346,515392000000,FR_wheel_link,0.01438086707278452,0.2847476012106665,-0.25718904440011836,0.0013286601783529532,-0.0032971920495835096,-0.0015011369090374782
515393000000,347,515393000000,FR_wheel_link,1.1668706116440466,-5.523711991956232,18.65090550219162,-0.05342760902331075,-0.11958406095019708,-0.03510917822629544
515394000000,348,515394000000,FR_wheel_link,-0.39930065702276374,-2.8265746386824095,3.8873476423358078,-0.18424410932183005,0.028856848366620308,0.01163437670759708
515395000000,349,515395000000,FR_wheel_link,0.10131716076722282,-0.01621640755275694,0.699614024485976,0.012170721746880385,-0.0055415596392539845,-0.0046090825102605105
515395000000,350,515396000000,FR_wheel_link,-2.1969230226039653,-12.956418525539595,17.64303193648885,-0.832238846373226,0.22343700321039184,0.0630589968268127
515397000000,351,515397000000,FR_wheel_link,0.20046907352774085,-0.20923856279656744,1.604406187828296,0.007578994463452454,-0.003661082327280055,-0.006210307216962743
515398000000,352,515398000000,FR_wheel_link,-1.7966207126847045,-13.499412928424379,17.10454603080432,-0.9089634785454763,0.1779109983675673,0.05054252325303338
515399000000,353,515399000000,FR_wheel_link,0.1611004059276472,-0.261409422542559,1.2840968292010784,-0.000755278959326752,-0.003000568704546447,-0.006021382495709137
515400000000,354,515400000000,FR_wheel_link,-2.776191910192289,-13.237013258105094,16.668646406665786,-0.8982577406884851,0.2697744994024388,0.07992902101754351
515401000000,355,515401000000,FR_wheel_link,0.1108265032737045,-0.2569436292013211,1.3394051093795698,-0.001996176443479015,0.0022035766867201647,-0.004054220780428373
515402000000,356,515402000000,FR_wheel_link,-2.5129241566605254,-13.773474330266877,16.601029032736975,-0.9575019337925362,0.25201530502409636,0.07171446961270694
515403000000,357,515403000000,FR_wheel_link,0.11481587099479129,-0.28453788382919254,1.2001225570152068,-0.006598889313947718,0.00042905085702923734,-0.004371088381262668
515404000000,358,515404000000,FR_wheel_link,-2.428764125710256,-13.715994072314562,16.321217750100722,-0.9630267403281056,0.24116354823533448,0.06958131597067232
515405000000,359,515405000000,FR_wheel_link,0.11960373791065634,-0.2831665698852944,1.1780482191788206,-0.00854791280377536,-0.0008085776578611024,-0.0040495529996465
515406000000,360,515406000000,FR_wheel_link,-2.161506302949972,-13.738148248873655,15.844939195774856,-0.9813579257373092,0.21169704057972688,0.062100238683945985
515407000000,361,515407000000,FR_wheel_link,-0.006892647989999674,-0.19663316058245084,0.8627514724316963,-0.01579724753486454,-0.004323481277456855,-0.0022763069409221467
515408000000,362,515408000000,FR_wheel_link,-3.8863099186242245,-12.160076463950752,13.817878945576517,-0.8802930450266212,0.3669322692220951,0.1127162204645619
