%time,field.name0,field.name1,field.name2,field.pose0.position.x,field.pose0.position.y,field.pose0.position.z,field.pose0.orientation.x,field.pose0.orientation.y,field.pose0.orientation.z,field.pose0.orientation.w,field.pose1.position.x,field.pose1.position.y,field.pose1.position.z,field.pose1.orientation.x,field.pose1.orientation.y,field.pose1.orientation.z,field.pose1.orientation.w,field.pose2.position.x,field.pose2.position.y,field.pose2.position.z,field.pose2.orientation.x,field.pose2.orientation.y,field.pose2.orientation.z,field.pose2.orientation.w,field.twist0.linear.x,field.twist0.linear.y,field.twist0.linear.z,field.twist0.angular.x,field.twist0.angular.y,field.twist0.angular.z,field.twist1.linear.x,field.twist1.linear.y,field.twist1.linear.z,field.twist1.angular.x,field.twist1.angular.y,field.twist1.angular.z,field.twist2.linear.x,field.twist2.linear.y,field.twist2.linear.z,field.twist2.angular.x,field.twist2.angular.y,field.twist2.angular.z
515054000000,ground_plane,Floor,khm2,0.252724,-0.228037,0.0,0.0,0.0,0.0,1.0,-0.010923,0.300375,-0.916015,0.0,-0.13052616522012478,0.0,0.9914448649284179,-0.12795918756884989,-0.0063231833356459915,-0.21717888049507156,-0.09390160632856329,-0.09156059030211595,0.7144258088867526,0.6873099084321082,0.0,0.0,0.0,0.0,0.0,0.0,0.0,0.0,0.0,0.0,0.0,0.0,-0.004491702798463159,-0.0004629108354827045,-0.0004652646517704056,0.013646027431721042,0.04238124540613501,0.023637528287075805
515054000000,ground_plane,Floor,khm2,0.252724,-0.228037,0.0,0.0,0.0,0.0,1.0,-0.010923,0.300375,-0.916015,0.0,-0.13052616522012478,0.0,0.9914448649284179,-0.12796695064558156,-0.006322379033159518,-0.21718355410155038,-0.09393278334762284,-0.09156785241970153,0.7144281498337591,0.6873022474435277,0.0,0.0,0.0,0.0,0.0,0.0,0.0,0.0,0.0,0.0,0.0,0.0,-0.007763360382884664,0.0008038888065314908,-0.00467359930423489,-0.034353091892937164,-0.05548551613854782,0.009809249631152882
515054000000,ground_plane,Floor,khm2,0.252724,-0.228037,0.0,0.0,0.0,0.0,1.0,-0.010923,0.300375,-0.916015,0.0,-0.13052616522012478,0.0,0.9914448649284179,-0.12797119904207063,-0.006323485610363129,-0.2171821311202335,-0.0939043295157318,-0.0915591695473453,0.7144395559875333,0.6872954359009942,0.0,0.0,0.0,0.0,0.0,0.0,0.0,0.0,0.0,0.0,0.0,0.0,-0.004626340343323399,-0.00032610437918231046,1.891545684784752e-05,0.00922043110219446,0.04407046204715358,0.020608118114296976
515054000000,ground_plane,Floor,khm2,0.252724,-0.228037,0.0,0.0,0.0,0.0,1.0,-0.010923,0.300375,-0.916015,0.0,-0.13052616522012478,0.0,0.9914448649284179,-0.12797878637826998,-0.006322551408093588,-0.2171866508407201,-0.09393392274699264,-0.09156454470615553,0.7144420986673818,0.6872880327503628,0.0,0.0,0.0,0.0,0.0,0.0,0.0,0.0,0.0,0.0,0.0,0.0,-0.007587667223842423,0.0009336942707268832,-0.0045197194229849415,-0.034860896123755696,-0.0505426338713651,0.009652011945260948
515054000000,ground_plane,Floor,khm2,0.252724,-0.228037,0.0,0.0,0.0,0.0,1.0,-0.010923,0.300375,-0.916015,0.0,-0.13052616522012478,0.0,0.9914448649284179,-0.12798293681475495,-0.006323692219481525,-0.21718587139621431,-0.09390581553206376,-0.09155789663593483,0.7144538850631517,0.6872805071373917,0.0,0.0,0.0,0.0,0.0,0.0,0.0,0.0,0.0,0.0,0.0,0.0,-0.0044943124648948,-0.00046470892425775495,-0.00045635515783763866,0.013597593563254093,0.04237727883330259,0.02363453877112122
515054000000,ground_plane,Floor,khm2,0.252724,-0.228037,0.0,0.0,0.0,0.0,1.0,-0.010923,0.300375,-0.916015,0.0,-0.13052616522012478,0.0,0.9914448649284179,-0.12799069613322683,-0.0063228915447747815,-0.2171905429230488,-0.09393695305027526,-0.09156513548424242,0.7144562406322614,0.6872728388616846,0.0,0.0,0.0,0.0,0.0,0.0,0.0,0.0,0.0,0.0,0.0,0.0,-0.007759601637002329,0.0008002605673658386,-0.004671519987374278,-0.03433390439988423,-0.055396940025500475,0.009843144336456717
515054000000,ground_plane,Floor,khm2,0.252724,-0.228037,0.0,0.0,0.0,0.0,1.0,-0.010923,0.300375,-0.916015,0.0,-0.13052616522012478,0.0,0.9914448649284179,-0.12799494281482235,-0.0063240079168194055,-0.21718914029072595,-0.09390850868717478,-0.0915565854985025,0.7144676884600695,0.6872659643795345,0.0,0.0,0.0,0.0,0.0,0.0,0.0,0.0,0.0,0.0,0.0,0.0,-0.004623737480028436,-0.00033903978348023367,2.988179549380998e-06,0.009439831641397427,0.043921797460135525,0.02081304856280729
515054000000,ground_plane,Floor,khm2,0.252724,-0.228037,0.0,0.0,0.0,0.0,1.0,-0.010923,0.300375,-0.916015,0.0,-0.13052616522012478,0.0,0.9914448649284179,-0.1280025397440959,-0.006323088629735872,-0.2171936646800837,-0.09393815078993399,-0.09156205644539152,0.7144702385398891,0.6872585335129805,0.0,0.0,0.0,0.0,0.0,0.0,0.0,0.0,0.0,0.0,0.0,0.0,-0.007597258506075017,0.0009187812285881899,-0.0045243884471149924,-0.03479572895010721,-0.05074914998603169,0.009711348143929712
515054000000,ground_plane,Floor,khm2,0.252724,-0.228037,0.0,0.0,0.0,0.0,1.0,-0.010923,0.300375,-0.916015,0.0,-0.13052616522012478,0.0,0.9914448649284179,-0.1280066966374752,-0.006324235880904679,-0.21719286062803228,-0.0939100602728357,-0.09155537703191699,0.7144820310890438,0.68725100273988,0.0,0.0,0.0,0.0,0.0,0.0,0.0,0.0,0.0,0.0,0.0,0.0,-0.004501682585690505,-0.0004692021560439016,-0.00043607841820584073,0.013477377625584479,0.04236343760794217,0.023621292961216137
515055000000,ground_plane,Floor,khm2,0.252724,-0.228037,0.0,0.0,0.0,0.0,1.0,-0.010923,0.300375,-0.916015,0.0,-0.13052616522012478,0.0,0.9914448649284179,-0.12801444926450387,-0.006323442967368652,-0.2171975271947986,-0.09394111424405581,-0.09156256203110882,0.7144844192572725,0.6872433185760941,0.0,0.0,0.0,0.0,0.0,0.0,0.0,0.0,0.0,0.0,0.0,0.0,-0.007752910205981493,0.0007924974145851285,-0.004666560464459048,-0.03430279880386639,-0.055201571396794394,0.00991631974272329
515056000000,ground_plane,Floor,khm2,0.252724,-0.228037,0.0,0.0,0.0,0.0,1.0,-0.010923,0.300375,-0.916015,0.0,-0.13052616522012478,0.0,0.9914448649284179,-0.12801869179698952,-0.0063245840525811255,-0.21719616724228757,-0.09391268449743868,-0.09155429691518759,0.7144959638759572,0.6872363028913833,0.0,0.0,0.0,0.0,0.0,0.0,0.0,0.0,0.0,0.0,0.0,0.0,-0.0046185059977290775,-0.00036961121777454335,-3.210922622887201e-05,0.009904173300886181,0.043605601341801095,0.021261332219196065
515057000000,ground_plane,Floor,khm2,0.252724,-0.228037,0.0,0.0,0.0,0.0,1.0,-0.010923,0.300375,-0.916015,0.0,-0.13052616522012478,0.0,0.9914448649284179,-0.12802631025504352,-0.006323698693164433,-0.2172007018941997,-0.09394243673042797,-0.09155997197994312,0.7144985334287005,0.6872288089424204,0.0,0.0,0.0,0.0,0.0,0.0,0.0,0.0,0.0,0.0,0.0,0.0,-0.0076187843553693155,0.0008848577846693868,-0.004534651061737189,-0.03466875714083698,-0.051196348989858996,0.00984698041968726
515058000000,ground_plane,Floor,khm2,0.252724,-0.228037,0.0,0.0,0.0,0.0,1.0,-0.010923,0.300375,-0.916015,0.0,-0.13052616522012478,0.0,0.9914448649284179,-0.12803048036457165,-0.006324862366863204,-0.21719984391825367,-0.09391437037129013,-0.09155322780607933,0.7145103423463113,0.687221265820703,0.0,0.0,0.0,0.0,0.0,0.0,0.0,0.0,0.0,0.0,0.0,0.0,-0.004517492029477985,-0.00048032155385299236,-0.00039339491312521697,0.013218261517936567,0.042332319655164714,0.023590826687417438
515059000000,ground_plane,Floor,khm2,0.252724,-0.228037,0.0,0.0,0.0,0.0,1.0,-0.010923,0.300375,-0.916015,0.0,-0.13052616522012478,0.0,0.9914448649284179,-0.12803821963608872,-0.006324086590631207,-0.21720449963614974,-0.09394525346184368,-0.09156029904270803,0.7145127994633145,0.6872135478832598,0.0,0.0,0.0,0.0,0.0,0.0,0.0,0.0,0.0,0.0,0.0,0.0,-0.007739555478588032,0.0007753553537726323,-0.0046557125967483575,-0.03424732401900239,-0.05479547120848594,0.01006967572428023
515060000000,ground_plane,Floor,khm2,0.252724,-0.228037,0.0,0.0,0.0,0.0,1.0,-0.010923,0.300375,-0.916015,0.0,-0.13052616522012478,0.0,0.9914448649284179,-0.12804245251647786,-0.006325283665654127,-0.21720322798526306,-0.09391684400455709,-0.09155263500538745,0.7145245512755163,0.6872062332810406,0.0,0.0,0.0,0.0,0.0,0.0,0.0,0.0,0.0,0.0,0.0,0.0,-0.004608148468156266,-0.00043740491487019627,-0.00010815481566353396,0.010875538912857892,0.042950890570012536,0.022217814303612686
515061000000,ground_plane,Floor,khm2,0.252724,-0.228037,0.0,0.0,0.0,0.0,1.0,-0.010923,0.300375,-0.916015,0.0,-0.13052616522012478,0.0,0.9914448649284179,-0.1280501179487132,-0.0063244720902030154,-0.2172077849843888,-0.0939468373236634,-0.09155873844099831,0.7145271662509415,0.6871986014693083,0.0,0.0,0.0,0.0,0.0,0.0,0.0,0.0,0.0,0.0,0.0,0.0,-0.007665751131800797,0.0008110977075794508,-0.004556994647447452,-0.03441982628833171,-0.05214799553688541,0.010143619907807133
515062000000,ground_plane,Floor,khm2,0.252724,-0.228037,0.0,0.0,0.0,0.0,1.0,-0.010923,0.300375,-0.916015,0.0,-0.13052616522012478,0.0,0.9914448649284179,-0.12805431579284435,-0.006325673920682164,-0.21720681174496093,-0.09391880779867469,-0.09155185985438373,0.7145390168881449,0.687191027184874,0.0,0.0,0.0,0.0,0.0,0.0,0.0,0.0,0.0,0.0,0.0,0.0,-0.0045517640902262586,-0.0005045748408768929,-0.00030473122207764266,0.012673030822420309,0.04226845013229861,0.023508790070013736
515063000000,ground_plane,Floor,khm2,0.252724,-0.228037,0.0,0.0,0.0,0.0,1.0,-0.010923,0.300375,-0.916015,0.0,-0.13052616522012478,0.0,0.9914448649284179,-0.12806203634275665,-0.006324932370808539,-0.21721144493802955,-0.0939493351640261,-0.09155870130314217,0.7145415946209822,0.6871832624521812,0.0,0.0,0.0,0.0,0.0,0.0,0.0,0.0,0.0,0.0,0.0,0.0,-0.007720838031587384,0.0007411179797460498,-0.004633189071197804,-0.03411560062752362,-0.053958343605490774,0.010324514819604008
515064000000,ground_plane,Floor,khm2,0.252724,-0.228037,0.0,0.0,0.0,0.0,1.0,-0.010923,0.300375,-0.916015,0.0,-0.13052616522012478,0.0,0.9914448649284179,-0.12806625710579855,-0.006326165812493619,-0.21721027294518958,-0.09392110629202825,-0.09155142410122033,0.7145534556889029,0.68717575735831,0.0,0.0,0.0,0.0,0.0,0.0,0.0,0.0,0.0,0.0,0.0,0.0,-0.004588620029483795,-0.0004972597566612161,-0.00017079220922582104,0.011600074614442605,0.042521311065555546,0.022952672479357
515065000000,ground_plane,Floor,khm2,0.252724,-0.228037,0.0,0.0,0.0,0.0,1.0,-0.010923,0.300375,-0.916015,0.0,-0.13052616522012478,0.0,0.9914448649284179,-0.12807394350405835,-0.006325419430477079,-0.21721485539018115,-0.09395123627371194,-0.09155782524846484,0.7145561159338076,0.6871680194974179,0.0,0.0,0.0,0.0,0.0,0.0,0.0,0.0,0.0,0.0,0.0,0.0,-0.007686703409695035,0.0007459242447798907,-0.004582440853366407,-0.034208004270923215,-0.05276507071220851,0.010389169216520616
515066000000,ground_plane,Floor,khm2,0.252724,-0.228037,0.0,0.0,0.0,0.0,1.0,-0.010923,0.300375,-0.916015,0.0,-0.13052616522012478,0.0,0.9914448649284179,-0.12807814743015414,-0.006326651700708466,-0.2172138025884851,-0.0939232226185617,-0.09155081117972777,0.7145679897059554,0.6871604363704793,0.0,0.0,0.0,0.0,0.0,0.0,0.0,0.0,0.0,0.0,0.0,0.0,-0.004561949379930863,-0.0005256422634791108,-0.0002428181877988649,0.01225436936449357,0.042294186101119624,0.02340994865141201
515066000000,ground_plane,Floor,khm2,0.252724,-0.228037,0.0,0.0,0.0,0.0,1.0,-0.010923,0.300375,-0.916015,0.0,-0.13052616522012478,0.0,0.9914448649284179,-0.12808584530354888,-0.006325935479953812,-0.21721841641506742,-0.09395351459498347,-0.09155747064580218,0.7145706375173169,0.6871526545552225,0.0,0.0,0.0,0.0,0.0,0.0,0.0,0.0,0.0,0.0,0.0,0.0,-0.00769816488255608,0.000715781037318155,-0.004613823315043751,-0.034066113326727855,-0.0533629913785009,0.010454409179138409
515068000000,ground_plane,Floor,khm2,0.252724,-0.228037,0.0,0.0,0.0,0.0,1.0,-0.010923,0.300375,-0.916015,0.0,-0.13052616522012478,0.0,0.9914448649284179,-0.1280900490609392,-0.006327178024300827,-0.21721729512563206,-0.09392543202974353,-0.09155029092020543,0.7145825051078073,0.6871451090157757,0.0,0.0,0.0,0.0,0.0,0.0,0.0,0.0,0.0,0.0,0.0,0.0,-0.004565617143180073,-0.0005221153181721992,-0.00019438357386998475,0.011855793308873428,0.04241855499436336,0.02319162290893531
515069000000,ground_plane,Floor,khm2,0.252724,-0.228037,0.0,0.0,0.0,0.0,1.0,-0.010923,0.300375,-0.916015,0.0,-0.13052616522012478,0.0,0.9914448649284179,-0.12809772669188266,-0.006326458330420408,-0.21722188841254886,-0.09395558776897911,-0.09155677980979306,0.7145851759622904,0.6871373442717177,0.0,0.0,0.0,0.0,0.0,0.0,0.0,0.0,0.0,0.0,0.0,0.0,-0.007677927546107727,0.0007192457348748045,-0.004593283787991157,-0.03412269852072873,-0.052926916071843105,0.0104545963871641
515071000000,ground_plane,Floor,khm2,0.252724,-0.228037,0.0,0.0,0.0,0.0,1.0,-0.010923,0.300375,-0.916015,0.0,-0.13052616522012478,0.0,0.9914448649284179,-0.12810191778445848,-0.006327698704454632,-0.2172208106115675,-0.09392757490925951,-0.09154970068409958,0.7145970458071755,0.6871297731142019,0.0,0.0,0.0,0.0,0.0,0.0,0.0,0.0,0.0,0.0,0.0,0.0,-0.00455003705620362,-0.0005314722850934755,-0.00022242084605068554,0.012108908080952788,0.04234507748799262,0.02334480631803739
515071000000,ground_plane,Floor,khm2,0.252724,-0.228037,0.0,0.0,0.0,0.0,1.0,-0.010923,0.300375,-0.916015,0.0,-0.13052616522012478,0.0,0.9914448649284179,-0.1281095957865595,-0.006326988469316914,-0.21722541464066583,-0.09395780027863102,-0.09155628768218566,0.7145997031961839,0.6871219994619466,0.0,0.0,0.0,0.0,0.0,0.0,0.0,0.0,0.0,0.0,0.0,0.0,-0.00767829417340623,0.0007097931518120391,-0.004604026199885594,-0.034076211947638727,-0.053166194381702926,0.01045485994069497
515072000000,ground_plane,Floor,khm2,0.252724,-0.228037,0.0,0.0,0.0,0.0,1.0,-0.010923,0.300375,-0.916015,0.0,-0.13052616522012478,0.0,0.9914448649284179,-0.12811378367085266,-0.006328230756395522,-0.21722430972760243,-0.09392975766706456,-0.09154914625848429,0.7146115671549496,0.687114446458737,0.0,0.0,0.0,0.0,0.0,0.0,0.0,0.0,0.0,0.0,0.0,0.0,-0.004547911930995835,-0.0005277126364586232,-0.00020244693885141654,0.011959062066241291,0.042388903233805335,0.02325630430754428
515073000000,ground_plane,Floor,khm2,0.252724,-0.228037,0.0,0.0,0.0,0.0,1.0,-0.010923,0.300375,-0.916015,0.0,-0.13052616522012478,0.0,0.9914448649284179,-0.12812145087050017,-0.006327516947147495,-0.21722890427943697,-0.09395993068013904,-0.09155566679575403,0.7146142297295772,0.6871066831083593,0.0,0.0,0.0,0.0,0.0,0.0,0.0,0.0,0.0,0.0,0.0,0.0,-0.0076674932166429285,0.0007133640475379026,-0.004594549184240952,-0.034097216904142504,-0.05299777696441099,0.010444502538690587
515074000000,ground_plane,Floor,khm2,0.252724,-0.228037,0.0,0.0,0.0,0.0,1.0,-0.010923,0.300375,-0.916015,0.0,-0.13052616522012478,0.0,0.9914448649284179,-0.12812563177627248,-0.006328755977306431,-0.2172278162120076,-0.09393191826316896,-0.09154856495028674,0.714626092800364,0.6870991212887919,0.0,0.0,0.0,0.0,0.0,0.0,0.0,0.0,0.0,0.0,0.0,0.0,-0.004540035514274466,-0.0005295249997891181,-0.00021359038825937478,0.012060888481145253,0.04236342080295223,0.023307354329387638
515075000000,ground_plane,Floor,khm2,0.252724,-0.228037,0.0,0.0,0.0,0.0,1.0,-0.010923,0.300375,-0.916015,0.0,-0.13052616522012478,0.0,0.9914448649284179,-0.12813329738278262,-0.0063280441784171184,-0.2172324150990187,-0.09396211712691563,-0.09155512328245723,0.714628746800857,0.6870913579660266,0.0,0.0,0.0,0.0,0.0,0.0,0.0,0.0,0.0,0.0,0.0,0.0,-0.007665898579329201,0.0007113560627920977,-0.004598884331363161,-0.034076032417161804,-0.05308896662793102,0.010435309302030177
515076000000,ground_plane,Floor,khm2,0.252724,-0.228037,0.0,0.0,0.0,0.0,1.0,-0.010923,0.300375,-0.916015,0.0,-0.13052616522012478,0.0,0.9914448649284179,-0.12813747586749294,-0.006329282100833905,-0.21723131694831246,-0.09393409417295136,-0.09154799460885066,0.7146406053559622,0.687083805522637,0.0,0.0,0.0,0.0,0.0,0.0,0.0,0.0,0.0,0.0,0.0,0.0,-0.004537859573407322,-0.0005264430281361575,-0.00020582807087659205,0.012001828138934209,0.04238483279013745,0.023268951843033972
515077000000,ground_plane,Floor,khm2,0.252724,-0.228037,0.0,0.0,0.0,0.0,1.0,-0.010923,0.300375,-0.916015,0.0,-0.13052616522012478,0.0,0.9914448649284179,-0.12814513609839587,-0.0063285673914731605,-0.21723591193231628,-0.09396427318899016,-0.09155452534323448,0.7146432595741868,0.687076048045936,0.0,0.0,0.0,0.0,0.0,0.0,0.0,0.0,0.0,0.0,0.0,0.0,-0.007660523321989038,0.0007142653951106089,-0.004594981484501876,-0.034086073553795664,-0.05302220260935849,0.010425887295249042
515078000000,ground_plane,Floor,khm2,0.252724,-0.228037,0.0,0.0,0.0,0.0,1.0,-0.010923,0.300375,-0.916015,0.0,-0.13052616522012478,0.0,0.9914448649284179,-0.12814931120378326,-0.006329802660226099,-0.21723482069458608,-0.09393626330381795,-0.0915474130000448,0.714655117697682,0.687068491751752,0.0,0.0,0.0,0.0,0.0,0.0,0.0,0.0,0.0,0.0,0.0,0.0,-0.004534073604898778,-0.0005259987269642426,-0.00021031786753744944,0.012044380169112306,0.04237487113247485,0.02329027166132492
515079000000,ground_plane,Floor,khm2,0.252724,-0.228037,0.0,0.0,0.0,0.0,1.0,-0.010923,0.300375,-0.916015,0.0,-0.13052616522012478,0.0,0.9914448649284179,-0.12815697027426295,-0.006329087798841766,-0.2172394173624767,-0.09396645245966227,-0.09155395863365248,0.7146577677937471,0.6870607348718978,0.0,0.0,0.0,0.0,0.0,0.0,0.0,0.0,0.0,0.0,0.0,0.0,-0.0076593622220968455,0.0007144184155534373,-0.0045966653724827345,-0.03407674808862704,-0.0530585083225278,0.01042054314278226
515080000000,ground_plane,Floor,khm2,0.252724,-0.228037,0.0,0.0,0.0,0.0,1.0,-0.010923,0.300375,-0.916015,0.0,-0.13052616522012478,0.0,0.9914448649284179,-0.12816114435385423,-0.006330321527420132,-0.217238322379672,-0.09393844071572716,-0.09154683553513991,0.7146696237405639,0.6870531821932864,0.0,0.0,0.0,0.0,0.0,0.0,0.0,0.0,0.0,0.0,0.0,0.0,-0.004533046484222294,-0.0005239553386494689,-0.00020717935826429826,0.01202163384473947,0.04238347948436605,0.023276304819750102
515081000000,ground_plane,Floor,khm2,0.252724,-0.228037,0.0,0.0,0.0,0.0,1.0,-0.010923,0.300375,-0.916015,0.0,-0.13052616522012478,0.0,0.9914448649284179,-0.12816880103544714,-0.006329604942895924,-0.21724291758199546,-0.09396862058019481,-0.09155336975069911,0.7146722738650402,0.6870454277572337,0.0,0.0,0.0,0.0,0.0,0.0,0.0,0.0,0.0,0.0,0.0,0.0,-0.007656973304661729,0.0007161411895281438,-0.004595199912110096,-0.03407876718870554,-0.053029736976174566,0.0104168470808785
515082000000,ground_plane,Floor,khm2,0.252724,-0.228037,0.0,0.0,0.0,0.0,1.0,-0.010923,0.300375,-0.916015,0.0,-0.13052616522012478,0.0,0.9914448649284179,-0.1281729739795447,-0.006330836842945513,-0.21724182590034297,-0.09394061686878678,-0.09154625295531467,0.7146841290631417,0.6870378735829721,0.0,0.0,0.0,0.0,0.0,0.0,0.0,0.0,0.0,0.0,0.0,0.0,-0.004531574340134342,-0.000523312998204422,-0.00020898521073953115,0.012039665634648162,0.04237941501534345,0.023286957114132645
515083000000,ground_plane,Floor,khm2,0.252724,-0.228037,0.0,0.0,0.0,0.0,1.0,-0.010923,0.300375,-0.916015,0.0,-0.13052616522012478,0.0,0.9914448649284179,-0.12818063014365644,-0.006330119974831158,-0.21724642191739188,-0.09397079941941322,-0.09155279303889513,0.7146867777606144,0.6870301191632023,0.0,0.0,0.0,0.0,0.0,0.0,0.0,0.0,0.0,0.0,0.0,0.0,-0.007656455302173451,0.0007164253191497491,-0.004596014701813844,-0.03407271548898038,-0.05304257163549007,0.01041569557679941
515084000000,ground_plane,Floor,khm2,0.252724,-0.228037,0.0,0.0,0.0,0.0,1.0,-0.010923,0.300375,-0.916015,0.0,-0.13052616522012478,0.0,0.9914448649284179,-0.128184802990328,-0.006331350691851722,-0.21724532909774308,-0.09394279816131576,-0.0915456720143989,0.7146986318026952,0.6870225660838296,0.0,0.0,0.0,0.0,0.0,0.0,0.0,0.0,0.0,0.0,0.0,0.0,-0.004531388116893582,-0.0005222836104838816,-0.0002077386039321886,0.012031535675511478,0.042382708310826585,0.023283216931550586
515085000000,ground_plane,Floor,khm2,0.252724,-0.228037,0.0,0.0,0.0,0.0,1.0,-0.010923,0.300375,-0.916015,0.0,-0.13052616522012478,0.0,0.9914448649284179,-0.1281924582340772,-0.006330633173454739,-0.2172499247675806,-0.093972974972687,-0.09155220757167652,0.714701280889222,0.6870148123285558,0.0,0.0,0.0,0.0,0.0,0.0,0.0,0.0,0.0,0.0,0.0,0.0,-0.00765553476043403,0.0007170755635611349,-0.0045956675687807294,-0.034070162425565834,-0.053028610387842554,0.010415689623413946
515086000000,ground_plane,Floor,khm2,0.252724,-0.228037,0.0,0.0,0.0,0.0,1.0,-0.010923,0.300375,-0.916015,0.0,-0.13052616522012478,0.0,0.9914448649284179,-0.12819663110609616,-0.006331862805476165,-0.2172488338889915,-0.09394498002040455,-0.09154508841253417,0.7147131335651641,0.6870072592236351,0.0,0.0,0.0,0.0,0.0,0.0,0.0,0.0,0.0,0.0,0.0,0.0,-0.004531061677243071,-0.00052199463292251,-0.00020844443102368757,0.012039362061437787,0.04238122954171351,0.023288979742110933
515087000000,ground_plane,Floor,khm2,0.252724,-0.228037,0.0,0.0,0.0,0.0,1.0,-0.010923,0.300375,-0.916015,0.0,-0.13052616522012478,0.0,0.9914448649284179,-0.12820428623460675,-0.0063311453558902555,-0.2172534300583084,-0.09397515618439996,-0.09155162641500912,0.7147157824329579,0.6869995051396538,0.0,0.0,0.0,0.0,0.0,0.0,0.0,0.0,0.0,0.0,0.0,0.0,-0.007655419002743646,0.0007170071310521211,-0.00459616715813338,-0.034064710471771946,-0.05303181086176134,0.010416656371931171
515088000000,ground_plane,Floor,khm2,0.252724,-0.228037,0.0,0.0,0.0,0.0,1.0,-0.010923,0.300375,-0.916015,0.0,-0.13052616522012478,0.0,0.9914448649284179,-0.12820845956354548,-0.006332374279329558,-0.2172523392106701,-0.09394716547700606,-0.09154450550807527,0.7147276338257126,0.6869919526865041,0.0,0.0,0.0,0.0,0.0,0.0,0.0,0.0,0.0,0.0,0.0,0.0,-0.0045313282237692916,-0.0005216935944276804,-0.00020792711903101237,0.012037248163007228,0.04238214916511627,0.02328892771814377
515089000000,ground_plane,Floor,khm2,0.252724,-0.228037,0.0,0.0,0.0,0.0,1.0,-0.010923,0.300375,-0.916015,0.0,-0.13052616522012478,0.0,0.9914448649284179,-0.1282161144543462,-0.006331656905149795,-0.21725693546481667,-0.09397733722932047,-0.09155104212658462,0.7147302832277462,0.686984198515518,0.0,0.0,0.0,0.0,0.0,0.0,0.0,0.0,0.0,0.0,0.0,0.0,-0.007655180976767383,0.0007169318468909481,-0.0045962520811247435,-0.034059656112291656,-0.05302417809760163,0.010418275586092124
515090000000,ground_plane,Floor,khm2,0.252724,-0.228037,0.0,0.0,0.0,0.0,1.0,-0.010923,0.300375,-0.916015,0.0,-0.13052616522012478,0.0,0.9914448649284179,-0.12822028831273966,-0.006332885216915481,-0.21725584586125765,-0.09394935257470777,-0.09154392152715742,0.7147421330265432,0.6869766465163791,0.0,0.0,0.0,0.0,0.0,0.0,0.0,0.0,0.0,0.0,0.0,0.0,-0.004531554464353971,-0.0005217620664018943,-0.00020814270572270415,0.012040988054282347,0.042381513511777276,0.023292078597719916
515091000000,ground_plane,Floor,khm2,0.252724,-0.228037,0.0,0.0,0.0,0.0,1.0,-0.010923,0.300375,-0.916015,0.0,-0.13052616522012478,0.0,0.9914448649284179,-0.12822794325363024,-0.006332168271873442,-0.21726044254116356,-0.09397952163411205,-0.09155045936615323,0.7147447827375861,0.6869688919104494,0.0,0.0,0.0,0.0,0.0,0.0,0.0,0.0,0.0,0.0,0.0,0.0,-0.007655230603625135,0.0007165030040102651,-0.004596677949585394,-0.034053262285669794,-0.05302269001179011,0.01042026183102868
515092000000,ground_plane,Floor,khm2,0.252724,-0.228037,0.0,0.0,0.0,0.0,1.0,-0.010923,0.300375,-0.916015,0.0,-0.13052616522012478,0.0,0.9914448649284179,-0.12823211778686314,-0.00633339616212552,-0.21725935348768446,-0.09395154228610118,-0.09154333762529411,0.7147566308703135,0.686961340735709,0.0,0.0,0.0,0.0,0.0,0.0,0.0,0.0,0.0,0.0,0.0,0.0,-0.0045319838443805965,-0.0005218817409141768,-0.00020791032898078874,0.012040994660079305,0.042381962109848764,0.02329280002946857
515093000000,ground_plane,Floor,khm2,0.252724,-0.228037,0.0,0.0,0.0,0.0,1.0,-0.010923,0.300375,-0.916015,0.0,-0.13052616522012478,0.0,0.9914448649284179,-0.12823977271540926,-0.006332679692114801,-0.21726395043890065,-0.0939817072595032,-0.09154987528623043,0.7147592811319796,0.6869535858202945,0.0,0.0,0.0,0.0,0.0,0.0,0.0,0.0,0.0,0.0,0.0,0.0,-0.007655217868771054,0.0007160281749463243,-0.004596949363242392,-0.03404697584451195,-0.05301721845730281,0.010422390687019082
515094000000,ground_plane,Floor,khm2,0.252724,-0.228037,0.0,0.0,0.0,0.0,1.0,-0.010923,0.300375,-0.916015,0.0,-0.13052616522012478,0.0,0.9914448649284179,-0.12824394793461458,-0.006333907225988033,-0.21726286237963593,-0.0939537338663334,-0.0915427531494302,0.714771127422894,0.6869460354649424,0.0,0.0,0.0,0.0,0.0,0.0,0.0,0.0,0.0,0.0,0.0,0.0,-0.004532382849195874,-0.0005221668897523687,-0.00020794536502947883,0.012043184045331718,0.0423818767329823,0.02329451913280141
515095000000,ground_plane,Floor,khm2,0.252724,-0.228037,0.0,0.0,0.0,0.0,1.0,-0.010923,0.300375,-0.916015,0.0,-0.13052616522012478,0.0,0.9914448649284179,-0.12825160294182303,-0.0063331913836662005,-0.2172674597225717,-0.09398389537874438,-0.09154929163462398,0.7147737781170445,0.6869382801438,0.0,0.0,0.0,0.0,0.0,0.0,0.0,0.0,0.0,0.0,0.0,0.0,-0.007655296086831041,0.0007154007515917932,-0.004597341192062315,-0.03404011112125433,-0.05301405826204243,0.010424570357457395
515096000000,ground_plane,Floor,khm2,0.252724,-0.228037,0.0,0.0,0.0,0.0,1.0,-0.010923,0.300375,-0.916015,0.0,-0.13052616522012478,0.0,0.9914448649284179,-0.12825577888767314,-0.006334418641527919,-0.2172663723944521,-0.09395592767484269,-0.09154216853946456,0.7147856224868185,0.6869307308018644,0.0,0.0,0.0,0.0,0.0,0.0,0.0,0.0,0.0,0.0,0.0,0.0,-0.0045328434255805985,-0.0005224817032417657,-0.0002078067075364622,0.012043973306741595,0.04238222190223919,0.02329518615197944
515097000000,ground_plane,Floor,khm2,0.252724,-0.228037,0.0,0.0,0.0,0.0,1.0,-0.010923,0.300375,-0.916015,0.0,-0.13052616522012478,0.0,0.9914448649284179,-0.12826343393350803,-0.006333703450781651,-0.21727097006728316,-0.09398608517588221,-0.0915487073387236,0.7147882736799348,0.6869229751490186,0.0,0.0,0.0,0.0,0.0,0.0,0.0,0.0,0.0,0.0,0.0,0.0,-0.00765533429534694,0.0007147494072614351,-0.0045976711947495145,-0.0340332186057734,-0.053009383254377845,0.010426739607740114
515098000000,ground_plane,Floor,khm2,0.252724,-0.228037,0.0,0.0,0.0,0.0,1.0,-0.010923,0.300375,-0.916015,0.0,-0.13052616522012478,0.0,0.9914448649284179,-0.1282676106080315,-0.006334930433827191,-0.21726988365896094,-0.09395812337377676,-0.0915415835052149,0.714800115901551,0.6869154269985244,0.0,0.0,0.0,0.0,0.0,0.0,0.0,0.0,0.0,0.0,0.0,0.0,-0.004533277507951246,-0.0005228588819328454,-0.00020776552589378875,0.012045568062990616,0.04238240751840996,0.023296127362300342
515099000000,ground_plane,Floor,khm2,0.252724,-0.228037,0.0,0.0,0.0,0.0,1.0,-0.010923,0.300375,-0.916015,0.0,-0.13052616522012478,0.0,0.9914448649284179,-0.12827526571632047,-0.0063342159473568456,-0.21727448169720284,-0.09398827713544156,-0.09154812300146026,0.7148027675236228,0.6869076709985052,0.0,0.0,0.0,0.0,0.0,0.0,0.0,0.0,0.0,0.0,0.0,0.0,-0.007655396280992243,0.0007140453864142233,-0.004598036728739306,-0.03402614224678875,-0.053005639638683745,0.01042885792027093
515103000000,ground_plane,Floor,khm2,0.252724,-0.228037,0.0,0.0,0.0,0.0,1.0,-0.010923,0.300375,-0.916015,0.0,-0.13052616522012478,0.0,0.9914448649284179,-0.12827944313147302,-0.006335442678362445,-0.21727339611318433,-0.09396032110530117,-0.09154099823324664,0.7148146075214622,0.6869001241623031,0.0,0.0,0.0,0.0,0.0,0.0,0.0,0.0,0.0,0.0,0.0,0.0,-0.004533727638484574,-0.0005232462642104101,-0.00020765681536071912,0.012046671450670027,0.04238272265413078,0.023296660334452903
515103000000,ground_plane,Floor,khm2,0.252724,-0.228037,0.0,0.0,0.0,0.0,1.0,-0.010923,0.300375,-0.916015,0.0,-0.13052616522012478,0.0,0.9914448649284179,-0.1282870982835476,-0.006334728902596282,-0.2172779944880055,-0.09399047093749958,-0.09154753825812434,0.7148172595879685,0.6868923678473735,0.0,0.0,0.0,0.0,0.0,0.0,0.0,0.0,0.0,0.0,0.0,0.0,-0.007655439598487162,0.0007133349234599627,-0.004598373435005471,-0.03401904263257309,-0.05300138363807835,0.010430954328564128
515103000000,ground_plane,Floor,khm2,0.252724,-0.228037,0.0,0.0,0.0,0.0,1.0,-0.010923,0.300375,-0.916015,0.0,-0.13052616522012478,0.0,0.9914448649284179,-0.12829127643323482,-0.006335955388335332,-0.2172769097853573,-0.09396252077822895,-0.09154041264959899,0.7148290973201367,0.6868848223431792,0.0,0.0,0.0,0.0,0.0,0.0,0.0,0.0,0.0,0.0,0.0,0.0,-0.004534165368806936,-0.0005236551208605758,-0.00020757916554743887,0.012048063336612585,0.04238296378256362,0.023297289914027294
515103000000,ground_plane,Floor,khm2,0.252724,-0.228037,0.0,0.0,0.0,0.0,1.0,-0.010923,0.300375,-0.916015,0.0,-0.13052616522012478,0.0,0.9914448649284179,-0.12829893163195957,-0.0063352423418804775,-0.2172815085099411,-0.09399266674528307,-0.09154695333883499,0.7148317498122965,0.6868770657059223,0.0,0.0,0.0,0.0,0.0,0.0,0.0,0.0,0.0,0.0,0.0,0.0,-0.007655485772080967,0.0007126058620660358,-0.004598723325964073,-0.03401183548870073,-0.052997410754908325,0.010433049511643318
515104000000,ground_plane,Floor,khm2,0.252724,-0.228037,0.0,0.0,0.0,0.0,1.0,-0.010923,0.300375,-0.916015,0.0,-0.13052616522012478,0.0,0.9914448649284179,-0.12830311051346838,-0.006336468589561059,-0.2172804246543036,-0.09396472243133015,-0.09153982680086359,0.7148435852624254,0.6868695215663836,0.0,0.0,0.0,0.0,0.0,0.0,0.0,0.0,0.0,0.0,0.0,0.0,-0.004534602857519368,-0.0005240650461702665,-0.0002074772963873133,0.012049257754252819,0.0423832832100242,0.0232977635613778
515105000000,ground_plane,Floor,khm2,0.252724,-0.228037,0.0,0.0,0.0,0.0,1.0,-0.010923,0.300375,-0.916015,0.0,-0.13052616522012478,0.0,0.9914448649284179,-0.12831076574568462,-0.006335756271529126,-0.21728502371878472,-0.09399486445610754,-0.09154636807983325,0.714846238188483,0.6868617646186488,0.0,0.0,0.0,0.0,0.0,0.0,0.0,0.0,0.0,0.0,0.0,0.0,-0.007655518790396987,0.0007118776850189451,-0.004599063351277725,-0.034004628731560835,-0.05299322089745777,0.010435139081077231
515106000000,ground_plane,Floor,khm2,0.252724,-0.228037,0.0,0.0,0.0,0.0,1.0,-0.010923,0.300375,-0.916015,0.0,-0.13052616522012478,0.0,0.9914448649284179,-0.12831494535300986,-0.00633698227903113,-0.2172839407375394,-0.09396692600974903,-0.09153924063139186,0.7148580713412346,0.6868542218543879,0.0,0.0,0.0,0.0,0.0,0.0,0.0,0.0,0.0,0.0,0.0,0.0,-0.004535029810492555,-0.0005244793659677635,-0.0002073887966358031,0.012050556576273814,0.04238359685944136,0.02329827331233705
515107000000,ground_plane,Floor,khm2,0.252724,-0.228037,0.0,0.0,0.0,0.0,1.0,-0.010923,0.300375,-0.916015,0.0,-0.13052616522012478,0.0,0.9914448649284179,-0.12832260061727258,-0.0063362706912745035,-0.2172885401443107,-0.09399706414147482,-0.09154578254881844,0.714860724689861,0.6868464645946682,0.0,0.0,0.0,0.0,0.0,0.0,0.0,0.0,0.0,0.0,0.0,0.0,-0.007655550359810004,0.0007111476588571677,-0.0045994057702694055,-0.033997418415554446,-0.05298917045212686,0.010437215491824473
515108000000,ground_plane,Floor,khm2,0.252724,-0.228037,0.0,0.0,0.0,0.0,1.0,-0.010923,0.300375,-0.916015,0.0,-0.13052616522012478,0.0,0.9914448649284179,-0.12832678096570826,-0.00633749645003295,-0.21728745805700442,-0.09396913147493867,-0.09153865410246441,0.714872555536851,0.6868389232383145,0.0,0.0,0.0,0.0,0.0,0.0,0.0,0.0,0.0,0.0,0.0,0.0,-0.004535455219293714,-0.0005248905745788111,-0.0002072904855691211,0.012051788587218835,0.042383927079737795,0.023298731430138032
515109000000,ground_plane,Floor,khm2,0.252724,-0.228037,0.0,0.0,0.0,0.0,1.0,-0.010923,0.300375,-0.916015,0.0,-0.13052616522012478,0.0,0.9914448649284179,-0.12833443626619223,-0.006336785584606743,-0.21729205778837793,-0.09399926578273032,-0.09154519665340528,0.7148752092939922,0.6868311656723711,0.0,0.0,0.0,0.0,0.0,0.0,0.0,0.0,0.0,0.0,0.0,0.0,-0.007655586098485267,0.0007104255748892328,-0.004599730504541787,-0.033990306771216894,-0.05298521327661027,0.01043925081005521
515110000000,ground_plane,Floor,khm2,0.252724,-0.228037,0.0,0.0,0.0,0.0,1.0,-0.010923,0.300375,-0.916015,0.0,-0.13052616522012478,0.0,0.9914448649284179,-0.1283386173634551,-0.006338011096284356,-0.21729097659009483,-0.09397133889430387,-0.09153806728565084,0.7148870378462927,0.6868236257026785,0.0,0.0,0.0,0.0,0.0,0.0,0.0,0.0,0.0,0.0,0.0,0.0,-0.004535888962796295,-0.0005253021847570085,-0.00020718940814588383,0.012053102823506903,0.04238413680027758,0.023299234155147147
515111000000,ground_plane,Floor,khm2,0.252724,-0.228037,0.0,0.0,0.0,0.0,1.0,-0.010923,0.300375,-0.916015,0.0,-0.13052616522012478,0.0,0.9914448649284179,-0.12834627270767116,-0.006337300955688109,-0.21729557664649862,-0.0940014693604385,-0.09154461051682451,0.7148896920149419,0.6868158678235259,0.0,0.0,0.0,0.0,0.0,0.0,0.0,0.0,0.0,0.0,0.0,0.0,-0.007655629348709825,0.0007097009905784245,-0.004600055666864613,-0.03398310617459634,-0.05298129525673456,0.01044131224136008
515112000000,ground_plane,Floor,khm2,0.252724,-0.228037,0.0,0.0,0.0,0.0,1.0,-0.010923,0.300375,-0.916015,0.0,-0.13052616522012478,0.0,0.9914448649284179,-0.128350454560158,-0.006338526217068054,-0.2172944963309282,-0.09397354828541996,-0.09153748019965317,0.714901518261006,0.6868083292516585,0.0,0.0,0.0,0.0,0.0,0.0,0.0,0.0,0.0,0.0,0.0,0.0,-0.004536328566365651,-0.0005257115838679827,-0.0002070797208946931,0.012054354079347518,0.042384349358000346,0.02329970619676349
515113000000,ground_plane,Floor,khm2,0.252724,-0.228037,0.0,0.0,0.0,0.0,1.0,-0.010923,0.300375,-0.916015,0.0,-0.13052616522012478,0.0,0.9914448649284179,-0.12835810994659985,-0.006337816800349709,-0.21729909671270412,-0.09400367486088566,-0.0915440240845111,0.7149041728524336,0.6868005710577424,0.0,0.0,0.0,0.0,0.0,0.0,0.0,0.0,0.0,0.0,0.0,0.0,-0.0076556710917720875,0.0007089773586204515,-0.004600381171300331,-0.03397587887786715,-0.052977268487511824,0.010443395380686683
515114000000,ground_plane,Floor,khm2,0.252724,-0.228037,0.0,0.0,0.0,0.0,1.0,-0.010923,0.300375,-0.916015,0.0,-0.13052616522012478,0.0,0.9914448649284179,-0.1283622925534826,-0.006339041808731332,-0.21729801729032946,-0.09397575961941226,-0.09153689281464211,0.7149159967874847,0.6867930338865942,0.0,0.0,0.0,0.0,0.0,0.0,0.0,0.0,0.0,0.0,0.0,0.0,-0.004536766159239298,-0.0005261209836949288,-0.00020697549801440584,0.01205562574286166,0.042384574600946134,0.023300197016748188
515115000000,ground_plane,Floor,khm2,0.252724,-0.228037,0.0,0.0,0.0,0.0,1.0,-0.010923,0.300375,-0.916015,0.0,-0.13052616522012478,0.0,0.9914448649284179,-0.12836994798230728,-0.006338333115415082,-0.21730261800004202,-0.09400588231735438,-0.09154343736003778,0.7149186518021031,0.6867852753747038,0.0,0.0,0.0,0.0,0.0,0.0,0.0,0.0,0.0,0.0,0.0,0.0,-0.007655712990406839,0.0007082542041324353,-0.004600709240498034,-0.03396866081287591,-0.052973270088242236,0.01044548261078125
515116000000,ground_plane,Floor,khm2,0.252724,-0.228037,0.0,0.0,0.0,0.0,1.0,-0.010923,0.300375,-0.916015,0.0,-0.13052616522012478,0.0,0.9914448649284179,-0.12837413134266876,-0.006339557870443703,-0.2173015394671213,-0.09397797289894934,-0.0915363051304362,0.7149304734300975,0.6867777396027689,0.0,0.0,0.0,0.0,0.0,0.0,0.0,0.0,0.0,0.0,0.0,0.0,-0.004537203429746906,-0.0005265287756630643,-0.00020686959261944173,0.012056877746358299,0.04238480943896213,0.023300681462940415
515117000000,ground_plane,Floor,khm2,0.252724,-0.228037,0.0,0.0,0.0,0.0,1.0,-0.010923,0.300375,-0.916015,0.0,-0.13052616522012478,0.0,0.9914448649284179,-0.1283817868130919,-0.006338849898645559,-0.21730614050354233,-0.09400809171915304,-0.09154285032824656,0.7149331288692278,0.6867699807725725,0.0,0.0,0.0,0.0,0.0,0.0,0.0,0.0,0.0,0.0,0.0,0.0,-0.007655754105596269,0.0007075329329930475,-0.004601036081288182,-0.03396145470173587,-0.05296925963549781,0.010447570631316672
515118000000,ground_plane,Floor,khm2,0.252724,-0.228037,0.0,0.0,0.0,0.0,1.0,-0.010923,0.300375,-0.916015,0.0,-0.13052616522012478,0.0,0.9914448649284179,-0.12838597092645476,-0.006340074399390568,-0.21730506286128398,-0.0939801881238748,-0.09153571714453149,0.7149449481921033,0.6867624463973174,0.0,0.0,0.0,0.0,0.0,0.0,0.0,0.0,0.0,0.0,0.0,0.0,-0.0045376402065195574,-0.0005269357307597775,-0.00020676453761515174,0.0120581391913032,0.042385038716117825,0.023301174902779644
515119000000,ground_plane,Floor,khm2,0.252724,-0.228037,0.0,0.0,0.0,0.0,1.0,-0.010923,0.300375,-0.916015,0.0,-0.13052616522012478,0.0,0.9914448649284179,-0.12839362643867314,-0.006339367148281395,-0.21730966422459932,-0.09401030307026444,-0.09154226299865047,0.7149476040557988,0.6867546872476341,0.0,0.0,0.0,0.0,0.0,0.0,0.0,0.0,0.0,0.0,0.0,0.0,-0.007655795417605567,0.0007068124911276993,-0.004601363107912897,-0.03395424896255564,-0.05296525996584232,0.010449660437236353
515120000000,ground_plane,Floor,khm2,0.252724,-0.228037,0.0,0.0,0.0,0.0,1.0,-0.010923,0.300375,-0.916015,0.0,-0.13052616522012478,0.0,0.9914448649284179,-0.12839781130496594,-0.006340591394035117,-0.2173085874715119,-0.09398240529709717,-0.0915351288588538,0.714959421074669,0.686747154268541,0.0,0.0,0.0,0.0,0.0,0.0,0.0,0.0,0.0,0.0,0.0,0.0,-0.004538077089474784,-0.0005273416112505009,-0.00020665842087585215,0.012059392789350639,0.04238526850073351,0.023301666506302447
515121000000,ground_plane,Floor,khm2,0.252724,-0.228037,0.0,0.0,0.0,0.0,1.0,-0.010923,0.300375,-0.916015,0.0,-0.13052616522012478,0.0,0.9914448649284179,-0.12840546685857526,-0.0063398848626059975,-0.21731318916134562,-0.09401251636702927,-0.09154167536566007,0.714962077363882,0.6867393947991549,0.0,0.0,0.0,0.0,0.0,0.0,0.0,0.0,0.0,0.0,0.0,0.0,-0.007655836325646903,0.0007060930580221861,-0.004601689758496933,-0.03394704530746631,-0.052961251014160216,0.01045175166593841
515122000000,ground_plane,Floor,khm2,0.252724,-0.228037,0.0,0.0,0.0,0.0,1.0,-0.010923,0.300375,-0.916015,0.0,-0.13052616522012478,0.0,0.9914448649284179,-0.1284096524774858,-0.006341108852715534,-0.21731211329824812,-0.09398462441689837,-0.09153454027119247,0.7149738920793991,0.6867318632154706,0.0,0.0,0.0,0.0,0.0,0.0,0.0,0.0,0.0,0.0,0.0,0.0,-0.0045385136364346195,-0.0005277469342480941,-0.00020655274487781441,0.0120606492937917,0.042385497371205144,0.023302161879138677
515123000000,ground_plane,Floor,khm2,0.252724,-0.228037,0.0,0.0,0.0,0.0,1.0,-0.010923,0.300375,-0.916015,0.0,-0.13052616522012478,0.0,0.9914448649284179,-0.12841730807245208,-0.006340403040394523,-0.2173167153147423,-0.09401473161246986,-0.0915410874315129,0.7149765487941407,0.6867241034259035,0.0,0.0,0.0,0.0,0.0,0.0,0.0,0.0,0.0,0.0,0.0,0.0,-0.007655877199777098,0.0007053741969917602,-0.004602016551140816,-0.033939843759748324,-0.05295724589936305,0.010453843375887353
515124000000,ground_plane,Floor,khm2,0.252724,-0.228037,0.0,0.0,0.0,0.0,1.0,-0.010923,0.300375,-0.916015,0.0,-0.13052616522012478,0.0,0.9914448649284179,-0.12842149444379186,-0.006341626774573123,-0.21731564034104306,-0.09398684548392428,-0.09153395138206342,0.7149883612073095,0.6867165732370618,0.0,0.0,0.0,0.0,0.0,0.0,0.0,0.0,0.0,0.0,0.0,0.0,-0.004538958471265005,-0.0005281410021729133,-0.0002064621072765823,0.012061945871849531,0.0423858058730085,0.02330248170919444
515125000000,ground_plane,Floor,khm2,0.252724,-0.228037,0.0,0.0,0.0,0.0,1.0,-0.010923,0.300375,-0.916015,0.0,-0.13052616522012478,0.0,0.9914448649284179,-0.12842915008689135,-0.006340921668677963,-0.21732024269614192,-0.09401694882546165,-0.0915404992189769,0.714991018302415,0.6867088131684104,0.0,0.0,0.0,0.0,0.0,0.0,0.0,0.0,0.0,0.0,0.0,0.0,-0.0076559248655996255,0.0007046680190987166,-0.0046023552808226054,-0.033932621530568786,-0.05295330195728022,0.010455814747532672
515126000000,ground_plane,Floor,khm2,0.252724,-0.228037,0.0,0.0,0.0,0.0,1.0,-0.010923,0.300375,-0.916015,0.0,-0.13052616522012478,0.0,0.9914448649284179,-0.12843333721310343,-0.006342145140034308,-0.21731916860470923,-0.09398906849118015,-0.09153336219282603,0.7150028284060599,0.6867012843887593,0.0,0.0,0.0,0.0,0.0,0.0,0.0,0.0,0.0,0.0,0.0,0.0,-0.004539413723322753,-0.0005285165548829443,-0.00020638171249642932,0.012063230741175775,0.042386207604142835,0.023302595810518904
515127000000,ground_plane,Floor,khm2,0.252724,-0.228037,0.0,0.0,0.0,0.0,1.0,-0.010923,0.300375,-0.916015,0.0,-0.13052616522012478,0.0,0.9914448649284179,-0.12844099291139915,-0.006341440720584756,-0.21732377130727304,-0.0940191680005282,-0.09153991070998646,0.715005485835422,0.6866935240854893,0.0,0.0,0.0,0.0,0.0,0.0,0.0,0.0,0.0,0.0,0.0,0.0,-0.007655979608744372,0.0007039818207149544,-0.00460270286460191,-0.033925407685997215,-0.05294939423615812,0.01045765572868278
515128000000,ground_plane,Floor,khm2,0.252724,-0.228037,0.0,0.0,0.0,0.0,1.0,-0.010923,0.300375,-0.916015,0.0,-0.13052616522012478,0.0,0.9914448649284179,-0.12844518079683545,-0.006342663930908335,-0.21732269809739074,-0.09399129343089818,-0.09153277269440233,0.7150172936811207,0.6866859966673178,0.0,0.0,0.0,0.0,0.0,0.0,0.0,0.0,0.0,0.0,0.0,0.0,-0.0045398737417692,-0.0005288794435427648,-0.00020630236480027615,0.012064503025286128,0.04238661764232337,0.023302674866761724
515129000000,ground_plane,Floor,khm2,0.252724,-0.228037,0.0,0.0,0.0,0.0,1.0,-0.010923,0.300375,-0.916015,0.0,-0.13052616522012478,0.0,0.9914448649284179,-0.1284528365556239,-0.006341960185034087,-0.2173273011465549,-0.09402138913470796,-0.09153932189247953,0.7150199514329562,0.6866782361379002,0.0,0.0,0.0,0.0,0.0,0.0,0.0,0.0,0.0,0.0,0.0,0.0,-0.007656039661743306,0.0007033084929086342,-0.00460304957775238,-0.03391822612580096,-0.05294552567205469,0.01045946351936632
515130000000,ground_plane,Floor,khm2,0.252724,-0.228037,0.0,0.0,0.0,0.0,1.0,-0.010923,0.300375,-0.916015,0.0,-0.13052616522012478,0.0,0.9914448649284179,-0.12845702520505417,-0.006343183130960311,-0.21732622881558591,-0.09399352032145075,-0.09153218289930819,0.715031757044786,0.6866707100559298,0.0,0.0,0.0,0.0,0.0,0.0,0.0,0.0,0.0,0.0,0.0,0.0,-0.004540338882487142,-0.0005292338385066599,-0.00020622162851408835,0.012065781065708691,0.0423870008625295,0.023302764336577228
515131000000,ground_plane,Floor,khm2,0.252724,-0.228037,0.0,0.0,0.0,0.0,1.0,-0.010923,0.300375,-0.916015,0.0,-0.13052616522012478,0.0,0.9914448649284179,-0.12846468102834085,-0.006342480051568926,-0.21733083221148777,-0.0940236122198645,-0.09153873278184127,0.7150344151194084,0.6866629492994862,0.0,0.0,0.0,0.0,0.0,0.0,0.0,0.0,0.0,0.0,0.0,0.0,-0.007656103724893425,0.0007026422573972098,-0.004603396426241775,-0.033911040264350864,-0.05294166183642252,0.010461273590030282
515132000000,ground_plane,Floor,khm2,0.252724,-0.228037,0.0,0.0,0.0,0.0,1.0,-0.010923,0.300375,-0.916015,0.0,-0.13052616522012478,0.0,0.9914448649284179,-0.12846887044517374,-0.006343702727479056,-0.2173297607585446,-0.09399574916849616,-0.0915315928125485,0.7150462184999681,0.6866554245502958,0.0,0.0,0.0,0.0,0.0,0.0,0.0,0.0,0.0,0.0,0.0,0.0,-0.00454080743961904,-0.0005295826040780557,-0.00020613976990512396,0.01206705334317987,0.04238737514538401,0.02330286211632277
515133000000,ground_plane,Floor,khm2,0.252724,-0.228037,0.0,0.0,0.0,0.0,1.0,-0.010923,0.300375,-0.916015,0.0,-0.13052616522012478,0.0,0.9914448649284179,-0.12847652633467296,-0.006343000310193054,-0.21733436450216403,-0.09402583725460126,-0.09153814337490958,0.7150488769004374,0.6866476635651425,0.0,0.0,0.0,0.0,0.0,0.0,0.0,0.0,0.0,0.0,0.0,0.0,-0.007656169502413934,0.0007019803994370899,-0.004603744254548568,-0.03390385271880379,-0.05293778111118651,0.010463090676203816
515134000000,ground_plane,Floor,khm2,0.252724,-0.228037,0.0,0.0,0.0,0.0,1.0,-0.010923,0.300375,-0.916015,0.0,-0.13052616522012478,0.0,0.9914448649284179,-0.12848071652017407,-0.006344222712744199,-0.21733329392857725,-0.0939979799672363,-0.09153100242975844,0.7150606780525445,0.6866401401457084,0.0,0.0,0.0,0.0,0.0,0.0,0.0,0.0,0.0,0.0,0.0,0.0,-0.004541277211053991,-0.0005299281989666035,-0.00020605872038140564,0.01206832635839106,0.042387749887256417,0.02330297055193927
515135000000,ground_plane,Floor,khm2,0.252724,-0.228037,0.0,0.0,0.0,0.0,1.0,-0.010923,0.300375,-0.916015,0.0,-0.13052616522012478,0.0,0.9914448649284179,-0.12848837247695968,-0.006343520954981104,-0.21733789802079878,-0.09402806424369983,-0.09153755366997897,0.7150633367801994,0.6866323789302873,0.0,0.0,0.0,0.0,0.0,0.0,0.0,0.0,0.0,0.0,0.0,0.0,-0.007656236353851902,0.000701321124185833,-0.004604092967316868,-0.03389667250164776,-0.05293390115130257,0.010464910983404366
515136000000,ground_plane,Floor,khm2,0.252724,-0.228037,0.0,0.0,0.0,0.0,1.0,-0.010923,0.300375,-0.916015,0.0,-0.13052616522012478,0.0,0.9914448649284179,-0.12849256343212384,-0.006344743087963196,-0.2173368283275192,-0.0940002127156659,-0.09153041174515879,0.7150751357306597,0.6866248568140756,0.0,0.0,0.0,0.0,0.0,0.0,0.0,0.0,0.0,0.0,0.0,0.0,-0.004541747764771293,-0.0005302720377868764,-0.00020597778036175957,0.012069598446586463,0.04238812411957845,0.023303085808396535
515137000000,ground_plane,Floor,khm2,0.252724,-0.228037,0.0,0.0,0.0,0.0,1.0,-0.010923,0.300375,-0.916015,0.0,-0.13052616522012478,0.0,0.9914448649284179,-0.1285002194574305,-0.006344041988065171,-0.21734143276782036,-0.09403029318988833,-0.09153696366298238,0.7150777947851648,0.6866170953676958,0.0,0.0,0.0,0.0,0.0,0.0,0.0,0.0,0.0,0.0,0.0,0.0,-0.007656304445279841,0.0007006635073074553,-0.004604441155097343,-0.03388950321967079,-0.05293003117534817,0.010466730371709558
515138000000,ground_plane,Floor,khm2,0.252724,-0.228037,0.0,0.0,0.0,0.0,1.0,-0.010923,0.300375,-0.916015,0.0,-0.13052616522012478,0.0,0.9914448649284179,-0.1285044111840715,-0.00634526386003062,-0.21734036395613388,-0.09400244741703583,-0.09152982075393482,0.7150895915774977,0.6866095745107897,0.0,0.0,0.0,0.0,0.0,0.0,0.0,0.0,0.0,0.0,0.0,0.0,-0.004542219578486047,-0.0005306146051550964,-0.00020589619783492434,0.012070873101450896,0.04238849047988256,0.02330320220552691
515139000000,ground_plane,Floor,khm2,0.252724,-0.228037,0.0,0.0,0.0,0.0,1.0,-0.010923,0.300375,-0.916015,0.0,-0.13052616522012478,0.0,0.9914448649284179,-0.12851206727958606,-0.006344563416691858,-0.21734496874334203,-0.09403252409620606,-0.09153637335289241,0.715092250956418,0.6866018128344694,0.0,0.0,0.0,0.0,0.0,0.0,0.0,0.0,0.0,0.0,0.0,0.0,-0.0076563742330489565,0.0007000071972503601,-0.004604788165682458,-0.033882338474764406,-0.0529261761225856,0.010468544225220842
515140000000,ground_plane,Floor,khm2,0.252724,-0.228037,0.0,0.0,0.0,0.0,1.0,-0.010923,0.300375,-0.916015,0.0,-0.13052616522012478,0.0,0.9914448649284179,-0.12851625977936462,-0.006345785026011648,-0.2173439008115741,-0.09400468408008313,-0.09152922946413736,0.7151040455873419,0.686594293239699,0.0,0.0,0.0,0.0,0.0,0.0,0.0,0.0,0.0,0.0,0.0,0.0,-0.004542693166247237,-0.0005309553454179008,-0.00020581313966097354,0.012072149341361017,0.0423888461388117,0.023303308562108153
515141000000,ground_plane,Floor,khm2,0.252724,-0.228037,0.0,0.0,0.0,0.0,1.0,-0.010923,0.300375,-0.916015,0.0,-0.13052616522012478,0.0,0.9914448649284179,-0.12852391594558543,-0.0063450852379476844,-0.2173485059458263,-0.09403475695723774,-0.09153578274546585,0.7151067052884249,0.6865865313365112,0.0,0.0,0.0,0.0,0.0,0.0,0.0,0.0,0.0,0.0,0.0,0.0,-0.007656444519328662,0.0006993521715515127,-0.004605135313348717,-0.03387516171927587,-0.0529223122897595,0.010470352105060195
515141000000,ground_plane,Floor,khm2,0.252724,-0.228037,0.0,0.0,0.0,0.0,1.0,-0.010923,0.300375,-0.916015,0.0,-0.13052616522012478,0.0,0.9914448649284179,-0.1285281092185875,-0.006346306599038771,-0.21734743889557262,-0.09400692270495135,-0.09152863786466554,0.7151184978294223,0.6865790129303218,0.0,0.0,0.0,0.0,0.0,0.0,0.0,0.0,0.0,0.0,0.0,0.0,-0.004543167066827175,-0.0005312944382283004,-0.0002057299824511547,0.012073425514986484,0.042389202822331544,0.023303404424102902
515143000000,ground_plane,Floor,khm2,0.252724,-0.228037,0.0,0.0,0.0,0.0,1.0,-0.010923,0.300375,-0.916015,0.0,-0.13052616522012478,0.0,0.9914448649284179,-0.1285357654559508,-0.006345607464382355,-0.217352044376403,-0.09403699178476356,-0.09153519183030885,0.7151211578479275,0.6865712508042414,0.0,0.0,0.0,0.0,0.0,0.0,0.0,0.0,0.0,0.0,0.0,0.0,-0.007656515258553956,0.0006986990151239867,-0.004605481987023543,-0.033867987363520154,-0.052918457422754875,0.010472147149983011
515144000000,ground_plane,Floor,khm2,0.252724,-0.228037,0.0,0.0,0.0,0.0,1.0,-0.010923,0.300375,-0.916015,0.0,-0.13052616522012478,0.0,0.9914448649284179,-0.1285399595023926,-0.006346828581699141,-0.2173509782067532,-0.09400916329854507,-0.0915280459523375,0.7151329483275456,0.6865637335574947,0.0,0.0,0.0,0.0,0.0,0.0,0.0,0.0,0.0,0.0,0.0,0.0,-0.004543641419353995,-0.0005316300751433872,-0.00020564551877858212,0.012074700787879103,0.042389556840694356,0.02330347655658465
515145000000,ground_plane,Floor,khm2,0.252724,-0.228037,0.0,0.0,0.0,0.0,1.0,-0.010923,0.300375,-0.916015,0.0,-0.13052616522012478,0.0,0.9914448649284179,-0.1285476158105102,-0.006346130097094762,-0.2173555840337045,-0.09403922857886247,-0.09153460060316375,0.715135608656551,0.6865559712158477,0.0,0.0,0.0,0.0,0.0,0.0,0.0,0.0,0.0,0.0,0.0,0.0,-0.0076565856177329234,0.0006980492150019921,-0.004605828199639903,-0.03386080650584132,-0.05291460016852047,0.01047392270023434
515146000000,ground_plane,Floor,khm2,0.252724,-0.228037,0.0,0.0,0.0,0.0,1.0,-0.010923,0.300375,-0.916015,0.0,-0.13052616522012478,0.0,0.9914448649284179,-0.12855181063013024,-0.006347350966037064,-0.21735451874465878,-0.09401140586111345,-0.09152745372741011,0.7151473970652052,0.6865484551384962,0.0,0.0,0.0,0.0,0.0,0.0,0.0,0.0,0.0,0.0,0.0,0.0,-0.004544115454828359,-0.0005319612610828632,-0.0002055605879449523,0.012075978506217883,0.04238991087552832,0.0233035228412102
515147000000,ground_plane,Floor,khm2,0.252724,-0.228037,0.0,0.0,0.0,0.0,1.0,-0.010923,0.300375,-0.916015,0.0,-0.13052616522012478,0.0,0.9914448649284179,-0.1285594670078948,-0.006346653127287737,-0.21735912491801945,-0.09404146733957681,-0.09153400906378469,0.7151500576970324,0.6865406925894936,0.0,0.0,0.0,0.0,0.0,0.0,0.0,0.0,0.0,0.0,0.0,0.0,-0.007656654869643055,0.0006974036119987409,-0.004606174700652254,-0.03385361923822907,-0.05291073960937753,0.010475676478004105
515148000000,ground_plane,Floor,khm2,0.252724,-0.228037,0.0,0.0,0.0,0.0,1.0,-0.010923,0.300375,-0.916015,0.0,-0.13052616522012478,0.0,0.9914448649284179,-0.128563662599566,-0.00634787374353658,-0.21735806050978626,-0.09401365038924954,-0.09152686118844956,0.7151618440282527,0.6865331776888772,0.0,0.0,0.0,0.0,0.0,0.0,0.0,0.0,0.0,0.0,0.0,0.0,-0.004544588400271274,-0.000532288070119635,-0.0002054757534563278,0.012077257059463884,0.04239026908591338,0.023303549312848722
515149000000,ground_plane,Floor,khm2,0.252724,-0.228037,0.0,0.0,0.0,0.0,1.0,-0.010923,0.300375,-0.916015,0.0,-0.13052616522012478,0.0,0.9914448649284179,-0.12857131904571045,-0.006347176546376775,-0.21736266702965973,-0.09404370806795727,-0.09153341720934696,0.7151645049562333,0.6865254149392535,0.0,0.0,0.0,0.0,0.0,0.0,0.0,0.0,0.0,0.0,0.0,0.0,-0.0076567228546599005,0.0006967622745851392,-0.004606521304995193,-0.03384643413608098,-0.05290688028853876,0.010477410901519732
515150000000,ground_plane,Floor,khm2,0.252724,-0.228037,0.0,0.0,0.0,0.0,1.0,-0.010923,0.300375,-0.916015,0.0,-0.13052616522012478,0.0,0.9914448649284179,-0.1285732919447076,-0.00634798086015283,-0.217356124019171,-0.0940270463212432,-0.09153489595879769,0.7151730454219346,0.6865186031593247,0.0,0.0,0.0,0.0,0.0,0.0,0.0,0.0,0.0,0.0,0.0,0.0,-0.0025050136636168424,-0.00014300003399938795,0.004937629796395698,0.009475453585507655,0.016551629596933695,0.017934787127905603
515151000000,ground_plane,Floor,khm2,0.252724,-0.228037,0.0,0.0,0.0,0.0,1.0,-0.010923,0.300375,-0.916015,0.0,-0.13052616522012478,0.0,0.9914448649284179,-0.12857557334367944,-0.006348169360487293,-0.21736076358278614,-0.09402548920199973,-0.09154190752252983,0.7151784048454191,0.686512298353222,0.0,0.0,0.0,0.0,0.0,0.0,0.0,0.0,0.0,0.0,0.0,0.0,-0.002281398971852329,-0.00018850033446330024,-0.004639563615113703,0.010000152298539813,-0.007546276477143304,0.01798035736356946
515152000000,ground_plane,Floor,khm2,0.252724,-0.228037,0.0,0.0,0.0,0.0,1.0,-0.010923,0.300375,-0.916015,0.0,-0.13052616522012478,0.0,0.9914448649284179,-0.12856402608388218,-0.0063448901194968965,-0.21733789605822515,-0.09404758696029533,-0.09154483624057964,0.7151705585736254,0.6865170547729458,0.0,0.0,0.0,0.0,0.0,0.0,0.0,0.0,0.0,0.0,0.0,0.0,0.011548220880058097,0.0032792655536772347,0.022866216746891228,-0.023830447310331553,-0.03627970946218949,-0.0210504063331433
515153000000,ground_plane,Floor,khm2,0.252724,-0.228037,0.0,0.0,0.0,0.0,1.0,-0.010923,0.300375,-0.916015,0.0,-0.13052616522012478,0.0,0.9914448649284179,-0.12855206350844037,-0.006341602836844855,-0.21732481744981072,-0.09408114045299401,-0.09155910906720109,0.7151612895016606,0.6865202098672745,0.0,0.0,0.0,0.0,0.0,0.0,0.0,0.0,0.0,0.0,0.0,0.0,0.011962575441800023,0.003287282652041383,0.013078608414437889,-0.023364549845031887,-0.06875582058672804,-0.02069826131628465
515154000000,ground_plane,Floor,khm2,0.252724,-0.228037,0.0,0.0,0.0,0.0,1.0,-0.010923,0.300375,-0.916015,0.0,-0.13052616522012478,0.0,0.9914448649284179,-0.12853216175902202,-0.006343927371456677,-0.21730355452823572,-0.09409476841577163,-0.09162313103583157,0.7151295574249502,0.6865428555546754,0.0,0.0,0.0,0.0,0.0,0.0,0.0,0.0,0.0,0.0,0.0,0.0,0.019900274766240397,-0.0023239692638618724,0.021261136888415032,0.08292066187354362,-0.10918978988000974,-0.06639611663342106
515155000000,ground_plane,Floor,khm2,0.252724,-0.228037,0.0,0.0,0.0,0.0,1.0,-0.010923,0.300375,-0.916015,0.0,-0.13052616522012478,0.0,0.9914448649284179,-0.1285065735723594,-0.006342915266756728,-0.21727373119696133,-0.09415340526905859,-0.09162011604363822,0.7151179935945368,0.6865472641047482,0.0,0.0,0.0,0.0,0.0,0.0,0.0,0.0,0.0,0.0,0.0,0.0,0.02469203825244794,0.0005548538481948051,0.02762413974962928,-0.06356651432597395,-0.07467540782101456,-0.04143719596877608
515156000000,ground_plane,Floor,khm2,0.252724,-0.228037,0.0,0.0,0.0,0.0,1.0,-0.010923,0.300375,-0.916015,0.0,-0.13052616522012478,0.0,0.9914448649284179,-0.1284756151228582,-0.006345007019057854,-0.21724319475371656,-0.09418904867512207,-0.09167044970497366,0.7150834830343686,0.6865716015478642,0.0,0.0,0.0,0.0,0.0,0.0,0.0,0.0,0.0,0.0,0.0,0.0,0.03095766572700031,-0.0020920638614280074,0.030535445685045463,0.033935859682557,-0.12211422250985576,-0.07923669518743384
515157000000,ground_plane,Floor,khm2,0.252724,-0.228037,0.0,0.0,0.0,0.0,1.0,-0.010923,0.300375,-0.916015,0.0,-0.13052616522012478,0.0,0.9914448649284179,-0.12843990822061196,-0.006344182063944073,-0.21721132152454542,-0.09426402673442515,-0.09170577722317826,0.7150625198895311,0.6865784269382038,0.0,0.0,0.0,0.0,0.0,0.0,0.0,0.0,0.0,0.0,0.0,0.0,0.035706773360814376,0.0008248492767714988,0.03187300455939362,-0.047301370521923035,-0.158436400110449,-0.045639452742350956
515160000000,ground_plane,Floor,khm2,0.252724,-0.228037,0.0,0.0,0.0,0.0,1.0,-0.010923,0.300375,-0.916015,0.0,-0.13052616522012478,0.0,0.9914448649284179,-0.12840105879022257,-0.006345967767993734,-0.21717673314315597,-0.09428055597228006,-0.09174674414303242,0.7150398319369352,0.6865943128575347,0.0,0.0,0.0,0.0,0.0,0.0,0.0,0.0,0.0,0.0,0.0,0.0,0.038690042769741265,-0.0015996913943410285,0.03378281472352691,0.03733096112686234,-0.08801936495391238,-0.04931348165290351
515160000000,ground_plane,Floor,khm2,0.252724,-0.228037,0.0,0.0,0.0,0.0,1.0,-0.010923,0.300375,-0.916015,0.0,-0.13052616522012478,0.0,0.9914448649284179,-0.12836219737480128,-0.006347699285747648,-0.21715264180957758,-0.09430361323344982,-0.09178945056773542,0.7150162439495168,0.6866100029739695,0.0,0.0,0.0,0.0,0.0,0.0,0.0,0.0,0.0,0.0,0.0,0.0,0.038861415421290776,-0.0017315177539138514,0.024091333578395734,0.036698408658540564,-0.0931864400376901,-0.05100695889736924
515160000000,ground_plane,Floor,khm2,0.252724,-0.228037,0.0,0.0,0.0,0.0,1.0,-0.010923,0.300375,-0.916015,0.0,-0.13052616522012478,0.0,0.9914448649284179,-0.12831729207250311,-0.006346306599587098,-0.21711939915957865,-0.09434500472895159,-0.09179280993615911,0.714997041772721,0.6866238638315568,0.0,0.0,0.0,0.0,0.0,0.0,0.0,0.0,0.0,0.0,0.0,0.0,0.04503599823755464,0.0008162811042962016,0.0330130595979681,-0.03757964515824759,-0.07164112617593421,-0.05543197493725894
515161000000,ground_plane,Floor,khm2,0.252724,-0.228037,0.0,0.0,0.0,0.0,1.0,-0.010923,0.300375,-0.916015,0.0,-0.13052616522012478,0.0,0.9914448649284179,-0.1282719571343283,-0.0063453638610730095,-0.21709591584152593,-0.09438825751705118,-0.0918045045933771,0.7149767729946325,0.6866374617346778,0.0,0.0,0.0,0.0,0.0,0.0,0.0,0.0,0.0,0.0,0.0,0.0,0.045334938174826575,0.0009427385140884462,0.023483318052723776,-0.036386657731433486,-0.0792390290886176,-0.05301289946665258
515162000000,ground_plane,Floor,khm2,0.252724,-0.228037,0.0,0.0,0.0,0.0,1.0,-0.010923,0.300375,-0.916015,0.0,-0.13052616522012478,0.0,0.9914448649284179,-0.1282233268233503,-0.006347199768484084,-0.21707036741014146,-0.09438124894368469,-0.09182525091735048,0.7149518242616981,0.6866616285527144,0.0,0.0,0.0,0.0,0.0,0.0,0.0,0.0,0.0,0.0,0.0,0.0,0.0485486698901074,-0.0017422245444448149,0.025142863946615846,0.04555615340935629,-0.0221060002718777,-0.06366698840933689
515163000000,ground_plane,Floor,khm2,0.252724,-0.228037,0.0,0.0,0.0,0.0,1.0,-0.010923,0.300375,-0.916015,0.0,-0.13052616522012478,0.0,0.9914448649284179,-0.12816883291405334,-0.006345370138719206,-0.21704171936151256,-0.09442686429153871,-0.09183179334241151,0.7149435326436637,0.6866631154813712,0.0,0.0,0.0,0.0,0.0,0.0,0.0,0.0,0.0,0.0,0.0,0.0,0.054493413148874605,0.001828982437589724,0.028647028007063837,-0.05148537243446481,-0.07549641835005212,-0.0206579308028976
515164000000,ground_plane,Floor,khm2,0.252724,-0.228037,0.0,0.0,0.0,0.0,1.0,-0.010923,0.300375,-0.916015,0.0,-0.13052616522012478,0.0,0.9914448649284179,-0.12811153664697106,-0.006345209634095544,-0.2170131973209302,-0.0944309950817902,-0.09184958535378947,0.7149306181456682,0.6866736139360917,0.0,0.0,0.0,0.0,0.0,0.0,0.0,0.0,0.0,0.0,0.0,0.0,0.05729591301744082,0.0001603525723558702,0.028521633331848754,0.024114383637420717,-0.030843591590247427,-0.030140914610945153
515165000000,ground_plane,Floor,khm2,0.252724,-0.228037,0.0,0.0,0.0,0.0,1.0,-0.010923,0.300375,-0.916015,0.0,-0.13052616522012478,0.0,0.9914448649284179,-0.12805087762767467,-0.006342515094899618,-0.21698602415457552,-0.09445986206601732,-0.09185406797534695,0.7149260591318193,0.6866737905505756,0.0,0.0,0.0,0.0,0.0,0.0,0.0,0.0,0.0,0.0,0.0,0.0,0.060658952084149995,0.002694418600773033,0.02717301699369499,-0.03236438134980035,-0.04825987350331467,-0.01097002483144438
515165000000,ground_plane,Floor,khm2,0.252724,-0.228037,0.0,0.0,0.0,0.0,1.0,-0.010923,0.300375,-0.916015,0.0,-0.13052616522012478,0.0,0.9914448649284179,-0.1279869115358624,-0.006342661005659081,-0.21695902910654888,-0.09446158589783672,-0.09186956951118612,0.7149173063850915,0.6866805924289546,0.0,0.0,0.0,0.0,0.0,0.0,0.0,0.0,0.0,0.0,0.0,0.0,0.06396646567503939,-0.00014568210124049562,0.026994881713415377,0.022692968926475137,-0.024175603621922375,-0.01914114003389492
515167000000,ground_plane,Floor,khm2,0.252724,-0.228037,0.0,0.0,0.0,0.0,1.0,-0.010923,0.300375,-0.916015,0.0,-0.13052616522012478,0.0,0.9914448649284179,-0.12791875772930353,-0.006338468931897623,-0.2169301313969097,-0.09448717923555781,-0.09186423074854355,0.7149174758119873,0.6866776091061239,0.0,0.0,0.0,0.0,0.0,0.0,0.0,0.0,0.0,0.0,0.0,0.0,0.0681535780366327,0.004191787959664604,0.028897251676340725,-0.04337676889478781,-0.029775396893425118,-0.00121393555185886
515168000000,ground_plane,Floor,khm2,0.252724,-0.228037,0.0,0.0,0.0,0.0,1.0,-0.010923,0.300375,-0.916015,0.0,-0.13052616522012478,0.0,0.9914448649284179,-0.12784746527099133,-0.00633583824902394,-0.21690344287282223,-0.09449565785017042,-0.09187894896237123,0.714908720760234,0.6866835882457065,0.0,0.0,0.0,0.0,0.0,0.0,0.0,0.0,0.0,0.0,0.0,0.0,0.07129232804715935,0.0026307916044481195,0.0266882894355091,0.012138190045334835,-0.03289090109910735,-0.019348702629544537
515169000000,ground_plane,Floor,khm2,0.252724,-0.228037,0.0,0.0,0.0,0.0,1.0,-0.010923,0.300375,-0.916015,0.0,-0.13052616522012478,0.0,0.9914448649284179,-0.12777422605779315,-0.006330518978149903,-0.21687705751063982,-0.09450808294478866,-0.0918500372219068,0.7149052718262512,0.6866893367713449,0.0,0.0,0.0,0.0,0.0,0.0,0.0,0.0,0.0,0.0,0.0,0.0,0.0732384646060026,0.005319880828293533,0.02638877148154795,-0.05672919632212708,0.022444172553557615,-0.020729378560061386
