%time,field.header.seq,field.header.stamp,field.header.frame_id,field.wrench.force.x,field.wrench.force.y,field.wrench.force.z,field.wrench.torque.x,field.wrench.torque.y,field.wrench.torque.z
515054000000,0,515046000000,FL_wheel_link,-1.519404209566006,-7.630969802814787,1.3440447896597794,-0.6469825748260628,0.1278973208896076,0.08115042600232919
515054000000,1,515047000000,FL_wheel_link,0.1942657289246098,0.23504166212338456,0.2329359510175369,0.006408735354114142,-0.005753810990293464,-0.009186478970434295
515054000000,2,515048000000,FL_wheel_link,-1.225327592543906,-8.641045039837389,2.357580874576957,-0.6825621506802082,0.09947350058333448,0.06464736653414041
515054000000,3,515049000000,FL_wheel_link,0.19443817675772943,0.17434326712523102,0.2500904937399593,0.004642584693044205,-0.005480913511423972,-0.009278253744283475
515054000000,4,515050000000,FL_wheel_link,-1.5158859151115285,-7.648583324211533,1.3577101605472486,-0.6478901007197433,0.1275673135214948,0.08095556714692156
515054000000,5,515051000000,FL_wheel_link,0.19419204131152754,0.2315159256342604,0.23096477810297508,0.006354230222875708,-0.005740466931014477,-0.009181146026206292
515054000000,6,515052000000,FL_wheel_link,-1.2348692514047253,-8.612409622701334,2.316298835046611,-0.6823926637890076,0.10043633099353716,0.06519203900542592
515054000000,7,515053000000,FL_wheel_link,0.19424717077284165,0.1754638095169825,0.2476424577265715,0.00465410208186745,-0.005489403466185655,-0.00926311044123803
515054000000,8,515054000000,FL_wheel_link,-1.5076073945822068,-7.691795630930605,1.3903257178476793,-0.650155850461608,0.12679433078403723,0.0804946549068273
515055000000,9,515055000000,FL_wheel_link,0.19400257047807243,0.22403419772889716,0.22702942826372544,0.006225706364321375,-0.0057136949660375625,-0.009168384587672555
515056000000,10,515056000000,FL_wheel_link,-1.26267796144898,-8.546928155607581,2.2254315140770946,-0.6817782427328656,0.10319237779621437,0.0667611436606445
515057000000,11,515057000000,FL_wheel_link,0.19390540242182552,0.17786537990127105,0.24251647455459993,0.004683715684260372,-0.005518558546978151,-0.009234773427630677
515058000000,12,515058000000,FL_wheel_link,-1.4890218543651725,-7.785024703908544,1.4613485751458448,-0.6549833458191019,0.12504138608755083,0.07945301815740291
515059000000,13,515059000000,FL_wheel_link,0.19362388589390797,0.20836659196298918,0.21892509037568203,0.0059550443374008066,-0.005663447789462736,-0.009142990691407471
515060000000,14,515060000000,FL_wheel_link,-1.328671239675586,-8.404032502802787,2.0313430909448535,-0.680159826979091,0.10969772870399863,0.07047062946303759
515061000000,15,515061000000,FL_wheel_link,0.19331794087696325,0.18293157873844695,0.23191192569621327,0.004752393431891992,-0.005594933855132638,-0.00918260816477236
515062000000,16,515062000000,FL_wheel_link,-1.4481108465492207,-7.981534636390496,1.6141797470588566,-0.6649648387598575,0.12114370936662394,0.0771441062422416
515063000000,17,515063000000,FL_wheel_link,0.1931026752615145,0.1953762135849408,0.2166842674599922,0.005384534671793312,-0.005662970894324382,-0.009123140284822888
515064000000,18,515064000000,FL_wheel_link,-1.370053150646052,-8.306067662981453,1.8956351103821136,-0.6793372892200915,0.1137134466003702,0.07277157872043438
515065000000,19,515065000000,FL_wheel_link,0.1931988161378969,0.18623840226442945,0.22411749279998025,0.004750766575473427,-0.005687027731076863,-0.00916019926526557
515066000000,20,515066000000,FL_wheel_link,-1.4122767406831427,-8.14311109502775,1.7408139255265578,-0.673117499464291,0.11767346727252714,0.0751065162581997
515066000000,21,515067000000,FL_wheel_link,0.19320601289792477,0.190445795397698,0.21868890593572524,0.004948430761162458,-0.005722024206797668,-0.009143491838530244
515068000000,22,515068000000,FL_wheel_link,-1.3780105732685852,-8.27587365374318,1.850457775909087,-0.6793385959060269,0.11441316839343202,0.0731860804117419
515069000000,23,515069000000,FL_wheel_link,0.1934164251912094,0.18716155320629557,0.22139850848180018,0.004716221318019119,-0.005747433409690132,-0.009168498062762619
515071000000,24,515070000000,FL_wheel_link,-1.3948651868852457,-8.209016559931081,1.7891015248578621,-0.6766414188444387,0.11597763279636841,0.0741143650923354
515071000000,25,515071000000,FL_wheel_link,0.19347052019275776,0.1888515047055852,0.2193162948596455,0.004790843678990733,-0.005763600684507186,-0.00916658599318915
515072000000,26,515072000000,FL_wheel_link,-1.3814932189696476,-8.260815956106843,1.828790267651755,-0.679255063285138,0.1147157269630528,0.07336675899779768
515073000000,27,515073000000,FL_wheel_link,0.19351953762213858,0.18763891244707953,0.22019675401761013,0.004703795392452404,-0.005772430810536854,-0.009175401820090561
515074000000,28,515074000000,FL_wheel_link,-1.388855536204948,-8.231739452755464,1.803478228140855,-0.678000327101871,0.11539928072766234,0.0737733857464413
515075000000,29,515075000000,FL_wheel_link,0.19351330795958738,0.188310835223569,0.219347504104683,0.004729988639338421,-0.005774671706616914,-0.009173656185402198
515076000000,30,515076000000,FL_wheel_link,-1.3840719076243944,-8.252054330804054,1.8183716341045928,-0.679072799221977,0.11495364394041474,0.07350769607789007
515077000000,31,515077000000,FL_wheel_link,0.19352335568331192,0.18784940474206413,0.21965715896938537,0.004695138633814712,-0.005776057609225777,-0.009177141266700457
515078000000,32,515078000000,FL_wheel_link,-1.3876284102309726,-8.239509507671418,1.8069475728369124,-0.6785657611123667,0.11528761764421563,0.07370579862202517
515079000000,33,515079000000,FL_wheel_link,0.19350304655109013,0.18813713025230877,0.21925927215691993,0.004705923951308851,-0.00577466946836888,-0.00917584356196183
515080000000,34,515080000000,FL_wheel_link,-1.3861561206715,-8.24713831796748,1.8121833763489026,-0.678995576630107,0.11515265421067533,0.07362531262168454
515081000000,35,515081000000,FL_wheel_link,0.19349092723692898,0.18795200756879493,0.2193432412525898,0.004691342212404534,-0.005772990811143335,-0.00917667506351103
515082000000,36,515082000000,FL_wheel_link,-1.387960589089611,-8.241853388976894,1.8070775181979948,-0.6788052878592955,0.11532358031507328,0.07372701008198979
515083000000,37,515083000000,FL_wheel_link,0.19347233126264393,0.18806337603952028,0.21915142091548911,0.004695109678599789,-0.0057707002071241634,-0.00917591024176164
515084000000,38,515084000000,FL_wheel_link,-1.3876521734421572,-8.244751797329569,1.8088269356699156,-0.6789888264371373,0.11529628108663414,0.07371140062035822
515085000000,39,515085000000,FL_wheel_link,0.19345895634841861,0.1879772428915062,0.2191650619401637,0.004688154969409406,-0.005768372425527954,-0.009176094937033568
515086000000,40,515086000000,FL_wheel_link,-1.3885622254137404,-8.242784763176573,1.806675491745839,-0.6789394231349466,0.11538257680135094,0.0737635187666601
515087000000,41,515087000000,FL_wheel_link,0.19344869076598664,0.188006819142095,0.21907669269399038,0.004688613775052375,-0.005766249651708034,-0.009176014889459069
515088000000,42,515088000000,FL_wheel_link,-1.3886103812397241,-8.24397214933687,1.8071994713294837,-0.6790317078128403,0.11538748315374009,0.07376767026210862
515089000000,43,515089000000,FL_wheel_link,0.1934400370884782,0.18795546632034646,0.2190728932879277,0.0046845912703105345,-0.0057640826891084285,-0.009176285244959425
515090000000,44,515090000000,FL_wheel_link,-1.3890580476187795,-8.243477738815477,1.8064008514032441,-0.6790422393663982,0.1154295780549151,0.07379402805357316
515091000000,45,515091000000,FL_wheel_link,0.1934348465903456,0.1879440975755931,0.21903752541987057,0.004683151467022849,-0.005762141991100527,-0.00917659881492027
515092000000,46,515092000000,FL_wheel_link,-1.3891451486934079,-8.244226245742176,1.8066622144468294,-0.6791082743004736,0.11543751068393626,0.07380029147471331
515093000000,47,515093000000,FL_wheel_link,0.19343243061390358,0.18790187643994374,0.2190376753242327,0.0046800142733447285,-0.005760342507700567,-0.009177181495364815
515094000000,48,515094000000,FL_wheel_link,-1.3893554950542248,-8.244372521889069,1.8064545915135442,-0.6791446853194261,0.11545680664273639,0.07381338672147916
515095000000,49,515095000000,FL_wheel_link,0.1934324343343012,0.18787417235687626,0.2190281820532476,0.00467782796550041,-0.005758717403346708,-0.009177857482680116
515096000000,50,515096000000,FL_wheel_link,-1.3894134542508114,-8.244998569393207,1.806659256412127,-0.6792023092850376,0.1154616683188307,0.07381799203164993
515097000000,51,515097000000,FL_wheel_link,0.1934341438765806,0.1878345980831951,0.21903325432939433,0.0046749921441576366,-0.005757200527965982,-0.009178680313235817
515098000000,52,515098000000,FL_wheel_link,-1.3895051267056133,-8.245409834861674,1.8066996428882804,-0.6792491846721598,0.11546963336873894,0.07382447098089265
515099000000,53,515099000000,FL_wheel_link,0.19343726268552416,0.18780052725395507,0.21903525823227343,0.004672534280454572,-0.005755783501118095,-0.009179574192439116
515103000000,54,515100000000,FL_wheel_link,-1.3895375839596142,-8.245986326892353,1.806882130123056,-0.6793033356091612,0.11547203056355293,0.07382766543312386
515103000000,55,515101000000,FL_wheel_link,0.1934411011685661,0.18776233350449986,0.21904245534946093,0.004669855846866036,-0.005754417205298596,-0.009180531499660836
515103000000,56,515102000000,FL_wheel_link,-1.3895788807057445,-8.246482321171456,1.8070036346737257,-0.6793534325556301,0.1154752783571733,0.0738313665994961
515103000000,57,515103000000,FL_wheel_link,0.1934455096147701,0.18772603349696174,0.21904860996018313,0.004667300949217132,-0.005753100058686431,-0.009181519079295737
515103000000,58,515104000000,FL_wheel_link,-1.3895935067992333,-8.24704425237758,1.807183118152237,-0.6794063792941488,0.11547603780657334,0.07383359588298732
515105000000,59,515105000000,FL_wheel_link,0.19345044647295961,0.18768821231806626,0.21905687159785953,0.004664663269558335,-0.005751826521105983,-0.009182545271808748
515106000000,60,515106000000,FL_wheel_link,-1.3896084112699598,-8.247575368224918,1.8073396010631348,-0.6794577486229573,0.1154768325895642,0.07383584954146455
515107000000,61,515107000000,FL_wheel_link,0.19345586534737483,0.18765134573960918,0.21906472015982287,0.004662091364129425,-0.005750595416678637,-0.009183598857307426
515108000000,62,515108000000,FL_wheel_link,-1.3896124316866691,-8.248124845339891,1.8075123963455468,-0.679509883564134,0.11547661415054561,0.07383750542247972
515109000000,63,515109000000,FL_wheel_link,0.19346182768054632,0.18761454270822348,0.21907302043647128,0.004659547859565074,-0.0057494115025266655,-0.009184690694244558
515110000000,64,515110000000,FL_wheel_link,-1.389620242231171,-8.248640620438065,1.8076575506740014,-0.6795603969763028,0.11547675735997412,0.07383937905815993
515111000000,65,515111000000,FL_wheel_link,0.1934675360615707,0.18757796646711733,0.21908052250028068,0.004657018644313931,-0.005748217327060953,-0.00918576681582469
515112000000,66,515112000000,FL_wheel_link,-1.3896204350214298,-8.249177724735443,1.807822283654619,-0.6796118256178316,0.11547622375596134,0.07384084225563928
515113000000,67,515113000000,FL_wheel_link,0.19347328129500035,0.1875406615685254,0.21908853800472416,0.004654443051074,-0.005747027446643549,-0.009186844837022748
515114000000,68,515114000000,FL_wheel_link,-1.3896197663547167,-8.249710592816403,1.8079841063556734,-0.6796630476162764,0.11547562203487105,0.07384226371762614
515115000000,69,515115000000,FL_wheel_link,0.19347924549259768,0.18750355967374524,0.21909647632637602,0.004651878559724704,-0.005745855373690106,-0.009187933569495366
515116000000,70,515116000000,FL_wheel_link,-1.389615636069697,-8.250248732845023,1.8081499926245495,-0.6797145291942691,0.11547469552898676,0.07384349516832714
515117000000,71,515117000000,FL_wheel_link,0.19348534883347898,0.18746637542764433,0.21910454007314537,0.004649309700555944,-0.005744695956661824,-0.009189030108704484
515118000000,72,515118000000,FL_wheel_link,-1.3896109005231572,-8.250782785478998,1.8083124291161952,-0.6797658236788504,0.1154737155353465,0.07384469581282127
515119000000,73,515119000000,FL_wheel_link,0.19349152575070683,0.18742928024262812,0.21911249231412014,0.004646746797710696,-0.005743544260097561,-0.009190129948436827
515120000000,74,515120000000,FL_wheel_link,-1.3896045052285233,-8.251318539721193,1.8084762661573965,-0.6798171984293611,0.11547258507396577,0.07384580705019131
515121000000,75,515121000000,FL_wheel_link,0.19349775961618698,0.18739213355456252,0.21912046847121747,0.004644181297956089,-0.005742398323757308,-0.009191232549452848
515122000000,76,515122000000,FL_wheel_link,-1.38959752368585,-8.251852916701283,1.808638922117635,-0.6798685131996658,0.11547140403824588,0.07384688803569364
515123000000,77,515123000000,FL_wheel_link,0.1935040458147124,0.18735502238384014,0.2191283985226552,0.004641618420893506,-0.005741257482515133,-0.009192337442913921
515124000000,78,515124000000,FL_wheel_link,-1.389579867523167,-8.252372109073065,1.8088165867260455,-0.6799173393715672,0.11546898560218327,0.0738473233440172
515125000000,79,515125000000,FL_wheel_link,0.19351020809223995,0.18731763403618418,0.2191377891320425,0.004638987032868016,-0.005740046105880341,-0.009193429072395327
515126000000,80,515126000000,FL_wheel_link,-1.3895555470207586,-8.252894091158854,1.80900978730544,-0.6799654507611583,0.11546586165456135,0.07384737196514268
515127000000,81,515127000000,FL_wheel_link,0.19351618050121497,0.1872797668724871,0.21914884789553435,0.004636271261359878,-0.005738753983043516,-0.00919450449135599
515128000000,82,515128000000,FL_wheel_link,-1.3895371463130677,-8.253417540942548,1.8091944245501088,-0.6800142721322902,0.11546341791695611,0.07384778100000453
515129000000,83,515129000000,FL_wheel_link,0.19352211379365652,0.18724201156966802,0.21916006892881457,0.004633546153836744,-0.0057374449334634025,-0.009195575429098081
515130000000,84,515130000000,FL_wheel_link,-1.3895222376652239,-8.253934732415306,1.8093710081399181,-0.680062983437104,0.11546133684698578,0.07384839425381198
515131000000,85,515131000000,FL_wheel_link,0.19352791047761178,0.18720427854219196,0.21917106596645183,0.004630818794011245,-0.0057361224935786334,-0.009196635327901279
515132000000,86,515132000000,FL_wheel_link,-1.3895084393906543,-8.25445205682258,1.8095470642039235,-0.6801117533301632,0.11545937910902596,0.0738490751449653
515133000000,87,515133000000,FL_wheel_link,0.1935336270171908,0.18716645121026254,0.21918196852044444,0.0046280845725329665,-0.005734791575268527,-0.009197687646477312
515134000000,88,515134000000,FL_wheel_link,-1.3894956573020196,-8.254968414770659,1.8097219295386238,-0.6801605123039138,0.11545752646028201,0.07384981587034237
515135000000,89,515135000000,FL_wheel_link,0.19353933538347592,0.1871286454498158,0.21919277889691277,0.0046253512063325905,-0.005733458329903301,-0.009198737107905199
515136000000,90,515136000000,FL_wheel_link,-1.3894834140442889,-8.255484190707335,1.809895855388013,-0.6802092741273078,0.11545572790642353,0.07385058818875612
515137000000,91,515137000000,FL_wheel_link,0.1935451021849366,0.18709090288336847,0.21920354742289763,0.004622621758785598,-0.005732130646573422,-0.009199788571642765
515138000000,92,515138000000,FL_wheel_link,-1.3894712820202466,-8.255998860886738,1.8100686483310116,-0.6802579926783362,0.1154539355178934,0.07385136609867302
515139000000,93,515139000000,FL_wheel_link,0.19355096656869752,0.18705322303478425,0.21921430530369024,0.004619896778809885,-0.005730813701610258,-0.009200844732315432
515140000000,94,515140000000,FL_wheel_link,-1.3894584199853228,-8.256514070311985,1.8102419085607149,-0.6803067269561299,0.11545206545370557,0.07385210101323747
515141000000,95,515141000000,FL_wheel_link,0.19355681896001248,0.18701543613939248,0.21922507849519754,0.004617166627230266,-0.005729495478860738,-0.009201898884613697
515141000000,96,515142000000,FL_wheel_link,-1.389445172319991,-8.257030878677277,1.8104163912364055,-0.6803555455674846,0.11545016236008138,0.073852815285537
515143000000,97,515143000000,FL_wheel_link,0.19356285388462569,0.1869777006295762,0.21923598231410985,0.004614436844177251,-0.005728195507562094,-0.009202962673007358
515144000000,98,515144000000,FL_wheel_link,-1.3894301703637124,-8.25755035792946,1.8105930071310552,-0.6804044803634036,0.11544807861705997,0.07385342741610904
515145000000,99,515145000000,FL_wheel_link,0.19356901070152224,0.1869398926368203,0.21924702686905057,0.004611703341922688,-0.005726906543378629,-0.009204032267281724
515146000000,100,515146000000,FL_wheel_link,-1.389414006856312,-8.258071700018359,1.8107709994308887,-0.6804535048496574,0.11544587935724993,0.07385397250616052
515147000000,101,515147000000,FL_wheel_link,0.19357520907445158,0.18690200370980545,0.21925814965817345,0.0046089657955153285,-0.005725618527206727,-0.009205102662939557
515148000000,102,515148000000,FL_wheel_link,-1.3893975642486307,-8.258594141296008,1.8109493077845114,-0.6805026156065075,0.11544365959853459,0.07385450288796144
515149000000,103,515149000000,FL_wheel_link,0.19358143438391734,0.18686409729174358,0.2192693061757684,0.004606226850526541,-0.005724329990089754,-0.009206173226997343
515150000000,104,515150000000,FL_wheel_link,-1.1692279777283359,-14.484294816241537,4.434022822246945,-1.1994906000711751,0.09030022364486379,0.060515632290627286
515151000000,105,515151000000,FL_wheel_link,-0.05711716553274926,-0.5141351639706191,0.05945395364590017,-0.1060229380370785,0.006920026269446933,0.0038468942084501564
515152000000,106,515152000000,FL_wheel_link,2.3084606532652696,-44.40586049969866,19.941424975266777,-3.2101475160762036,-0.24210856930410896,-0.13467293377527556
515153000000,107,515153000000,FL_wheel_link,0.013699339621126405,-0.7827645446332154,-0.1775958863292906,-0.14015175766074656,0.0004641143116033003,-0.00036206391354905165
515154000000,108,515154000000,FL_wheel_link,-0.8984932091790903,0.23136782910100728,0.48695469453701423,-0.023206677196762913,0.008403144362732443,0.0474578328851368
515155000000,109,515155000000,FL_wheel_link,4.0599526450774075,-31.65345478233223,13.707091543354448,-2.2894212574128976,-0.26588100285850447,-0.2002226745904756
515156000000,110,515156000000,FL_wheel_link,-0.6757153739638074,-1.0487467834733795,-0.09045908724325835,-0.10123793945445762,-0.02023226648447199,0.026767816411564442
515157000000,111,515157000000,FL_wheel_link,5.23954772848424,-25.209174488159974,6.76044176856984,-2.074899583545174,-0.40737236975395663,-0.2735291490435012
515160000000,112,515158000000,FL_wheel_link,-0.36088689891093684,-0.6090244415774301,-0.8153153324073228,-0.0832700040756981,-0.009730602249963846,0.016821216899211223
515160000000,113,515159000000,FL_wheel_link,-0.011056199698039872,0.07193985457843774,0.06331960900307633,0.0013099596188475445,0.0009246985121440771,0.0008904764192310204
515160000000,114,515160000000,FL_wheel_link,3.2217382607535887,-27.418307913155743,12.82313332237008,-1.9205781143714784,-0.26390881250315346,-0.17050387854581356
515161000000,115,515161000000,FL_wheel_link,0.23065448887688755,-0.8217135013819947,-0.22298364133431303,-0.0795585784759313,-0.018397901989261903,-0.01100629269904406
515162000000,116,515162000000,FL_wheel_link,-0.6811692416498508,0.11120690656762466,-0.5009010487870548,-0.016439469724684953,0.015390466796856671,0.032149100000487964
515163000000,117,515163000000,FL_wheel_link,6.406726640795554,-30.756858141648422,7.860744379765079,-2.553303889311535,-0.49779729880222157,-0.33431752508412044
515164000000,118,515164000000,FL_wheel_link,-0.3066775506189322,-0.6403712087221516,-0.4486014680573353,-0.06576395068418724,-0.018725787203991283,0.01199734625564182
515165000000,119,515165000000,FL_wheel_link,4.673876838076091,-18.58428488659538,5.8134776188362585,-1.4755807499324067,-0.38429744756443224,-0.24780659070512523
515166000000,120,515166000000,FL_wheel_link,-0.09923845627265696,-0.3655872707334873,-0.41904104811295667,-0.058331028125291534,-0.01419925876210891,0.00824475805729864
515167000000,121,515167000000,FL_wheel_link,8.288463862679937,-25.2601515769287,8.913064959145077,-1.931257129272255,-0.7206031919548775,-0.44725219954378176
515168000000,122,515168000000,FL_wheel_link,-0.21267439005068312,-0.4832353174920394,0.07358003879798256,-0.03764497597075537,-0.02235745808285492,0.00853677368601349
515169000000,123,515169000000,FL_wheel_link,4.602579614415198,-17.00304262283136,9.71408501932014,-1.070264761666005,-0.3898250190246249,-0.2443203172057218
515170000000,124,515170000000,FL_wheel_link,-0.20989069155116025,-0.38834453678909825,-0.3648061221552679,-0.05397670458015624,-0.02385080416626731,0.0037943370180443525
515171000000,125,515171000000,FL_wheel_link,6.96826345916486,-21.004189725599495,6.907194370838354,-1.6365585828234246,-0.6048037779643578,-0.37560129461612357
515172000000,126,515172000000,FL_wheel_link,-0.26436690683783426,-0.3869306861798488,-0.6337733014108061,-0.056142211539957784,-0.01236104053672336,0.012042723432119106
515173000000,127,515173000000,FL_wheel_link,2.604658343359534,-14.298759026107284,4.474074248976272,-1.1423232563998136,-0.1947378182327828,-0.1340240576121044
515174000000,128,515174000000,FL_wheel_link,-0.17744255525761635,-0.2913496871901964,-0.15808273056976516,-0.04479355478662178,-0.011627146258327697,0.011537590031714291
515175000000,129,515175000000,FL_wheel_link,4.499187321174167,-18.249474452062046,9.471226501345726,-1.2157416074000649,-0.3736838786003976,-0.23831256646026425
515176000000,130,515176000000,FL_wheel_link,-0.16768744681090259,-0.5287703452797211,-0.059065461832338545,-0.05069039948066521,-0.021030311671986095,0.006220997014986388
515177000000,131,515177000000,FL_wheel_link,6.821113040780855,-20.749981454886207,7.27660901090643,-1.5894726102799126,-0.5917500004843639,-0.3674477081158399
515178000000,132,515178000000,FL_wheel_link,-0.23769085194666906,-0.3783417202306289,-0.5649840058869061,-0.053119444783228116,-0.01296535163828862,0.0107383086426034
515179000000,133,515179000000,FL_wheel_link,3.697577702446307,-15.57594237954616,5.170125838459706,-1.221169681467344,-0.2995916205356465,-0.1949124442113674
515180000000,134,515180000000,FL_wheel_link,-0.16510148197244723,-0.2824608459345933,-0.13156561655969248,-0.04257432079485743,-0.011559709007329355,0.011346590095610034
515181000000,135,515181000000,FL_wheel_link,4.37849395113639,-17.60299461628339,9.266099846742703,-1.1646910679394675,-0.36438360515289525,-0.23194277421800163
515181000000,136,515182000000,FL_wheel_link,-0.1663586531652013,-0.5000967774941129,-0.056362887296892275,-0.0487901533340953,-0.020318223625907156,0.0063867411034120285
515181000000,137,515183000000,FL_wheel_link,6.742086904160157,-20.49283325986901,7.354527021185264,-1.5598232977952846,-0.5850680141396805,-0.3631120143261067
515181000000,138,515184000000,FL_wheel_link,-0.23296340403603527,-0.36677227178512417,-0.5522871806056,-0.05163211333123347,-0.012692279720884565,0.010507888000498799
515181000000,139,515185000000,FL_wheel_link,3.3248899652064363,-14.75185387150384,4.996424653353477,-1.1519735591288205,-0.2659059229949561,-0.17446508671500602
515181000000,140,515186000000,FL_wheel_link,-0.14712362198971993,-0.25486363769946246,-0.20972383136407077,-0.04403768619620162,-0.010889081320175234,0.010915273586887559
515181000000,141,515187000000,FL_wheel_link,4.19230664006921,-16.818451706674146,8.857351005331875,-1.113464139876597,-0.3492461622277153,-0.22200776790318566
515181000000,142,515188000000,FL_wheel_link,-0.16225834842955147,-0.5088194566473349,-0.08157892016586944,-0.04925368913925242,-0.019353289692407606,0.005551043401618234
515189000000,143,515189000000,FL_wheel_link,7.445806254208484,-22.126959681765264,8.179676062291867,-1.6687259108030839,-0.6488983748588846,-0.4014720793757784
515190000000,144,515190000000,FL_wheel_link,-0.24995822941657897,-0.3982175180717198,-0.5043847941620294,-0.0511615861756248,-0.013718090723417547,0.010915293397616595
515190000000,145,515191000000,FL_wheel_link,2.6449913789821413,-13.535558771551315,4.635773024202375,-1.056848346231844,-0.20299217647829754,-0.13690619368857454
515192000000,146,515192000000,FL_wheel_link,0.29401724921428485,-0.4684720880439832,2.3194000014964713,0.0392545464996176,0.027875597715580246,0.021917504389900925
515193000000,147,515193000000,FL_wheel_link,6.970306039872581,-12.865123299289632,19.754268819023366,-0.08910108863239607,-0.6371949420240961,-0.3829046243674306
515194000000,148,515194000000,FL_wheel_link,0.14336536813860182,-0.14591046746433106,1.195111284327278,0.03630903182289476,-0.019850053345274003,-0.0071663498887695656
515195000000,149,515195000000,FL_wheel_link,5.397779350343969,-11.65153089194865,11.652642046799784,-0.41153869937484405,-0.5013902858199079,-0.29530624812775624
515196000000,150,515196000000,FL_wheel_link,0.0017159223412057806,-0.41542033598903944,1.338293495348175,0.019835366478788963,-0.012351312956850687,0.0012652157040348867
515197000000,151,515197000000,FL_wheel_link,5.031268523337682,-14.732230610776007,12.67372684280975,-0.6572563479916216,-0.4499964685264515,-0.2714601427996467
515198000000,152,515198000000,FL_wheel_link,-0.02101556219964465,-0.5257328930985333,1.3748471542193106,0.012034324018711155,-0.012382226143598667,0.002114781918403247
515199000000,153,515199000000,FL_wheel_link,5.271037876602381,-16.168329144581868,13.177644485097165,-0.7683975259707574,-0.46748188514991607,-0.2836640908351705
515200000000,154,515200000000,FL_wheel_link,-0.009543680109953517,-0.5807848177567198,1.384839338838404,0.007075345496228026,-0.014479594472996338,0.0010025353949245318
515201000000,155,515201000000,FL_wheel_link,5.640516648981336,-17.046980339013558,13.497827709009256,-0.8347915210871388,-0.500674389448116,-0.30378927908460107
515202000000,156,515202000000,FL_wheel_link,0.008320651409085611,-0.6131268541931473,1.386588666576783,0.0034427665397529896,-0.016802076922324237,-0.00043864163782794457
515203000000,157,515203000000,FL_wheel_link,5.980130757062996,-17.655768382783997,13.723988418639614,-0.8802197367331113,-0.5321089883582175,-0.32248522059224477
515206000000,158,515204000000,FL_wheel_link,0.024132121446677757,-0.6345350523106358,1.386568641090196,0.000682518222917216,-0.01879875469515096,-0.0017105837385077375
515206000000,159,515205000000,FL_wheel_link,6.250078872480437,-18.094410256559165,13.893999830366255,-0.9124288832535776,-0.5573007351341136,-0.3373881390090395
515206000000,160,515206000000,FL_wheel_link,0.03605477134136198,-0.6494079381299714,1.3865557117363407,-0.0014313490349334192,-0.020327957833914532,-0.0027047426882469395
515206000000,161,515207000000,FL_wheel_link,6.450446722232613,-18.417802099349068,14.024388132073184,-0.9358664548254687,-0.5759972631065247,-0.34844635134040336
515206000000,162,515208000000,FL_wheel_link,0.04434819891269653,-0.659753560106149,1.3870639772661115,-0.0029964433659446787,-0.021449221937439512,-0.0034291302743424067
515209000000,163,515209000000,FL_wheel_link,6.589996031809102,-18.644548093556743,14.124359258513165,-0.951773591848307,-0.5889979604467863,-0.35613800075989555
515210000000,164,515210000000,FL_wheel_link,0.0497270169385755,-0.6666019412471113,1.3879783965128727,-0.0041331961252154305,-0.022228643501098738,-0.003934286954547929
515211000000,165,515211000000,FL_wheel_link,6.684937546382505,-18.800203724911842,14.201115219779155,-0.9621848336703417,-0.5978198930330438,-0.3613589974179964
515212000000,166,515212000000,FL_wheel_link,-0.03213906415493131,-0.4033817879443189,0.29366756506299974,-0.030926068944002107,-0.017247386916974056,0.00806344460500509
515213000000,167,515213000000,FL_wheel_link,4.292616281880066,-14.638297363056163,8.277528310206772,-0.9308596614241683,-0.3688905842380395,-0.2291095865689934
515214000000,168,515214000000,FL_wheel_link,0.030976366382424084,-0.27288492056399827,0.040982265615612065,-0.033426316597392695,-0.014088821320368823,0.005539168863101477
515215000000,169,515215000000,FL_wheel_link,4.895308795377135,-16.952594511880825,10.654794947957546,-1.0295967291372081,-0.4419690286902824,-0.26620806914461626
515216000000,170,515216000000,FL_wheel_link,-0.036447706151434583,-0.16790720650636154,-0.611971446820087,-0.040495797243954454,-0.007005753385882739,0.0034128456433490167
515217000000,171,515217000000,FL_wheel_link,-0.19812360485765024,-0.039812152713894405,0.7324922581851938,0.020309064159609258,0.007420483188466442,0.010348202469057603
515218000000,172,515218000000,FL_wheel_link,1.546959156066924,-19.550395203818063,11.425562256456999,-1.2224411614567758,-0.11140970030252856,-0.07580912081081301
515219000000,173,515219000000,FL_wheel_link,-0.1989956766574558,-0.6707025575593687,1.160277045985787,-0.01606517886647979,0.004065847783845144,0.009419728202887608
515220000000,174,515220000000,FL_wheel_link,2.119414365452463,-18.146866918793744,12.647278927809442,-1.0096863523251556,-0.17343305301535544,-0.10962750248438105
515221000000,175,515221000000,FL_wheel_link,-0.13995383261380356,-0.5741823814387043,1.0614239704080473,-0.012375827885866907,0.0016049774679447884,0.005985155889176839
515222000000,176,515222000000,FL_wheel_link,1.9050313293344558,-17.062407422907583,11.629248254985834,-0.9614929340901299,-0.1587410244430587,-0.09955962600311902
515223000000,177,515223000000,FL_wheel_link,-0.13086785038640666,-0.5323322798470612,0.9567617608939976,-0.013038933127414984,0.0011635923457355328,0.00563451075677506
515224000000,178,515224000000,FL_wheel_link,1.7826619070940986,-16.698717824896836,11.37857002994047,-0.9411632709711413,-0.15048529314832898,-0.09378044429865467
515225000000,179,515225000000,FL_wheel_link,-0.14697533961894865,-0.5249535712410992,0.9935215477139203,-0.011571217617349376,0.0027268139147885173,0.0064256828521868856
515226000000,180,515226000000,FL_wheel_link,1.6037328102197064,-16.56941716520583,11.4775154366195,-0.9223087694478945,-0.13399900582873875,-0.08396673217997011
515227000000,181,515227000000,FL_wheel_link,-0.16169015766742106,-0.5204343773332224,1.0222231535327502,-0.01009254102217052,0.004148074095041598,0.007277489829739248
515228000000,182,515228000000,FL_wheel_link,1.5239518226341442,-16.47813273675532,11.718677960237873,-0.8988242865737837,-0.12688356415228536,-0.07961860169624221
515229000000,183,515229000000,FL_wheel_link,-0.16778103918787937,-0.5132121763734099,1.034168615851236,-0.009080435104107117,0.004909088538503664,0.007607377926893307
515230000000,184,515230000000,FL_wheel_link,1.4329358783337263,-16.362323947438213,11.761010508297847,-0.8845818002761895,-0.11878516484537394,-0.0747053990527656
515231000000,185,515231000000,FL_wheel_link,-0.1716653333479277,-0.506858583477023,1.0308312485961026,-0.008680377910399505,0.005403490512460999,0.007842107877602892
515232000000,186,515232000000,FL_wheel_link,1.367034062651702,-16.276206412128772,11.776029693388637,-0.8750569650603268,-0.11302994735133459,-0.07118352113581808
515233000000,187,515233000000,FL_wheel_link,-0.17572073967773288,-0.5031537277493102,1.0332480485799511,-0.008360734585526245,0.005863680680732435,0.008060570398218059
515234000000,188,515234000000,FL_wheel_link,1.305450139891124,-16.21806144686271,11.789371261246744,-0.8683500557846688,-0.10745187803392603,-0.06783193117135408
515235000000,189,515235000000,FL_wheel_link,-0.17914240265005782,-0.5003444650799832,1.0339279656785902,-0.008172302050618026,0.006237813140308671,0.008246834350750827
515236000000,190,515236000000,FL_wheel_link,1.2619433995462321,-16.176307751748197,11.81265576616201,-0.8626986669152457,-0.10352736822693986,-0.06546110409647685
515237000000,191,515237000000,FL_wheel_link,-0.18177181927343636,-0.49803953132912626,1.0348342293424533,-0.008045786802931514,0.0065301688958520525,0.00837750511722841
515238000000,192,515238000000,FL_wheel_link,1.226079476022635,-16.142578423696722,11.82929740340382,-0.8582202431604832,-0.10027289229237152,-0.06349689545930859
515239000000,193,515239000000,FL_wheel_link,-0.18383909976814433,-0.4960462749375727,1.0348428027776106,-0.007986679493099077,0.0067585541538430945,0.008474625223279235
515240000000,194,515240000000,FL_wheel_link,1.4511195632086378,-8.247063484497888,8.792164773995548,-0.3193287430765991,-0.11671914598425978,-0.07925981076323821
515241000000,195,515241000000,FL_wheel_link,-0.08263455930583553,-0.060068263280861296,-0.04250948772705165,-0.007692640852726106,-0.0046212226450261466,0.001941092761135444
515242000000,196,515242000000,FL_wheel_link,0.07726396621228002,0.24590036974919943,0.18505827509230702,0.015762648373592418,-0.004388540078851669,-0.005547654040506504
515243000000,197,515243000000,FL_wheel_link,-0.7441157717161309,-11.34745608754439,4.527329138093222,-0.8129707466494689,0.07249994522873227,0.040599375214201455
515244000000,198,515244000000,FL_wheel_link,0.25196208201422576,0.18382987251980054,0.37006513346763137,0.005197964542197873,-0.010268060539048999,-0.011371681366513835
515245000000,199,515245000000,FL_wheel_link,-0.3359022759263993,0.60463103301072,-1.3364174872995196,-0.019638951922469946,0.016337436101359768,0.01465689748776304
515246000000,200,515246000000,FL_wheel_link,0.007383575102730491,0.03264868331241228,0.03768279097403306,0.0005935541825981031,0.00016103702311029186,-4.412537477525524e-05
515247000000,201,515247000000,FL_wheel_link,0.08520558925420191,0.7078040143828883,-0.5703931803196205,0.01091739910100003,-0.0024185128294337862,-0.0011766108599965243
515248000000,202,515248000000,FL_wheel_link,-0.077797566972036,0.08968421427357186,-0.24056241246983068,-0.006668557735347443,0.004234627181910051,0.00562368791632319
515249000000,203,515249000000,FL_wheel_link,0.19735453130294808,0.3265350415860442,0.28783490141086315,0.022260513241181876,-0.009396166846554593,-0.008381325036702206
515250000000,204,515250000000,FL_wheel_link,-0.4748371443530881,-7.810667340465815,3.813953141393567,-0.5498466869331168,0.060019689920479236,0.028921627972057246
515251000000,205,515251000000,FL_wheel_link,1.0896371636139268,-4.242666219980731,1.6015393594388745,-0.3235484453056538,-0.08890110989540502,-0.056987461514239855
515252000000,206,515252000000,FL_wheel_link,-0.02774028140483039,0.34817115182559744,-0.4484195185836032,-0.004717049022891772,-0.006384601405099581,0.003986185748055929
515253000000,207,515253000000,FL_wheel_link,2.9217964297061876,-7.872613912427413,4.554771114165541,-0.4895080084704929,-0.25968662251438923,-0.15768239969981437
515254000000,208,515254000000,FL_wheel_link,-0.04326295747449715,0.3900030634286666,-0.7280503027307521,-0.017536605855258743,-0.002730612999416354,0.005627399257313379
515255000000,209,515255000000,FL_wheel_link,-0.006519868319626414,0.03697012017461604,0.111012963792637,0.0026202340703325774,-0.00034127368353191814,0.00035416868053452736
515256000000,210,515256000000,FL_wheel_link,1.2840733201452528,-4.671889529971479,4.3029729411624595,-0.2268829017738907,-0.1209274346303007,-0.07026648113210787
515257000000,211,515257000000,FL_wheel_link,0.03464390157867922,-0.09116905626135974,0.011013255029910043,-0.00793314502554366,-0.002438540662207824,-0.0015724650663987553
515258000000,212,515258000000,FL_wheel_link,0.3488354695046878,-7.462164992154811,4.420507550885501,-0.49161770838421753,-0.018570482531705235,-0.016132591561206083
515259000000,213,515259000000,FL_wheel_link,-0.0940612408181193,-0.15972717591023886,0.1268348129019715,-0.011755909633267747,-0.0007668057625087148,0.0049132222228669975
515260000000,214,515260000000,FL_wheel_link,1.5423706410974036,-6.649208179153626,6.449997451524377,-0.2904573560483058,-0.13831107421270764,-0.08342407787354099
515261000000,215,515261000000,FL_wheel_link,-0.12426917690179923,-0.13090776033112508,-0.1319617516603231,-0.016074794072267574,-0.0009359949914454577,0.00548467032709095
515262000000,216,515262000000,FL_wheel_link,1.0911527289737737,-4.277338105969339,3.614790318978636,-0.23509478162687034,-0.09082227601825066,-0.05752131216581187
515263000000,217,515263000000,FL_wheel_link,-0.08873022815805809,-0.0513296209506804,-0.22131470142670437,-0.015000618433415311,0.001581192989458839,0.004951469029331513
515264000000,218,515264000000,FL_wheel_link,1.1482875654720912,-4.984705605211614,4.411963883282459,-0.2565631748840083,-0.09482777343902538,-0.06036517597835393
515265000000,219,515265000000,FL_wheel_link,-0.08820135668524227,-0.06680711779168377,-0.19959410267956382,-0.0157909693956968,0.0010584463622166562,0.005016844020916008
515266000000,220,515266000000,FL_wheel_link,1.2105948366503028,-4.630165593524428,4.114298364012001,-0.240872204312056,-0.1005810312498998,-0.06369843062196084
515267000000,221,515267000000,FL_wheel_link,-0.07519210161559527,-0.050587661178953386,-0.20848282649067762,-0.014917673148108773,0.0006726093518308676,0.004478934865356213
515268000000,222,515268000000,FL_wheel_link,1.2347662920634088,-4.670493689647926,4.192729870279788,-0.23925299916578643,-0.10323925241772974,-0.06504936650809662
515269000000,223,515269000000,FL_wheel_link,-0.0714553531697259,-0.05085377624114819,-0.20327514600121416,-0.015027047594570155,0.00039240479738659063,0.004401225792002299
515270000000,224,515270000000,FL_wheel_link,1.346945322229079,-4.66243437079839,4.291891246009879,-0.2331983208569165,-0.11381041147724041,-0.07124878866557788
515271000000,225,515271000000,FL_wheel_link,-0.06279706398186927,-0.046513295644035585,-0.20181898975029944,-0.014470791164066268,-0.00025227242695426144,0.0039281175610782725
515272000000,226,515272000000,FL_wheel_link,1.3557609095688936,-4.580771753688502,4.222001244031793,-0.22867207061188455,-0.11504556476869712,-0.07178216078412916
515273000000,227,515273000000,FL_wheel_link,-0.05936145294226064,-0.044845973306605225,-0.20131490433013377,-0.014511375751844776,-0.0004058572961938697,0.0038382742614736327
515274000000,228,515274000000,FL_wheel_link,1.4541952769956712,-4.625248457824925,4.360236157911682,-0.22524742577451845,-0.12429707878750412,-0.07723816333821773
515275000000,229,515275000000,FL_wheel_link,-0.05304273817789215,-0.04346827480843689,-0.1989574207519019,-0.014126030192375218,-0.000945668050663177,0.003460417705012541
515276000000,230,515276000000,FL_wheel_link,1.452839108294803,-4.534632002033031,4.269278464827523,-0.22124444320952824,-0.1244491449252907,-0.07719083968533647
515277000000,231,515277000000,FL_wheel_link,-0.05061570133589501,-0.041929309616147104,-0.1998311273577748,-0.014177217191615462,-0.0010239764835643372,0.0033979966223769593
515278000000,232,515278000000,FL_wheel_link,1.528391401520447,-4.575263731044378,4.384383370310223,-0.21868735262910086,-0.13158196684229592,-0.08138565155987107
515279000000,233,515279000000,FL_wheel_link,-0.04566848119944028,-0.041256130892956655,-0.19802294175987453,-0.013895855175483418,-0.0014082193962136188,0.0031060327442298465
515280000000,234,515280000000,FL_wheel_link,1.5180991654666294,-4.494521467718194,4.297931614783808,-0.2154468325194589,-0.13084971930218042,-0.08084278039582761
515281000000,235,515281000000,FL_wheel_link,-0.04391959496359294,-0.03981978691039158,-0.19963443923462101,-0.013964681749867699,-0.0014159197019987316,0.003072030634420696
515282000000,236,515282000000,FL_wheel_link,2.975865402869362,-7.827521417318748,6.466191861286694,-0.42384754530682567,-0.26764176170464227,-0.15835594523626592
515283000000,237,515283000000,FL_wheel_link,0.047187650897540824,0.14270336349692975,-0.038523107313678764,-0.007770243931087547,-0.0016733128510152107,-0.0009499747957230002
515284000000,238,515284000000,FL_wheel_link,2.78911267566799,-11.122107797365182,6.720970560017516,-0.7021495176037885,-0.2568809903728869,-0.1465049634871909
515284000000,239,515285000000,FL_wheel_link,0.07476413977330344,0.35192589892211196,-0.27836855051180426,-0.004965414959462692,-0.004941175902087866,-0.0024727198803570845
515286000000,240,515286000000,FL_wheel_link,-0.11043549093015462,0.07114459563370137,-0.24124861182289778,-0.006568489423334513,0.00499397465196116,0.006524081940234562
515287000000,241,515287000000,FL_wheel_link,2.0023161689280817,-5.089951050284974,5.743130559825701,-0.19939315021621,-0.18338118881797483,-0.10573002633471948
515288000000,242,515288000000,FL_wheel_link,-0.0421981064484548,-0.048639641274705894,-0.18052024544325201,-0.011740251539043626,-0.0031435323850251776,0.002222274119951709
515289000000,243,515289000000,FL_wheel_link,1.0610476295114288,-3.038213410454741,2.547774667664914,-0.1779215176834958,-0.09126682927775995,-0.05416531052650096
515290000000,244,515290000000,FL_wheel_link,-0.05215486382915525,-0.005383759069399672,-0.26949326084574554,-0.015257054168055392,0.0006272466998429524,0.003834116536859199
515291000000,245,515291000000,FL_wheel_link,1.6898372688252172,-4.4750504670896305,4.559449413804822,-0.2128183185751693,-0.14806511745447054,-0.08799547414341588
515292000000,246,515292000000,FL_wheel_link,-0.03655930657257914,-0.03642432606077514,-0.20292334845999432,-0.012762785624083062,-0.0018467062234636305,0.002507481173309707
515293000000,247,515293000000,FL_wheel_link,1.2348005263656794,-3.9026118318133687,3.496365333656018,-0.21134553161296504,-0.1064325183660606,-0.06331607154937599
515294000000,248,515294000000,FL_wheel_link,0.02998596040171389,0.027411092066035994,0.4251924876688176,0.003776422134571467,0.009742467254381864,0.0054566385702734055
515295000000,249,515295000000,FL_wheel_link,3.4824728150280437,-12.825710697256017,11.265375379964755,-0.5917521461426927,-0.2987200003201697,-0.1773404148376232
515296000000,250,515296000000,FL_wheel_link,-0.1184702416706449,-0.4137978632357451,1.5509736130446639,0.013392214610656036,-0.0046572010614385345,0.003985020674126645
515297000000,251,515297000000,FL_wheel_link,1.71823889412321,-16.96470922362908,22.212048635077505,-0.393034197779353,-0.166232324730523,-0.08810674132180213
515298000000,252,515298000000,FL_wheel_link,0.13352274912509576,-0.20383515199375257,0.015395361027765099,-0.016181623339415783,-0.013398841695144801,-0.006938802802545819
515299000000,253,515299000000,FL_wheel_link,1.3841390088031422,-10.498283993481547,14.899886105887525,-0.21624228524530867,-0.13186498487766823,-0.07562553249727388
515300000000,254,515300000000,FL_wheel_link,0.022843178189165116,-0.09362777584549306,0.154488703406645,-0.005481211503265139,-0.006091793256690016,-0.0021676555917567748
515301000000,255,515301000000,FL_wheel_link,0.9417321544926294,-14.755748266518328,9.20387691327426,-0.8978789241664054,-0.08466829709637796,-0.04914617872164981
515302000000,256,515302000000,FL_wheel_link,0.03843126500536917,-0.24902852242301518,0.9426921772990742,-0.009589320610454099,0.008235098191912748,0.0052644645189058896
515303000000,257,515303000000,FL_wheel_link,3.8098622180235875,-14.137116670571125,11.72562779677568,-0.6968493538685268,-0.32597954502878856,-0.19418766906365942
515304000000,258,515304000000,FL_wheel_link,-0.07821855721452374,-0.4415430831549339,1.4078176203174002,0.0037190389779675733,-0.008776151813242873,0.001242481331213998
515305000000,259,515305000000,FL_wheel_link,1.7710437745483785,-17.4932350250771,20.82848236205688,-0.5212574457828297,-0.17653760349164938,-0.0933661926898609
515306000000,260,515306000000,FL_wheel_link,0.13488522383783594,-0.2645940132861059,0.008082643140556487,-0.023607739051458652,-0.01352210346377361,-0.007033883960411444
515307000000,261,515307000000,FL_wheel_link,0.647068633270329,-10.701176919646558,11.301127215839179,-0.4387504350256217,-0.0560560630332666,-0.03390404985071724
515308000000,262,515308000000,FL_wheel_link,-0.010706726067644182,-0.10569136345911383,-0.18025089932941718,-0.019322209015917576,-0.002573011353885714,0.0015812018191911216
515309000000,263,515309000000,FL_wheel_link,1.860618879798524,-15.371306865601785,19.451968230484038,-0.42391433151384855,-0.16311903390601243,-0.09719035381384283
515310000000,264,515310000000,FL_wheel_link,3.9809418140706576,-7.979032795790834,2.6098712759982003,-0.6342433269227099,-0.3702483595782964,-0.21217807359794144
515311000000,265,515311000000,FL_wheel_link,-0.01910240070374052,-0.05909927514173006,0.05244782421598987,-0.013752469024081351,0.0007546954967659284,0.006168148980135214
515312000000,266,515312000000,FL_wheel_link,3.665005029452776,-13.62587194623741,10.4633014292311,-0.7243047529031158,-0.3127546740352397,-0.18693789949338788
515313000000,267,515313000000,FL_wheel_link,-0.11019824885831278,-0.4464532787311747,1.5047716083483667,0.004386145749054089,-0.0061604769356480675,0.0024621356567764473
515313000000,268,515314000000,FL_wheel_link,1.072261335456827,-17.4024839694837,19.748902793734764,-0.5683520589477498,-0.10668648103757244,-0.05383788996135279
515315000000,269,515315000000,FL_wheel_link,0.038892034766858055,-0.2222836809075022,0.025987805099244695,-0.02448526669831671,-0.007382538301820623,-0.00078762085941614
515316000000,270,515316000000,FL_wheel_link,1.2333477239697057,-11.10161444294775,13.227953643136987,-0.37521914860049155,-0.10844112414010464,-0.0670486393929228
515317000000,271,515317000000,FL_wheel_link,-0.021319928867054756,-0.058311418104535266,-0.2727701206268869,-0.02048456529231644,-0.0008349004241914783,0.003308149433609776
515318000000,272,515318000000,FL_wheel_link,2.6656387747923236,-16.847925805783913,17.5362847944454,-0.6874901446546877,-0.23405763986596712,-0.14055310368884005
515319000000,273,515319000000,FL_wheel_link,0.10524075332251946,-0.1821540241568892,0.08119363044546325,-0.012278481277192204,-0.009875945320838282,-0.004950331664739929
515320000000,274,515320000000,FL_wheel_link,-0.5101164922633505,-13.39185387534461,13.49820828295764,-0.5721168206198988,0.05607789976490876,0.029165923166738952
515321000000,275,515321000000,FL_wheel_link,-0.020867382604207597,-0.07461619308979776,-0.003391219874455561,-0.00969116021180966,-0.003013959562896844,0.0016651288201452164
515322000000,276,515322000000,FL_wheel_link,1.6136518065329666,-10.132950499908766,8.075671033604431,-0.5197794427407676,-0.1480237108879703,-0.08446781780254421
515323000000,277,515323000000,FL_wheel_link,0.22065666431927422,-10.015755500692306,15.917189786846343,-0.12192640526156182,-0.02304260334574878,-0.012970807349392093
515324000000,278,515324000000,FL_wheel_link,0.01872331230744413,-0.036454841673954116,-0.007412303947214443,-0.005433239616989964,-0.0017651907667653795,-0.0009116491295264469
515325000000,279,515325000000,FL_wheel_link,1.1190178166813816,-13.682220010541176,9.873899071907523,-0.7569901837081718,-0.10432955085342538,-0.05877073687469045
515326000000,280,515326000000,FL_wheel_link,-0.006125978326560026,-0.200858059237441,0.844763726471444,-0.00912504381463762,0.009773567927028609,0.006625222961076027
515327000000,281,515327000000,FL_wheel_link,3.4317340239552783,-13.482151120969164,11.466043015585385,-0.6475882698814615,-0.2896157601686152,-0.17336193143394696
515328000000,282,515328000000,FL_wheel_link,-0.10019258925731883,-0.3972823156030531,1.401039193643712,0.0048111308346520665,-0.007003167450148775,0.002086331330912324
515329000000,283,515329000000,FL_wheel_link,1.2180044261781977,-16.59035982851134,19.730443004626768,-0.4897793543392802,-0.12488015917330686,-0.06316448662095027
515330000000,284,515330000000,FL_wheel_link,0.0903519783141076,-0.26606087367158227,-0.006386488069999908,-0.024350882109291296,-0.00922260950115485,-0.004717333960048166
515331000000,285,515331000000,FL_wheel_link,0.29355947908147195,-10.82558844668927,12.35144090466913,-0.39664048776402216,-0.02075714993154759,-0.015044816187987753
515332000000,286,515332000000,FL_wheel_link,-0.06495786073355611,-0.1255007985858934,-0.17346965671301157,-0.018028368686266276,-0.0010404255708057648,0.0030476176870741756
515333000000,287,515333000000,FL_wheel_link,1.5465681486431162,-14.447296529520418,18.633976010356058,-0.38247008762320245,-0.13319480912399106,-0.07925255295089897
515334000000,288,515334000000,FL_wheel_link,2.6945703492855433,-6.0928900697871065,2.414767497141891,-0.45846530498385163,-0.2466687135801534,-0.1429318337747184
515335000000,289,515335000000,FL_wheel_link,0.08441074783324565,-8.624512196818447,9.369174097084471,-0.32974746641073793,-0.01171068334996217,-0.004711058769071116
515336000000,290,515336000000,FL_wheel_link,1.0133595607351302,-6.576865522402237,4.114331112507378,-0.4073336855894838,-0.091774998182172,-0.05207680757162119
515337000000,291,515337000000,FL_wheel_link,0.5380718276085876,-8.230796710664867,9.62434652786263,-0.28033207595485543,-0.04621835886748264,-0.02582298663092894
515338000000,292,515338000000,FL_wheel_link,1.0599747741069663,-6.258554042712038,3.423652510119748,-0.4144391702190151,-0.09820962429777708,-0.055819984814877356
515339000000,293,515339000000,FL_wheel_link,0.5694116341657494,-8.260484434542706,11.429449903336689,-0.19132535119211797,-0.04655368637471631,-0.0267307574344173
515340000000,294,515340000000,FL_wheel_link,0.7972563723088084,-6.090280770138743,6.364784660980282,-0.24052041562868523,-0.07920041930301203,-0.042558939668593435
515341000000,295,515341000000,FL_wheel_link,0.8837667493062522,-6.265740814526131,3.316703537506669,-0.4195946593968791,-0.0804043945071014,-0.046219339232631426
515342000000,296,515342000000,FL_wheel_link,0.26243909719126934,-8.683813587778419,13.568386479433286,-0.1162415072389678,-0.019739989405503054,-0.01208437986454194
515343000000,297,515343000000,FL_wheel_link,0.0009616459144167894,0.005640571502888124,-0.21851267442519176,-0.011466029295544706,7.472035245745245e-05,0.001792575296327671
515344000000,298,515344000000,FL_wheel_link,2.0206949330775883,-14.324945174651527,19.30639245823502,-0.3302778529066927,-0.18530514259880887,-0.1056692122947549
515345000000,299,515345000000,FL_wheel_link,0.07545434285523694,-0.17773472421604875,0.05465239195161733,-0.015333993331654746,-0.0075641626860257945,-0.004135606427648606
515346000000,300,515346000000,FL_wheel_link,-0.15261559162723604,-9.177635673469403,13.189217269129541,-0.1895814501439561,0.019217184463512796,0.009717485978063524
515347000000,301,515347000000,FL_wheel_link,1.8104631289455229,-5.775097827406572,4.0961243320865535,-0.325571887898999,-0.15816421582392665,-0.09313904548985483
515348000000,302,515348000000,FL_wheel_link,0.001727347291387682,-8.252561010702054,9.487886244059693,-0.2856777509202125,-0.005952535717802118,-0.0001601636011312746
515349000000,303,515349000000,FL_wheel_link,0.9552531918328226,-6.29659052283093,4.217180070866604,-0.3734042751292665,-0.08814237779339833,-0.04921442812744025
515350000000,304,515350000000,FL_wheel_link,0.5193935821050633,-8.10804411726881,10.147756568696675,-0.2424069557788136,-0.04479044261796951,-0.025128770381264827
515351000000,305,515351000000,FL_wheel_link,0.64641718618542,-6.3748525731682415,6.78034153860465,-0.24768224783654347,-0.06464275371223165,-0.03433519067767383
515352000000,306,515352000000,FL_wheel_link,0.7830334803182759,-6.272661314387049,3.332586155896675,-0.4191646528468075,-0.07070053825734468,-0.04086588159245304
515353000000,307,515353000000,FL_wheel_link,-2.7778553066945784,-3.6953575843757065,0.7539314975886104,-0.315166494178315,0.2613802025864017,0.15286572384946973
515354000000,308,515354000000,FL_wheel_link,-0.20643588318538958,0.09338656906758719,-0.021725431840062228,0.002377392466009579,0.016186362898084124,0.013100438288566408
515354000000,309,515355000000,FL_wheel_link,-2.534225635147653,-12.371115941749872,4.745104965354059,-0.9469563789028047,0.279841242493411,0.14441590295567205
515356000000,310,515356000000,FL_wheel_link,-1.2303209345390007,-8.013307916276762,8.495488192456664,-0.33781368947561585,0.1318503749860916,0.07263962779659261
515357000000,311,515357000000,FL_wheel_link,-1.3432031436510674,-4.357791311706923,1.1459843626386332,-0.3681887099323893,0.1303440574284668,0.07519315006404143
515358000000,312,515358000000,FL_wheel_link,-0.06405178593728855,0.030046692841972162,0.01223468921205558,5.9698156809350617e-05,0.006560100506425536,0.0034690675736745564
515359000000,313,515359000000,FL_wheel_link,-0.7398793630673586,-14.570287135051098,18.897026543604724,-0.37256425972848606,0.0613060544268631,0.04383192283917378
515360000000,314,515360000000,FL_wheel_link,0.5835559824830624,-2.9907041845709683,0.9898164144268583,-0.24001259602645336,-0.04541938173466378,-0.029133375113217452
515361000000,315,515361000000,FL_wheel_link,-0.32526322514137856,-0.0024908834026531046,-0.08026974782487639,-0.0033318255504794104,0.012831231631356346,0.017183080239016588
515362000000,316,515362000000,FL_wheel_link,1.6729858103667157,-12.591602681064739,9.46495153885579,-0.690671867839407,-0.1109544699020292,-0.07648481157729038
515363000000,317,515363000000,FL_wheel_link,0.5496113764766737,-9.960699341866754,15.892098607006655,-0.12240443368005774,-0.05855383790530565,-0.03112371589844993
515364000000,318,515364000000,FL_wheel_link,0.035402917201649044,-0.04612255318703713,0.014040684868242772,-0.005402653668857798,-0.0036409126398406896,-0.0016995900100083595
515365000000,319,515365000000,FL_wheel_link,0.922205145605627,-13.097734363052286,9.845312893603303,-0.7012207388969038,-0.08564099316444157,-0.04833718164407379
515366000000,320,515366000000,FL_wheel_link,0.17210922707684917,-8.395112591088283,12.162139727262858,-0.17247671038926518,-0.017270719242487492,-0.009058522256533023
515367000000,321,515367000000,FL_wheel_link,1.8117419349961734,-5.390565018191523,3.9873584291593254,-0.2942669399792267,-0.16002148990659443,-0.09345766367919252
515368000000,322,515368000000,FL_wheel_link,0.08880939733752635,-7.822961846662641,8.143284164523838,-0.311743503352506,-0.013715936326385403,-0.004520044338577958
515369000000,323,515369000000,FL_wheel_link,1.9252953667957877,-6.434336579012604,4.159572636045519,-0.39136483134496824,-0.16808740344108614,-0.09905441900825596
515370000000,324,515370000000,FL_wheel_link,0.16878658254285472,-9.01790452216635,11.757793901306345,-0.23804674874590426,-0.02190997237469401,-0.008430220003197944
515371000000,325,515371000000,FL_wheel_link,1.9894967808821056,-5.785598767965226,4.155101549431702,-0.3231336977421886,-0.17631080925165427,-0.10264600698309262
515372000000,326,515372000000,FL_wheel_link,0.23805966253340483,-8.387399718295299,9.60437298402072,-0.2898948859917008,-0.029082985568416667,-0.012459109957412624
515373000000,327,515373000000,FL_wheel_link,1.3348600142497073,-6.768908707353539,7.99677704052959,-0.2171106359979178,-0.12538965555282594,-0.06925877640239374
515374000000,328,515374000000,FL_wheel_link,0.3548820318291761,-6.431055115283803,3.0054398873600356,-0.45598428914392397,-0.034976983050563404,-0.018469689316753385
515375000000,329,515375000000,FL_wheel_link,0.7926272021421934,-8.409136323954343,11.505306380007525,-0.19365315413418197,-0.07193821083550522,-0.04075356404473607
515376000000,330,515376000000,FL_wheel_link,2.212450337054385,-6.118900301389008,4.354920094706929,-0.3436609173788192,-0.19710962704152876,-0.11470398218489933
515377000000,331,515377000000,FL_wheel_link,-0.6634412557400107,-8.627310413293076,11.57537737762897,-0.21558126603100736,0.06353012754344169,0.03650665688886529
515378000000,332,515378000000,FL_wheel_link,1.1978686418881574,-5.3917742146908285,5.759934171559507,-0.20206005157960083,-0.10912700507657838,-0.06096281290281943
515379000000,333,515379000000,FL_wheel_link,0.8409526018754154,-6.511798270761291,3.7729390846991633,-0.41839506176578073,-0.08156971431795274,-0.044979810994485205
515380000000,334,515380000000,FL_wheel_link,0.7348263012966398,-9.02157290321265,13.824660889990344,-0.12760497301042661,-0.06603542385441724,-0.038387678879865675
515381000000,335,515381000000,FL_wheel_link,1.236815741301596,-6.094368343983449,7.7126315063987185,-0.1679839394951124,-0.11636986582177332,-0.06494233326164345
515382000000,336,515382000000,FL_wheel_link,0.4251280410976248,-5.9918943091481776,3.0825767125016847,-0.4061023603246404,-0.04069007620245607,-0.02260338571940286
515383000000,337,515383000000,FL_wheel_link,0.4949881034915755,-8.623753918916266,13.31294274132215,-0.1166203126485864,-0.04075751508866833,-0.025125246771190508
515384000000,338,515384000000,FL_wheel_link,1.0469203442856525,-5.963692816429699,7.787826101074689,-0.15307440507130537,-0.09977666848232011,-0.05489617877830695
515385000000,339,515385000000,FL_wheel_link,0.1000866568295593,-5.712156247594678,2.683725384151117,-0.40263795766101695,-0.009095925348703515,-0.004973337106258094
515386000000,340,515386000000,FL_wheel_link,0.34013423807441523,-8.283783165966662,12.730165252092362,-0.11703755820291234,-0.0298496971947863,-0.01651956257330889
515387000000,341,515387000000,FL_wheel_link,1.8205319683846062,-5.397101725483253,4.11185237661206,-0.287180622478581,-0.16044840178562986,-0.09375633562240691
515388000000,342,515388000000,FL_wheel_link,-1.0433006242488674,-7.743112554124476,9.64312587591009,-0.23199253596961011,0.09882107224879544,0.05663291171627654
515389000000,343,515389000000,FL_wheel_link,0.8443574979617219,-5.593320626647008,6.679163817642985,-0.1747591259789468,-0.07747373940018029,-0.0420142115304013
515390000000,344,515390000000,FL_wheel_link,0.4021810491278741,-6.135469612116173,3.491292272899611,-0.3980073279483472,-0.039573513857466464,-0.021217168542706694
515391000000,345,515391000000,FL_wheel_link,0.4159244870470904,-8.48499873103235,13.342041739713586,-0.10191122583356056,-0.033785942935876265,-0.02044526462982078
515392000000,346,515392000000,FL_wheel_link,1.007960922493271,-5.800508205800696,7.6423446494781135,-0.14501161363873855,-0.09464704170453604,-0.05363763243172553
515393000000,347,515393000000,FL_wheel_link,0.10178259578298446,0.605703037122365,-0.9758416294596056,0.0057911361981383535,-0.010909346764824187,-0.006996292414331062
515394000000,348,515394000000,FL_wheel_link,-0.18043737401326113,-0.043199212824606745,-0.2508355448647017,-0.008165238318959215,0.006547866047680717,0.005974348677649969
515395000000,349,515395000000,FL_wheel_link,0.13321911979378115,0.3340676552090236,0.13275639899949862,0.01961879165401473,-0.008373381650782084,-0.006172782373200125
515395000000,350,515396000000,FL_wheel_link,-1.7697251656266157,-5.338400217818329,0.8760554881935522,-0.4388247242008068,0.16367097407800413,0.08991508517928272
515397000000,351,515397000000,FL_wheel_link,0.2877626728379046,0.641794404826204,0.29557233839483676,0.03824603787711345,-0.012288479870239517,-0.008089709229064546
515398000000,352,515398000000,FL_wheel_link,-0.7226116926169301,-8.636183772077905,3.790989580596856,-0.5875815736172012,0.06279099697432639,0.033405768180068865
515399000000,353,515399000000,FL_wheel_link,0.26752745625772123,0.3048713138814589,0.26247804292106536,0.007820446849347016,-0.012897785490069227,-0.009254213781854917
515400000000,354,515400000000,FL_wheel_link,-1.3924508539386131,-3.6914986973027943,0.3719160489784421,-0.3058564383310689,0.11742224254473611,0.06777635516066205
515401000000,355,515401000000,FL_wheel_link,0.25032026081088726,0.5357839956896392,0.2616656933932596,0.03182617684518036,-0.011430657180015655,-0.00761974614251109
515402000000,356,515402000000,FL_wheel_link,-0.769814088322335,-7.530793109306183,3.0794795010741813,-0.5274900067714855,0.06813403332058418,0.03711803557834514
515403000000,357,515403000000,FL_wheel_link,0.22671599995615485,0.2970665822775035,0.21095491553943846,0.008658621855041189,-0.01029202723060116,-0.007126613740634816
515404000000,358,515404000000,FL_wheel_link,-1.024456663062935,-6.720142161952021,2.387767054511274,-0.4910442138334804,0.08944076453920094,0.049957467590707044
515405000000,359,515405000000,FL_wheel_link,0.215595556148929,0.2924921825861951,0.17438690717875516,0.009968375812158536,-0.010010739759342569,-0.006267489017521208
515406000000,360,515406000000,FL_wheel_link,-0.9405528171824211,-7.118574148311719,3.1050468320332607,-0.48790250841966953,0.07948379359763028,0.045284213981872226
515407000000,361,515407000000,FL_wheel_link,2.9131361957343143,-1.0406743048203695,3.738895564203381,0.08798630283183863,-0.27302165317035076,-0.15183815054456679
