%time,field.header.seq,field.header.stamp,field.header.frame_id,field.name0,field.name1,field.name2,field.name3,field.position0,field.position1,field.position2,field.position3,field.velocity0,field.velocity1,field.velocity2,field.velocity3,field.effort0,field.effort1,field.effort2,field.effort3
515054000000,15329,515046000000,,BL_TO_BASELINK,BR_TO_BASELINK,FL_TO_BASELINK,FR_TO_BASELINK,0.06302843490705001,0.0290649666216396,-0.6324792142275957,-0.560743966029996,-0.00014012908506523536,-0.000490441836635637,-0.07541688964114376,-0.12193662020121525,0.0,0.0,0.0,0.0
515054000000,15330,515047000000,,BL_TO_BASELINK,BR_TO_BASELINK,FL_TO_BASELINK,FR_TO_BASELINK,0.06306692310546769,0.02906475805526476,-0.6324794100159661,-0.5607441003915028,0.038439141991569184,-0.0002082329976458991,-0.00019789651169525163,-0.00013684148696090082,0.0,0.0,0.0,0.0
515054000000,15331,515048000000,,BL_TO_BASELINK,BR_TO_BASELINK,FL_TO_BASELINK,FR_TO_BASELINK,0.06306674266166912,0.029064222096421233,-0.6325605637736587,-0.5608783531384169,-0.00014269348245355556,-0.0004956987729146378,-0.07798198390173611,-0.12273825034878703,0.0,0.0,0.0,0.0
515054000000,15332,515049000000,,BL_TO_BASELINK,BR_TO_BASELINK,FL_TO_BASELINK,FR_TO_BASELINK,0.0630999585166423,0.029064067433576923,-0.6325607140435014,-0.5608784599637833,0.03316309521151863,-0.00015426068037600188,-0.00015232599682558218,-0.0001092051633103247,0.0,0.0,0.0,0.0
515054000000,15333,515050000000,,BL_TO_BASELINK,BR_TO_BASELINK,FL_TO_BASELINK,FR_TO_BASELINK,0.06309978301268959,0.029063546454981548,-0.632584227660006,-0.5610097350120089,-0.00014021600521776922,-0.0004906812471496547,-0.07549819311513295,-0.12193928327304877,0.0,0.0,0.0,0.0
515054000000,15334,515051000000,,BL_TO_BASELINK,BR_TO_BASELINK,FL_TO_BASELINK,FR_TO_BASELINK,0.06313820371179091,0.029063338285457263,-0.6325844230707407,-0.5610098691314249,0.03837176195018597,-0.00020783611615723951,-0.00019753037261217854,-0.00013659436185343987,0.0,0.0,0.0,0.0
515054000000,15335,515052000000,,BL_TO_BASELINK,BR_TO_BASELINK,FL_TO_BASELINK,FR_TO_BASELINK,0.06313802346021546,0.029062802538236454,-0.6326655515433135,-0.5611439817307406,-0.00014266997573225693,-0.0004958159462530864,-0.07799404716142927,-0.12266667200496413,0.0,0.0,0.0,0.0
515054000000,15336,515053000000,,BL_TO_BASELINK,BR_TO_BASELINK,FL_TO_BASELINK,FR_TO_BASELINK,0.06317148841697584,0.02906264494386157,-0.6326657042332453,-0.5611440899975211,0.03341242833582819,-0.00015719409514190763,-0.00015476137101199522,-0.00011064818816669542,0.0,0.0,0.0,0.0
515054000000,15337,515054000000,,BL_TO_BASELINK,BR_TO_BASELINK,FL_TO_BASELINK,FR_TO_BASELINK,0.06317131278249999,0.029062123217375557,-0.6327025227166807,-0.5612754131844611,-0.00014040153809163208,-0.0004912068206559261,-0.07570453387881845,-0.12195075401928065,0.0,0.0,0.0,0.0
515055000000,15338,515055000000,,BL_TO_BASELINK,BR_TO_BASELINK,FL_TO_BASELINK,FR_TO_BASELINK,0.06320958486336892,0.029061916051059455,-0.6327027171966861,-0.5612755467184805,0.038223273553642176,-0.00020683190033438797,-0.00019662762993873095,-0.00013600074848763022,0.0,0.0,0.0,0.0
515056000000,15339,515056000000,,BL_TO_BASELINK,BR_TO_BASELINK,FL_TO_BASELINK,FR_TO_BASELINK,0.06320940497416316,0.02906138085370813,-0.6327837779740353,-0.5614093868639358,-0.00014260689773240576,-0.0004960103257261109,-0.07801532881105144,-0.12253585717626564,0.0,0.0,0.0,0.0
515057000000,15340,515057000000,,BL_TO_BASELINK,BR_TO_BASELINK,FL_TO_BASELINK,FR_TO_BASELINK,0.06324342039585318,0.029061216944242574,-0.6327839358908616,-0.5614094982554221,0.03396327698938105,-0.00016351266137738796,-0.00016002236441171186,-0.00011377674800100435,0.0,0.0,0.0,0.0
515058000000,15341,515058000000,,BL_TO_BASELINK,BR_TO_BASELINK,FL_TO_BASELINK,FR_TO_BASELINK,0.06324324442176454,0.029060693629167744,-0.6328485386102152,-0.5615409431286089,-0.00014077390053057054,-0.0004922508136354226,-0.07614716683977868,-0.12197824982068467,0.0,0.0,0.0,0.0
515059000000,15342,515059000000,,BL_TO_BASELINK,BR_TO_BASELINK,FL_TO_BASELINK,FR_TO_BASELINK,0.06328121456884617,0.029060488604846668,-0.6328487311184396,-0.561541075433805,0.03792149926890104,-0.00020468716604450654,-0.00019471622287563217,-0.00013475471713508824,0.0,0.0,0.0,0.0
515060000000,15343,515060000000,,BL_TO_BASELINK,BR_TO_BASELINK,FL_TO_BASELINK,FR_TO_BASELINK,0.06328103538348984,0.02905995456285204,-0.6329296486177647,-0.5616743588239714,-0.00014248517200815547,-0.0004964333970769452,-0.07806476723184508,-0.12230137710468508,0.0,0.0,0.0,0.0
515061000000,15344,515061000000,,BL_TO_BASELINK,BR_TO_BASELINK,FL_TO_BASELINK,FR_TO_BASELINK,0.06331623080695614,0.029059777311154278,-0.6329298175957856,-0.561674476843514,0.035144470920770096,-0.00017687014426726044,-0.00017116295843151025,-0.00012041616560886509,0.0,0.0,0.0,0.0
515062000000,15345,515062000000,,BL_TO_BASELINK,BR_TO_BASELINK,FL_TO_BASELINK,FR_TO_BASELINK,0.06331605404745133,0.029059250680148807,-0.6330091566554827,-0.5618062139965971,-0.00014155361803433464,-0.0004944981565605938,-0.07710459456486121,-0.12203375535539776,0.0,0.0,0.0,0.0
515063000000,15346,515063000000,,BL_TO_BASELINK,BR_TO_BASELINK,FL_TO_BASELINK,FR_TO_BASELINK,0.06335329025480974,0.029059051568491867,-0.6330093439485012,-0.561806343057043,0.03718764971445763,-0.0001987671193373966,-0.00018954085877069538,-0.00013147169794174712,0.0,0.0,0.0,0.0
515064000000,15347,515064000000,,BL_TO_BASELINK,BR_TO_BASELINK,FL_TO_BASELINK,FR_TO_BASELINK,0.06335311189394588,0.02905851905492618,-0.6330901888755331,-0.5619389804842925,-0.00014252095120801528,-0.0004970563499243144,-0.0782376710897914,-0.12216178882121942,0.0,0.0,0.0,0.0
515065000000,15348,515065000000,,BL_TO_BASELINK,BR_TO_BASELINK,FL_TO_BASELINK,FR_TO_BASELINK,0.063389149813875,0.029058332002369625,-0.6330903659674991,-0.5619391033704044,0.03598825415440723,-0.0001866872735485567,-0.000179320607531272,-0.00012525501431798897,0.0,0.0,0.0,0.0
515066000000,15349,515066000000,,BL_TO_BASELINK,BR_TO_BASELINK,FL_TO_BASELINK,FR_TO_BASELINK,0.06338897252670517,0.029057802650834574,-0.6331706223865812,-0.5620710315169593,-0.00014222210508377242,-0.0004964466403442336,-0.07795256081019485,-0.122042001925743,0.0,0.0,0.0,0.0
515066000000,15350,515067000000,,BL_TO_BASELINK,BR_TO_BASELINK,FL_TO_BASELINK,FR_TO_BASELINK,0.06342571160526322,0.029057607926391782,-0.6331708059007113,-0.5620711582778508,0.03669045261959876,-0.0001943744597600744,-0.00018575337516579804,-0.0001291107622488144,0.0,0.0,0.0,0.0
515066000000,15351,515068000000,,BL_TO_BASELINK,BR_TO_BASELINK,FL_TO_BASELINK,FR_TO_BASELINK,0.0634255337990508,0.029057076419151784,-0.6332516605726219,-0.5622033663084043,-0.00014258580536544163,-0.000497398538821435,-0.07839867829926468,-0.12205016144369693,0.0,0.0,0.0,0.0
515069000000,15352,515069000000,,BL_TO_BASELINK,BR_TO_BASELINK,FL_TO_BASELINK,FR_TO_BASELINK,0.06346186961957478,0.029056885875027305,-0.6332518405761238,-0.5622034909690399,0.03628682392616135,-0.00019018756460043723,-0.0001822246060850935,-0.00012697471593501458,0.0,0.0,0.0,0.0
515071000000,15353,515070000000,,BL_TO_BASELINK,BR_TO_BASELINK,FL_TO_BASELINK,FR_TO_BASELINK,0.06346169226993048,0.029056355592571137,-0.6333324820016966,-0.5623353888185125,-0.0001424644486036561,-0.0004971299804463342,-0.07831506571453759,-0.12195976946753806,0.0,0.0,0.0,0.0
515071000000,15354,515071000000,,BL_TO_BASELINK,BR_TO_BASELINK,FL_TO_BASELINK,FR_TO_BASELINK,0.06349831810157358,0.029056161991048768,-0.6333326645838451,-0.5623355150532046,0.03657716787974788,-0.00019325012262706026,-0.00018479948833979853,-0.00012852754253487447,0.0,0.0,0.0,0.0
515072000000,15355,515072000000,,BL_TO_BASELINK,BR_TO_BASELINK,FL_TO_BASELINK,FR_TO_BASELINK,0.06349814058072933,0.029055630913761732,-0.633413541077303,-0.5624674849093569,-0.00014257326184761304,-0.0004973873003575047,-0.07847329857110462,-0.12191984595254043,0.0,0.0,0.0,0.0
515073000000,15356,515073000000,,BL_TO_BASELINK,BR_TO_BASELINK,FL_TO_BASELINK,FR_TO_BASELINK,0.06353462404869958,0.029055438765718478,-0.6334137224407286,-0.5624676104201836,0.03643469156396745,-0.00019179433978741556,-0.00018356985884719623,-0.0001277810611336888,0.0,0.0,0.0,0.0
515074000000,15357,515074000000,,BL_TO_BASELINK,BR_TO_BASELINK,FL_TO_BASELINK,FR_TO_BASELINK,0.06353444673869646,0.02905490823412471,-0.6334945064495585,-0.5625994299171513,-0.00014252479887138375,-0.0004972887302418655,-0.07844978121649515,-0.12186224214209163,0.0,0.0,0.0,0.0
515075000000,15358,515075000000,,BL_TO_BASELINK,BR_TO_BASELINK,FL_TO_BASELINK,FR_TO_BASELINK,0.06357104321341733,0.029054714872277287,-0.6334946888367199,-0.5625995560556571,0.03654783323314674,-0.00019301002266195605,-0.00018458950090743942,-0.00012839416440714457,0.0,0.0,0.0,0.0
515076000000,15359,515076000000,,BL_TO_BASELINK,BR_TO_BASELINK,FL_TO_BASELINK,FR_TO_BASELINK,0.06357086584791904,0.0290541840213816,-0.6335755702634174,-0.5627313892339831,-0.00014257104143478028,-0.0004974019444235062,-0.07851627835712083,-0.12183494088644223,0.0,0.0,0.0,0.0
515077000000,15360,515077000000,,BL_TO_BASELINK,BR_TO_BASELINK,FL_TO_BASELINK,FR_TO_BASELINK,0.06360740900275719,0.02905399118879437,-0.6335757522069585,-0.5627315151117269,0.03649449240979339,-0.00019248002202236492,-0.00018414033435059513,-0.0001281203201779213,0.0,0.0,0.0,0.0
515078000000,15361,515078000000,,BL_TO_BASELINK,BR_TO_BASELINK,FL_TO_BASELINK,FR_TO_BASELINK,0.06360723173625171,0.029053460567750378,-0.6336565917540504,-0.5628632783028653,-0.00014255299889637252,-0.000497365206133471,-0.07850460899104708,-0.12180420306364062,0.0,0.0,0.0,0.0
515079000000,15362,515079000000,,BL_TO_BASELINK,BR_TO_BASELINK,FL_TO_BASELINK,FR_TO_BASELINK,0.06364382171310723,0.029053267198014154,-0.633656774147564,-0.5628634044558343,0.036541389803289324,-0.00019301797766141382,-0.00018458812862304913,-0.00012838694795447997,0.0,0.0,0.0,0.0
515080000000,15363,515080000000,,BL_TO_BASELINK,BR_TO_BASELINK,FL_TO_BASELINK,FR_TO_BASELINK,0.06364364443751924,0.029052736452131356,-0.6337376490963926,-0.5629951660347974,-0.00014257690289928848,-0.0004974245821827913,-0.07852999417794418,-0.12179008902411928,0.0,0.0,0.0,0.0
515081000000,15364,515081000000,,BL_TO_BASELINK,BR_TO_BASELINK,FL_TO_BASELINK,FR_TO_BASELINK,0.06368021108902511,0.029052543272694464,-0.6337378313263518,-0.5629952920903616,0.03651808384489838,-0.00019282750543855864,-0.00018442219468795679,-0.00012828235903154794,0.0,0.0,0.0,0.0
515082000000,15365,515082000000,,BL_TO_BASELINK,BR_TO_BASELINK,FL_TO_BASELINK,FR_TO_BASELINK,0.06368003386522858,0.029052012614013023,-0.6338186875359728,-0.5631270207475243,-0.00014257694142746913,-0.000497427868470457,-0.078524062540823,-0.12177724170036089,0.0,0.0,0.0,0.0
515083000000,15366,515083000000,,BL_TO_BASELINK,BR_TO_BASELINK,FL_TO_BASELINK,FR_TO_BASELINK,0.06371661688876618,0.02905181920317723,-0.6338188699557641,-0.5631271469173793,0.03653451747512645,-0.0001930594104237876,-0.00018461114631955489,-0.00012839174295458528,0.0,0.0,0.0,0.0
515084000000,15367,515084000000,,BL_TO_BASELINK,BR_TO_BASELINK,FL_TO_BASELINK,FR_TO_BASELINK,0.06371643967568108,0.02905128849628902,-0.6338997360441532,-0.5632588705500847,-0.00014259563276299708,-0.0004974753767121171,-0.07853400788179173,-0.12177251406604711,0.0,0.0,0.0,0.0
515085000000,15368,515085000000,,BL_TO_BASELINK,BR_TO_BASELINK,FL_TO_BASELINK,FR_TO_BASELINK,0.06375300919261839,0.029051095162147433,-0.6338999183937677,-0.5632589966759589,0.03652104699006591,-0.00019298277235930278,-0.000184539929677624,-0.00012834363920923714,0.0,0.0,0.0,0.0
515086000000,15369,515086000000,,BL_TO_BASELINK,BR_TO_BASELINK,FL_TO_BASELINK,FR_TO_BASELINK,0.06375283201073323,0.02905056447430887,-0.6339807778424156,-0.5633907041781061,-0.00014260585070179077,-0.0004975024274031445,-0.07853200399523882,-0.1217691283122975,0.0,0.0,0.0,0.0
515087000000,15370,515087000000,,BL_TO_BASELINK,BR_TO_BASELINK,FL_TO_BASELINK,FR_TO_BASELINK,0.06378940411525402,0.029050371052251833,-0.6339809602605744,-0.5633908303434563,0.036523691972322546,-0.00019307111222699458,-0.00018460803277014354,-0.00012838009886933371,0.0,0.0,0.0,0.0
515088000000,15371,515088000000,,BL_TO_BASELINK,BR_TO_BASELINK,FL_TO_BASELINK,FR_TO_BASELINK,0.06378922695009503,0.029049840337652455,-0.634061822163547,-0.5635225323197606,-0.0001426234402498519,-0.0004975470097038845,-0.07853632881348224,-0.12176888706661601,0.0,0.0,0.0,0.0
515089000000,15372,515089000000,,BL_TO_BASELINK,BR_TO_BASELINK,FL_TO_BASELINK,FR_TO_BASELINK,0.06382578901445068,0.029049646956305963,-0.6340620045415886,-0.5635226584581936,0.03651369661197304,-0.00019303060132442457,-0.00018456728958916174,-0.0001283505467757698,0.0,0.0,0.0,0.0
515090000000,15373,515090000000,,BL_TO_BASELINK,BR_TO_BASELINK,FL_TO_BASELINK,FR_TO_BASELINK,0.06382561187362779,0.0290491162402553,-0.6341428631177415,-0.5636543505074236,-0.0001426385425299867,-0.0004975857628344571,-0.07853676379012364,-0.12176949284267605,0.0,0.0,0.0,0.0
515091000000,15374,515091000000,,BL_TO_BASELINK,BR_TO_BASELINK,FL_TO_BASELINK,FR_TO_BASELINK,0.06386216937267886,0.029048922845063885,-0.6341430455019115,-0.5636544766467715,0.03650918481565718,-0.00019304480266827545,-0.0001845729022084061,-0.00012834927719192202,0.0,0.0,0.0,0.0
515092000000,15375,515092000000,,BL_TO_BASELINK,BR_TO_BASELINK,FL_TO_BASELINK,FR_TO_BASELINK,0.06386199225052192,0.029048392110048837,-0.634223904444065,-0.5637861626793619,-0.0001426566981146543,-0.0004976317862073823,-0.07853989209547924,-0.12177133734639649,0.0,0.0,0.0,0.0
515093000000,15376,515093000000,,BL_TO_BASELINK,BR_TO_BASELINK,FL_TO_BASELINK,FR_TO_BASELINK,0.06389854043093912,0.02904819875159248,-0.6342240867919902,-0.5637862887938621,0.03649991456500936,-0.00019300834226124164,-0.00018453595658746158,-0.00012832239857313993,0.0,0.0,0.0,0.0
515094000000,15377,515094000000,,BL_TO_BASELINK,BR_TO_BASELINK,FL_TO_BASELINK,FR_TO_BASELINK,0.06389836333000964,0.029047668007098792,-0.6343049440645459,-0.5639179670551773,-0.0001426739135717628,-0.0004976754493095994,-0.07854167802166707,-0.12177335634603573,0.0,0.0,0.0,0.0
515095000000,15378,515095000000,,BL_TO_BASELINK,BR_TO_BASELINK,FL_TO_BASELINK,FR_TO_BASELINK,0.06393490420049819,0.02904747466667601,-0.6343051263923254,-0.5639180931545749,0.03649265582280325,-0.0001929906429689529,-0.00018451505087013764,-0.0001283054333323999,0.0,0.0,0.0,0.0
515096000000,15379,515096000000,,BL_TO_BASELINK,BR_TO_BASELINK,FL_TO_BASELINK,FR_TO_BASELINK,0.06393472711845849,0.02904694390648821,-0.6343859834225665,-0.5640497649364189,-0.00014269220378704262,-0.0004977215401204271,-0.07854452159897701,-0.12177568638414558,0.0,0.0,0.0,0.0
515097000000,15380,515097000000,,BL_TO_BASELINK,BR_TO_BASELINK,FL_TO_BASELINK,FR_TO_BASELINK,0.06397125885719124,0.02904675060421802,-0.6343861657134902,-0.5640498910105798,0.03648357315124884,-0.00019295279173347363,-0.00018447728900977678,-0.00012827839252312762,0.0,0.0,0.0,0.0
515098000000,15381,515098000000,,BL_TO_BASELINK,BR_TO_BASELINK,FL_TO_BASELINK,FR_TO_BASELINK,0.06397108179436994,0.029046219829510278,-0.6344670223887974,-0.5641815554125031,-0.00014271009623257475,-0.0004977665412088245,-0.07854689790852765,-0.12177796796161464,0.0,0.0,0.0,0.0
515099000000,15382,515099000000,,BL_TO_BASELINK,BR_TO_BASELINK,FL_TO_BASELINK,FR_TO_BASELINK,0.06400760523370597,0.02904602655850219,-0.6344672046489439,-0.5641816814651435,0.03647532458209157,-0.00019292186623071084,-0.0001844455522029484,-0.00012825516206455695,0.0,0.0,0.0,0.0
515103000000,15383,515100000000,,BL_TO_BASELINK,BR_TO_BASELINK,FL_TO_BASELINK,FR_TO_BASELINK,0.06400742818889515,0.029045495766267138,-0.6345480616800518,-0.5643133388459631,-0.0001427282747841485,-0.0004978121165774008,-0.07854962036058746,-0.12178025227233505,0.0,0.0,0.0,0.0
515103000000,15384,515101000000,,BL_TO_BASELINK,BR_TO_BASELINK,FL_TO_BASELINK,FR_TO_BASELINK,0.06404394271873493,0.029045302533683426,-0.6345482439035397,-0.5643134648735035,0.03646646527573251,-0.00019288377325239053,-0.00018440786228821754,-0.00012822841197176332,0.0,0.0,0.0,0.0
515103000000,15385,515102000000,,BL_TO_BASELINK,BR_TO_BASELINK,FL_TO_BASELINK,FR_TO_BASELINK,0.06404376569202874,0.029044771725395435,-0.634629101016051,-0.5644451148924574,-0.00014274625131176222,-0.0004978571435758153,-0.07855214815364475,-0.12178246789844847,0.0,0.0,0.0,0.0
515103000000,15386,515103000000,,BL_TO_BASELINK,BR_TO_BASELINK,FL_TO_BASELINK,FR_TO_BASELINK,0.06408027157537433,0.029044578529074272,-0.634629283204811,-0.5644452408960454,0.03645786928731671,-0.00019284784795357834,-0.0001843720572705515,-0.00012820285981188229,0.0,0.0,0.0,0.0
515103000000,15387,515104000000,,BL_TO_BASELINK,BR_TO_BASELINK,FL_TO_BASELINK,FR_TO_BASELINK,0.06408009456626473,0.029044047704108067,-0.6347101405696769,-0.5645768836698579,-0.00014276433935822563,-0.000497902395601435,-0.07855481138184425,-0.12178468505368997,0.0,0.0,0.0,0.0
515105000000,15388,515105000000,,BL_TO_BASELINK,BR_TO_BASELINK,FL_TO_BASELINK,FR_TO_BASELINK,0.06411659157667593,0.02904385454681524,-0.6347103227214745,-0.5645770096481186,0.03644904649403094,-0.00019280915594362819,-0.00018433396232389598,-0.00012817596415575644,0.0,0.0,0.0,0.0
515106000000,15389,515106000000,,BL_TO_BASELINK,BR_TO_BASELINK,FL_TO_BASELINK,FR_TO_BASELINK,0.06411641458501371,0.029043323705403523,-0.634791180285406,-0.5647086450880874,-0.00014278234219967934,-0.0004979474053125738,-0.07855739337793329,-0.1217868693738123,0.0,0.0,0.0,0.0
515107000000,15390,515107000000,,BL_TO_BASELINK,BR_TO_BASELINK,FL_TO_BASELINK,FR_TO_BASELINK,0.06415290287978159,0.029043130585977295,-0.6347913624013,-0.5647087710416585,0.036440381036436785,-0.000192771624973484,-0.00018429689540684635,-0.0001281497362193018,0.0,0.0,0.0,0.0
515108000000,15391,515108000000,,BL_TO_BASELINK,BR_TO_BASELINK,FL_TO_BASELINK,FR_TO_BASELINK,0.06415272590459331,0.02904259972494394,-0.634872220681606,-0.5648403995700786,-0.00014280034762083338,-0.0004979923773447414,-0.07855999325550979,-0.12178902988020945,0.0,0.0,0.0,0.0
515109000000,15392,515109000000,,BL_TO_BASELINK,BR_TO_BASELINK,FL_TO_BASELINK,FR_TO_BASELINK,0.0641892055879163,0.029042406643190688,-0.634872402761884,-0.5648405254991715,0.03643181959537989,-0.00019273429331965325,-0.0001842600946099851,-0.0001281237486759415,0.0,0.0,0.0,0.0
515110000000,15393,515110000000,,BL_TO_BASELINK,BR_TO_BASELINK,FL_TO_BASELINK,FR_TO_BASELINK,0.06418902862909892,0.029041875762905178,-0.6349532616373335,-0.5649721470622389,-0.00014281820580379356,-0.0004980369252325922,-0.07856246675154124,-0.12179111503842144,0.0,0.0,0.0,0.0
515111000000,15394,515111000000,,BL_TO_BASELINK,BR_TO_BASELINK,FL_TO_BASELINK,FR_TO_BASELINK,0.06422549971108982,0.02904168271841634,-0.6349534436823188,-0.5649722729669868,0.03642326827251775,-0.00019269736953097388,-0.00018422360019786782,-0.0001280979219970002,0.0,0.0,0.0,0.0
515112000000,15395,515112000000,,BL_TO_BASELINK,BR_TO_BASELINK,FL_TO_BASELINK,FR_TO_BASELINK,0.06422532276846038,0.029041151818772093,-0.6350343031953116,-0.5651038875775107,-0.00014283612454869116,-0.0004980816453961992,-0.07856498744872575,-0.12179323146555882,0.0,0.0,0.0,0.0
515113000000,15396,515113000000,,BL_TO_BASELINK,BR_TO_BASELINK,FL_TO_BASELINK,FR_TO_BASELINK,0.06426178512395353,0.02904095881264368,-0.6350344852040664,-0.5651040134573044,0.03641459183856091,-0.00019265934752134284,-0.00018418615508958291,-0.00012807150449311439,0.0,0.0,0.0,0.0
515114000000,15397,515114000000,,BL_TO_BASELINK,BR_TO_BASELINK,FL_TO_BASELINK,FR_TO_BASELINK,0.06426160819744986,0.029040427893704646,-0.6351153453461009,-0.5652356210991432,-0.00014285407242652787,-0.0004981264728447232,-0.07856751289911443,-0.12179538222667849,0.0,0.0,0.0,0.0
515115000000,15398,515115000000,,BL_TO_BASELINK,BR_TO_BASELINK,FL_TO_BASELINK,FR_TO_BASELINK,0.06429806186012321,0.029040234925661323,-0.6351155273188756,-0.5652357469541176,0.036405949120419896,-0.00019262160186030858,-0.0001841489494608245,-0.00012804523971971654,0.0,0.0,0.0,0.0
515116000000,15399,515116000000,,BL_TO_BASELINK,BR_TO_BASELINK,FL_TO_BASELINK,FR_TO_BASELINK,0.06429788494963518,0.029039703987299603,-0.6351963881080582,-0.5653673476613488,-0.0001428720431828137,-0.0004981713640955579,-0.07857005078328526,-0.12179754680934352,0.0,0.0,0.0,0.0
515117000000,15400,515117000000,,BL_TO_BASELINK,BR_TO_BASELINK,FL_TO_BASELINK,FR_TO_BASELINK,0.06433432991173849,0.029039511057471046,-0.6351965700447568,-0.5653674734914365,0.03639729855504611,-0.00019258372653546685,-0.00018411163845481054,-0.00012801891615198124,0.0,0.0,0.0,0.0
515118000000,15401,515118000000,,BL_TO_BASELINK,BR_TO_BASELINK,FL_TO_BASELINK,FR_TO_BASELINK,0.06433415301721279,0.02903898009971506,-0.6352774314665872,-0.5654990672621647,-0.00014289000751919329,-0.0004982162401887744,-0.07857257491559541,-0.12179971286786177,0.0,0.0,0.0,0.0
515119000000,15402,515119000000,,BL_TO_BASELINK,BR_TO_BASELINK,FL_TO_BASELINK,FR_TO_BASELINK,0.06437058929252437,0.029038787207960937,-0.6352776133673395,-0.565499193067426,0.03638866173256451,-0.00019254599460515054,-0.00018407444675672818,-0.00012799266511009932,0.0,0.0,0.0,0.0
515120000000,15403,515120000000,,BL_TO_BASELINK,BR_TO_BASELINK,FL_TO_BASELINK,FR_TO_BASELINK,0.06437041241389885,0.029038256230784043,-0.6353584754236916,-0.5656307799105722,-0.00014290797828345886,-0.0004982611342059864,-0.07857509939797477,-0.1218018828766331,0.0,0.0,0.0,0.0
515121000000,15404,515121000000,,BL_TO_BASELINK,BR_TO_BASELINK,FL_TO_BASELINK,FR_TO_BASELINK,0.06440683999475816,0.0290380633771683,-0.6353586572884407,-0.5656309056909645,0.03638001720176149,-0.00019250819367149646,-0.00018403719436001914,-0.0001279663765281422,0.0,0.0,0.0,0.0
515122000000,15405,515122000000,,BL_TO_BASELINK,BR_TO_BASELINK,FL_TO_BASELINK,FR_TO_BASELINK,0.06440666313199017,0.029037532380581155,-0.6354395199734828,-0.5657624856062675,-0.0001429259503851893,-0.0004983060350282412,-0.07857761872727745,-0.12180405594347052,0.0,0.0,0.0,0.0
515123000000,15406,515123000000,,BL_TO_BASELINK,BR_TO_BASELINK,FL_TO_BASELINK,FR_TO_BASELINK,0.06444308202433913,0.02903733956504695,-0.6354397018022819,-0.5657626113618122,0.03637137857750784,-0.00019247045332498186,-0.00018399999195944927,-0.00012794011821438273,0.0,0.0,0.0,0.0
515124000000,15407,515124000000,,BL_TO_BASELINK,BR_TO_BASELINK,FL_TO_BASELINK,FR_TO_BASELINK,0.06444290517737894,0.02903680854902646,-0.6355205651160194,-0.5658941843547183,-0.00014294430799675212,-0.0004983532773080585,-0.07858049882708806,-0.12180624106806937,0.0,0.0,0.0,0.0
515125000000,15408,515125000000,,BL_TO_BASELINK,BR_TO_BASELINK,FL_TO_BASELINK,FR_TO_BASELINK,0.06447931528582629,0.029036615772831453,-0.6355207469078383,-0.5658943100848095,0.03636264398528714,-0.0001924314466006799,-0.0001839617504346136,-0.00012791325485191768,0.0,0.0,0.0,0.0
515126000000,15409,515126000000,,BL_TO_BASELINK,BR_TO_BASELINK,FL_TO_BASELINK,FR_TO_BASELINK,0.06447913845447317,0.02903608473680208,-0.635601610979192,-0.5660258762234225,-0.00014296306287137073,-0.000498402783469902,-0.07858378025633866,-0.12180844773864344,0.0,0.0,0.0,0.0
515127000000,15410,515127000000,,BL_TO_BASELINK,BR_TO_BASELINK,FL_TO_BASELINK,FR_TO_BASELINK,0.06451553964662615,0.029035892001603614,-0.6356017927326665,-0.566026001927252,0.03635377641538573,-0.0001923907774068062,-0.00018392213789134026,-0.0001278855863196815,0.0,0.0,0.0,0.0
515128000000,15411,515128000000,,BL_TO_BASELINK,BR_TO_BASELINK,FL_TO_BASELINK,FR_TO_BASELINK,0.06451536283069181,0.029035360945639965,-0.6356826575442156,-0.5661575614559524,-0.00014298188151697783,-0.0004984526556251409,-0.07858713891435132,-0.12181067027740042,0.0,0.0,0.0,0.0
515129000000,15412,515129000000,,BL_TO_BASELINK,BR_TO_BASELINK,FL_TO_BASELINK,FR_TO_BASELINK,0.06455175509795019,0.029035168251549948,-0.6356828392592515,-0.5661576871334582,0.036344899784610724,-0.00019234998963002514,-0.0001838824269536632,-0.00012785785921470838,0.0,0.0,0.0,0.0
515130000000,15413,515130000000,,BL_TO_BASELINK,BR_TO_BASELINK,FL_TO_BASELINK,FR_TO_BASELINK,0.06455157829734759,0.02903463717573196,-0.6357637047678981,-0.5662892401469151,-0.0001430006999568259,-0.0004985025798522474,-0.07859048318810383,-0.12181290650207377,0.0,0.0,0.0,0.0
515131000000,15414,515131000000,,BL_TO_BASELINK,BR_TO_BASELINK,FL_TO_BASELINK,FR_TO_BASELINK,0.0645879616180931,0.02903444452271664,-0.6357638864444954,-0.5662893657980703,0.03633600141501949,-0.0001923092339271848,-0.00018384271248188255,-0.00012783010623898527,0.0,0.0,0.0,0.0
515132000000,15415,515132000000,,BL_TO_BASELINK,BR_TO_BASELINK,FL_TO_BASELINK,FR_TO_BASELINK,0.06458778483277605,0.029033913426969704,-0.6358447526471664,-0.5664209123244177,-0.00014301954007391732,-0.0004985525886734843,-0.07859382449717081,-0.12181517234206213,0.0,0.0,0.0,0.0
515133000000,15416,515133000000,,BL_TO_BASELINK,BR_TO_BASELINK,FL_TO_BASELINK,FR_TO_BASELINK,0.0646241591742438,0.029033720815132114,-0.6358449342852097,-0.5664210379491266,0.036327070311061575,-0.00019226837458463653,-0.0001838028828623911,-0.00012780226200434508,0.0,0.0,0.0,0.0
515134000000,15417,515134000000,,BL_TO_BASELINK,BR_TO_BASELINK,FL_TO_BASELINK,FR_TO_BASELINK,0.06462398240418565,0.029033189699401163,-0.6359258011789013,-0.5665525780120682,-0.00014303840306736926,-0.0004986026825472278,-0.07859716448116874,-0.12181746725252476,0.0,0.0,0.0,0.0
515135000000,15418,515135000000,,BL_TO_BASELINK,BR_TO_BASELINK,FL_TO_BASELINK,FR_TO_BASELINK,0.06466034776005358,0.029032997128684457,-0.6359259827784225,-0.5665527036103377,0.036318132885531075,-0.00019222757196351442,-0.0001837630864308798,-0.00012777442631051877,0.0,0.0,0.0,0.0
515136000000,15419,515136000000,,BL_TO_BASELINK,BR_TO_BASELINK,FL_TO_BASELINK,FR_TO_BASELINK,0.06466017100522947,0.02903246599317022,-0.6360068503159066,-0.5666842373157301,-0.00014305727953555641,-0.0004986528282924368,-0.07860050146774833,-0.12181978100174065,0.0,0.0,0.0,0.0
515137000000,15420,515137000000,,BL_TO_BASELINK,BR_TO_BASELINK,FL_TO_BASELINK,FR_TO_BASELINK,0.0646965273812743,0.0290322734634767,-0.6360070318769875,-0.5666843628876013,0.03630920105532942,-0.00019218686713469435,-0.00018372336685530677,-0.00012774663257303365,0.0,0.0,0.0,0.0
515138000000,15421,515138000000,,BL_TO_BASELINK,BR_TO_BASELINK,FL_TO_BASELINK,FR_TO_BASELINK,0.0646963506416558,0.029031742308637476,-0.6360878999695085,-0.5668158903976934,-0.00014307615707972315,-0.000498702981309801,-0.07860383137342333,-0.12182210139609848,0.0,0.0,0.0,0.0
515139000000,15422,515139000000,,BL_TO_BASELINK,BR_TO_BASELINK,FL_TO_BASELINK,FR_TO_BASELINK,0.0647326980445202,0.029031549819872993,-0.636088081492229,-0.5668160159432141,0.036300275560429016,-0.00019214624867147645,-0.0001836837158874019,-0.00012771887711240243,0.0,0.0,0.0,0.0
515140000000,15423,515140000000,,BL_TO_BASELINK,BR_TO_BASELINK,FL_TO_BASELINK,FR_TO_BASELINK,0.064732521320086,0.02903101864571056,-0.6361689501393215,-0.5669475372590718,-0.00014309503636078524,-0.0004987531272863804,-0.07860715934604387,-0.12182442028586449,0.0,0.0,0.0,0.0
515141000000,15424,515141000000,,BL_TO_BASELINK,BR_TO_BASELINK,FL_TO_BASELINK,FR_TO_BASELINK,0.06476885972622526,0.02903082619801367,-0.6361691316235571,-0.566947662778162,0.036291326507066964,-0.00019210549297831586,-0.00018364393530512224,-0.00012769103257434522,0.0,0.0,0.0,0.0
515142000000,15425,515142000000,,BL_TO_BASELINK,BR_TO_BASELINK,FL_TO_BASELINK,FR_TO_BASELINK,0.06476868301701089,0.029030295005647133,-0.6362500006374354,-0.5670791781279867,-0.0001431139239323198,-0.0004988033124340499,-0.07861049651473488,-0.12182674194001766,0.0,0.0,0.0,0.0
515143000000,15426,515143000000,,BL_TO_BASELINK,BR_TO_BASELINK,FL_TO_BASELINK,FR_TO_BASELINK,0.06480501242505099,0.029030102599033825,-0.6362501820831916,-0.5670793036206536,0.03628237556482801,-0.00019206471787659718,-0.00018360413542540394,-0.00012766317458655363,0.0,0.0,0.0,0.0
515144000000,15427,515144000000,,BL_TO_BASELINK,BR_TO_BASELINK,FL_TO_BASELINK,FR_TO_BASELINK,0.06480483573105289,0.029029571389008524,-0.6363310513800169,-0.5672108131080282,-0.00014313281375929326,-0.0004988534886365067,-0.07861384134831044,-0.12182905499341343,0.0,0.0,0.0,0.0
515145000000,15428,515145000000,,BL_TO_BASELINK,BR_TO_BASELINK,FL_TO_BASELINK,FR_TO_BASELINK,0.0648411561219957,0.02902937902362268,-0.6363312327871835,-0.5672109385742061,0.03627340536259048,-0.00019202379211975124,-0.00018356419968260096,-0.00012763522819143197,0.0,0.0,0.0,0.0
515146000000,15429,515146000000,,BL_TO_BASELINK,BR_TO_BASELINK,FL_TO_BASELINK,FR_TO_BASELINK,0.06484097944319611,0.029028847795952828,-0.6364121023769496,-0.5673424421828468,-0.00014315170639132846,-0.000498903662649465,-0.07861719653233984,-0.12183135522071073,0.0,0.0,0.0,0.0
515147000000,15430,515147000000,,BL_TO_BASELINK,BR_TO_BASELINK,FL_TO_BASELINK,FR_TO_BASELINK,0.06487729079743598,0.029028655471934783,-0.6364122837454111,-0.5673425676224664,0.03626441554174245,-0.0001919827267977195,-0.00018352413635113612,-0.00012760719736901183,0.0,0.0,0.0,0.0
515148000000,15431,515148000000,,BL_TO_BASELINK,BR_TO_BASELINK,FL_TO_BASELINK,FR_TO_BASELINK,0.06487711413381181,0.02902812422660972,-0.6364931536388028,-0.567474065341047,-0.00014317060232473672,-0.0004989538504571109,-0.0786205620066365,-0.12183364422300272,0.0,0.0,0.0,0.0
515149000000,15432,515149000000,,BL_TO_BASELINK,BR_TO_BASELINK,FL_TO_BASELINK,FR_TO_BASELINK,0.06491341644293769,0.02902793194401454,-0.6364933349685185,-0.5674741907540817,0.03625541727782958,-0.00019194160852871456,-0.0001834840224344894,-0.00012757913149236133,0.0,0.0,0.0,0.0
515150000000,15433,515150000000,,BL_TO_BASELINK,BR_TO_BASELINK,FL_TO_BASELINK,FR_TO_BASELINK,0.06511312483435638,0.029226999811061027,-0.6364568932973027,-0.5674785409728589,0.19965837301489753,0.19893572243973487,0.03416208092554767,-0.000493235430334648,0.0,0.0,0.0,0.0
515151000000,15434,515151000000,,BL_TO_BASELINK,BR_TO_BASELINK,FL_TO_BASELINK,FR_TO_BASELINK,0.06551310848444558,0.029626999803546106,-0.6360568911970503,-0.5670785389531776,0.40000023792819167,0.3999999979829784,0.39999980634231325,0.3999998109628548,0.0,0.0,0.0,0.0
515152000000,15435,515152000000,,BL_TO_BASELINK,BR_TO_BASELINK,FL_TO_BASELINK,FR_TO_BASELINK,0.0661150466539615,0.03023188362096807,-0.6357412751317391,-0.5667403640197133,0.6019336620186496,0.6048475197294558,0.3157851483796604,0.33822074194090757,0.0,0.0,0.0,0.0
515153000000,15436,515153000000,,BL_TO_BASELINK,BR_TO_BASELINK,FL_TO_BASELINK,FR_TO_BASELINK,0.06691503983493252,0.03103188357455,-0.6349412741038174,-0.5659403631258,0.7999998450345601,0.7999999919352916,0.800000063771094,0.800000087936364,0.0,0.0,0.0,0.0
515154000000,15437,515154000000,,BL_TO_BASELINK,BR_TO_BASELINK,FL_TO_BASELINK,FR_TO_BASELINK,0.06783336316910304,0.031950321737057585,-0.6340222608135964,-0.5652889670902725,0.9183266784976141,0.9184360883966065,0.9190084698066876,0.6513643183450782,0.0,0.0,0.0,0.0
515155000000,15438,515155000000,,BL_TO_BASELINK,BR_TO_BASELINK,FL_TO_BASELINK,FR_TO_BASELINK,0.06875085993429586,0.0328668356140307,-0.6334530251108701,-0.564369428975021,0.9163631148691775,0.9143145766706249,0.5393206491101546,0.9244623917789685,0.0,0.0,0.0,0.0
515156000000,15439,515156000000,,BL_TO_BASELINK,BR_TO_BASELINK,FL_TO_BASELINK,FR_TO_BASELINK,0.06966851403667018,0.03378405643334759,-0.6325364588592768,-0.5636235710943103,0.9176554410230918,0.917220653816501,0.9165634955079283,0.7458299573670137,0.0,0.0,0.0,0.0
515157000000,15440,515157000000,,BL_TO_BASELINK,BR_TO_BASELINK,FL_TO_BASELINK,FR_TO_BASELINK,0.07058612446049395,0.03470095784942817,-0.6318208244604824,-0.5627045429906827,0.9176114488671221,0.9169014253025514,0.7156305006078134,0.9190149699746659,0.0,0.0,0.0,0.0
515160000000,15441,515158000000,,BL_TO_BASELINK,BR_TO_BASELINK,FL_TO_BASELINK,FR_TO_BASELINK,0.07150383980542951,0.035618380777404646,-0.6309038423026241,-0.5619776847087321,0.9177127165045911,0.9174269175077717,0.9169808872908204,0.7320890312018766,0.0,0.0,0.0,0.0
515160000000,15442,515159000000,,BL_TO_BASELINK,BR_TO_BASELINK,FL_TO_BASELINK,FR_TO_BASELINK,0.07242172144449821,0.03653626291027656,-0.6299859580742044,-0.5610597845471412,0.917882030724041,0.9178821824745493,0.9178809602120764,0.9178850034403664,0.0,0.0,0.0,0.0
515160000000,15443,515160000000,,BL_TO_BASELINK,BR_TO_BASELINK,FL_TO_BASELINK,FR_TO_BASELINK,0.07333927565213205,0.0374529965775805,-0.6293378849456568,-0.5601847665163664,0.9174958556682369,0.9166759167433964,0.6537821946822835,0.870542478950065,0.0,0.0,0.0,0.0
515161000000,15444,515161000000,,BL_TO_BASELINK,BR_TO_BASELINK,FL_TO_BASELINK,FR_TO_BASELINK,0.0742571575799067,0.03837087870851352,-0.6284199985440573,-0.5592668788199378,0.9178821065129308,0.9178821852833075,0.9178814778093457,0.9178829498437991,0.0,0.0,0.0,0.0
515162000000,15445,515162000000,,BL_TO_BASELINK,BR_TO_BASELINK,FL_TO_BASELINK,FR_TO_BASELINK,0.07517485766899146,0.03928826404102459,-0.6275030975786811,-0.5585555021600577,0.9176988821978872,0.9173880864431521,0.9168996612644794,0.7139420210468129,0.0,0.0,0.0,0.0
515163000000,15446,515163000000,,BL_TO_BASELINK,BR_TO_BASELINK,FL_TO_BASELINK,FR_TO_BASELINK,0.07609248567320659,0.04020520454557186,-0.6267563164501064,-0.557636567150432,0.9176280818910382,0.9169404362813214,0.7467790394402515,0.9189243962540621,0.0,0.0,0.0,0.0
515165000000,15447,515164000000,,BL_TO_BASELINK,BR_TO_BASELINK,FL_TO_BASELINK,FR_TO_BASELINK,0.07701019851152857,0.041122665588287255,-0.6258392908848407,-0.5568884905242415,0.9177128566631876,0.9174609951123895,0.9170177101525976,0.7480653159133009,0.0,0.0,0.0,0.0
515166000000,15448,515166000000,,BL_TO_BASELINK,BR_TO_BASELINK,FL_TO_BASELINK,FR_TO_BASELINK,0.07884633495072979,0.042958785005517974,-0.6241655029409605,-0.5552009954051345,0.9184364371477777,0.9189014039533568,0.9199077110917928,0.7689150861003979,0.0,0.0,0.0,0.0
515168000000,15449,515167000000,,BL_TO_BASELINK,BR_TO_BASELINK,FL_TO_BASELINK,FR_TO_BASELINK,0.07976404560700079,0.043876022935662284,-0.6233748041139497,-0.5542824331732916,0.9177107112766291,0.9172379368207122,0.7907060542597201,0.9185527153934753,0.0,0.0,0.0,0.0
515168000000,15450,515168000000,,BL_TO_BASELINK,BR_TO_BASELINK,FL_TO_BASELINK,FR_TO_BASELINK,0.0806818075623088,0.044793547411032364,-0.6224576192971387,-0.5534579050670816,0.9177620054358947,0.9175245183350246,0.9171733887482969,0.8245305349729259,0.0,0.0,0.0,0.0
515169000000,15451,515169000000,,BL_TO_BASELINK,BR_TO_BASELINK,FL_TO_BASELINK,FR_TO_BASELINK,0.0815984724179124,0.04571000382168933,-0.6217239558202907,-0.5525333867938116,0.9166409324465876,0.9163904105036409,0.7335510151659547,0.9245589250331838,0.0,0.0,0.0,0.0
515170000000,15452,515170000000,,BL_TO_BASELINK,BR_TO_BASELINK,FL_TO_BASELINK,FR_TO_BASELINK,0.08251623400095909,0.046627586156722245,-0.6208066826689436,-0.5517393048274783,0.9177616532469324,0.9175824076337821,0.9172589528947709,0.7940870504622803,0.0,0.0,0.0,0.0
515171000000,15453,515171000000,,BL_TO_BASELINK,BR_TO_BASELINK,FL_TO_BASELINK,FR_TO_BASELINK,0.08343397386636386,0.047544914711617814,-0.6200106125814955,-0.5508208526892684,0.9177399211853513,0.9173285729277768,0.7960791543894161,0.9184447482428211,0.0,0.0,0.0,0.0
515172000000,15454,515172000000,,BL_TO_BASELINK,BR_TO_BASELINK,FL_TO_BASELINK,FR_TO_BASELINK,0.08435172089317522,0.04846242165570569,-0.6190934552428926,-0.5500598761915008,0.917747096818692,0.917507008390806,0.9171428678491265,0.7609874027942924,0.0,0.0,0.0,0.0
515173000000,15455,515173000000,,BL_TO_BASELINK,BR_TO_BASELINK,FL_TO_BASELINK,FR_TO_BASELINK,0.08526945740866054,0.049379778468781055,-0.6183215367312753,-0.5491413674292591,0.9177365921839082,0.9173568858235464,0.7719253302373702,0.9184985219797802,0.0,0.0,0.0,0.0
515174000000,15456,515174000000,,BL_TO_BASELINK,BR_TO_BASELINK,FL_TO_BASELINK,FR_TO_BASELINK,0.08618720982952688,0.05029720751980182,-0.6174044665376117,-0.5483296721479025,0.9177524843649321,0.9174291104425486,0.9170582845363838,0.8117019433881086,0.0,0.0,0.0,0.0
515175000000,15457,515175000000,,BL_TO_BASELINK,BR_TO_BASELINK,FL_TO_BASELINK,FR_TO_BASELINK,0.08710490015580064,0.0512144632654703,-0.6166597687596482,-0.5474109651648513,0.917690222182449,0.9172555273298264,0.7447030930414809,0.9186965680144079,0.0,0.0,0.0,0.0
515176000000,15458,515176000000,,BL_TO_BASELINK,BR_TO_BASELINK,FL_TO_BASELINK,FR_TO_BASELINK,0.08802263910095665,0.052131939357487944,-0.6157426706034954,-0.5466121068385545,0.9177390269580833,0.9174761756233825,0.9170850038217055,0.7988561787801028,0.0,0.0,0.0,0.0
515177000000,15459,515177000000,,BL_TO_BASELINK,BR_TO_BASELINK,FL_TO_BASELINK,FR_TO_BASELINK,0.08894038318696484,0.0530492830487459,-0.6149438069393094,-0.5456936698496992,0.9177441570996837,0.9173437309834905,0.7988724831005054,0.9184273699290519,0.0,0.0,0.0,0.0
515178000000,15460,515178000000,,BL_TO_BASELINK,BR_TO_BASELINK,FL_TO_BASELINK,FR_TO_BASELINK,0.08985813246011709,0.05396679858780562,-0.6140266354502177,-0.5449291585497322,0.9177493568795159,0.9175156133623608,0.9171579282152007,0.7645212220981894,0.0,0.0,0.0,0.0
515179000000,15461,515179000000,,BL_TO_BASELINK,BR_TO_BASELINK,FL_TO_BASELINK,FR_TO_BASELINK,0.0907758613752252,0.054884121467563496,-0.613246873114698,-0.5440106290174649,0.917729008095106,0.9173229708253988,0.7797644913915691,0.9185179961720747,0.0,0.0,0.0,0.0
515180000000,15462,515180000000,,BL_TO_BASELINK,BR_TO_BASELINK,FL_TO_BASELINK,FR_TO_BASELINK,0.09169361640211537,0.05580155676603393,-0.6123297910609597,-0.5431975882429887,0.9177551096555302,0.9174353771040785,0.9170707869115493,0.81304757865743,0.0,0.0,0.0,0.0
515181000000,15463,515181000000,,BL_TO_BASELINK,BR_TO_BASELINK,FL_TO_BASELINK,FR_TO_BASELINK,0.09261132024244656,0.05671884707013053,-0.6115786903510472,-0.5422789400441488,0.9177037785600757,0.9172901413145795,0.7511060152224877,0.9186368323687684,0.0,0.0,0.0,0.0
515181000000,15464,515182000000,,BL_TO_BASELINK,BR_TO_BASELINK,FL_TO_BASELINK,FR_TO_BASELINK,0.09352905899993758,0.05763631973839001,-0.6106615981465309,-0.5414782197255859,0.9177388597509633,0.9174727717199817,0.9170797216653123,0.8007179501111014,0.0,0.0,0.0,0.0
515181000000,15465,515183000000,,BL_TO_BASELINK,BR_TO_BASELINK,FL_TO_BASELINK,FR_TO_BASELINK,0.09444679995928418,0.058553666764249,-0.6098590566122137,-0.540559770672818,0.9177410533228556,0.9173470934109675,0.802549181614947,0.9184387659159146,0.0,0.0,0.0,0.0
515181000000,15466,515184000000,,BL_TO_BASELINK,BR_TO_BASELINK,FL_TO_BASELINK,FR_TO_BASELINK,0.09536455091714746,0.05947118623694436,-0.6089418781937725,-0.5397942879366182,0.9177510656170588,0.917519572729399,0.9171654790408036,0.7654933997952162,0.0,0.0,0.0,0.0
515181000000,15467,515185000000,,BL_TO_BASELINK,BR_TO_BASELINK,FL_TO_BASELINK,FR_TO_BASELINK,0.09628228782734727,0.06038853751082485,-0.6081606182967683,-0.5388757891157514,0.9177370245802127,0.9173513870494995,0.7812633192140088,0.9184868287794554,0.0,0.0,0.0,0.0
515181000000,15468,515186000000,,BL_TO_BASELINK,BR_TO_BASELINK,FL_TO_BASELINK,FR_TO_BASELINK,0.09720062141636632,0.06130713026586143,-0.6072416929753608,-0.5380683135412605,0.9183335423700516,0.9185885007361287,0.9188999383872757,0.8074723153509307,0.0,0.0,0.0,0.0
515181000000,15469,515187000000,,BL_TO_BASELINK,BR_TO_BASELINK,FL_TO_BASELINK,FR_TO_BASELINK,0.09811826908724086,0.062224335161411126,-0.6064906842055819,-0.5371494065120856,0.9176473478397699,0.917204301012007,0.7510016012124525,0.918896840754702,0.0,0.0,0.0,0.0
515181000000,15470,515188000000,,BL_TO_BASELINK,BR_TO_BASELINK,FL_TO_BASELINK,FR_TO_BASELINK,0.09903602409964307,0.06314186521322451,-0.6055734911686628,-0.5363599550945484,0.917755141943572,0.9175301844517204,0.9171812446108896,0.7894550526279869,0.0,0.0,0.0,0.0
515189000000,15471,515189000000,,BL_TO_BASELINK,BR_TO_BASELINK,FL_TO_BASELINK,FR_TO_BASELINK,0.09995375788285354,0.0640591853181176,-0.6047721580566234,-0.5354414832367356,0.9177338979537301,0.9173201877015287,0.8013404904171266,0.9184614722591349,0.0,0.0,0.0,0.0
515190000000,15472,515190000000,,BL_TO_BASELINK,BR_TO_BASELINK,FL_TO_BASELINK,FR_TO_BASELINK,0.100871502760004,0.0649766938957228,-0.6038550082652971,-0.5346812885563823,0.917745009583516,0.9175087016418129,0.9171369484485723,0.7602050562975113,0.0,0.0,0.0,0.0
515191000000,15473,515191000000,,BL_TO_BASELINK,BR_TO_BASELINK,FL_TO_BASELINK,FR_TO_BASELINK,0.10178925190461374,0.06589409266767277,-0.6030751980161311,-0.5337628339721565,0.9177492838809183,0.9173989092165253,0.779817281382829,0.9184425322780976,0.0,0.0,0.0,0.0
515192000000,15474,515192000000,,BL_TO_BASELINK,BR_TO_BASELINK,FL_TO_BASELINK,FR_TO_BASELINK,0.10270705111672296,0.06693530467813247,-0.6021563973708384,-0.532747434354607,0.9178397739464562,1.032234943441223,0.9188975218268963,1.013087861455472,0.0,0.0,0.0,0.0
515193000000,15475,515193000000,,BL_TO_BASELINK,BR_TO_BASELINK,FL_TO_BASELINK,FR_TO_BASELINK,0.10360782709408589,0.06785454641193578,-0.6012738230718222,-0.5318297822245537,0.9603266026125746,0.9184171871737098,0.9412393403366157,0.9177588828670125,0.0,0.0,0.0,0.0
515194000000,15476,515194000000,,BL_TO_BASELINK,BR_TO_BASELINK,FL_TO_BASELINK,FR_TO_BASELINK,0.10452579289168096,0.06889709132992472,-0.6003566513089513,-0.5309124268259247,0.9179497728898559,1.0105326009181368,0.9173294853317998,0.9174836409728081,0.0,0.0,0.0,0.0
515195000000,15477,515195000000,,BL_TO_BASELINK,BR_TO_BASELINK,FL_TO_BASELINK,FR_TO_BASELINK,0.10544365248031173,0.06981479974341376,-0.5995211784280041,-0.5299945133828015,0.9178827919977928,0.9178766956642207,0.861269802988454,0.9178336196473125,0.0,0.0,0.0,0.0
515196000000,15478,515196000000,,BL_TO_BASELINK,BR_TO_BASELINK,FL_TO_BASELINK,FR_TO_BASELINK,0.10636157922901379,0.07083120661744058,-0.5986037328382956,-0.5290769119036511,0.9179110414245265,0.989515607071629,0.9175726448253607,0.917709379464715,0.0,0.0,0.0,0.0
515197000000,15479,515197000000,,BL_TO_BASELINK,BR_TO_BASELINK,FL_TO_BASELINK,FR_TO_BASELINK,0.10727939317307822,0.07174870761476626,-0.597807261284931,-0.5281587890382351,0.9178371840409799,0.9177153025884444,0.8292221424459716,0.9180380459767536,0.0,0.0,0.0,0.0
515198000000,15480,515198000000,,BL_TO_BASELINK,BR_TO_BASELINK,FL_TO_BASELINK,FR_TO_BASELINK,0.10819731449477565,0.0727612234228383,-0.596889772254241,-0.527241148662295,0.9178993170394225,0.9791897055311483,0.9176551874273428,0.9177778574683771,0.0,0.0,0.0,0.0
515199000000,15481,515199000000,,BL_TO_BASELINK,BR_TO_BASELINK,FL_TO_BASELINK,FR_TO_BASELINK,0.10911510928770163,0.07367862537846204,-0.5961149943896427,-0.5263229422010092,0.9178173731325293,0.917647420203791,0.8120098264148147,0.9181237379085484,0.0,0.0,0.0,0.0
515200000000,15482,515200000000,,BL_TO_BASELINK,BR_TO_BASELINK,FL_TO_BASELINK,FR_TO_BASELINK,0.11003302853777797,0.07468650122174125,-0.5951974796170401,-0.5254052864350669,0.9178952783588403,0.9726983968689672,0.91769028348786,0.9178015393662577,0.0,0.0,0.0,0.0
515201000000,15483,515201000000,,BL_TO_BASELINK,BR_TO_BASELINK,FL_TO_BASELINK,FR_TO_BASELINK,0.11095081448586264,0.07560385873518616,-0.5944353715256119,-0.5244870435715239,0.917806444002542,0.9176121347986922,0.8007082755414403,0.9181691637355783,0.0,0.0,0.0,0.0
515202000000,15484,515202000000,,BL_TO_BASELINK,BR_TO_BASELINK,FL_TO_BASELINK,FR_TO_BASELINK,0.11186873193895597,0.07660642348276969,-0.5935178315247471,-0.5235693756211459,0.9178933257189181,0.9676807948575492,0.9177115835024026,0.9178130708998612,0.0,0.0,0.0,0.0
515203000000,15485,515203000000,,BL_TO_BASELINK,BR_TO_BASELINK,FL_TO_BASELINK,FR_TO_BASELINK,0.11278651297662812,0.07752376459998267,-0.5927640443714797,-0.5226511136972105,0.917799023551205,0.9175895659420134,0.7925046634177249,0.9181993547610496,0.0,0.0,0.0,0.0
515206000000,15486,515204000000,,BL_TO_BASELINK,BR_TO_BASELINK,FL_TO_BASELINK,FR_TO_BASELINK,0.1137044286297142,0.07852128829185911,-0.5918464799893828,-0.5217334342562348,0.9178921145264634,0.9636178574729748,0.9177269950032043,0.9178203819600984,0.0,0.0,0.0,0.0
515206000000,15487,515205000000,,BL_TO_BASELINK,BR_TO_BASELINK,FL_TO_BASELINK,FR_TO_BASELINK,0.11462220645391774,0.0794386270550147,-0.5910986045566293,-0.5208151602997493,0.9177926992195045,0.9175720252288735,0.7863083570113494,0.9182254143517545,0.0,0.0,0.0,0.0
515206000000,15488,515206000000,,BL_TO_BASELINK,BR_TO_BASELINK,FL_TO_BASELINK,FR_TO_BASELINK,0.11554012048825157,0.08043190246148235,-0.5901810187732535,-0.5198974707785435,0.9178909943425986,0.9602752455149084,0.9177403673754667,0.9178271098157917,0.0,0.0,0.0,0.0
515208000000,15489,515207000000,,BL_TO_BASELINK,BR_TO_BASELINK,FL_TO_BASELINK,FR_TO_BASELINK,0.11645789595588507,0.0813492450414035,-0.5894375147294024,-0.5189791880437022,0.9177880975251244,0.9175591664440019,0.781689587726787,0.9182443600543823,0.0,0.0,0.0,0.0
515208000000,15490,515208000000,,BL_TO_BASELINK,BR_TO_BASELINK,FL_TO_BASELINK,FR_TO_BASELINK,0.11737580860664476,0.08233917717843386,-0.5885199111448296,-0.5180614900134017,0.9178900967404028,0.9576865043668319,0.9177509171190286,0.9178325356979619,0.0,0.0,0.0,0.0
515209000000,15491,515209000000,,BL_TO_BASELINK,BR_TO_BASELINK,FL_TO_BASELINK,FR_TO_BASELINK,0.11829358232277709,0.08325652583302912,-0.5877796319148052,-0.517143200708472,0.9177839487022744,0.917548493088859,0.7782785800255535,0.91826189235128,0.0,0.0,0.0,0.0
515210000000,15492,515210000000,,BL_TO_BASELINK,BR_TO_BASELINK,FL_TO_BASELINK,FR_TO_BASELINK,0.11921149389585839,0.0842439895513234,-0.5868620144910981,-0.5162254960786496,0.9178893803175985,0.955764082773342,0.917759048582514,0.9178368758468182,0.0,0.0,0.0,0.0
515211000000,15493,515211000000,,BL_TO_BASELINK,BR_TO_BASELINK,FL_TO_BASELINK,FR_TO_BASELINK,0.1201292663056126,0.0851613445022883,-0.5861240950366584,-0.5153072017933518,0.9177810983493089,0.9175408550099329,0.7758319476496378,0.9182739692755977,0.0,0.0,0.0,0.0
515212000000,15494,515212000000,,BL_TO_BASELINK,BR_TO_BASELINK,FL_TO_BASELINK,FR_TO_BASELINK,0.12104716028778917,0.08606864390348612,-0.5852052957185148,-0.514409902877424,0.9178979974735839,0.8864572256958428,0.918363719236832,0.8763607063428341,0.0,0.0,0.0,0.0
515213000000,15495,515213000000,,BL_TO_BASELINK,BR_TO_BASELINK,FL_TO_BASELINK,FR_TO_BASELINK,0.12196493467040437,0.08698601977614473,-0.5844205070485149,-0.5134915804405846,0.9177740421827106,0.9174855975965063,0.7845234508809452,0.9183232106325785,0.0,0.0,0.0,0.0
515214000000,15496,515214000000,,BL_TO_BASELINK,BR_TO_BASELINK,FL_TO_BASELINK,FR_TO_BASELINK,0.12288283344434348,0.08786621940023398,-0.5835023288023828,-0.5126189411555249,0.9178988395435631,0.8802070215955218,0.91814533801522,0.8726413899603481,0.0,0.0,0.0,0.0
515215000000,15497,515215000000,,BL_TO_BASELINK,BR_TO_BASELINK,FL_TO_BASELINK,FR_TO_BASELINK,0.12380068172181868,0.0887701884546841,-0.5826602540548071,-0.5117008202081506,0.9178483281668689,0.9040377635267434,0.8420729306017009,0.9181186520687864,0.0,0.0,0.0,0.0
515216000000,15498,515216000000,,BL_TO_BASELINK,BR_TO_BASELINK,FL_TO_BASELINK,FR_TO_BASELINK,0.12471849731265383,0.08968781543474691,-0.5817427338098176,-0.5108701118524372,0.9178156148618651,0.9176669146056464,0.9174980422970886,0.8307133654989771,0.0,0.0,0.0,0.0
515217000000,15499,515217000000,,BL_TO_BASELINK,BR_TO_BASELINK,FL_TO_BASELINK,FR_TO_BASELINK,0.12563634879615826,0.09060214449562576,-0.5808246759967925,-0.5099520420612729,0.9178515400239027,0.9143078856642908,0.9180434025599257,0.9180657086304237,0.0,0.0,0.0,0.0
515218000000,15500,515218000000,,BL_TO_BASELINK,BR_TO_BASELINK,FL_TO_BASELINK,FR_TO_BASELINK,0.12655402702647311,0.09151926321362325,-0.5800858428258309,-0.509151916886001,0.9176933810535267,0.9171938819085195,0.7543499651182285,0.8045213575487193,0.0,0.0,0.0,0.0
515219000000,15501,515219000000,,BL_TO_BASELINK,BR_TO_BASELINK,FL_TO_BASELINK,FR_TO_BASELINK,0.1274719183382178,0.09247393992859632,-0.5791680817336351,-0.5082340892973125,0.9178838255917084,0.9441094454651469,0.9178129101238539,0.917870333230324,0.0,0.0,0.0,0.0
515220000000,15502,515220000000,,BL_TO_BASELINK,BR_TO_BASELINK,FL_TO_BASELINK,FR_TO_BASELINK,0.12838965526827817,0.09339126135758669,-0.5784077058814567,-0.5073309265871364,0.9177304479459267,0.9173379345531069,0.7812427242717623,0.8320630122472747,0.0,0.0,0.0,0.0
515221000000,15503,515221000000,,BL_TO_BASELINK,BR_TO_BASELINK,FL_TO_BASELINK,FR_TO_BASELINK,0.12930755708676678,0.094346915062121,-0.577490001426245,-0.5064131615701086,0.9178985843810009,0.9509248795543438,0.9177222965000351,0.9177842942319291,0.0,0.0,0.0,0.0
515222000000,15504,515222000000,,BL_TO_BASELINK,BR_TO_BASELINK,FL_TO_BASELINK,FR_TO_BASELINK,0.13022528394327537,0.09526421929395745,-0.5767135151588922,-0.5055797098434054,0.9177379200810044,0.9173652885185877,0.7879999118465919,0.8366306688489715,0.0,0.0,0.0,0.0
515223000000,15505,515223000000,,BL_TO_BASELINK,BR_TO_BASELINK,FL_TO_BASELINK,FR_TO_BASELINK,0.13114317682699372,0.09620899339713684,-0.5757957420315085,-0.504661892541332,0.9178929097297984,0.9447508902002939,0.9177654797538005,0.9178175576214678,0.0,0.0,0.0,0.0
515224000000,15506,515224000000,,BL_TO_BASELINK,BR_TO_BASELINK,FL_TO_BASELINK,FR_TO_BASELINK,0.13206091018000432,0.09712632540033361,-0.5750119238092672,-0.5038268851784711,0.9177397698769321,0.917373458335478,0.7905150751677501,0.8367968853223948,0.0,0.0,0.0,0.0
515225000000,15507,515225000000,,BL_TO_BASELINK,BR_TO_BASELINK,FL_TO_BASELINK,FR_TO_BASELINK,0.13297880654727656,0.09807467606011144,-0.5740941782034561,-0.5029090882863674,0.9178964062439016,0.9483288282890934,0.9177395582505968,0.9177970436255561,0.0,0.0,0.0,0.0
515226000000,15508,515226000000,,BL_TO_BASELINK,BR_TO_BASELINK,FL_TO_BASELINK,FR_TO_BASELINK,0.13389654050161237,0.09899201402098612,-0.5733091410186271,-0.5020746891329901,0.917741471165646,0.9173797743481402,0.7929113397245723,0.8365207806231414,0.0,0.0,0.0,0.0
515227000000,15509,515227000000,,BL_TO_BASELINK,BR_TO_BASELINK,FL_TO_BASELINK,FR_TO_BASELINK,0.13481443904525214,0.09994372054741163,-0.57239141524588,-0.5011569050032572,0.9178985806900716,0.9516814254263352,0.9177208731457257,0.9177841482365512,0.0,0.0,0.0,0.0
515228000000,15510,515228000000,,BL_TO_BASELINK,BR_TO_BASELINK,FL_TO_BASELINK,FR_TO_BASELINK,0.13573217516548475,0.1008610682071005,-0.5716045605685149,-0.5003213653830638,0.9177444623418127,0.9173911905585161,0.7955855448144581,0.8379273140797361,0.0,0.0,0.0,0.0
515229000000,15511,515229000000,,BL_TO_BASELINK,BR_TO_BASELINK,FL_TO_BASELINK,FR_TO_BASELINK,0.13665007593086287,0.10181520000981781,-0.5706868523585893,-0.49940359407047996,0.9179008016105158,0.9541057329503931,0.9177040387871607,0.9177711089736278,0.0,0.0,0.0,0.0
515230000000,15512,515230000000,,BL_TO_BASELINK,BR_TO_BASELINK,FL_TO_BASELINK,FR_TO_BASELINK,0.1375678133695324,0.10273255281903282,-0.5698987406233034,-0.49856767813883796,0.9177460944098764,0.9173971332171456,0.7971913185280168,0.8384126626008824,0.0,0.0,0.0,0.0
515231000000,15513,515231000000,,BL_TO_BASELINK,BR_TO_BASELINK,FL_TO_BASELINK,FR_TO_BASELINK,0.13848571455411118,0.10368739335106714,-0.5689810366865871,-0.49764990905383844,0.9179012215756195,0.9548145993626405,0.9177002900508973,0.9177686268535853,0.0,0.0,0.0,0.0
515232000000,15514,515232000000,,BL_TO_BASELINK,BR_TO_BASELINK,FL_TO_BASELINK,FR_TO_BASELINK,0.13940345313473035,0.10460475011777337,-0.5681919569373548,-0.49681361322265527,0.9177471586825865,0.9174009414129018,0.7980940062334991,0.8387780919628391,0.0,0.0,0.0,0.0
515233000000,15515,515233000000,,BL_TO_BASELINK,BR_TO_BASELINK,FL_TO_BASELINK,FR_TO_BASELINK,0.14032135496771048,0.10556045926898783,-0.567274258694793,-0.49589584769849804,0.9179018702595249,0.9556829530060957,0.9176949980321258,0.9177648240096892,0.0,0.0,0.0,0.0
515234000000,15516,515234000000,,BL_TO_BASELINK,BR_TO_BASELINK,FL_TO_BASELINK,FR_TO_BASELINK,0.14123909411000124,0.10647781772509024,-0.5664847731528768,-0.4950594618028017,0.917747828838671,0.9174031249465885,0.798633251517738,0.8389093340734615,0.0,0.0,0.0,0.0
515235000000,15517,515235000000,,BL_TO_BASELINK,BR_TO_BASELINK,FL_TO_BASELINK,FR_TO_BASELINK,0.14215699624681566,0.10743407849768705,-0.5655670780343973,-0.49414169784162354,0.9179021738294083,0.9562342270421785,0.917692183072985,0.9177630442533158,0.0,0.0,0.0,0.0
515236000000,15518,515236000000,,BL_TO_BASELINK,BR_TO_BASELINK,FL_TO_BASELINK,FR_TO_BASELINK,0.14307473590860287,0.10835143841259676,-0.5647773157571327,-0.49330515090162663,0.9177484121556129,0.9174049866474395,0.7989947151103521,0.839094358481464,0.0,0.0,0.0,0.0
515237000000,15519,515237000000,,BL_TO_BASELINK,BR_TO_BASELINK,FL_TO_BASELINK,FR_TO_BASELINK,0.14399263837928533,0.10930817721337682,-0.5638596236789164,-0.492387388686228,0.917902507529341,0.9567120966429383,0.9176893755453978,0.9177611052577512,0.0,0.0,0.0,0.0
515238000000,15520,515238000000,,BL_TO_BASELINK,BR_TO_BASELINK,FL_TO_BASELINK,FR_TO_BASELINK,0.1449103783803416,0.11022553794408907,-0.5630697590825502,-0.4915507768016738,0.9177488386293776,0.9174062252986153,0.7991993210670997,0.8392016839468018,0.0,0.0,0.0,0.0
515239000000,15521,515239000000,,BL_TO_BASELINK,BR_TO_BASELINK,FL_TO_BASELINK,FR_TO_BASELINK,0.1458282810460645,0.11118258657964297,-0.5621520689008417,-0.4906330155379095,0.9179027024052722,0.9570218793584244,0.9176876555140226,0.917759985654495,0.0,0.0,0.0,0.0
515240000000,15522,515240000000,,BL_TO_BASELINK,BR_TO_BASELINK,FL_TO_BASELINK,FR_TO_BASELINK,0.1467438294794139,0.11209856223587522,-0.5612609604243666,-0.4897398490089735,0.9142138639813895,0.9185948853186254,0.8945080608854461,0.9080604626285919,0.0,0.0,0.0,0.0
515241000000,15523,515241000000,,BL_TO_BASELINK,BR_TO_BASELINK,FL_TO_BASELINK,FR_TO_BASELINK,0.14766168880902075,0.11301637736572356,-0.5603431949149797,-0.48883678532967423,0.9178605398970684,0.9178264698683528,0.917762596737184,0.9030882702079316,0.0,0.0,0.0,0.0
515242000000,15524,515242000000,,BL_TO_BASELINK,BR_TO_BASELINK,FL_TO_BASELINK,FR_TO_BASELINK,0.14860055092778346,0.11393411965225653,-0.559425447574629,-0.4879189993625186,0.9388587117985956,0.9177494173378632,0.9177453476689938,0.9177848806319208,0.0,0.0,0.0,0.0
515243000000,15525,515243000000,,BL_TO_BASELINK,BR_TO_BASELINK,FL_TO_BASELINK,FR_TO_BASELINK,0.1495182810370439,0.11485144003387582,-0.5586163016790149,-0.487117714555815,0.9177442385496214,0.9173764942716248,0.8133022139760211,0.8162892216894755,0.0,0.0,0.0,0.0
515244000000,15526,515244000000,,BL_TO_BASELINK,BR_TO_BASELINK,FL_TO_BASELINK,FR_TO_BASELINK,0.1505051063215399,0.11576900149688463,-0.5576987271497185,-0.48620004782563875,0.9619579908219195,0.9177062820259647,0.9177053609277358,0.9177533231917596,0.0,0.0,0.0,0.0
515245000000,15527,515245000000,,BL_TO_BASELINK,BR_TO_BASELINK,FL_TO_BASELINK,FR_TO_BASELINK,0.15137061297927712,0.11668774900723466,-0.5567801662551162,-0.48535348990300964,0.8847841339380099,0.9181142175700733,0.9179575796644488,0.8645081604769251,0.0,0.0,0.0,0.0
515246000000,15528,515246000000,,BL_TO_BASELINK,BR_TO_BASELINK,FL_TO_BASELINK,FR_TO_BASELINK,0.1522884931029571,0.11760562997963397,-0.5558622840311092,-0.48443560718955947,0.91788219408236,0.9178821795581931,0.9178821955732371,0.9178821537905578,0.0,0.0,0.0,0.0
515247000000,15529,515247000000,,BL_TO_BASELINK,BR_TO_BASELINK,FL_TO_BASELINK,FR_TO_BASELINK,0.1531903959906522,0.11852302592593489,-0.5549449138730065,-0.48354661542710176,0.9019047757094939,0.9173966606627406,0.9173701091234994,0.8889913608828737,0.0,0.0,0.0,0.0
515248000000,15530,515248000000,,BL_TO_BASELINK,BR_TO_BASELINK,FL_TO_BASELINK,FR_TO_BASELINK,0.15410824134390388,0.11944077598242853,-0.5540272659928442,-0.4826870822360627,0.917845813837822,0.9177505930408978,0.9176478965125009,0.8595375936056443,0.0,0.0,0.0,0.0
515249000000,15531,515249000000,,BL_TO_BASELINK,BR_TO_BASELINK,FL_TO_BASELINK,FR_TO_BASELINK,0.15504418943133125,0.12035858590467896,-0.5531094562326677,-0.48176925053889263,0.9359457156493616,0.9178102810796985,0.9178097871683304,0.9178293540056259,0.0,0.0,0.0,0.0
515250000000,15532,515250000000,,BL_TO_BASELINK,BR_TO_BASELINK,FL_TO_BASELINK,FR_TO_BASELINK,0.15589329595946566,0.12127821660332039,-0.5521725542853257,-0.4809406449277871,0.874480153077018,0.9179084538755896,0.8664206167332212,0.8329346864722521,0.0,0.0,0.0,0.0
515252000000,15533,515251000000,,BL_TO_BASELINK,BR_TO_BASELINK,FL_TO_BASELINK,FR_TO_BASELINK,0.15681113385559176,0.122195936152238,-0.5512959141046716,-0.48002257691056993,0.9178392215178864,0.9177222653384544,0.8759095974507493,0.918060383914581,0.0,0.0,0.0,0.0
515252000000,15534,515252000000,,BL_TO_BASELINK,BR_TO_BASELINK,FL_TO_BASELINK,FR_TO_BASELINK,0.15771102329000541,0.12311392837722845,-0.5503780783959407,-0.47914709128546384,0.8998858347217588,0.9179923163867942,0.9178353199057044,0.8754873826792948,0.0,0.0,0.0,0.0
515253000000,15535,515253000000,,BL_TO_BASELINK,BR_TO_BASELINK,FL_TO_BASELINK,FR_TO_BASELINK,0.15862885215720102,0.12403160863902851,-0.5495056426569542,-0.4782290029403473,0.9178305912002819,0.9176803410758868,0.8724320493361365,0.9180853204539473,0.0,0.0,0.0,0.0
515254000000,15536,515254000000,,BL_TO_BASELINK,BR_TO_BASELINK,FL_TO_BASELINK,FR_TO_BASELINK,0.1594992554465211,0.1249538176369791,-0.5485806179544959,-0.4773725729716949,0.8704576728356719,0.9221887729275998,0.9249868866143524,0.8565269953139549,0.0,0.0,0.0,0.0
515255000000,15537,515255000000,,BL_TO_BASELINK,BR_TO_BASELINK,FL_TO_BASELINK,FR_TO_BASELINK,0.16041713408492697,0.12587169974486923,-0.5476627351440042,-0.4764546880932725,0.9178821396111192,0.9178821780233655,0.9178822158589787,0.9178821133912173,0.0,0.0,0.0,0.0
515256000000,15538,515256000000,,BL_TO_BASELINK,BR_TO_BASELINK,FL_TO_BASELINK,FR_TO_BASELINK,0.16130928443211445,0.12678933801300385,-0.5467722178385284,-0.47556663751374373,0.8921457461490683,0.9176389290498029,0.8905115219985658,0.888047786210173,0.0,0.0,0.0,0.0
515257000000,15539,515257000000,,BL_TO_BASELINK,BR_TO_BASELINK,FL_TO_BASELINK,FR_TO_BASELINK,0.16222716484102673,0.12770722013338798,-0.5458543352401817,-0.4746487536886157,0.9178821837755096,0.9178821819646086,0.9178822034774957,0.9178821609978837,0.0,0.0,0.0,0.0
515258000000,15540,515258000000,,BL_TO_BASELINK,BR_TO_BASELINK,FL_TO_BASELINK,FR_TO_BASELINK,0.16309771147876084,0.12862517735488854,-0.5449862850214116,-0.4738065540651295,0.8705271342075774,0.9179578846097226,0.8680407043407014,0.8421933503241076,0.0,0.0,0.0,0.0
515259000000,15541,515259000000,,BL_TO_BASELINK,BR_TO_BASELINK,FL_TO_BASELINK,FR_TO_BASELINK,0.16401554178214806,0.12954292573493476,-0.5440686715117913,-0.47292892197645653,0.9178335949734995,0.9177484422643597,0.9176132731961485,0.8776345258125092,0.0,0.0,0.0,0.0
515260000000,15542,515260000000,,BL_TO_BASELINK,BR_TO_BASELINK,FL_TO_BASELINK,FR_TO_BASELINK,0.16489779871512678,0.1304604326130674,-0.5431884062199632,-0.4720578925100867,0.8822548731773289,0.9175075296330492,0.8802616288172849,0.8710247936812064,0.0,0.0,0.0,0.0
515261000000,15543,515261000000,,BL_TO_BASELINK,BR_TO_BASELINK,FL_TO_BASELINK,FR_TO_BASELINK,0.16581563266303245,0.13137817643534788,-0.5422707934113742,-0.47120072430738524,0.9178352446062141,0.9177438872989168,0.9176124079080304,0.8571713217883417,0.0,0.0,0.0,0.0
515262000000,15544,515262000000,,BL_TO_BASELINK,BR_TO_BASELINK,FL_TO_BASELINK,FR_TO_BASELINK,0.16670701429979395,0.13229593536897521,-0.541381682970064,-0.4703151129001748,0.8913794419820662,0.9177594412320893,0.8891074489094644,0.8856113491874584,0.0,0.0,0.0,0.0
515263000000,15545,515263000000,,BL_TO_BASELINK,BR_TO_BASELINK,FL_TO_BASELINK,FR_TO_BASELINK,0.16762485628534485,0.1332136872163021,-0.5404640429029817,-0.46945491011176266,0.9178424466105819,0.9177519104648622,0.9176397493471592,0.8602068809416386,0.0,0.0,0.0,0.0
515264000000,15546,515264000000,,BL_TO_BASELINK,BR_TO_BASELINK,FL_TO_BASELINK,FR_TO_BASELINK,0.16851206302394406,0.13413138250765932,-0.5395791610359897,-0.468576746465585,0.8872033706627616,0.917695856733335,0.8848784167635586,0.8781634850654292,0.0,0.0,0.0,0.0
515265000000,15547,515265000000,,BL_TO_BASELINK,BR_TO_BASELINK,FL_TO_BASELINK,FR_TO_BASELINK,0.1694299026401067,0.13504912629478394,-0.5386615366578518,-0.4677201358324661,0.9178397383046447,0.9177438361129089,0.9176240419363465,0.8566092602584102,0.0,0.0,0.0,0.0
515266000000,15548,515266000000,,BL_TO_BASELINK,BR_TO_BASELINK,FL_TO_BASELINK,FR_TO_BASELINK,0.17032058467555533,0.13596680461366173,-0.5377731833238375,-0.4668399545644144,0.8906777558358195,0.9176789040400759,0.888349423733521,0.8801793044593268,0.0,0.0,0.0,0.0
