%time,field.header.seq,field.header.stamp,field.header.frame_id,field.wrench.force.x,field.wrench.force.y,field.wrench.force.z,field.wrench.torque.x,field.wrench.torque.y,field.wrench.torque.z
515054000000,0,515046000000,BL_wheel_link,-0.1528128171319833,-0.018368861587757496,0.6228603119673494,-0.0178807247638074,0.0045111597338533755,-0.0016052407241124583
515054000000,1,515047000000,BL_wheel_link,2.012030038320328,3.0400530156102423,11.922386653768974,0.295057663103996,-0.19861673740847896,0.003271917498610646
515054000000,2,515048000000,BL_wheel_link,-0.11472956423372371,-0.051891229362691284,0.6032033991640517,-0.018357903168494213,0.00278227781528214,-0.0006656466434062601
515054000000,3,515049000000,BL_wheel_link,2.028098346677673,2.655103825226808,11.137696174120887,0.2525468495925254,-0.20403874194169241,0.002441891913915317
515054000000,4,515050000000,BL_wheel_link,-0.1525800191990621,-0.018420720996697323,0.6222156851960506,-0.01787240190538398,0.004500616542017652,-0.0016005865619901228
515054000000,5,515051000000,BL_wheel_link,2.0087990183470863,3.0360669359750516,11.905836746341958,0.294643064165256,-0.198311647460791,0.0032614474020375606
515054000000,6,515052000000,BL_wheel_link,-0.1170240450600894,-0.049592987739738977,0.604029795219275,-0.018301247298183113,0.002872744906028182,-0.0007232820686602207
515054000000,7,515053000000,BL_wheel_link,2.022876457326163,2.6740196816724744,11.16499318041456,0.25469823066756925,-0.20328650896334846,0.0024856543372274785
515054000000,8,515054000000,BL_wheel_link,-0.15193054040378462,-0.018562924650236984,0.6209098069418796,-0.017855704549026543,0.004462993724262472,-0.0015879295828873537
515055000000,9,515055000000,BL_wheel_link,2.003072615376845,3.0262512727037567,11.869099718694754,0.2936007939418365,-0.1978006221242662,0.003235585507775916
515056000000,10,515056000000,BL_wheel_link,-0.12178104592960867,-0.04462604670288402,0.605890375198357,-0.018181449457690485,0.0030596852353395234,-0.0008480020556867417
515057000000,11,515057000000,BL_wheel_link,2.0131299637845865,2.714795093223986,11.225384324085212,0.25931609608022155,-0.2018340604227364,0.0025785194990974114
515058000000,12,515058000000,BL_wheel_link,-0.15040079242025267,-0.01897505846527059,0.6182655011422726,-0.017817261460855535,0.004374373526959488,-0.0015530698620807016
515059000000,13,515059000000,BL_wheel_link,1.9924949880771283,3.0054276194048706,11.79302778426813,0.2913705602651066,-0.19689092746628192,0.0031793472670914526
515060000000,14,515060000000,BL_wheel_link,-0.13169083198258458,-0.034218183868545124,0.6101835177093462,-0.01793214230425337,0.0034443499832568407,-0.0011139222417543338
515061000000,15,515061000000,BL_wheel_link,1.9943452596334474,2.8011642845992055,11.355909492434233,0.26907112899142543,-0.1989659671847473,0.0027733518790404605
515062000000,16,515062000000,BL_wheel_link,-0.14691475694990944,-0.020193472209324548,0.6129789137180386,-0.017734711676878054,0.004178992776609868,-0.0014635114717334785
515063000000,17,515063000000,BL_wheel_link,1.976107954349093,2.951770436651947,11.640178273835446,0.2857240703362085,-0.19556381037884646,0.0030863998143914793
515064000000,18,515064000000,BL_wheel_link,-0.1387173501573174,-0.02638697169441037,0.6081756082540848,-0.01775757233379327,0.0037596368065282966,-0.0012705515971407162
515065000000,19,515065000000,BL_wheel_link,1.9778252703511858,2.862927903911078,11.446499262026972,0.27607964737050505,-0.19656206365322093,0.002917924230418786
515066000000,20,515066000000,BL_wheel_link,-0.14405887398941775,-0.0214737113511123,0.6080276137119174,-0.017678945399470673,0.004031192510076606,-0.001374176049886882
515066000000,21,515067000000,BL_wheel_link,1.9696084233870197,2.9148976977013925,11.542662990693419,0.2818485056300585,-0.1951691283673283,0.003028730640961218
515068000000,22,515068000000,BL_wheel_link,-0.14119526168821322,-0.02362417825338599,0.6053356807496675,-0.0176913245007009,0.0038746083638184423,-0.0013014090168460973
515069000000,23,515069000000,BL_wheel_link,1.971594464087647,2.8850376454403426,11.477689904989845,0.2786022961602379,-0.19567101426191225,0.002970912013767488
515071000000,24,515070000000,BL_wheel_link,-0.1432718818656982,-0.02189655661748667,0.6060213178580361,-0.017653889973031727,0.003975723670591849,-0.0013405361083255463
515071000000,25,515071000000,BL_wheel_link,1.969555957961529,2.9066111623743325,11.518474542054172,0.28098826805008814,-0.195253365196964,0.003015110722847666
515072000000,26,515072000000,BL_wheel_link,-0.14240164494742802,-0.0225208531756185,0.6052168882272284,-0.017653416053190416,0.00391311325527696,-0.0013205763408070956
515073000000,27,515073000000,BL_wheel_link,1.9700313090090418,2.8961884545489314,11.494212684597208,0.27986661885445263,-0.19540728786753403,0.0029953285049964407
515074000000,28,515074000000,BL_wheel_link,-0.1432326388364582,-0.02189470677715083,0.6056764727590735,-0.017635233143549544,0.003955083036408079,-0.0013369473990554523
515075000000,29,515075000000,BL_wheel_link,1.9690020992539012,2.9048081921558793,11.510216041506858,0.2808245149280203,-0.19521730326449954,0.003013110781794973
515076000000,30,515076000000,BL_wheel_link,-0.14295331707852008,-0.0221016409474889,0.6053585921773152,-0.01763537369809004,0.00393183053433658,-0.0013323103591887894
515077000000,31,515077000000,BL_wheel_link,1.9690380606850724,2.901120385400709,11.501231445011715,0.280432386742501,-0.19525843972599546,0.003006272378275732
515078000000,32,515078000000,BL_wheel_link,-0.14336095833595708,-0.021802891193856908,0.6056124364643711,-0.01762676194953692,0.0039514222866117435,-0.0013417055291449834
515079000000,33,515079000000,BL_wheel_link,1.9682521581205503,2.9049108998406092,11.507786259892953,0.28085939190708387,-0.1951378868088073,0.0030145167304719894
515080000000,34,515080000000,BL_wheel_link,-0.14329878465920204,-0.02185735887632262,0.6054959213794704,-0.01762585464903789,0.003945076523155876,-0.0013416843175403275
515081000000,35,515081000000,BL_wheel_link,1.9678257283603533,2.9035241847503577,11.503838453176506,0.28071881328802667,-0.1951041719013416,0.0030125168112555187
515082000000,36,515082000000,BL_wheel_link,-0.1435030755006077,-0.021710054071813686,0.6055660799322642,-0.01762195326078854,0.00395597594488932,-0.001346939639407446
515083000000,37,515083000000,BL_wheel_link,1.967085805961207,2.905105281052498,11.506092958068233,0.28090300413687086,-0.19500768959012185,0.003016504068102053
515084000000,38,515084000000,BL_wheel_link,-0.14350906847363815,-0.021716612449098893,0.6054826232673347,-0.017621347224665882,0.003956215973563899,-0.0013479492849896566
515085000000,39,515085000000,BL_wheel_link,1.966477546666105,2.904484874090875,11.503909251968649,0.2808457610531917,-0.1949456051089845,0.003016159314251581
515086000000,40,515086000000,BL_wheel_link,-0.1436128303048126,-0.021645921100263657,0.6054451289608788,-0.017619981866397405,0.003962991003069652,-0.0013508360615353363
515087000000,41,515087000000,BL_wheel_link,1.965815427459321,2.905064538285139,11.504292084577902,0.28091912808383573,-0.19486655833386324,0.003018151975489168
515088000000,42,515088000000,BL_wheel_link,-0.14363659407331467,-0.021639269193979474,0.6053586742991586,-0.017619848940555682,0.003965323010708542,-0.0013519379086534787
515089000000,43,515089000000,BL_wheel_link,1.965189861060621,2.9047134888535133,11.502781379410123,0.28089057721210925,-0.19479984654901025,0.0030183340267893014
515090000000,44,515090000000,BL_wheel_link,-0.14369068188010173,-0.02160738631762041,0.6052703619621407,-0.01761971673081525,0.003969874240403895,-0.0013535860710310204
515091000000,45,515091000000,BL_wheel_link,1.9645615673566126,2.904771028528621,11.50217658584296,0.2809062202644453,-0.1947291316739639,0.003019291198375055
515092000000,46,515092000000,BL_wheel_link,-0.14371191585113158,-0.02160194101374456,0.6051586513607852,-0.017620191304193632,0.003972576792543957,-0.0013544778190392823
515093000000,47,515093000000,BL_wheel_link,1.9639713801128607,2.9044767922406507,11.500881921677848,0.28088306856426587,-0.1946658740194977,0.0030195342182390878
515094000000,48,515094000000,BL_wheel_link,-0.14374294684041888,-0.02158846494994697,0.6050465311460764,-0.017620712535535633,0.003975946136792941,-0.0013555332710174924
515095000000,49,515095000000,BL_wheel_link,1.9633949083056448,2.904331055959127,11.49992697907437,0.2808758356523501,-0.19460286202105853,0.0030200404576513676
515096000000,50,515096000000,BL_wheel_link,-0.14376062665974543,-0.02158564549198559,0.6049253397761652,-0.017621486070014774,0.003978514064328286,-0.0013562868472967171
515097000000,51,515097000000,BL_wheel_link,1.962841150719857,2.9040494339505663,11.498709562518039,0.2808535456277007,-0.19454365817872266,0.003020260272758103
515098000000,52,515098000000,BL_wheel_link,-0.14378126507518088,-0.02158028486501433,0.6048034734568004,-0.017622296622027786,0.003981260745696462,-0.0013570925116482514
515099000000,53,515099000000,BL_wheel_link,1.9623027886143332,2.903828400308505,11.497635308818197,0.28083766810988353,-0.1944856930885344,0.003020573852445097
515103000000,54,515100000000,BL_wheel_link,-0.1437970278370109,-0.02157865925754701,0.6046798747340855,-0.01762318639043879,0.0039836716262043464,-0.001357802152481856
515103000000,55,515101000000,BL_wheel_link,1.9617767253208949,2.90356104590534,11.496470908935912,0.28081662979917366,-0.19442955868644107,0.0030207832831354283
515103000000,56,515102000000,BL_wheel_link,-0.14381370121584425,-0.021575970370252245,0.6045563150675928,-0.017624080587196944,0.0039861216291224915,-0.0013585382169045536
515103000000,57,515103000000,BL_wheel_link,1.9612555327667553,2.9033123853612812,11.495348511594155,0.28079757562420943,-0.19437382275362114,0.0030210214896742556
515103000000,58,515104000000,BL_wheel_link,-0.14382829117918833,-0.021574733312231503,0.6044312316304132,-0.01762500933767569,0.003988438057818721,-0.0013592338929190539
515105000000,59,515105000000,BL_wheel_link,1.9607399664231875,2.903046258851278,11.494192785678502,0.2807765658306782,-0.19431889071969682,0.0030212194810597935
515106000000,60,515106000000,BL_wheel_link,-0.14384319277188964,-0.021573126614390356,0.6043062352940543,-0.017625938227584396,0.003990765781562159,-0.0013599376473630517
515107000000,61,515107000000,BL_wheel_link,1.9602288717507586,2.9027911394657213,11.493062728298348,0.2807567134420974,-0.19426437864355875,0.003021432830373508
515108000000,62,515108000000,BL_wheel_link,-0.1438574584975605,-0.021571965800452828,0.6041815078628133,-0.017626867780865155,0.003993041683802403,-0.0013606304316169371
515109000000,63,515109000000,BL_wheel_link,1.9597274687277935,2.902542753919531,11.491950822706846,0.28073752125288454,-0.19421093055162758,0.0030216475510999145
515110000000,64,515110000000,BL_wheel_link,-0.14387234660700648,-0.021570222702742545,0.604059442419276,-0.017627754432391837,0.003995320692755756,-0.0013613431166433483
515111000000,65,515111000000,BL_wheel_link,1.9592224288298477,2.9022947905746195,11.490832748347358,0.28071842510494893,-0.19415706417553047,0.003021867065415427
515112000000,66,515112000000,BL_wheel_link,-0.14388651566732547,-0.021568768727772844,0.6039356786353933,-0.0176286530978228,0.0039975745261205,-0.0013620448722697603
515113000000,67,515113000000,BL_wheel_link,1.9587155544477897,2.902037533000109,11.48969402102053,0.2806983289609124,-0.1941030665666908,0.003022070862195812
515114000000,68,515114000000,BL_wheel_link,-0.1439006931961807,-0.021567220220870806,0.6038110652014035,-0.01762956104586691,0.003999841803540422,-0.0013627459354128913
515115000000,69,515115000000,BL_wheel_link,1.9582092525531523,2.9017826445208326,11.48856188007708,0.28067847791778355,-0.19404911163946112,0.0030222784499414723
515116000000,70,515116000000,BL_wheel_link,-0.14391474815127572,-0.02156577998606822,0.6036864909777634,-0.01763047062273618,0.004002101117902278,-0.0013634431831136262
515117000000,71,515117000000,BL_wheel_link,1.9577034647217442,2.901526984668298,11.487428716515229,0.28065853588582457,-0.1939952217111224,0.003022484003205466
515118000000,72,515118000000,BL_wheel_link,-0.14392888584144,-0.021564269029182515,0.6035620785344333,-0.01763137706768465,0.004004364737565763,-0.0013641418537259603
515119000000,73,515119000000,BL_wheel_link,1.9571975189320299,2.901272171113238,11.486297235197057,0.28063868607726156,-0.1939413052689164,0.0030226913460444237
515120000000,74,515120000000,BL_wheel_link,-0.14394297379815998,-0.02156278659545416,0.6034376360123183,-0.017632283019665886,0.004006626395658327,-0.0013648394494321233
515121000000,75,515121000000,BL_wheel_link,1.9566914033899079,2.9010166315306627,11.48516426435065,0.2806187568858323,-0.1938873746019481,0.0030228974960404328
515122000000,76,515122000000,BL_wheel_link,-0.14395708658056608,-0.021561279563211133,0.6033131826637919,-0.017633188307516957,0.004008890755335245,-0.0013655374447543746
515123000000,77,515123000000,BL_wheel_link,1.956185187107265,2.900761374371158,11.484032073444487,0.2805988571621715,-0.19383342866931474,0.0030231042861638387
515124000000,78,515124000000,BL_wheel_link,-0.14397013345646986,-0.02156281509356102,0.6031905788071869,-0.017634117647354695,0.004011157981422649,-0.0013661570672727791
515125000000,79,515125000000,BL_wheel_link,1.955682501646682,2.900499949178342,11.482904235179305,0.28057817633979976,-0.19377992348937356,0.003023289705966388
515126000000,80,515126000000,BL_wheel_link,-0.1439823555594984,-0.021566628740147184,0.6030689642042275,-0.017635125298486244,0.004013394849373368,-0.0013667429788382808
515127000000,81,515127000000,BL_wheel_link,1.9551837384119817,2.9002297457215844,11.481776477255377,0.28055641961421485,-0.19372692624199472,0.0030234477805685988
515128000000,82,515128000000,BL_wheel_link,-0.14399499450470996,-0.021569981025039653,0.6029474168070268,-0.01763618796176908,0.004015620011244775,-0.001367369429470928
515129000000,83,515129000000,BL_wheel_link,1.9546853636763397,2.899959165990195,11.480652393871793,0.2805345936358776,-0.19367397007163478,0.0030236035529157467
515130000000,84,515130000000,BL_wheel_link,-0.14400798417902888,-0.021573059573229345,0.6028264109460293,-0.017637256855343824,0.004017859005702495,-0.001368011018389124
515131000000,85,515131000000,BL_wheel_link,1.9541841384794263,2.8996872211728295,11.47952476941143,0.28051263357333245,-0.19362069354288383,0.003023759813881356
515132000000,86,515132000000,BL_wheel_link,-0.1440210692563562,-0.021576059791200614,0.6027051665908694,-0.01763833146127927,0.004020113508601887,-0.0013686561507899992
515133000000,87,515133000000,BL_wheel_link,1.9536803287211297,2.899413067632386,11.478392211091542,0.2804904447777756,-0.19356713467497585,0.0030239147444267468
515134000000,88,515134000000,BL_wheel_link,-0.1440342554153734,-0.021579005666747322,0.60258369998913,-0.01763941129701465,0.004022383945884833,-0.001369302983639707
515135000000,89,515135000000,BL_wheel_link,1.9531751056421565,2.8991385509174634,11.477259377902818,0.28046821906108765,-0.19351341262386035,0.0030240705837291035
515136000000,90,515136000000,BL_wheel_link,-0.1440475241945509,-0.021581925729586643,0.6024622434226872,-0.017640493253206664,0.004024664392811814,-0.0013699507418513826
515137000000,91,515137000000,BL_wheel_link,1.9526693668604498,2.8988644287762524,11.476127981474123,0.28044603508791094,-0.19345962496711294,0.0030242280754202854
515138000000,92,515138000000,BL_wheel_link,-0.14406086518018268,-0.021584848037182122,0.6023409351262939,-0.017641574127212234,0.004026951233870305,-0.0013705980617153624
515139000000,93,515139000000,BL_wheel_link,1.9521633290153413,2.8985907006777776,11.474997867615965,0.28042389357421815,-0.1934057971249502,0.0030243872097453096
515140000000,94,515140000000,BL_wheel_link,-0.1440742253832144,-0.02158783728941048,0.6022197045715357,-0.01764265445034197,0.004029240702503323,-0.0013712427471134314
515141000000,95,515141000000,BL_wheel_link,1.951656111419422,2.8983152204696188,11.47386408398233,0.2804015663165801,-0.19335184662759725,0.0030245443135840868
515141000000,96,515142000000,BL_wheel_link,-0.14408757492878582,-0.02159087818998176,0.602098232011902,-0.01764374000330344,0.004031533370338485,-0.0013718864509147854
515143000000,97,515143000000,BL_wheel_link,1.951148850858248,2.8980395336559,11.472731133573687,0.28037921208484545,-0.19329788975378778,0.003024701881405793
515144000000,98,515144000000,BL_wheel_link,-0.14410091329196942,-0.02159406776874541,0.6019767658453201,-0.01764482827155086,0.004033825639358548,-0.0013725251522181416
515145000000,99,515145000000,BL_wheel_link,1.9506410615103245,2.897762405173804,11.471596208645288,0.2803566990655832,-0.1932438817451506,0.003024857635809507
515146000000,100,515146000000,BL_wheel_link,-0.1441142688841658,-0.02159737685134161,0.6018552085630989,-0.017645922012268424,0.00403611962408014,-0.0013731613207866437
515147000000,101,515147000000,BL_wheel_link,1.9501325674283239,2.8974838509747713,11.470459466972809,0.28033402788073036,-0.19318980226248406,0.0030250112251250637
515148000000,102,515148000000,BL_wheel_link,-0.14412767779393554,-0.021600737726923863,0.6017335834108346,-0.017647022338486383,0.004038416383116734,-0.0013737986630973744
515149000000,103,515149000000,BL_wheel_link,1.949623655952074,2.897204668146998,11.469322634902744,0.28031128334184535,-0.19313567758884986,0.003025163804168104
515150000000,104,515150000000,BL_wheel_link,-0.0829753549138396,0.30472286152612116,-0.03983441562081122,-0.07167261546981701,0.002597396087862601,0.0006946875851331705
515151000000,105,515151000000,BL_wheel_link,-0.004748856544776227,0.14703628721000478,-0.2635019972975021,-0.05467850005732379,0.001046251751500405,1.5152066403211536e-05
515152000000,106,515152000000,BL_wheel_link,0.40928583190632184,1.2587976182846514,-3.0256849384369215,-0.054265289557495086,-0.012068510371271043,0.013971898877678721
515153000000,107,515153000000,BL_wheel_link,-0.007630242807817267,0.2698088797985948,-0.38081692181517324,-0.0513752494662084,0.0005224643869680377,-0.00038907198336459283
515154000000,108,515154000000,BL_wheel_link,0.5208532234695955,0.37458139524933043,-0.6377818577432055,-0.022993607973959,0.02964348228858547,0.028378837506702264
515155000000,109,515155000000,BL_wheel_link,0.11159985592029026,0.8521811396859653,-2.010113032751741,-0.011820377876642023,-0.041920546451346886,-0.02302024863197482
515156000000,110,515156000000,BL_wheel_link,0.2651899245296773,0.31197241997156927,-0.4364280821740516,0.015396433116684052,0.02705779402931139,0.024549881100065958
515157000000,111,515157000000,BL_wheel_link,-0.23764274245230055,1.1743320878862291,-1.7970218455346822,0.010371598500262058,-0.022881336383509737,-0.02122540236516961
515160000000,112,515158000000,BL_wheel_link,-0.13481719875291354,-0.2735783784113066,0.8090473499441921,-0.02083542338629877,0.026702556918074976,0.008704408699992883
515160000000,113,515159000000,BL_wheel_link,0.02901734358535306,0.02451979476567915,-0.06734501533082364,0.0015366894156839347,-0.00015931718455668338,0.0006066256640186226
515160000000,114,515160000000,BL_wheel_link,0.19680527054151337,0.6271606264647129,-1.6754250481201056,-0.007476902883849895,-0.02241559008500063,-0.004271950442614784
515161000000,115,515161000000,BL_wheel_link,-0.03919938317023778,0.080574220628837,-0.0719396532942354,0.002256965456964717,0.0005300792430275958,-0.0008941003612237275
515162000000,116,515162000000,BL_wheel_link,-0.02179539107914888,-0.2291285563783635,0.6375113437272988,-0.016687054337242303,0.025164791723818115,0.011267000638732583
515163000000,117,515163000000,BL_wheel_link,-0.31588957331582923,1.5040420263480205,-2.2560949738698675,0.015512855816956422,-0.027658959631648265,-0.02633358912173047
515164000000,118,515164000000,BL_wheel_link,-0.07633522551564702,-0.18847315260841194,0.5692727555947216,-0.012976859161171481,0.023129800719193357,0.010269864362962388
515165000000,119,515165000000,BL_wheel_link,-0.1520386026589704,0.7361456562010592,-1.2251055524706636,0.0047710069715409,-0.01629241898619628,-0.012823969633783499
515166000000,120,515166000000,BL_wheel_link,0.0753305481077273,0.013183793120256412,0.16875062653609751,-0.0070495366477486944,0.016630917937854796,0.007825555949115399
515166000000,121,515167000000,BL_wheel_link,-0.2185780824441993,0.7735392167488597,-1.4112215339379488,0.0012095711095834166,-0.019108840383545163,-0.012811999403893156
515168000000,122,515168000000,BL_wheel_link,0.1094789661652622,0.05014721177792791,-0.015381021224054983,0.0015726066781722586,0.01588431506565531,0.012228573586907036
515169000000,123,515169000000,BL_wheel_link,0.09653256138020816,0.03129222659806584,-0.6714978691883854,-0.017644061598814504,-0.020174286002206634,-0.005042376242110682
515170000000,124,515170000000,BL_wheel_link,0.030986487284075853,0.049344483007028477,0.030771963858420102,0.002667742397694842,0.01475080172001874,0.010210995421030544
515171000000,125,515171000000,BL_wheel_link,-0.22187638858305678,0.7098311505110695,-1.208542237280899,0.003443258428813185,-0.014894209598102094,-0.011399322261139919
515172000000,126,515172000000,BL_wheel_link,-0.10071098700652947,-0.2399575561640751,0.7136257054411546,-0.018587218200588784,0.02261840980152119,0.0072968129381450805
515173000000,127,515173000000,BL_wheel_link,-0.08417902319218543,0.6192469536982745,-1.0445519933218925,0.004262074478319124,-0.014988667317638024,-0.011577206987161507
515174000000,128,515174000000,BL_wheel_link,0.1822278776241696,0.13206211515089805,-0.11476963193044774,0.00022649136342559224,0.0152205722239326,0.010468697332880349
515175000000,129,515175000000,BL_wheel_link,0.0592847065997093,0.18971806772491182,-0.8490946913363773,-0.014290958371288444,-0.021488529867229916,-0.007654746867527769
515176000000,130,515176000000,BL_wheel_link,0.10993243975030159,0.09407729357942268,-0.0769194957097966,0.002772955005823281,0.014362793280740378,0.01079586608192579
515177000000,131,515177000000,BL_wheel_link,-0.19720037313449154,0.6435912229040492,-1.162002404794522,0.0013667119795774656,-0.015419353752263252,-0.010792596273859444
515178000000,132,515178000000,BL_wheel_link,-0.07888351097493543,-0.20326885919830187,0.6300106642215858,-0.016425587494827868,0.021062436363112145,0.007077086351436598
515179000000,133,515179000000,BL_wheel_link,-0.1094017690398281,0.5994442957896926,-1.0460320211938134,0.003317558862142419,-0.014677758668397222,-0.01078566281397533
515180000000,134,515180000000,BL_wheel_link,0.1842379872415855,0.12773356459497004,-0.1142148110185947,1.4479549095175112e-05,0.01484788770662897,0.010134916527384515
515181000000,135,515181000000,BL_wheel_link,0.05862358602370103,0.1716490598692325,-0.8130768603845913,-0.01408353129329347,-0.020787009283359914,-0.007134332178894922
515181000000,136,515182000000,BL_wheel_link,0.11598602232465496,0.09589864000552834,-0.08290182329473829,0.0026894520907425716,0.014243424347108676,0.01062326425719836
515181000000,137,515183000000,BL_wheel_link,-0.19067192522721366,0.6187826884946361,-1.142517190320782,0.0008949930417958699,-0.015396259063130208,-0.010454164323932383
515181000000,138,515184000000,BL_wheel_link,-0.07316728066399693,-0.1942111102910089,0.6150466277250448,-0.016077966374159147,0.020669115649794775,0.006861304193579011
515181000000,139,515185000000,BL_wheel_link,-0.09528884094111903,0.5663766556530774,-1.0069278320515087,0.003002867637988668,-0.014432268211689773,-0.010357950212473349
515181000000,140,515186000000,BL_wheel_link,0.1724157445797206,0.11200423850977428,-0.06902330655260347,-0.0015232837450070659,0.015106663181299638,0.009363143263236978
515181000000,141,515187000000,BL_wheel_link,0.05521552274301965,0.17882183509352045,-0.7970898408714641,-0.01285482074999646,-0.019843383403355577,-0.006678359202493226
515188000000,142,515188000000,BL_wheel_link,0.08925281629933772,0.07596046758039172,-0.048382824467316246,0.0022674937960422796,0.013431431125413828,0.009654493884588878
515189000000,143,515189000000,BL_wheel_link,-0.20267652630295782,0.6373743798162739,-1.2136907088400726,0.0003306498564657756,-0.016501275704036304,-0.010665671220090382
515190000000,144,515190000000,BL_wheel_link,-0.06326551320002,-0.18456024646895888,0.5950095383114394,-0.015241727299992954,0.02106607244833387,0.007482804043783072
515190000000,145,515191000000,BL_wheel_link,-0.07320235715984333,0.5350113419820144,-0.9653527506226725,0.0029370195650814963,-0.014239181823755514,-0.010047725313488576
515192000000,146,515192000000,BL_wheel_link,-0.3660006948724491,1.0295904604315518,-3.403072071392089,0.08237365856427879,0.05001302125684648,-0.01715732589245786
515193000000,147,515193000000,BL_wheel_link,7.640919138903536,5.167524774022877,23.078863201252737,0.6071624568108708,-0.7720714648807346,0.021557706588123386
515194000000,148,515194000000,BL_wheel_link,-0.2568129114838895,0.5123078453961143,-0.7241958069160164,0.04203721854166213,0.0039416241624575694,-0.006221518469276026
515195000000,149,515195000000,BL_wheel_link,0.2712276377377423,-0.7710921643748613,0.20653479119906723,-0.03758836302460629,-0.015169462476284099,0.007369483773121726
515196000000,150,515196000000,BL_wheel_link,-0.24642038068072167,0.4746162983875217,-1.2170676889455079,0.03729289778937041,0.020908612931705015,-0.001502244303631546
515197000000,151,515197000000,BL_wheel_link,0.28577067681931984,-0.6102050393820326,-0.08643880571904432,-0.03681986156531468,-0.020851701664453874,0.0035307400667091617
515198000000,152,515198000000,BL_wheel_link,-0.22259896360101422,0.50899653791103,-1.2917982253975746,0.03944945066331728,0.020635752203604224,-0.0006354440318929937
515199000000,153,515199000000,BL_wheel_link,0.2773033279081839,-0.5511390346735728,-0.18870574367044948,-0.03651332970047573,-0.02256431434090425,0.0023871717955588527
515200000000,154,515200000000,BL_wheel_link,-0.2296403881688877,0.5249146205258959,-1.2941112027173047,0.03983644683425719,0.020533872795386383,-0.0005995191895102454
515201000000,155,515201000000,BL_wheel_link,0.26342004293897137,-0.5226983521312899,-0.23320704588547958,-0.03632292631823411,-0.02307634054925684,0.0020406955057236465
515202000000,156,515202000000,BL_wheel_link,-0.24262409687964814,0.5336531716287727,-1.2776860300942938,0.03971390404481272,0.02047047315239449,-0.000754973423765824
515203000000,157,515203000000,BL_wheel_link,0.25009410015211375,-0.5050417293523457,-0.25771715296148034,-0.03616494275421181,-0.023216645262723767,0.0019332385577556942
515206000000,158,515204000000,BL_wheel_link,-0.25418505538345193,0.5391949284160379,-1.2600075976526142,0.039501616072385726,0.020414490899135856,-0.000909983257655345
515206000000,159,515205000000,BL_wheel_link,0.23925308755762098,-0.4928523551335876,-0.27337897327324756,-0.036046454772240055,-0.023251479849274465,0.0019034398275223942
515206000000,160,515206000000,BL_wheel_link,-0.26374471949763845,0.5430067856349806,-1.245285975244435,0.03931265033395141,0.020379880231138993,-0.001048046640498369
515208000000,161,515207000000,BL_wheel_link,0.23091451239186736,-0.48343025062990375,-0.2849854903442185,-0.0359496462249956,-0.023269657816074034,0.0018903748746895454
515208000000,162,515208000000,BL_wheel_link,-0.2701577650726137,0.5453320187456971,-1.2351022826605729,0.03918264341718865,0.020347932954566206,-0.0011397423601804972
515209000000,163,515209000000,BL_wheel_link,0.22496838868973076,-0.47667048690004477,-0.29306525581015974,-0.03588709525732059,-0.023287305402078858,0.0018913629678748137
515210000000,164,515210000000,BL_wheel_link,-0.2744302395906812,0.5465577418218193,-1.2286848722806827,0.039105633232535526,0.02032812602341045,-0.001205443003790904
515211000000,165,515211000000,BL_wheel_link,0.22077238979447925,-0.47181335659101264,-0.2985927172068191,-0.03584750933977501,-0.02330498281360062,0.0019018530884950357
515212000000,166,515212000000,BL_wheel_link,-0.0775150737145992,0.24497502875322721,-0.5663169958527243,0.013254050531617816,0.030129602759991256,0.0033029831755166713
515213000000,167,515213000000,BL_wheel_link,0.05610361841349242,0.06377826005531272,-0.6105533253889908,-0.013325024678476238,-0.016680799967859324,-0.003789253264024621
515214000000,168,515214000000,BL_wheel_link,0.160713692741604,0.1661918744810975,-0.47312598114042437,0.007988388030674275,0.015708536558451672,0.0058455231884452525
515215000000,169,515215000000,BL_wheel_link,0.07784122149328093,0.3083873202680819,-1.2604787804480568,0.002680681386520266,-0.013048391261810649,0.0006811066277499399
515216000000,170,515216000000,BL_wheel_link,-0.0977782114380538,-0.17308229490157268,0.5902552611331868,-0.017086045672905052,0.012917058058761971,0.00045484757398186516
515217000000,171,515217000000,BL_wheel_link,0.02307853588259054,0.24042811480262982,-0.7114718873826014,0.020467167854302613,0.007234729765080656,0.00278055368033596
515218000000,172,515218000000,BL_wheel_link,0.17992800710445195,0.008290734276644937,-0.6091529352565186,-0.030143672118892784,-0.014890671200599948,-0.003028253938994606
515219000000,173,515219000000,BL_wheel_link,-0.20680444221506464,0.4933008151121052,-1.110248577902063,0.03458893139381168,0.016529679503153576,-0.0007764756562820849
515220000000,174,515220000000,BL_wheel_link,0.29839413651920277,-0.1759167264118653,-0.6034274061706282,-0.029086703858267823,-0.019145693169688865,0.0015191690511549842
515221000000,175,515221000000,BL_wheel_link,-0.2699133363787169,0.44231050364597213,-0.9261800848068306,0.029913848627328498,0.016306885993694623,-0.0027178479818467174
515222000000,176,515222000000,BL_wheel_link,0.22900188178967593,-0.1927145087694009,-0.4415269539757564,-0.029572272130304854,-0.015436666867037208,0.0012430614119239545
515223000000,177,515223000000,BL_wheel_link,-0.22135159471508936,0.39543965765687805,-0.8487261686003073,0.027171899015812736,0.014323793707425644,-0.0018825824189115906
515224000000,178,515224000000,BL_wheel_link,0.2245011926762437,-0.17598562297466425,-0.45595658599204447,-0.02770705569151347,-0.014754359486797645,0.0017973619302298377
515225000000,179,515225000000,BL_wheel_link,-0.2405992154272259,0.404164570284157,-0.8670735817485775,0.027850797955642666,0.015048994520370465,-0.0023221601616571176
515226000000,180,515226000000,BL_wheel_link,0.23534174128791327,-0.19434652242632158,-0.44228609295944443,-0.028305025145852664,-0.01500004268723555,0.0019984357568205687
515227000000,181,515227000000,BL_wheel_link,-0.2479408705690719,0.40938264364873433,-0.8930208992318139,0.028580131900663303,0.015575306258760482,-0.002524712360579464
515228000000,182,515228000000,BL_wheel_link,0.25723715109165673,-0.21621456309357023,-0.44990523254110604,-0.028487043045967154,-0.01579770159156556,0.002500206404111268
515229000000,183,515229000000,BL_wheel_link,-0.25638570403968786,0.409376428227493,-0.898310444105191,0.02875762192065904,0.01589192750599869,-0.0027766434327754245
515230000000,184,515230000000,BL_wheel_link,0.2620984814083518,-0.2274597648980095,-0.4395535734693684,-0.028730998792670735,-0.01588054946937328,0.0026722641722823274
515231000000,185,515231000000,BL_wheel_link,-0.25464975993006966,0.40464404604944143,-0.8972693965805045,0.028658730386519667,0.015866702647770528,-0.002810962176001954
515232000000,186,515232000000,BL_wheel_link,0.26485951868864543,-0.23118936256681114,-0.43776014206346225,-0.0286634435397694,-0.015921956958055126,0.002814524588436936
515232000000,187,515233000000,BL_wheel_link,-0.2557161429716134,0.40251672168092667,-0.8997319262875585,0.028696823897899557,0.015942942394993203,-0.0028906663029459128
515234000000,188,515234000000,BL_wheel_link,0.26617671758440364,-0.23432342770509568,-0.4338570826379561,-0.0287225602864628,-0.015934655454766026,0.002882140255199025
515235000000,189,515235000000,BL_wheel_link,-0.25514349483634546,0.4000429597748725,-0.9020535915401895,0.02871721212638037,0.015971630848716407,-0.0029312905567903955
515236000000,190,515236000000,BL_wheel_link,0.26785825393495094,-0.2364667093726677,-0.43289513203691987,-0.02872136174528121,-0.015983059003562415,0.0029597746035137816
515237000000,191,515237000000,BL_wheel_link,-0.2553270090116643,0.39789437379185427,-0.9036716687554373,0.02873080234099997,0.016007893346224454,-0.002984925942322968
515238000000,192,515238000000,BL_wheel_link,0.2685117073145197,-0.2379382941973991,-0.43107624224921115,-0.028740567085094378,-0.015997440993300995,0.0030116091677149766
515239000000,193,515239000000,BL_wheel_link,-0.2550098731127378,0.3955860106217845,-0.9047099606863241,0.028725978399303066,0.016022307668304897,-0.0030255871744330845
515240000000,194,515240000000,BL_wheel_link,2.9714246433024587,1.7718782858291415,21.805319678147477,-0.44900464428306086,-0.32076735982107657,0.07600682410484365
515241000000,195,515241000000,BL_wheel_link,0.036897867346803566,-0.02175194709622151,0.09471936052328969,-0.0016094949295569069,-0.0005563024461880358,0.0029826636719966276
515242000000,196,515242000000,BL_wheel_link,2.497778300847695,3.3293080415154463,6.841315691090007,0.1346508007040948,-0.25790423183644823,0.06555521579665384
515243000000,197,515243000000,BL_wheel_link,-0.1374432897992633,-0.023565976025114302,0.5068469939185556,-0.028386743181588747,0.00038734705786976076,-0.0034329462434465967
515244000000,198,515244000000,BL_wheel_link,2.84903023326374,5.144137299136704,13.245151949377128,0.11366606526939986,-0.28216083122206403,0.07159582421069896
515245000000,199,515245000000,BL_wheel_link,-0.7622724426751986,-0.21530409183270371,15.508707669894857,-0.4359753281988346,0.06448728686417374,-0.015367790145167117
515246000000,200,515246000000,BL_wheel_link,-0.06258330116900554,-0.13990792698087376,-0.07725828207274178,-0.009698302798673439,0.0073280413649119865,-0.0018591993776540124
515247000000,201,515247000000,BL_wheel_link,-0.31870051077037864,2.0463983608246736,16.478275262566292,-0.26282669757156246,0.04276306798434093,-0.010347496872352136
515248000000,202,515248000000,BL_wheel_link,-0.026308689818352243,-0.10634317489426892,0.15178988222561712,-0.011527973465578814,0.008769571583296684,-0.0002670449745915224
515249000000,203,515249000000,BL_wheel_link,1.2041231066226348,2.5497732834498117,7.544006433402299,0.02461523244853639,-0.1145273716931744,0.02909032565972307
515250000000,204,515250000000,BL_wheel_link,-0.9563061287191984,-2.1280436873658894,11.995800035229585,-0.5790815098381212,0.07422348031466808,-0.027153249286867246
515251000000,205,515251000000,BL_wheel_link,-0.15759781769599085,-0.02791274929357635,-0.38257914423335837,-0.011810417688062807,0.009415542439449472,-0.006023139886639398
515252000000,206,515252000000,BL_wheel_link,-2.1946214588294395,-0.06759636631053434,11.560318964298371,-0.33923046932637224,0.24834808857946158,-0.05769082452389411
515252000000,207,515253000000,BL_wheel_link,-0.07923602231243033,-0.03924401700063822,-0.3205627333731146,-0.012114053391853515,0.0002857390726280348,-0.0031374252200836086
515254000000,208,515254000000,BL_wheel_link,-1.6809124344252697,-0.874867295131363,11.454997139885014,-0.4181042937927958,0.1849360995930308,-0.04321235985214321
515255000000,209,515255000000,BL_wheel_link,-0.07544974741585883,-0.13452197404410032,-0.005275527490382693,-0.01429718190357905,0.010232822214920315,-0.00242980476987478
515256000000,210,515256000000,BL_wheel_link,0.37708933782345744,1.2618804308049931,16.924667215392894,-0.3676328783885935,-0.0318257020323604,0.01023670239465248
515257000000,211,515257000000,BL_wheel_link,-0.013048627096991762,-0.07680547201597111,-0.050157381125063315,-0.00742610188645359,0.0008852376013668874,-0.0003549408686212498
515258000000,212,515258000000,BL_wheel_link,-1.0920584907345985,-2.5199005447977867,9.542749661452959,-0.5651826703145826,0.09728505917376196,-0.030853010458824645
515259000000,213,515259000000,BL_wheel_link,-0.019223774866272587,-0.11431806669941538,-0.2337125188672095,-0.011053083717551005,0.013778910101799546,0.0009274819396903279
515260000000,214,515260000000,BL_wheel_link,0.5001579089166954,-0.20876782214131107,10.334184816727289,-0.33660380549290486,-0.048333074172007245,0.012326533461584663
515261000000,215,515261000000,BL_wheel_link,0.00383594508696139,-0.15581999941734456,0.1293513414803277,-0.015525682028657723,0.006631920065102487,0.0026144219700156585
515262000000,216,515262000000,BL_wheel_link,0.6610107779444678,0.7481286306403324,13.673481954200064,-0.33838669818133094,-0.07138022456819157,0.01575707498939602
515263000000,217,515263000000,BL_wheel_link,-0.001363147678489121,-0.12494501405311606,0.1788654601012966,-0.014358658336825599,0.005378023869194634,0.0012430148827514542
515264000000,218,515264000000,BL_wheel_link,0.6903801286930905,0.18504431821610032,11.668544016051966,-0.3408554056805167,-0.07495610963477822,0.016291254339969332
515265000000,219,515265000000,BL_wheel_link,0.013157038182440038,-0.13143155584051114,0.1495867508203117,-0.015136610089130106,0.004974140829712997,0.001674740061129791
515266000000,220,515266000000,BL_wheel_link,0.8447777191916417,0.5867563808658978,12.862824423941099,-0.33294749133634854,-0.09070717419796276,0.020425101989313042
515267000000,221,515267000000,BL_wheel_link,0.017937205490496315,-0.12007951394602973,0.15569117670621802,-0.01426143118339657,0.004147386869045468,0.0016198514313906646
515268000000,222,515268000000,BL_wheel_link,0.831042691825211,0.4138700055011562,11.981906615821588,-0.32530191612317977,-0.08921792498364414,0.02016928659867957
515269000000,223,515269000000,BL_wheel_link,0.02460355139272459,-0.11898707760474805,0.14476137411965326,-0.014380988975328633,0.0039723321974267705,0.0017408201636947246
515270000000,224,515270000000,BL_wheel_link,0.9792610257797238,0.630022907243559,12.649756470581668,-0.3213508004044715,-0.10433645278821148,0.02418644143733025
515271000000,225,515271000000,BL_wheel_link,0.030269805832549818,-0.11335484086793468,0.14627359066743634,-0.01384973588489059,0.003194643480155768,0.0018559842023064313
515272000000,226,515272000000,BL_wheel_link,0.9643367685262336,0.54819167768024,12.116542276188355,-0.3141549273519273,-0.10288483188068613,0.023907711461428824
515273000000,227,515273000000,BL_wheel_link,0.03404652943366462,-0.1119767276438298,0.14194150630552171,-0.013910951555925767,0.0030581268239770866,0.0018910633989839454
515274000000,228,515274000000,BL_wheel_link,1.0855080873068548,0.7041772311633941,12.617672324646625,-0.311745772419083,-0.11532548194329362,0.027198690477286347
515275000000,229,515275000000,BL_wheel_link,0.03838676731318548,-0.10860460051775817,0.14322470812280363,-0.01355877698642091,0.0024325779286691364,0.00199638513935997
515276000000,230,515276000000,BL_wheel_link,1.0651115326890699,0.6464696777800826,12.221244035630434,-0.306057248283266,-0.11335175534694217,0.026742234251192237
515277000000,231,515277000000,BL_wheel_link,0.04056020611535626,-0.10775205432202951,0.14107899679845698,-0.013634790370049537,0.0023708276880954077,0.0019969109091069427
515278000000,232,515278000000,BL_wheel_link,1.1563667191197333,0.7723168242995322,12.629129501176998,-0.3041606202425168,-0.12270203664271054,0.029231264977410236
515279000000,233,515279000000,BL_wheel_link,0.04352026244902393,-0.10537126853260867,0.1422861962810765,-0.013389762445079428,0.0019030635280533007,0.0020592211666749286
515280000000,234,515280000000,BL_wheel_link,1.1305176963706165,0.7256706718074116,12.312761953554643,-0.2996576077751252,-0.1201433406314641,0.0286115059356851
515281000000,235,515281000000,BL_wheel_link,0.0446770952165033,-0.10496643536361461,0.14072277979751416,-0.013484204191344239,0.0019015733507577433,0.0020332742624299092
515282000000,236,515282000000,BL_wheel_link,1.253074852930507,0.5385841266979856,11.218672683141584,-0.29590696780659737,-0.13656399605823305,0.032693144519460135
515283000000,237,515283000000,BL_wheel_link,-0.12599555030597698,-1.2944434575393018,3.543129857392465,-0.2472217089993886,0.007946188898534295,-0.003477850340974806
515284000000,238,515284000000,BL_wheel_link,0.030280364921069843,-0.0046341939241443565,-0.4895980663485508,-0.015815511425547726,-0.002694626303767711,0.0009695594898434987
515284000000,239,515285000000,BL_wheel_link,0.1641302965736956,0.716322807549383,11.424187788801353,-0.2642715531154181,-0.018053770495927685,0.004017909214162246
515286000000,240,515286000000,BL_wheel_link,-0.0026028419952261045,-0.06350164406027405,0.19449197606641555,-0.00960955207209989,0.007024751093966122,0.0005428818208784904
515287000000,241,515287000000,BL_wheel_link,1.5291465721379462,1.9423040203448867,16.055636289175702,-0.26780714650243503,-0.15489583339687857,0.040339571180183886
515288000000,242,515288000000,BL_wheel_link,0.04592510633742308,-0.09257984057950874,0.17517829899908066,-0.011250315846623154,0.00011390799804275771,0.002460813014746031
515289000000,243,515289000000,BL_wheel_link,0.6418841485329482,0.9391567162183292,11.05087923345869,-0.23579002045442085,-0.06813716633196903,0.015858033309770207
515290000000,244,515290000000,BL_wheel_link,0.03408946660745161,-0.10779078486521268,0.16978739382214353,-0.014574348022990471,0.002672566597451534,0.0013461941103172742
515291000000,245,515291000000,BL_wheel_link,1.485156919275962,1.6560927265172822,15.407757931763657,-0.2878814890343529,-0.15678160459034074,0.03818523675162347
515292000000,246,515292000000,BL_wheel_link,0.04594463019727495,-0.09531185090301522,0.1683951162504366,-0.012383131750488541,0.00043112219937269537,0.002017420910181807
515293000000,247,515293000000,BL_wheel_link,0.7933756569204915,0.6125905372422026,10.528564445767618,-0.2580492781644672,-0.08458717187931812,0.01974920598174077
515294000000,248,515294000000,BL_wheel_link,-0.11315557125258555,0.11753427989795422,-0.6300927034795398,0.004437624577561417,0.010638857684625202,-0.005784674940583512
515295000000,249,515295000000,BL_wheel_link,0.21766955196424684,-0.33866130539519124,-0.2405046446640671,-0.02813212453928301,-0.020183273619500158,0.0014469610087326308
515296000000,250,515296000000,BL_wheel_link,-0.2515691370197651,0.4698447628118328,-1.3931560166718144,0.042231689695152536,0.0198296175634963,-0.0033246134531829882
515297000000,251,515297000000,BL_wheel_link,0.4842608069759883,-0.5860336878355412,-1.1061273033453778,-0.02439278807829747,-0.014237812119032224,0.012683257907256999
515298000000,252,515298000000,BL_wheel_link,-0.010277934358057822,0.023700753483302545,-0.021340856403790007,0.000807121116123649,0.0004923751691837605,4.8234403948157326e-05
515299000000,253,515299000000,BL_wheel_link,-0.141868977892458,0.04039568441075772,-1.4131425096496488,0.010452097167987336,0.0026438216938265567,-0.002028331297875662
515300000000,254,515300000000,BL_wheel_link,-0.028321924687582878,0.07014931024201981,-0.11871283582167991,0.004132642859941043,0.001715641603511373,0.00014209433710444028
515301000000,255,515301000000,BL_wheel_link,0.012517406581426666,-0.11244305518561819,-0.026764838838934123,-0.031172400721251083,-0.0019924125671978953,-0.00011216222899299705
515302000000,256,515302000000,BL_wheel_link,-0.12723518064454048,0.45139377884992926,-1.2057625089624766,0.02975369287882794,0.014348466462146298,-0.006174145453351296
515303000000,257,515303000000,BL_wheel_link,0.1930664551825671,-0.2792135998101683,-0.3460387390149705,-0.027047475713603247,-0.021428511422864092,0.0006294630642839024
515304000000,258,515304000000,BL_wheel_link,-0.2263414654437835,0.43366580457377646,-1.2518448825625397,0.03823037571716541,0.017333616983414943,-0.0026546256565785926
515305000000,259,515305000000,BL_wheel_link,0.4061502763685981,-0.49281578370046536,-0.9640423636060004,-0.024982319986292294,-0.012126285586753044,0.012232594131658798
515306000000,260,515306000000,BL_wheel_link,-0.011405305366438766,0.02825630503782385,-0.032397228193983635,0.001100260896777349,0.00036382753970142244,4.1162032980502095e-05
515307000000,261,515307000000,BL_wheel_link,-0.15590642289948467,0.19523990242339506,-1.2115143701423698,0.006603389076079762,0.00562912823798758,-0.004440346901082918
515308000000,262,515308000000,BL_wheel_link,0.011065973693566374,-0.0009239319836832436,0.10278046778928746,-0.0038653431311370407,0.0043925771416743675,0.0005715508332506537
515309000000,263,515309000000,BL_wheel_link,0.09439975428942167,-0.08944277985855917,-1.4779149419232367,-0.0034648641458654306,-0.011518627861719515,0.0020825572986557794
515310000000,264,515310000000,BL_wheel_link,-0.19247046894617365,0.27522830912801677,-0.44743169224672175,0.004917278415046121,-0.0015959250870302246,-0.003486231557746776
515311000000,265,515311000000,BL_wheel_link,-0.0541900631608066,0.102944127057088,-0.2228897599148305,0.002694756177847755,0.016197369417781014,-0.0024301964662277425
515312000000,266,515312000000,BL_wheel_link,0.13402033361083499,-0.14735241699026336,-0.4417043529473563,-0.021114269984076242,-0.019370784035890817,-0.000506975788877721
515313000000,267,515313000000,BL_wheel_link,-0.25532950216905503,0.45236928457084113,-1.326485910466326,0.040488982947939234,0.018624448359028215,-0.0034625999117803693
515313000000,268,515314000000,BL_wheel_link,0.42094429957926355,-0.4939999413415601,-0.8176750911052879,-0.02993577456836606,-0.009639719054818825,0.011205090365007525
515315000000,269,515315000000,BL_wheel_link,0.07018748803029727,0.0812816687237696,-0.16657638033013528,0.0031508534934826834,0.0020428667696754015,0.0020426513159265297
515316000000,270,515316000000,BL_wheel_link,-0.1674861204031479,0.17855666076079232,-1.3101800075055277,0.00828963657111968,-0.0022839330831890235,-0.004197221730580105
515317000000,271,515317000000,BL_wheel_link,0.017602448388132075,-0.009262906773714765,0.18921375871795879,-0.007407736703027202,0.00667113758720161,0.000265919504534207
515318000000,272,515318000000,BL_wheel_link,-0.05652977227233019,0.15616264373453337,-1.6173788233518436,0.0030105843454286295,-0.010344253509668569,-0.002284906740040449
515319000000,273,515319000000,BL_wheel_link,-0.007930899196328813,0.009103863530252386,-0.011016511957508095,0.0002452285465040924,2.0900162228700125e-05,-0.00011200819668594246
515320000000,274,515320000000,BL_wheel_link,-0.10446061945099053,0.1282821456353391,-1.2879041244296738,-0.00041138134937049407,0.006485553922363921,-0.00492359132383789
515321000000,275,515321000000,BL_wheel_link,0.049271762409317285,0.02681418163964345,-0.0504170587371848,0.0006231010577828915,0.002470403836594284,0.0017889584681701418
515322000000,276,515322000000,BL_wheel_link,0.14421035505504606,-0.11818749082861382,-0.3383336366710783,-0.014137507455293078,-0.009442374467815172,0.003902680936489994
515323000000,277,515323000000,BL_wheel_link,-0.1469344143512254,0.11183852798761731,-1.8749395236215098,0.021769557659448973,0.006111893567076263,-0.00297499547190471
515324000000,278,515324000000,BL_wheel_link,0.00040550056861902496,0.002960014161975605,-0.0069663405713065,0.00018353019175103942,-4.118254306495597e-06,2.5914773551664784e-05
515325000000,279,515325000000,BL_wheel_link,0.11353001575524847,-0.13998117917162084,-0.20391038230748482,-0.02533656328006622,-0.005982690105157744,0.0031698390261171447
515326000000,280,515326000000,BL_wheel_link,-0.15647347166666875,0.38365921882817455,-1.0752788566904077,0.026208588763676884,0.016961248968546665,-0.006951184438813103
515327000000,281,515327000000,BL_wheel_link,0.18953245133518898,-0.26077357561040665,-0.3455609533857715,-0.026077764429721442,-0.021258171117740914,0.00078026375726386
515328000000,282,515328000000,BL_wheel_link,-0.20358134609461942,0.3950614125431432,-1.263861032223466,0.03807976144750094,0.01698146811969113,-0.0026021793633455473
515329000000,283,515329000000,BL_wheel_link,0.4120000066549304,-0.4974097335750052,-0.826736992808681,-0.026880498817331955,-0.010186507782359385,0.01230824070274178
515330000000,284,515330000000,BL_wheel_link,-0.009126183270074004,0.028576097022451015,-0.03765133804977583,0.001167486032089941,0.0002701691695518962,3.085995205514123e-05
515331000000,285,515331000000,BL_wheel_link,-0.13399179233132097,0.1780560808823734,-1.3674332206739113,0.008897707861342155,0.003476050838057992,-0.004549995875762124
515332000000,286,515332000000,BL_wheel_link,-0.005997449407981412,-0.020690233504526864,0.16308214293302586,-0.004672341816289837,0.005349575078835356,0.0007553366858989389
515333000000,287,515333000000,BL_wheel_link,0.10344260777526408,-0.10187771345108684,-1.4734862081795663,-0.0022392752384012655,-0.011104024903928303,0.001848457849686705
515334000000,288,515334000000,BL_wheel_link,-0.1172321436079326,0.18403681443177763,-0.3506366537202097,0.002433274458830764,-0.0025639920648096023,-0.002467371076598053
515335000000,289,515335000000,BL_wheel_link,-0.11735937329234082,0.08735374203942076,-0.9024012410559523,0.0028547971052723196,0.009271081034718265,-0.0026831791145562876
515336000000,290,515336000000,BL_wheel_link,0.053513324016930486,0.06250944169921865,-0.3191329016228479,-0.005139666393215222,-0.0031237608670000067,0.0011647575045066146
515337000000,291,515337000000,BL_wheel_link,0.021733590785905546,0.06110850059337109,-0.9617665317692264,0.0024646696916785357,0.0006067600174904691,-0.0004515597484498246
515338000000,292,515338000000,BL_wheel_link,0.004773654002694971,0.08904181391035704,-0.26324421884587657,-0.004426948003985087,-0.0005950086080209593,0.0005411597223601902
515339000000,293,515339000000,BL_wheel_link,0.03220367880390503,0.05721294260911138,-1.2638133824966102,0.008014385468104505,0.0005387057538901417,-0.000624793902912209
515340000000,294,515340000000,BL_wheel_link,0.04366797558361873,-0.011897347640925354,-0.4542928549602675,-0.0028360956944744158,-0.00027998079882555907,0.0022298856157467635
515341000000,295,515341000000,BL_wheel_link,-0.02822636365426875,0.06855729706626339,-0.15057884250034193,-0.007671639648982632,-0.0001250866972771934,-0.0007750263775569864
515342000000,296,515342000000,BL_wheel_link,-0.03083490120995607,0.010470849591511035,-1.4585123400391784,0.011476463971337059,0.0018408712274484594,-0.001803697509106402
515343000000,297,515343000000,BL_wheel_link,0.010893974652982188,-0.011978718608494603,0.15325826466901854,-0.005972113800088398,0.00421170010690512,-0.00037596095574432195
515344000000,298,515344000000,BL_wheel_link,0.11875300971725478,-0.16187103695256944,-1.4786141130545922,-0.0018274618229377607,-0.0095946325854326,0.0036573864924197286
515345000000,299,515345000000,BL_wheel_link,-0.009969043992753019,0.012777309741747074,-0.018315339487393993,0.0006132415452967666,0.00025958907140906867,-3.523496233855913e-05
515346000000,300,515346000000,BL_wheel_link,-0.07982878017523723,0.05311574331468236,-1.3576753400843882,0.007781780721407974,0.005566926828913856,-0.003570340863213007
515347000000,301,515347000000,BL_wheel_link,0.01834138362900462,-0.010120842560318453,-0.22192789151153192,-0.006371422981494993,-0.0069343913658477885,-0.0003676962156187207
515348000000,302,515348000000,BL_wheel_link,-0.033292477379860956,0.046063536677507726,-0.9367982174078864,0.0033515908726646894,0.0076164014701354645,-0.000522190562672731
515349000000,303,515349000000,BL_wheel_link,0.07156546157917974,0.04238767720397077,-0.31549660864799256,-0.00499822072114519,-0.003125978112424369,0.0019359356442037214
515350000000,304,515350000000,BL_wheel_link,0.03226925406707314,0.06359417173171444,-1.072112992678102,0.0050108775833222095,0.0006558622107688933,-3.2544621751377196e-05
515351000000,305,515351000000,BL_wheel_link,0.05001308568901996,0.0182170198646088,-0.5477521886151749,-0.0014056715864693365,-0.0003601762865911751,0.0022296383968249864
515352000000,306,515352000000,BL_wheel_link,-0.02865654672477999,0.07466687172620803,-0.15752115412574758,-0.00759068691903123,-0.0001277067836961696,-0.0008825087395203337
515353000000,307,515353000000,BL_wheel_link,-0.018054404658433835,0.06625579848216019,-0.05444963577021596,-0.012156923402508568,0.024289915375073644,-0.0050044992512025994
515354000000,308,515354000000,BL_wheel_link,0.12355801355635787,0.023170493133246227,-0.2380961945965574,0.004942552374936021,-0.0010097692700435207,0.0026838909678748657
515355000000,309,515355000000,BL_wheel_link,-0.17198826422159513,0.3383272691424508,-0.26234846792599786,-0.023571218164719913,0.0014211281387296708,-0.014157677874291168
515356000000,310,515356000000,BL_wheel_link,0.2552461179696566,0.24936761258002985,-1.7764438945419965,0.02277947805139664,-0.007577733566697028,0.0023768758368293264
515357000000,311,515357000000,BL_wheel_link,-0.006861822206907425,0.18133339616401156,-0.10580841840395022,-0.009050937943485509,0.009221933821226321,-0.003204876183501055
515358000000,312,515358000000,BL_wheel_link,0.009129873170704333,0.00410939938896716,-0.019867239891431167,0.00034160519144432326,-0.00012184793658720552,9.775663843642485e-05
515359000000,313,515359000000,BL_wheel_link,0.4630067276798834,-0.22754437465957908,-1.6249127302972912,-0.004000527746039351,-0.004877342094006702,0.011501206667015415
515360000000,314,515360000000,BL_wheel_link,-0.04077434001736432,0.14176864281669602,-0.2755972320786796,0.002738457969755026,-0.002728239651220224,-0.002167150007853541
515361000000,315,515361000000,BL_wheel_link,-0.027000910993912053,-0.03495606877349441,-0.01321804719026798,-0.0010577423362949073,0.021223342628234797,-0.00026905860179963684
515362000000,316,515362000000,BL_wheel_link,0.1377472641677948,0.0017572933511420252,-0.6556605392619086,-0.015996561542165815,-0.022084377637938524,-0.0030506662436341
515363000000,317,515363000000,BL_wheel_link,-0.10913291633604569,0.10536505989506886,-2.028997853205061,0.026467982924040144,0.0069601081515094036,-0.001506925160528447
515364000000,318,515364000000,BL_wheel_link,0.0032142257313455902,0.0009216495581191395,-0.008906070952432435,0.00023436035097743827,-1.390688127805807e-07,0.00012201551593176617
515365000000,319,515365000000,BL_wheel_link,0.05378465771998234,-0.1121545559888178,-0.1635150847514863,-0.02518561301613126,-0.0032452502191971586,0.0016574863621972866
515366000000,320,515366000000,BL_wheel_link,-0.041332904493918764,0.1474582268575995,-1.73089422795965,0.023214748241635847,0.0034514723538507878,-0.0009128250509224066
515367000000,321,515367000000,BL_wheel_link,0.015367413837793668,-0.027185147734289136,-0.18083571102518559,-0.0065984101302202745,-0.006308048379986841,-2.0591320660822886e-05
515368000000,322,515368000000,BL_wheel_link,-0.032039229209323936,0.028158843256357445,-0.7316308448978086,-0.00010878533661412733,0.008385820772283763,-0.0006513005975585925
515369000000,323,515369000000,BL_wheel_link,0.005347766632083171,0.05291136610838014,-0.3344009979197825,-0.0041466504691296206,-0.0072576289116036835,-0.0008508895098479894
515370000000,324,515370000000,BL_wheel_link,0.0176348219280801,-0.007870288549698169,-1.2512497885721507,0.007923289222014303,0.006841596619351389,0.0005519830042875651
515371000000,325,515371000000,BL_wheel_link,0.01422176475302911,-0.012888494722882567,-0.21703737964080422,-0.006124269535994434,-0.006489196205306985,3.264128784813097e-05
515372000000,326,515372000000,BL_wheel_link,0.009741029249287339,0.006145422036342088,-0.963804877673986,0.0037038399946049015,0.007052464619263747,0.0005191528929571382
515373000000,327,515373000000,BL_wheel_link,0.12585072695315092,-0.04328705904829931,-0.728959883721589,0.0014810983760345114,-0.005574443974462052,0.004150697248644516
515374000000,328,515374000000,BL_wheel_link,-0.05720394970340601,0.13328376154144686,-0.1429368552829515,-0.008388617997641814,0.005989375189933663,-0.00181093540952022
515375000000,329,515375000000,BL_wheel_link,0.061474785401912216,-0.017860439437330206,-1.180091964177364,0.0073248927612726365,-0.0034924706744676,0.0017303182971269888
515376000000,330,515376000000,BL_wheel_link,-0.005282793321704109,-0.009017874659551383,-0.21115397687942436,-0.006494355611722971,-0.006427162983571244,-0.00026795892532882935
515377000000,331,515377000000,BL_wheel_link,-0.12332100101580186,0.026905537556274284,-1.2360376689127206,0.007147400692185436,0.012243935427718525,-0.005306122405478426
515378000000,332,515378000000,BL_wheel_link,0.1342763478095019,-0.06308571112460556,-0.45174077520462985,-0.002416273911073691,-0.006578023117762946,0.0036873709168970025
515379000000,333,515379000000,BL_wheel_link,-0.023388052475425847,0.08055115361107104,-0.20417787557547978,-0.00662814506828031,0.0022795306301240754,-2.3753716930740402e-05
515380000000,334,515380000000,BL_wheel_link,-0.029897303037792602,-0.06094190617115568,-1.3461389247909945,0.008930311864953019,-0.00020722021561815195,-0.0007999350069058447
515381000000,335,515381000000,BL_wheel_link,0.05835350044859976,-0.054300769350265884,-0.6258046642360087,0.00047136649858870003,-0.0038718917766639273,0.0024956873290366017
515382000000,336,515382000000,BL_wheel_link,-0.06070169812443874,0.08806789825299013,-0.09246769468535442,-0.008777629997967723,0.004026001806795614,-0.0017244380857020084
515383000000,337,515383000000,BL_wheel_link,-0.010723641696945455,-0.06011106552745844,-1.3065057560767732,0.008212750087995383,-0.0009903062146204961,-0.0007699525599914902
515384000000,338,515384000000,BL_wheel_link,0.05605261812947038,-0.056354600954951546,-0.6493645724288382,0.0011524041753054048,-0.0036522662713747,0.002335582812952105
515385000000,339,515385000000,BL_wheel_link,-0.06652893188144357,0.10702129811702094,-0.07136660671415693,-0.009257618595519318,0.00518997803556873,-0.0024531249311931323
515386000000,340,515386000000,BL_wheel_link,0.06835310806486646,-0.05987230797439981,-1.3339491721174606,0.009506645036474397,-0.002152088755752784,0.0015199560906726107
515387000000,341,515387000000,BL_wheel_link,0.011410693505552185,-0.029549098170151444,-0.17542320377866832,-0.006851394433399946,-0.0063528453731951295,6.504302424463806e-06
515388000000,342,515388000000,BL_wheel_link,-0.09756780370992779,0.029249791638259838,-1.0110136095009523,0.0038374650636073043,0.011989173870090585,-0.004997990890179775
515389000000,343,515389000000,BL_wheel_link,0.18079499764447082,-0.06417394740081427,-0.6382455687428863,0.0006772980920651071,-0.00656825638412163,0.004926220666338021
515390000000,344,515390000000,BL_wheel_link,-0.021261239136293977,0.08367901282379592,-0.16289723328614425,-0.007837383853446194,0.003270044551651221,-0.0006041738587970955
515391000000,345,515391000000,BL_wheel_link,-0.04057910103632192,-0.07050266969991736,-1.2353978716409775,0.006445334297891981,-0.0009269893280122476,-0.001625165299000122
515392000000,346,515392000000,BL_wheel_link,0.060562758469916114,-0.04824229844832092,-0.684098956146258,0.002448522883078263,-0.003393377897563331,0.0024542158540111613
515393000000,347,515393000000,BL_wheel_link,1.7133115251762332,8.826546950106017,24.51433911279381,0.19754667344009322,-0.17864290978228567,0.04977115049785473
515394000000,348,515394000000,BL_wheel_link,-0.006943258611894933,0.02924578304872646,0.44724509571110727,-0.002707611080719129,-0.0015579098793884034,0.0012770028546824175
515395000000,349,515395000000,BL_wheel_link,2.356020916281298,4.738251358901407,8.217719664698993,0.23351904921354807,-0.23703207696398543,0.0669069584567168
515395000000,350,515396000000,BL_wheel_link,-0.25861991714303095,0.0699249091280294,0.9411133475469269,-0.025808535569341137,0.0065500714686468845,-0.008645335570373527
515397000000,351,515397000000,BL_wheel_link,2.6309957226457485,7.597832767722512,14.758584290545034,0.32518519397910095,-0.24852488603105083,0.07262247774862449
515398000000,352,515398000000,BL_wheel_link,-0.16523816671392266,0.15626535832973665,0.8603551774925146,-0.02224315076099468,-0.0026619470707513262,-0.004575362819737612
515399000000,353,515399000000,BL_wheel_link,2.671025038543916,6.25299314394152,11.975334187010457,0.2697339296456719,-0.2624365345865272,0.0745270900824325
515400000000,354,515400000000,BL_wheel_link,-0.14235855410930198,0.12256701416651039,0.9746355387126471,-0.017744515660803022,0.002964621826357031,-0.003657419158467543
515401000000,355,515401000000,BL_wheel_link,2.559673600613163,6.663915376695899,12.614063810552677,0.29715628337959504,-0.24631323270812444,0.07120369104970062
