%time,field.header.seq,field.header.stamp,field.header.frame_id,field.orientation.x,field.orientation.y,field.orientation.z,field.orientation.w,field.orientation_covariance0,field.orientation_covariance1,field.orientation_covariance2,field.orientation_covariance3,field.orientation_covariance4,field.orientation_covariance5,field.orientation_covariance6,field.orientation_covariance7,field.orientation_covariance8,field.angular_velocity.x,field.angular_velocity.y,field.angular_velocity.z,field.angular_velocity_covariance0,field.angular_velocity_covariance1,field.angular_velocity_covariance2,field.angular_velocity_covariance3,field.angular_velocity_covariance4,field.angular_velocity_covariance5,field.angular_velocity_covariance6,field.angular_velocity_covariance7,field.angular_velocity_covariance8,field.linear_acceleration.x,field.linear_acceleration.y,field.linear_acceleration.z,field.linear_acceleration_covariance0,field.linear_acceleration_covariance1,field.linear_acceleration_covariance2,field.linear_acceleration_covariance3,field.linear_acceleration_covariance4,field.linear_acceleration_covariance5,field.linear_acceleration_covariance6,field.linear_acceleration_covariance7,field.linear_acceleration_covariance8
515054000000,0,515045000000,base_link,-0.09390160632856329,-0.09156059030211595,0.7144258088867526,0.6873099084321082,0.0,0.0,0.0,0.0,0.0,0.0,0.0,0.0,0.0,0.041640661045031974,-0.02093942904610651,0.019201886087581603,0.0,0.0,0.0,0.0,0.0,0.0,0.0,0.0,0.0,-1.6333972598923645,-6.530998183878655,12.574872129170728,0.0,0.0,0.0,0.0,0.0,0.0,0.0,0.0,0.0
515054000000,1,515046000000,base_link,-0.09393278334762284,-0.09156785241970153,0.7144281498337591,0.6873022474435277,0.0,0.0,0.0,0.0,0.0,0.0,0.0,0.0,0.0,-0.05423511129135773,0.03272979581582616,0.01850167482041231,0.0,0.0,0.0,0.0,0.0,0.0,0.0,0.0,0.0,1.3421511696324115,1.6543507802297737,6.247959648985182,0.0,0.0,0.0,0.0,0.0,0.0,0.0,0.0,0.0
515054000000,2,515047000000,base_link,-0.0939043295157318,-0.0915591695473453,0.7144395559875333,0.6872954359009942,0.0,0.0,0.0,0.0,0.0,0.0,0.0,0.0,0.0,0.043519440636549625,-0.015948678562592727,0.017424535740204444,0.0,0.0,0.0,0.0,0.0,0.0,0.0,0.0,0.0,-1.3677500008352412,-6.750025379270055,13.180181362295247,0.0,0.0,0.0,0.0,0.0,0.0,0.0,0.0,0.0
515054000000,3,515048000000,base_link,-0.09393392274699264,-0.09156454470615553,0.7144420986673818,0.6872880327503628,0.0,0.0,0.0,0.0,0.0,0.0,0.0,0.0,0.0,-0.04927417999365175,0.03307255787170084,0.018473287568102646,0.0,0.0,0.0,0.0,0.0,0.0,0.0,0.0,0.0,1.3263012474441107,1.4410247551031028,5.84832327385533,0.0,0.0,0.0,0.0,0.0,0.0,0.0,0.0,0.0
515054000000,4,515049000000,base_link,-0.09390581553206376,-0.09155789663593483,0.7144538850631517,0.6872805071373917,0.0,0.0,0.0,0.0,0.0,0.0,0.0,0.0,0.0,0.04163684944137383,-0.020895221103673353,0.01921151317766326,0.0,0.0,0.0,0.0,0.0,0.0,0.0,0.0,0.0,-1.6293347366389475,-6.533981548954676,12.584498295224643,0.0,0.0,0.0,0.0,0.0,0.0,0.0,0.0,0.0
515054000000,5,515050000000,base_link,-0.09390581553206376,-0.09155789663593483,0.7144538850631517,0.6872805071373917,0.0,0.0,0.0,0.0,0.0,0.0,0.0,0.0,0.0,0.04163684944137383,-0.020895221103673353,0.01921151317766326,0.0,0.0,0.0,0.0,0.0,0.0,0.0,0.0,0.0,-1.6293347366389475,-6.533981548954676,12.584498295224643,0.0,0.0,0.0,0.0,0.0,0.0,0.0,0.0,0.0
515054000000,6,515052000000,base_link,-0.09393815078993399,-0.09156205644539152,0.7144702385398891,0.6872585335129805,0.0,0.0,0.0,0.0,0.0,0.0,0.0,0.0,0.0,-0.04948075894117743,0.03300621992573243,0.018514135169268628,0.0,0.0,0.0,0.0,0.0,0.0,0.0,0.0,0.0,1.3248159511439448,1.4498155901075478,5.862371165156876,0.0,0.0,0.0,0.0,0.0,0.0,0.0,0.0,0.0
515054000000,7,515053000000,base_link,-0.0939100602728357,-0.09155537703191699,0.7144820310890438,0.68725100273988,0.0,0.0,0.0,0.0,0.0,0.0,0.0,0.0,0.0,0.04162597208226146,-0.020778720949519547,0.019229904801974493,0.0,0.0,0.0,0.0,0.0,0.0,0.0,0.0,0.0,-1.6197366694414812,-6.5429097743084075,12.607974794585523,0.0,0.0,0.0,0.0,0.0,0.0,0.0,0.0,0.0
515055000000,8,515054000000,base_link,-0.09394111424405581,-0.09156256203110882,0.7144844192572725,0.6872433185760941,0.0,0.0,0.0,0.0,0.0,0.0,0.0,0.0,0.0,-0.05394876401271047,0.0326512807253829,0.01859176205169822,0.0,0.0,0.0,0.0,0.0,0.0,0.0,0.0,0.0,1.3367546474548226,1.640344121813572,6.221274407797486,0.0,0.0,0.0,0.0,0.0,0.0,0.0,0.0,0.0
515056000000,9,515055000000,base_link,-0.09391268449743868,-0.09155429691518759,0.7144959638759572,0.6872363028913833,0.0,0.0,0.0,0.0,0.0,0.0,0.0,0.0,0.0,0.043021063571870924,-0.016767454736611023,0.01787808478808168,0.0,0.0,0.0,0.0,0.0,0.0,0.0,0.0,0.0,-1.4003305802495651,-6.7310137197229984,13.124819897197774,0.0,0.0,0.0,0.0,0.0,0.0,0.0,0.0,0.0
515057000000,10,515056000000,base_link,-0.09394243673042797,-0.09155997197994312,0.7144985334287005,0.6872288089424204,0.0,0.0,0.0,0.0,0.0,0.0,0.0,0.0,0.0,-0.049930801899450775,0.032869767459472815,0.018613041229349425,0.0,0.0,0.0,0.0,0.0,0.0,0.0,0.0,0.0,1.322398894095896,1.4691770646120998,5.893318727480163,0.0,0.0,0.0,0.0,0.0,0.0,0.0,0.0,0.0
515058000000,11,515057000000,base_link,-0.09391437037129013,-0.09155322780607933,0.7145103423463113,0.687221265820703,0.0,0.0,0.0,0.0,0.0,0.0,0.0,0.0,0.0,0.04160324599290452,-0.020523089261955584,0.01926778551725785,0.0,0.0,0.0,0.0,0.0,0.0,0.0,0.0,0.0,-1.598128743390523,-6.562976089507519,12.657554309039071,0.0,0.0,0.0,0.0,0.0,0.0,0.0,0.0,0.0
515059000000,12,515058000000,base_link,-0.09394525346184368,-0.09156029904270803,0.7145127994633145,0.6872135478832598,0.0,0.0,0.0,0.0,0.0,0.0,0.0,0.0,0.0,-0.053543622126413726,0.03254658009809458,0.018724900269877096,0.0,0.0,0.0,0.0,0.0,0.0,0.0,0.0,0.0,1.3300477064285174,1.620586163584762,6.182961781263899,0.0,0.0,0.0,0.0,0.0,0.0,0.0,0.0,0.0
515060000000,13,515059000000,base_link,-0.09391684400455709,-0.09155263500538745,0.7145245512755163,0.6872062332810406,0.0,0.0,0.0,0.0,0.0,0.0,0.0,0.0,0.0,0.04232070842566103,-0.01793157867871291,0.01855003353828253,0.0,0.0,0.0,0.0,0.0,0.0,0.0,0.0,0.0,-1.4506286326408258,-6.703507821226761,13.041762575536398,0.0,0.0,0.0,0.0,0.0,0.0,0.0,0.0,0.0
515061000000,14,515060000000,base_link,-0.09391684400455709,-0.09155263500538745,0.7145245512755163,0.6872062332810406,0.0,0.0,0.0,0.0,0.0,0.0,0.0,0.0,0.0,0.04232070842566103,-0.01793157867871291,0.01855003353828253,0.0,0.0,0.0,0.0,0.0,0.0,0.0,0.0,0.0,-1.4506286326408258,-6.703507821226761,13.041762575536398,0.0,0.0,0.0,0.0,0.0,0.0,0.0,0.0,0.0
515062000000,15,515061000000,base_link,-0.09391880779867469,-0.09155185985438373,0.7145390168881449,0.687191027184874,0.0,0.0,0.0,0.0,0.0,0.0,0.0,0.0,0.0,0.041559108949641925,-0.019976792876788156,0.019330261432228612,0.0,0.0,0.0,0.0,0.0,0.0,0.0,0.0,0.0,-1.550586764809252,-6.605920750883809,12.761328639435742,0.0,0.0,0.0,0.0,0.0,0.0,0.0,0.0,0.0
515063000000,16,515062000000,base_link,-0.0939493351640261,-0.09155870130314217,0.7145415946209822,0.6871832624521812,0.0,0.0,0.0,0.0,0.0,0.0,0.0,0.0,0.0,-0.0527114804679044,0.03232518698815816,0.018935542509985387,0.0,0.0,0.0,0.0,0.0,0.0,0.0,0.0,0.0,1.3187739392499789,1.5869065945067673,6.105335086257469,0.0,0.0,0.0,0.0,0.0,0.0,0.0,0.0,0.0
515064000000,17,515063000000,base_link,-0.09392110629202825,-0.09155142410122033,0.7145534556889029,0.68717575735831,0.0,0.0,0.0,0.0,0.0,0.0,0.0,0.0,0.0,0.04185634330726598,-0.018808626824235293,0.019071729907639508,0.0,0.0,0.0,0.0,0.0,0.0,0.0,0.0,0.0,-1.4760647844109933,-6.681098319831591,12.959339924243226,0.0,0.0,0.0,0.0,0.0,0.0,0.0,0.0,0.0
515065000000,18,515064000000,base_link,-0.09395123627371194,-0.09155782524846484,0.7145561159338076,0.6871680194974179,0.0,0.0,0.0,0.0,0.0,0.0,0.0,0.0,0.0,-0.05151475231008601,0.03235339072481483,0.01902008105953603,0.0,0.0,0.0,0.0,0.0,0.0,0.0,0.0,0.0,1.3143517501592554,1.5400713288800074,6.006547860892088,0.0,0.0,0.0,0.0,0.0,0.0,0.0,0.0,0.0
515066000000,19,515065000000,base_link,-0.09395123627371194,-0.09155782524846484,0.7145561159338076,0.6871680194974179,0.0,0.0,0.0,0.0,0.0,0.0,0.0,0.0,0.0,-0.05151475231008601,0.03235339072481483,0.01902008105953603,0.0,0.0,0.0,0.0,0.0,0.0,0.0,0.0,0.0,1.3143517501592554,1.5400713288800074,6.006547860892088,0.0,0.0,0.0,0.0,0.0,0.0,0.0,0.0,0.0
515066000000,20,515066000000,base_link,-0.0939232226185617,-0.09155081117972777,0.7145679897059554,0.6871604363704793,0.0,0.0,0.0,0.0,0.0,0.0,0.0,0.0,0.0,0.04159993110981621,-0.019551767639694136,0.019343411182138476,0.0,0.0,0.0,0.0,0.0,0.0,0.0,0.0,0.0,-1.5081740533674755,-6.640662299515214,12.842776705394797,0.0,0.0,0.0,0.0,0.0,0.0,0.0,0.0,0.0
515069000000,21,515068000000,base_link,-0.09395558776897911,-0.09155677980979306,0.7145851759622904,0.6871373442717177,0.0,0.0,0.0,0.0,0.0,0.0,0.0,0.0,0.0,0.04173941602943681,-0.019118894478504962,0.019236268852981773,0.0,0.0,0.0,0.0,0.0,0.0,0.0,0.0,0.0,-1.4763014978779427,-6.670845876830938,12.917354932578457,0.0,0.0,0.0,0.0,0.0,0.0,0.0,0.0,0.0
515071000000,22,515069000000,base_link,-0.09392757490925951,-0.09154970068409958,0.7145970458071755,0.6871297731142019,0.0,0.0,0.0,0.0,0.0,0.0,0.0,0.0,0.0,-0.05167606468980911,0.03226679458533136,0.019061843829852012,0.0,0.0,0.0,0.0,0.0,0.0,0.0,0.0,0.0,1.3133550318303437,1.550680369176979,6.022443122041841,0.0,0.0,0.0,0.0,0.0,0.0,0.0,0.0,0.0
515071000000,23,515070000000,base_link,-0.09395780027863102,-0.09155628768218566,0.7145997031961839,0.6871219994619466,0.0,0.0,0.0,0.0,0.0,0.0,0.0,0.0,0.0,-0.05191693222460882,0.03223119221205057,0.01905043146724475,0.0,0.0,0.0,0.0,0.0,0.0,0.0,0.0,0.0,-0.08761504042627948,-2.545979345295747,9.457541348719651,0.0,0.0,0.0,0.0,0.0,0.0,0.0,0.0,0.0
515072000000,24,515072000000,base_link,-0.09392975766706456,-0.09154914625848429,0.7146115671549496,0.687114446458737,0.0,0.0,0.0,0.0,0.0,0.0,0.0,0.0,0.0,0.041704734622487874,-0.019236028112903845,0.019271333773811836,0.0,0.0,0.0,0.0,0.0,0.0,0.0,0.0,0.0,-1.4756566987623665,-6.6634260520707596,12.90103707548429,0.0,0.0,0.0,0.0,0.0,0.0,0.0,0.0,0.0
515074000000,25,515073000000,base_link,-0.09395993068013904,-0.09155566679575403,0.7146142297295772,0.6871066831083593,0.0,0.0,0.0,0.0,0.0,0.0,0.0,0.0,0.0,-0.05174635838863173,0.0322497382319603,0.019045760014859726,0.0,0.0,0.0,0.0,0.0,0.0,0.0,0.0,0.0,1.3132013991839773,1.5555323247743433,6.0310229753669224,0.0,0.0,0.0,0.0,0.0,0.0,0.0,0.0,0.0
515076000000,26,515075000000,base_link,-0.09393409417295136,-0.09154799460885066,0.7146406053559622,0.687083805522637,0.0,0.0,0.0,0.0,0.0,0.0,0.0,0.0,0.0,0.041697361048223594,-0.019284043092410996,0.01927220311282494,0.0,0.0,0.0,0.0,0.0,0.0,0.0,0.0,0.0,-1.476310296958668,-6.658874669137183,12.893390425843217,0.0,0.0,0.0,0.0,0.0,0.0,0.0,0.0,0.0
515077000000,27,515076000000,base_link,-0.09396427318899016,-0.09155452534323448,0.7146432595741868,0.687076048045936,0.0,0.0,0.0,0.0,0.0,0.0,0.0,0.0,0.0,-0.05176823887648021,0.0322490723607366,0.019025253776376413,0.0,0.0,0.0,0.0,0.0,0.0,0.0,0.0,0.0,1.3130776811450016,1.5576140857632987,6.034675834095437,0.0,0.0,0.0,0.0,0.0,0.0,0.0,0.0,0.0
515078000000,28,515077000000,base_link,-0.09393626330381795,-0.0915474130000448,0.714655117697682,0.687068491751752,0.0,0.0,0.0,0.0,0.0,0.0,0.0,0.0,0.0,0.04168481493688901,-0.019332061797220572,0.019281627046388763,0.0,0.0,0.0,0.0,0.0,0.0,0.0,0.0,0.0,-1.4789025260864959,-6.6550313888854475,12.88569087723738,0.0,0.0,0.0,0.0,0.0,0.0,0.0,0.0,0.0
515079000000,29,515078000000,base_link,-0.09396645245966227,-0.09155395863365248,0.7146577677937471,0.6870607348718978,0.0,0.0,0.0,0.0,0.0,0.0,0.0,0.0,0.0,-0.05180343160231077,0.03224503050401951,0.019017893340684353,0.0,0.0,0.0,0.0,0.0,0.0,0.0,0.0,0.0,1.312938942472727,1.5593584272859702,6.0380700222871315,0.0,0.0,0.0,0.0,0.0,0.0,0.0,0.0,0.0
515080000000,30,515079000000,base_link,-0.09393844071572716,-0.09154683553513991,0.7146696237405639,0.6870531821932864,0.0,0.0,0.0,0.0,0.0,0.0,0.0,0.0,0.0,0.04169361854094249,-0.01930863223042778,0.01927392730901118,0.0,0.0,0.0,0.0,0.0,0.0,0.0,0.0,0.0,-1.47731010069743,-6.656197797921877,12.890365345365453,0.0,0.0,0.0,0.0,0.0,0.0,0.0,0.0,0.0
515081000000,31,515080000000,base_link,-0.09396862058019481,-0.09155336975069911,0.7146722738650402,0.6870454277572337,0.0,0.0,0.0,0.0,0.0,0.0,0.0,0.0,0.0,-0.05177317817728048,0.03224895983576632,0.019014959660892148,0.0,0.0,0.0,0.0,0.0,0.0,0.0,0.0,0.0,1.3126564652417332,1.55842226124236,6.0361024481181484,0.0,0.0,0.0,0.0,0.0,0.0,0.0,0.0,0.0
515082000000,32,515081000000,base_link,-0.09394061686878678,-0.09154625295531467,0.7146841290631417,0.6870378735829721,0.0,0.0,0.0,0.0,0.0,0.0,0.0,0.0,0.0,0.04168799002944813,-0.019330449764629325,0.01927941743087882,0.0,0.0,0.0,0.0,0.0,0.0,0.0,0.0,0.0,-1.4785876780749292,-6.654388714681843,12.887433500759526,0.0,0.0,0.0,0.0,0.0,0.0,0.0,0.0,0.0
515083000000,33,515082000000,base_link,-0.09397079941941322,-0.09155279303889513,0.7146867777606144,0.6870301191632023,0.0,0.0,0.0,0.0,0.0,0.0,0.0,0.0,0.0,-0.05178482941242929,0.03224606920703468,0.019012457081302933,0.0,0.0,0.0,0.0,0.0,0.0,0.0,0.0,0.0,1.312402387122321,1.5590292360121083,6.037309803916392,0.0,0.0,0.0,0.0,0.0,0.0,0.0,0.0,0.0
515084000000,34,515083000000,base_link,-0.09397079941941322,-0.09155279303889513,0.7146867777606144,0.6870301191632023,0.0,0.0,0.0,0.0,0.0,0.0,0.0,0.0,0.0,-0.05178482941242929,0.03224606920703468,0.019012457081302933,0.0,0.0,0.0,0.0,0.0,0.0,0.0,0.0,0.0,1.312402387122321,1.5590292360121083,6.037309803916392,0.0,0.0,0.0,0.0,0.0,0.0,0.0,0.0,0.0
515086000000,35,515085000000,base_link,-0.09394498002040455,-0.09154508841253417,0.7147131335651641,0.6870072592236351,0.0,0.0,0.0,0.0,0.0,0.0,0.0,0.0,0.0,0.04168822353490659,-0.019334373947254707,0.019281219782825716,0.0,0.0,0.0,0.0,0.0,0.0,0.0,0.0,0.0,-1.4786987088768542,-6.653708958949428,12.888620351995387,0.0,0.0,0.0,0.0,0.0,0.0,0.0,0.0,0.0
515087000000,36,515086000000,base_link,-0.09397515618439996,-0.09155162641500912,0.7147157824329579,0.6869995051396538,0.0,0.0,0.0,0.0,0.0,0.0,0.0,0.0,0.0,-0.051771602062023636,0.03224196508283568,0.01901160435899206,0.0,0.0,0.0,0.0,0.0,0.0,0.0,0.0,0.0,1.311803628705725,1.5585933827174054,6.036508697438473,0.0,0.0,0.0,0.0,0.0,0.0,0.0,0.0,0.0
515088000000,37,515087000000,base_link,-0.09394716547700606,-0.09154450550807527,0.7147276338257126,0.6869919526865041,0.0,0.0,0.0,0.0,0.0,0.0,0.0,0.0,0.0,0.041688436889683114,-0.019334167072063417,0.0192816046732983,0.0,0.0,0.0,0.0,0.0,0.0,0.0,0.0,0.0,-1.4785843759689814,-6.653587205341915,12.889687491704956,0.0,0.0,0.0,0.0,0.0,0.0,0.0,0.0,0.0
515089000000,38,515088000000,base_link,-0.09397733722932047,-0.09155104212658462,0.7147302832277462,0.686984198515518,0.0,0.0,0.0,0.0,0.0,0.0,0.0,0.0,0.0,-0.05176278849571511,0.03223851259214612,0.019011999805265266,0.0,0.0,0.0,0.0,0.0,0.0,0.0,0.0,0.0,1.3114890014759963,1.5582080524205897,6.035798206250145,0.0,0.0,0.0,0.0,0.0,0.0,0.0,0.0,0.0
515090000000,39,515089000000,base_link,-0.09394935257470777,-0.09154392152715742,0.7147421330265432,0.6869766465163791,0.0,0.0,0.0,0.0,0.0,0.0,0.0,0.0,0.0,0.04168684371151198,-0.019340379412820994,0.01928356273655873,0.0,0.0,0.0,0.0,0.0,0.0,0.0,0.0,0.0,-1.4788195177437276,-6.653073834251268,12.88966850769225,0.0,0.0,0.0,0.0,0.0,0.0,0.0,0.0,0.0
515091000000,40,515090000000,base_link,-0.09397952163411205,-0.09155045936615323,0.7147447827375861,0.6869688919104494,0.0,0.0,0.0,0.0,0.0,0.0,0.0,0.0,0.0,-0.0517601700041451,0.032233913456095165,0.019012411984205658,0.0,0.0,0.0,0.0,0.0,0.0,0.0,0.0,0.0,1.3111995280990087,1.5580365986605158,6.035551471847323,0.0,0.0,0.0,0.0,0.0,0.0,0.0,0.0,0.0
515092000000,41,515091000000,base_link,-0.09395154228610118,-0.09154333762529411,0.7147566308703135,0.686961340735709,0.0,0.0,0.0,0.0,0.0,0.0,0.0,0.0,0.0,0.04168649797201299,-0.019342400916145794,0.01928414404442068,0.0,0.0,0.0,0.0,0.0,0.0,0.0,0.0,0.0,-1.4787625201351022,-6.652859035073318,12.890388735627713,0.0,0.0,0.0,0.0,0.0,0.0,0.0,0.0,0.0
515093000000,42,515092000000,base_link,-0.0939817072595032,-0.09154987528623043,0.7147592811319796,0.6869535858202945,0.0,0.0,0.0,0.0,0.0,0.0,0.0,0.0,0.0,-0.051753568842385946,0.0322292235374039,0.019012982590626875,0.0,0.0,0.0,0.0,0.0,0.0,0.0,0.0,0.0,1.3109075149389726,1.5576851248747534,6.034952265151815,0.0,0.0,0.0,0.0,0.0,0.0,0.0,0.0,0.0
515094000000,43,515093000000,base_link,-0.0939537338663334,-0.0915427531494302,0.714771127422894,0.6869460354649424,0.0,0.0,0.0,0.0,0.0,0.0,0.0,0.0,0.0,0.04168552586852819,-0.01934676663561786,0.019285122058185188,0.0,0.0,0.0,0.0,0.0,0.0,0.0,0.0,0.0,-1.478820097170417,-6.652499044659213,12.890710128617606,0.0,0.0,0.0,0.0,0.0,0.0,0.0,0.0,0.0
515095000000,44,515094000000,base_link,-0.09398389537874438,-0.09154929163462398,0.7147737781170445,0.6869382801438,0.0,0.0,0.0,0.0,0.0,0.0,0.0,0.0,0.0,-0.05174930059137693,0.032224053012737376,0.01901345579929533,0.0,0.0,0.0,0.0,0.0,0.0,0.0,0.0,0.0,1.3106317379822698,1.5574119897135743,6.03452654438762,0.0,0.0,0.0,0.0,0.0,0.0,0.0,0.0,0.0
515096000000,45,515095000000,base_link,-0.09398389537874438,-0.09154929163462398,0.7147737781170445,0.6869382801438,0.0,0.0,0.0,0.0,0.0,0.0,0.0,0.0,0.0,-0.05174930059137693,0.032224053012737376,0.01901345579929533,0.0,0.0,0.0,0.0,0.0,0.0,0.0,0.0,0.0,1.3106317379822698,1.5574119897135743,6.03452654438762,0.0,0.0,0.0,0.0,0.0,0.0,0.0,0.0,0.0
515098000000,46,515097000000,base_link,-0.09395812337377676,-0.0915415835052149,0.714800115901551,0.6869154269985244,0.0,0.0,0.0,0.0,0.0,0.0,0.0,0.0,0.0,0.041684374458452515,-0.01935312523544081,0.019285828909489128,0.0,0.0,0.0,0.0,0.0,0.0,0.0,0.0,0.0,-1.4787334198477402,-6.6519425563317265,12.891754863187483,0.0,0.0,0.0,0.0,0.0,0.0,0.0,0.0,0.0
515099000000,47,515098000000,base_link,-0.09398827713544156,-0.09154812300146026,0.7148027675236228,0.6869076709985052,0.0,0.0,0.0,0.0,0.0,0.0,0.0,0.0,0.0,-0.051738678190847834,0.03221341518284623,0.019014266447784926,0.0,0.0,0.0,0.0,0.0,0.0,0.0,0.0,0.0,1.310096681793723,1.5567594978976111,6.03347909674438,0.0,0.0,0.0,0.0,0.0,0.0,0.0,0.0,0.0
515103000000,48,515099000000,base_link,-0.09396032110530117,-0.09154099823324664,0.7148146075214622,0.6869001241623031,0.0,0.0,0.0,0.0,0.0,0.0,0.0,0.0,0.0,0.04168385390967477,-0.019356150360841817,0.019285943632646158,0.0,0.0,0.0,0.0,0.0,0.0,0.0,0.0,0.0,-1.478667090432237,-6.651672335132907,12.89229950823513,0.0,0.0,0.0,0.0,0.0,0.0,0.0,0.0,0.0
515103000000,49,515100000000,base_link,-0.09399047093749958,-0.09154753825812434,0.7148172595879685,0.6868923678473735,0.0,0.0,0.0,0.0,0.0,0.0,0.0,0.0,0.0,-0.051733325463706625,0.032207994696384676,0.019014595748951306,0.0,0.0,0.0,0.0,0.0,0.0,0.0,0.0,0.0,1.3098373679605766,1.5564257045709224,6.032945414932576,0.0,0.0,0.0,0.0,0.0,0.0,0.0,0.0,0.0
515103000000,50,515101000000,base_link,-0.09396252077822895,-0.09154041264959899,0.7148290973201367,0.6868848223431792,0.0,0.0,0.0,0.0,0.0,0.0,0.0,0.0,0.0,0.04168324722999405,-0.01935947590108584,0.019286076835215507,0.0,0.0,0.0,0.0,0.0,0.0,0.0,0.0,0.0,-1.4786150262758748,-6.651379957766627,12.8927879625079,0.0,0.0,0.0,0.0,0.0,0.0,0.0,0.0,0.0
515103000000,51,515102000000,base_link,-0.09396252077822895,-0.09154041264959899,0.7148290973201367,0.6868848223431792,0.0,0.0,0.0,0.0,0.0,0.0,0.0,0.0,0.0,0.04168324722999405,-0.01935947590108584,0.019286076835215507,0.0,0.0,0.0,0.0,0.0,0.0,0.0,0.0,0.0,-1.4786150262758748,-6.651379957766627,12.8927879625079,0.0,0.0,0.0,0.0,0.0,0.0,0.0,0.0,0.0
515105000000,52,515104000000,base_link,-0.09399486445610754,-0.09154636807983325,0.714846238188483,0.6868617646186488,0.0,0.0,0.0,0.0,0.0,0.0,0.0,0.0,0.0,-0.051722979449606375,0.03219696067815857,0.01901519087056926,0.0,0.0,0.0,0.0,0.0,0.0,0.0,0.0,0.0,1.3093267727911564,1.5557692793294096,6.031903302281283,0.0,0.0,0.0,0.0,0.0,0.0,0.0,0.0,0.0
515106000000,53,515105000000,base_link,-0.09399486445610754,-0.09154636807983325,0.714846238188483,0.6868617646186488,0.0,0.0,0.0,0.0,0.0,0.0,0.0,0.0,0.0,-0.051722979449606375,0.03219696067815857,0.01901519087056926,0.0,0.0,0.0,0.0,0.0,0.0,0.0,0.0,0.0,1.3093267727911564,1.5557692793294096,6.031903302281283,0.0,0.0,0.0,0.0,0.0,0.0,0.0,0.0,0.0
515107000000,54,515106000000,base_link,-0.09396692600974903,-0.09153924063139186,0.7148580713412346,0.6868542218543879,0.0,0.0,0.0,0.0,0.0,0.0,0.0,0.0,0.0,0.04168219759881657,-0.01936578061105873,0.019286152559168747,0.0,0.0,0.0,0.0,0.0,0.0,0.0,0.0,0.0,-1.4784817199131466,-6.650813406030781,12.893813622747325,0.0,0.0,0.0,0.0,0.0,0.0,0.0,0.0,0.0
515108000000,55,515107000000,base_link,-0.09396913147493867,-0.09153865410246441,0.714872555536851,0.6868389232383145,0.0,0.0,0.0,0.0,0.0,0.0,0.0,0.0,0.0,0.0416816870257408,-0.019368910502261076,0.01928616192374321,0.0,0.0,0.0,0.0,0.0,0.0,0.0,0.0,0.0,-1.4784127044992084,-6.650529283980314,12.894327302062253,0.0,0.0,0.0,0.0,0.0,0.0,0.0,0.0,0.0
515109000000,56,515108000000,base_link,-0.09399926578273032,-0.09154519665340528,0.7148752092939922,0.6868311656723711,0.0,0.0,0.0,0.0,0.0,0.0,0.0,0.0,0.0,-0.05171278721673403,0.03218603805563308,0.019015739018052362,0.0,0.0,0.0,0.0,0.0,0.0,0.0,0.0,0.0,1.308828115957593,1.5551190174018878,6.030878994427218,0.0,0.0,0.0,0.0,0.0,0.0,0.0,0.0,0.0
515110000000,57,515109000000,base_link,-0.09397133889430387,-0.09153806728565084,0.7148870378462927,0.6868236257026785,0.0,0.0,0.0,0.0,0.0,0.0,0.0,0.0,0.0,0.04168105227877194,-0.019372126407936004,0.01928619328857511,0.0,0.0,0.0,0.0,0.0,0.0,0.0,0.0,0.0,-1.4783517348597544,-6.650236988960778,12.894827653984677,0.0,0.0,0.0,0.0,0.0,0.0,0.0,0.0,0.0
515111000000,58,515110000000,base_link,-0.0940014693604385,-0.09154461051682451,0.7148896920149419,0.6868158678235259,0.0,0.0,0.0,0.0,0.0,0.0,0.0,0.0,0.0,-0.051707779525754324,0.03218053957287445,0.019016008071921754,0.0,0.0,0.0,0.0,0.0,0.0,0.0,0.0,0.0,1.3085790951140865,1.5547956684401751,6.0303680978793475,0.0,0.0,0.0,0.0,0.0,0.0,0.0,0.0,0.0
515112000000,59,515111000000,base_link,-0.0940014693604385,-0.09154461051682451,0.7148896920149419,0.6868158678235259,0.0,0.0,0.0,0.0,0.0,0.0,0.0,0.0,0.0,-0.051707779525754324,0.03218053957287445,0.019016008071921754,0.0,0.0,0.0,0.0,0.0,0.0,0.0,0.0,0.0,1.3085790951140865,1.5547956684401751,6.0303680978793475,0.0,0.0,0.0,0.0,0.0,0.0,0.0,0.0,0.0
515114000000,60,515113000000,base_link,-0.09397575961941226,-0.09153689281464211,0.7149159967874847,0.6867930338865942,0.0,0.0,0.0,0.0,0.0,0.0,0.0,0.0,0.0,0.04167980502601025,-0.01937844565645185,0.019286242612497402,0.0,0.0,0.0,0.0,0.0,0.0,0.0,0.0,0.0,-1.4782215880738376,-6.649659943456893,12.895839797111702,0.0,0.0,0.0,0.0,0.0,0.0,0.0,0.0,0.0
515115000000,61,515114000000,base_link,-0.09400588231735438,-0.09154343736003778,0.7149186518021031,0.6867852753747038,0.0,0.0,0.0,0.0,0.0,0.0,0.0,0.0,0.0,-0.05169757953622186,0.03216947828690164,0.01901657974186692,0.0,0.0,0.0,0.0,0.0,0.0,0.0,0.0,0.0,1.3080784933598757,1.5541408794433753,6.029328575321325,0.0,0.0,0.0,0.0,0.0,0.0,0.0,0.0,0.0
515116000000,62,515115000000,base_link,-0.09397797289894934,-0.0915363051304362,0.7149304734300975,0.6867777396027689,0.0,0.0,0.0,0.0,0.0,0.0,0.0,0.0,0.0,0.041679197381746344,-0.01938159738511498,0.01928627276639814,0.0,0.0,0.0,0.0,0.0,0.0,0.0,0.0,0.0,-1.4781559026589195,-6.649372672093717,12.896347274785144,0.0,0.0,0.0,0.0,0.0,0.0,0.0,0.0,0.0
515117000000,63,515116000000,base_link,-0.09400809171915304,-0.09154285032824656,0.7149331288692278,0.6867699807725725,0.0,0.0,0.0,0.0,0.0,0.0,0.0,0.0,0.0,-0.05169248217210416,0.03216396206105053,0.01901687238504752,0.0,0.0,0.0,0.0,0.0,0.0,0.0,0.0,0.0,1.307828640132103,1.5538138316455585,6.028809948528897,0.0,0.0,0.0,0.0,0.0,0.0,0.0,0.0,0.0
515118000000,64,515117000000,base_link,-0.0939801881238748,-0.09153571714453149,0.7149449481921033,0.6867624463973174,0.0,0.0,0.0,0.0,0.0,0.0,0.0,0.0,0.0,0.04167858354450864,-0.01938476021230392,0.019286309258343595,0.0,0.0,0.0,0.0,0.0,0.0,0.0,0.0,0.0,-1.4780912326622309,-6.649084594275207,12.896852801789597,0.0,0.0,0.0,0.0,0.0,0.0,0.0,0.0,0.0
515119000000,65,515118000000,base_link,-0.09401030307026444,-0.09154226299865047,0.7149476040557988,0.6867546872476341,0.0,0.0,0.0,0.0,0.0,0.0,0.0,0.0,0.0,-0.051687396330099035,0.03215844555038035,0.019017166705703067,0.0,0.0,0.0,0.0,0.0,0.0,0.0,0.0,0.0,1.3075787458470716,1.5534872948186234,6.028292151174049,0.0,0.0,0.0,0.0,0.0,0.0,0.0,0.0,0.0
515120000000,66,515119000000,base_link,-0.09398240529709717,-0.0915351288588538,0.714959421074669,0.686747154268541,0.0,0.0,0.0,0.0,0.0,0.0,0.0,0.0,0.0,0.04167797034594498,-0.019387914885267865,0.01928634611693441,0.0,0.0,0.0,0.0,0.0,0.0,0.0,0.0,0.0,-1.4780263309522628,-6.648796993331009,12.897359488695946,0.0,0.0,0.0,0.0,0.0,0.0,0.0,0.0,0.0
515121000000,67,515120000000,base_link,-0.09401251636702927,-0.09154167536566007,0.714962077363882,0.6867393947991549,0.0,0.0,0.0,0.0,0.0,0.0,0.0,0.0,0.0,-0.051682301890910165,0.032152929699946514,0.019017462763092862,0.0,0.0,0.0,0.0,0.0,0.0,0.0,0.0,0.0,1.307328717172858,1.5531604640504488,6.027773567210724,0.0,0.0,0.0,0.0,0.0,0.0,0.0,0.0,0.0
515122000000,68,515121000000,base_link,-0.09398462441689837,-0.09153454027119247,0.7149738920793991,0.6867318632154706,0.0,0.0,0.0,0.0,0.0,0.0,0.0,0.0,0.0,0.04167735589714583,-0.019391073179162423,0.01928638596048706,0.0,0.0,0.0,0.0,0.0,0.0,0.0,0.0,0.0,-1.4779618695419678,-6.64850915162712,12.897865384765542,0.0,0.0,0.0,0.0,0.0,0.0,0.0,0.0,0.0
515123000000,69,515122000000,base_link,-0.09401473161246986,-0.0915410874315129,0.7149765487941407,0.6867241034259035,0.0,0.0,0.0,0.0,0.0,0.0,0.0,0.0,0.0,-0.051677211953509126,0.032147415301483497,0.019017759677610636,0.0,0.0,0.0,0.0,0.0,0.0,0.0,0.0,0.0,1.3070786576582212,1.552833863749453,6.027255358292538,0.0,0.0,0.0,0.0,0.0,0.0,0.0,0.0,0.0
515124000000,70,515123000000,base_link,-0.09398684548392428,-0.09153395138206342,0.7149883612073095,0.6867165732370618,0.0,0.0,0.0,0.0,0.0,0.0,0.0,0.0,0.0,0.041676820779273156,-0.019394227564029205,0.01928624583619442,0.0,0.0,0.0,0.0,0.0,0.0,0.0,0.0,0.0,-1.4778862775415131,-6.648209891943549,12.898359021935766,0.0,0.0,0.0,0.0,0.0,0.0,0.0,0.0,0.0
515125000000,71,515125000000,base_link,-0.09401694882546165,-0.0915404992189769,0.714991018302415,0.6867088131684104,0.0,0.0,0.0,0.0,0.0,0.0,0.0,0.0,0.0,-0.05167218365076659,0.03214191407783787,0.01901793496478462,0.0,0.0,0.0,0.0,0.0,0.0,0.0,0.0,0.0,1.3068298845315356,1.5525049733546448,6.0267397603240624,0.0,0.0,0.0,0.0,0.0,0.0,0.0,0.0,0.0
515127000000,72,515126000000,base_link,-0.09398906849118015,-0.09153336219282603,0.7150028284060599,0.6867012843887593,0.0,0.0,0.0,0.0,0.0,0.0,0.0,0.0,0.0,0.041676380874875095,-0.0193973207814482,0.0192859100422744,0.0,0.0,0.0,0.0,0.0,0.0,0.0,0.0,0.0,-1.4778047280404993,-6.6479078650979435,12.898855206916918,0.0,0.0,0.0,0.0,0.0,0.0,0.0,0.0,0.0
515129000000,73,515128000000,base_link,-0.09402138913470796,-0.09153932189247953,0.7150199514329562,0.6866782361379002,0.0,0.0,0.0,0.0,0.0,0.0,0.0,0.0,0.0,-0.05166223632026794,0.03213103803380554,0.01901801415981845,0.0,0.0,0.0,0.0,0.0,0.0,0.0,0.0,0.0,1.3063350225701091,1.551839977643393,6.025711520217324,0.0,0.0,0.0,0.0,0.0,0.0,0.0,0.0,0.0
515130000000,74,515129000000,base_link,-0.09399352032145075,-0.09153218289930819,0.715031757044786,0.6866707100559298,0.0,0.0,0.0,0.0,0.0,0.0,0.0,0.0,0.0,0.04167549160112892,-0.019403472203747107,0.019285186201185432,0.0,0.0,0.0,0.0,0.0,0.0,0.0,0.0,0.0,-1.4776609427990353,-6.647312050855107,12.89986187528938,0.0,0.0,0.0,0.0,0.0,0.0,0.0,0.0,0.0
515131000000,75,515130000000,base_link,-0.0940236122198645,-0.09153873278184127,0.7150344151194084,0.6866629492994862,0.0,0.0,0.0,0.0,0.0,0.0,0.0,0.0,0.0,-0.051657287468094525,0.0321256152291296,0.01901804281535216,0.0,0.0,0.0,0.0,0.0,0.0,0.0,0.0,0.0,1.3060861833730164,1.5515068938539107,6.025196650323469,0.0,0.0,0.0,0.0,0.0,0.0,0.0,0.0,0.0
515132000000,76,515131000000,base_link,-0.09399574916849616,-0.0915315928125485,0.7150462184999681,0.6866554245502958,0.0,0.0,0.0,0.0,0.0,0.0,0.0,0.0,0.0,0.041675024356656515,-0.01940654757033251,0.019284838272267818,0.0,0.0,0.0,0.0,0.0,0.0,0.0,0.0,0.0,-1.4775927356415333,-6.647015138733461,12.900366470500174,0.0,0.0,0.0,0.0,0.0,0.0,0.0,0.0,0.0
515133000000,77,515132000000,base_link,-0.09402583725460126,-0.09153814337490958,0.7150488769004374,0.6866476635651425,0.0,0.0,0.0,0.0,0.0,0.0,0.0,0.0,0.0,-0.0516523226092132,0.032120187695039146,0.01901807761478312,0.0,0.0,0.0,0.0,0.0,0.0,0.0,0.0,0.0,1.3058359895283012,1.5511727822510393,6.024679318132191,0.0,0.0,0.0,0.0,0.0,0.0,0.0,0.0,0.0
515134000000,78,515133000000,base_link,-0.0939979799672363,-0.09153100242975844,0.7150606780525445,0.6866401401457084,0.0,0.0,0.0,0.0,0.0,0.0,0.0,0.0,0.0,0.04167455726520934,-0.019409626318964434,0.01928450053926061,0.0,0.0,0.0,0.0,0.0,0.0,0.0,0.0,0.0,-1.4775257536019342,-6.646718760629449,12.900871081955422,0.0,0.0,0.0,0.0,0.0,0.0,0.0,0.0,0.0
515135000000,79,515134000000,base_link,-0.0939979799672363,-0.09153100242975844,0.7150606780525445,0.6866401401457084,0.0,0.0,0.0,0.0,0.0,0.0,0.0,0.0,0.0,0.04167455726520934,-0.019409626318964434,0.01928450053926061,0.0,0.0,0.0,0.0,0.0,0.0,0.0,0.0,0.0,-1.4775257536019342,-6.646718760629449,12.900871081955422,0.0,0.0,0.0,0.0,0.0,0.0,0.0,0.0,0.0
515137000000,80,515136000000,base_link,-0.09403029318988833,-0.09153696366298238,0.7150777947851648,0.6866170953676958,0.0,0.0,0.0,0.0,0.0,0.0,0.0,0.0,0.0,-0.05164240565795501,0.032109354546488326,0.019018158739494202,0.0,0.0,0.0,0.0,0.0,0.0,0.0,0.0,0.0,1.3053341659868667,1.550504707141358,6.0236451932853665,0.0,0.0,0.0,0.0,0.0,0.0,0.0,0.0,0.0
515138000000,81,515137000000,base_link,-0.09400244741703583,-0.09152982075393482,0.7150895915774977,0.6866095745107897,0.0,0.0,0.0,0.0,0.0,0.0,0.0,0.0,0.0,0.041673613483095506,-0.019415787646936678,0.01928383947601514,0.0,0.0,0.0,0.0,0.0,0.0,0.0,0.0,0.0,-1.4773938613343613,-6.646127065114022,12.901881710203202,0.0,0.0,0.0,0.0,0.0,0.0,0.0,0.0,0.0
515139000000,82,515138000000,base_link,-0.09403252409620606,-0.09153637335289241,0.715092250956418,0.6866018128344694,0.0,0.0,0.0,0.0,0.0,0.0,0.0,0.0,0.0,-0.05163746773651717,0.03210394909897968,0.019018195910315082,0.0,0.0,0.0,0.0,0.0,0.0,0.0,0.0,0.0,1.305083176923048,1.5501711160618816,6.023129138605058,0.0,0.0,0.0,0.0,0.0,0.0,0.0,0.0,0.0
515140000000,83,515139000000,base_link,-0.09400468408008313,-0.09152922946413736,0.7151040455873419,0.686594293239699,0.0,0.0,0.0,0.0,0.0,0.0,0.0,0.0,0.0,0.04167312665504216,-0.019418867858377424,0.01928349922945756,0.0,0.0,0.0,0.0,0.0,0.0,0.0,0.0,0.0,-1.4773275873340572,-6.645831321885906,12.90238736038938,0.0,0.0,0.0,0.0,0.0,0.0,0.0,0.0,0.0
515141000000,84,515140000000,base_link,-0.09403475695723774,-0.09153578274546585,0.7151067052884249,0.6865865313365112,0.0,0.0,0.0,0.0,0.0,0.0,0.0,0.0,0.0,-0.05163252219744536,0.032098532673100116,0.01901822401198646,0.0,0.0,0.0,0.0,0.0,0.0,0.0,0.0,0.0,1.3048315544631544,1.549836752840116,6.022611203852695,0.0,0.0,0.0,0.0,0.0,0.0,0.0,0.0,0.0
515141000000,85,515141000000,base_link,-0.09403475695723774,-0.09153578274546585,0.7151067052884249,0.6865865313365112,0.0,0.0,0.0,0.0,0.0,0.0,0.0,0.0,0.0,-0.05163252219744536,0.032098532673100116,0.01901822401198646,0.0,0.0,0.0,0.0,0.0,0.0,0.0,0.0,0.0,1.3048315544631544,1.549836752840116,6.022611203852695,0.0,0.0,0.0,0.0,0.0,0.0,0.0,0.0,0.0
515143000000,86,515142000000,base_link,-0.09400692270495135,-0.09152863786466554,0.7151184978294223,0.6865790129303218,0.0,0.0,0.0,0.0,0.0,0.0,0.0,0.0,0.0,0.041672640754350024,-0.01942194521475078,0.019283148963955322,0.0,0.0,0.0,0.0,0.0,0.0,0.0,0.0,0.0,-1.4772609604839588,-6.645535888917335,12.90289316894783,0.0,0.0,0.0,0.0,0.0,0.0,0.0,0.0,0.0
515145000000,87,515144000000,base_link,-0.09403922857886247,-0.09153460060316375,0.715135608656551,0.6865559712158477,0.0,0.0,0.0,0.0,0.0,0.0,0.0,0.0,0.0,-0.05162264850192817,0.03208770881699665,0.019018235708732442,0.0,0.0,0.0,0.0,0.0,0.0,0.0,0.0,0.0,1.3043284684035517,1.5491675556570317,6.021575122002147,0.0,0.0,0.0,0.0,0.0,0.0,0.0,0.0,0.0
515146000000,88,515145000000,base_link,-0.09403922857886247,-0.09153460060316375,0.715135608656551,0.6865559712158477,0.0,0.0,0.0,0.0,0.0,0.0,0.0,0.0,0.0,-0.05162264850192817,0.03208770881699665,0.019018235708732442,0.0,0.0,0.0,0.0,0.0,0.0,0.0,0.0,0.0,1.3043284684035517,1.5491675556570317,6.021575122002147,0.0,0.0,0.0,0.0,0.0,0.0,0.0,0.0,0.0
515148000000,89,515147000000,base_link,-0.09404146733957681,-0.09153400906378469,0.7151500576970324,0.6865406925894936,0.0,0.0,0.0,0.0,0.0,0.0,0.0,0.0,0.0,-0.051617708354059745,0.03208229471654602,0.019018208359518736,0.0,0.0,0.0,0.0,0.0,0.0,0.0,0.0,0.0,-0.08679363486634353,-2.5483758276837585,9.462285766733018,0.0,0.0,0.0,0.0,0.0,0.0,0.0,0.0,0.0
515150000000,90,515149000000,base_link,-0.0940270463212432,-0.09153489595879769,0.7151730454219346,0.6865186031593247,0.0,0.0,0.0,0.0,0.0,0.0,0.0,0.0,0.0,0.016003727208657968,-0.014477416970529997,0.014821685652474232,0.0,0.0,0.0,0.0,0.0,0.0,0.0,0.0,0.0,-1.2140317143991717,-9.966016487944618,17.339150282406813,0.0,0.0,0.0,0.0,0.0,0.0,0.0,0.0,0.0
515151000000,91,515150000000,base_link,-0.09402548920199973,-0.09154190752252983,0.7151784048454191,0.686512298353222,0.0,0.0,0.0,0.0,0.0,0.0,0.0,0.0,0.0,-0.008095476168345434,-0.014016438364173605,0.014773127860281232,0.0,0.0,0.0,0.0,0.0,0.0,0.0,0.0,0.0,-0.0563054934591084,-0.2718194241496126,0.15703654240769538,0.0,0.0,0.0,0.0,0.0,0.0,0.0,0.0,0.0
515152000000,92,515151000000,base_link,-0.09402548920199973,-0.09154190752252983,0.7151784048454191,0.686512298353222,0.0,0.0,0.0,0.0,0.0,0.0,0.0,0.0,0.0,-0.008095476168345434,-0.014016438364173605,0.014773127860281232,0.0,0.0,0.0,0.0,0.0,0.0,0.0,0.0,0.0,-0.0563054934591084,-0.2718194241496126,0.15703654240769538,0.0,0.0,0.0,0.0,0.0,0.0,0.0,0.0,0.0
515154000000,93,515153000000,base_link,-0.09409476841577163,-0.09162313103583157,0.7151295574249502,0.6865428555546754,0.0,0.0,0.0,0.0,0.0,0.0,0.0,0.0,0.0,-0.11180186847651441,-0.05828834606558572,-0.08549562328964425,0.0,0.0,0.0,0.0,0.0,0.0,0.0,0.0,0.0,-6.078815197680831,-12.109881439393462,15.305663208846132,0.0,0.0,0.0,0.0,0.0,0.0,0.0,0.0,0.0
515155000000,94,515154000000,base_link,-0.09409476841577163,-0.09162313103583157,0.7151295574249502,0.6865428555546754,0.0,0.0,0.0,0.0,0.0,0.0,0.0,0.0,0.0,-0.11180186847651441,-0.05828834606558572,-0.08549562328964425,0.0,0.0,0.0,0.0,0.0,0.0,0.0,0.0,0.0,-6.078815197680831,-12.109881439393462,15.305663208846132,0.0,0.0,0.0,0.0,0.0,0.0,0.0,0.0,0.0
515157000000,95,515156000000,base_link,-0.09426402673442515,-0.09170577722317826,0.7150625198895311,0.6865784269382038,0.0,0.0,0.0,0.0,0.0,0.0,0.0,0.0,0.0,-0.15603542662586203,0.06392113867606963,-0.03145641187217181,0.0,0.0,0.0,0.0,0.0,0.0,0.0,0.0,0.0,2.6282471027002616,-7.601188366367898,9.50904179394876,0.0,0.0,0.0,0.0,0.0,0.0,0.0,0.0,0.0
515160000000,96,515157000000,base_link,-0.09428055597228006,-0.09174674414303242,0.7150398319369352,0.6865943128575347,0.0,0.0,0.0,0.0,0.0,0.0,0.0,0.0,0.0,-0.08898229118368194,-0.019603482337111375,-0.0571898948612216,0.0,0.0,0.0,0.0,0.0,0.0,0.0,0.0,0.0,-2.643651945591424,-5.8322040975097735,10.530643269417027,0.0,0.0,0.0,0.0,0.0,0.0,0.0,0.0,0.0
515160000000,97,515158000000,base_link,-0.09430361323344982,-0.09178945056773542,0.7150162439495168,0.6866100029739695,0.0,0.0,0.0,0.0,0.0,0.0,0.0,0.0,0.0,-0.09410525470315173,-0.018343445040197158,-0.058650786203062785,0.0,0.0,0.0,0.0,0.0,0.0,0.0,0.0,0.0,-0.13941822871942944,-0.18828683070636432,0.06028054016566031,0.0,0.0,0.0,0.0,0.0,0.0,0.0,0.0,0.0
515160000000,98,515159000000,base_link,-0.09434500472895159,-0.09179280993615911,0.714997041772721,0.6866238638315568,0.0,0.0,0.0,0.0,0.0,0.0,0.0,0.0,0.0,-0.06961530863524135,0.05358834082880619,-0.04358191214548332,0.0,0.0,0.0,0.0,0.0,0.0,0.0,0.0,0.0,2.137263975753383,-10.94125434045301,16.457242578396773,0.0,0.0,0.0,0.0,0.0,0.0,0.0,0.0,0.0
515161000000,99,515160000000,base_link,-0.09438825751705118,-0.0918045045933771,0.7149767729946325,0.6866374617346778,0.0,0.0,0.0,0.0,0.0,0.0,0.0,0.0,0.0,-0.07727535142520965,0.05211246509932786,-0.04154504958493094,0.0,0.0,0.0,0.0,0.0,0.0,0.0,0.0,0.0,0.11221993070892672,-0.3639297782967317,0.18264172189018169,0.0,0.0,0.0,0.0,0.0,0.0,0.0,0.0,0.0
515162000000,100,515161000000,base_link,-0.09438124894368469,-0.09182525091735048,0.7149518242616981,0.6866616285527144,0.0,0.0,0.0,0.0,0.0,0.0,0.0,0.0,0.0,-0.02330939592318231,-0.026441250552418645,-0.07331477412849507,0.0,0.0,0.0,0.0,0.0,0.0,0.0,0.0,0.0,-2.910118593875993,-5.981981473406146,10.227678019917892,0.0,0.0,0.0,0.0,0.0,0.0,0.0,0.0,0.0
515163000000,101,515162000000,base_link,-0.09442686429153871,-0.09183179334241151,0.7149435326436637,0.6866631154813712,0.0,0.0,0.0,0.0,0.0,0.0,0.0,0.0,0.0,-0.07323568314749428,0.05807854183370784,-0.006373425754569619,0.0,0.0,0.0,0.0,0.0,0.0,0.0,0.0,0.0,3.217092168416073,-9.349260697914804,11.284321665516625,0.0,0.0,0.0,0.0,0.0,0.0,0.0,0.0,0.0
515164000000,102,515163000000,base_link,-0.09442686429153871,-0.09183179334241151,0.7149435326436637,0.6866631154813712,0.0,0.0,0.0,0.0,0.0,0.0,0.0,0.0,0.0,-0.07323568314749428,0.05807854183370784,-0.006373425754569619,0.0,0.0,0.0,0.0,0.0,0.0,0.0,0.0,0.0,3.217092168416073,-9.349260697914804,11.284321665516625,0.0,0.0,0.0,0.0,0.0,0.0,0.0,0.0,0.0
515166000000,103,515165000000,base_link,-0.09446158589783672,-0.09186956951118612,0.7149173063850915,0.6866805924289546,0.0,0.0,0.0,0.0,0.0,0.0,0.0,0.0,0.0,-0.02487306642297687,-0.01592100401268516,-0.024365263982269732,0.0,0.0,0.0,0.0,0.0,0.0,0.0,0.0,0.0,-3.0526997846585475,-5.588423935323987,8.42832372301511,0.0,0.0,0.0,0.0,0.0,0.0,0.0,0.0,0.0
515167000000,104,515166000000,base_link,-0.09448717923555781,-0.09186423074854355,0.7149174758119873,0.6866776091061239,0.0,0.0,0.0,0.0,0.0,0.0,0.0,0.0,0.0,-0.028044907661853292,0.04334590454212041,0.010208216940308303,0.0,0.0,0.0,0.0,0.0,0.0,0.0,0.0,0.0,4.065692510541546,-7.267834938994409,10.195084056362244,0.0,0.0,0.0,0.0,0.0,0.0,0.0,0.0,0.0
515168000000,105,515167000000,base_link,-0.09448717923555781,-0.09186423074854355,0.7149174758119873,0.6866776091061239,0.0,0.0,0.0,0.0,0.0,0.0,0.0,0.0,0.0,-0.028044907661853292,0.04334590454212041,0.010208216940308303,0.0,0.0,0.0,0.0,0.0,0.0,0.0,0.0,0.0,4.065692510541546,-7.267834938994409,10.195084056362244,0.0,0.0,0.0,0.0,0.0,0.0,0.0,0.0,0.0
515170000000,106,515169000000,base_link,-0.09450808294478866,-0.0918500372219068,0.7149052718262512,0.6866893367713449,0.0,0.0,0.0,0.0,0.0,0.0,0.0,0.0,0.0,0.024827759261219936,0.059228068431468495,-0.005221878244351485,0.0,0.0,0.0,0.0,0.0,0.0,0.0,0.0,0.0,0.38753286009405363,-4.706206715107973,7.58377314968414,0.0,0.0,0.0,0.0,0.0,0.0,0.0,0.0,0.0
515172000000,107,515171000000,base_link,-0.09452562948582663,-0.09182013856130702,0.7148909330517623,0.6867058477727355,0.0,0.0,0.0,0.0,0.0,0.0,0.0,0.0,0.0,0.004032424511773082,0.05879381346352204,-0.002217347470472624,0.0,0.0,0.0,0.0,0.0,0.0,0.0,0.0,0.0,1.179446452211226,-4.985297095212696,6.546555923544766,0.0,0.0,0.0,0.0,0.0,0.0,0.0,0.0,0.0
515173000000,108,515172000000,base_link,-0.09449310966084846,-0.09177299065495631,0.7148885429983375,0.6867191139778929,0.0,0.0,0.0,0.0,0.0,0.0,0.0,0.0,0.0,0.05020901502167359,0.03350352185536428,0.005579815138392774,0.0,0.0,0.0,0.0,0.0,0.0,0.0,0.0,0.0,1.3332774584695035,-4.355720638039939,5.60940707660524,0.0,0.0,0.0,0.0,0.0,0.0,0.0,0.0,0.0
515174000000,109,515173000000,base_link,-0.09447036628092702,-0.09176091617509202,0.7148837219543653,0.6867288753519318,0.0,0.0,0.0,0.0,0.0,0.0,0.0,0.0,0.0,0.04946252819390019,-0.013231550887571934,-0.0224696623009747,0.0,0.0,0.0,0.0,0.0,0.0,0.0,0.0,0.0,-3.1878500635451488,-6.069498541590432,8.155755435387878,0.0,0.0,0.0,0.0,0.0,0.0,0.0,0.0,0.0
515175000000,110,515174000000,base_link,-0.09445698897185142,-0.0917080694284674,0.7148858644896292,0.6867355444339478,0.0,0.0,0.0,0.0,0.0,0.0,0.0,0.0,0.0,0.09558954673784562,0.05427529859965637,0.000935447854412505,0.0,0.0,0.0,0.0,0.0,0.0,0.0,0.0,0.0,2.4376710303589606,-4.968282037452752,8.883398257107036,0.0,0.0,0.0,0.0,0.0,0.0,0.0,0.0,0.0
515176000000,111,515175000000,base_link,-0.09445698897185142,-0.0917080694284674,0.7148858644896292,0.6867355444339478,0.0,0.0,0.0,0.0,0.0,0.0,0.0,0.0,0.0,0.09558954673784562,0.05427529859965637,0.000935447854412505,0.0,0.0,0.0,0.0,0.0,0.0,0.0,0.0,0.0,2.4376710303589606,-4.968282037452752,8.883398257107036,0.0,0.0,0.0,0.0,0.0,0.0,0.0,0.0,0.0
515177000000,112,515177000000,base_link,-0.0943718034234092,-0.0915811664478166,0.7148808104222232,0.6867694515343095,0.0,0.0,0.0,0.0,0.0,0.0,0.0,0.0,0.0,0.13513072414956806,-0.0084189538700708,-0.020762035411911815,0.0,0.0,0.0,0.0,0.0,0.0,0.0,0.0,0.0,-2.2126735651734832,-4.81239119166527,8.49498647577157,0.0,0.0,0.0,0.0,0.0,0.0,0.0,0.0,0.0
515179000000,113,515178000000,base_link,-0.09434244964162201,-0.09152379691989099,0.714887560447896,0.6867741060274771,0.0,0.0,0.0,0.0,0.0,0.0,0.0,0.0,0.0,0.12445872348776274,0.03640915211335701,0.008068200746403869,0.0,0.0,0.0,0.0,0.0,0.0,0.0,0.0,0.0,1.8326736357893425,-4.690855364247704,6.1857490563825,0.0,0.0,0.0,0.0,0.0,0.0,0.0,0.0,0.0
515180000000,114,515179000000,base_link,-0.09429560583943804,-0.09148336844879532,0.7148870290259738,0.68678647900716,0.0,0.0,0.0,0.0,0.0,0.0,0.0,0.0,0.0,0.12438535298472822,-0.009080444899302494,-0.01936604195096115,0.0,0.0,0.0,0.0,0.0,0.0,0.0,0.0,0.0,-3.174483285865903,-6.001322614877451,8.062379324192488,0.0,0.0,0.0,0.0,0.0,0.0,0.0,0.0,0.0
515181000000,115,515180000000,base_link,-0.09429560583943804,-0.09148336844879532,0.7148870290259738,0.68678647900716,0.0,0.0,0.0,0.0,0.0,0.0,0.0,0.0,0.0,0.12438535298472822,-0.009080444899302494,-0.01936604195096115,0.0,0.0,0.0,0.0,0.0,0.0,0.0,0.0,0.0,-3.174483285865903,-6.001322614877451,8.062379324192488,0.0,0.0,0.0,0.0,0.0,0.0,0.0,0.0,0.0
515181000000,116,515182000000,base_link,-0.09417275460396583,-0.09126520363249638,0.7148967058618356,0.686822287672813,0.0,0.0,0.0,0.0,0.0,0.0,0.0,0.0,0.0,0.15824264210629624,0.05986762382055806,0.00311429363597273,0.0,0.0,0.0,0.0,0.0,0.0,0.0,0.0,0.0,3.275251783962266,-5.98620621494078,8.315566873526418,0.0,0.0,0.0,0.0,0.0,0.0,0.0,0.0,0.0
515181000000,117,515183000000,base_link,-0.09409800280323334,-0.09119269448658616,0.7149000787200789,0.6868386533872012,0.0,0.0,0.0,0.0,0.0,0.0,0.0,0.0,0.0,0.2100549101920835,-0.004925129907435974,-0.018753201276885352,0.0,0.0,0.0,0.0,0.0,0.0,0.0,0.0,0.0,-2.196811889063926,-4.76672631223121,8.360545686374536,0.0,0.0,0.0,0.0,0.0,0.0,0.0,0.0,0.0
515181000000,118,515184000000,base_link,-0.09404356034901232,-0.09110722258732225,0.7149105615433874,0.6868465416255837,0.0,0.0,0.0,0.0,0.0,0.0,0.0,0.0,0.0,0.20039097652247695,0.0390350679527874,0.009277350392893784,0.0,0.0,0.0,0.0,0.0,0.0,0.0,0.0,0.0,1.660476087306098,-4.4647670734366205,5.885486382129951,0.0,0.0,0.0,0.0,0.0,0.0,0.0,0.0,0.0
515181000000,119,515185000000,base_link,-0.09396987855480778,-0.09103736466780765,0.7149144085642226,0.6868618846507667,0.0,0.0,0.0,0.0,0.0,0.0,0.0,0.0,0.0,0.2047037874522834,-0.007315272555521571,-0.0169339011834547,0.0,0.0,0.0,0.0,0.0,0.0,0.0,0.0,0.0,-3.3051402090216815,-6.05680027898666,8.284371312856987,0.0,0.0,0.0,0.0,0.0,0.0,0.0,0.0,0.0
515181000000,120,515186000000,base_link,-0.09390494405702138,-0.09093007043953097,0.7149246854519221,0.6868742810027029,0.0,0.0,0.0,0.0,0.0,0.0,0.0,0.0,0.0,0.24682541366959027,0.05487348140636476,0.0047312031185427934,0.0,0.0,0.0,0.0,0.0,0.0,0.0,0.0,0.0,2.262807906392123,-4.630467729841451,8.168163256114706,0.0,0.0,0.0,0.0,0.0,0.0,0.0,0.0,0.0
515188000000,121,515187000000,base_link,-0.09390494405702138,-0.09093007043953097,0.7149246854519221,0.6868742810027029,0.0,0.0,0.0,0.0,0.0,0.0,0.0,0.0,0.0,0.24682541366959027,0.05487348140636476,0.0047312031185427934,0.0,0.0,0.0,0.0,0.0,0.0,0.0,0.0,0.0,2.262807906392123,-4.630467729841451,8.168163256114706,0.0,0.0,0.0,0.0,0.0,0.0,0.0,0.0,0.0
515190000000,122,515189000000,base_link,-0.09366836480891165,-0.09063139711645171,0.71494587010016,0.6869240060716104,0.0,0.0,0.0,0.0,0.0,0.0,0.0,0.0,0.0,0.2874810608194464,-0.0013535169452003892,-0.015625796148878594,0.0,0.0,0.0,0.0,0.0,0.0,0.0,0.0,0.0,-2.1601354584806556,-4.903942376146094,8.412333797090586,0.0,0.0,0.0,0.0,0.0,0.0,0.0,0.0,0.0
515190000000,123,515191000000,base_link,-0.09358838937917598,-0.09051707193080859,0.7149605761503796,0.6869346749241896,0.0,0.0,0.0,0.0,0.0,0.0,0.0,0.0,0.0,0.27801105563291545,0.041888105892166516,0.01186930991904437,0.0,0.0,0.0,0.0,0.0,0.0,0.0,0.0,0.0,1.348923346080845,-4.1408670232544456,5.417382107257155,0.0,0.0,0.0,0.0,0.0,0.0,0.0,0.0,0.0
515194000000,124,515193000000,base_link,-0.0935142680898015,-0.0904927710484145,0.7150095787574259,0.6868969663179014,0.0,0.0,0.0,0.0,0.0,0.0,0.0,0.0,0.0,-0.00988195975065047,-0.028056155399776357,0.024742209750671335,0.0,0.0,0.0,0.0,0.0,0.0,0.0,0.0,0.0,2.7744398916598336,2.5523702180398464,16.128994785540215,0.0,0.0,0.0,0.0,0.0,0.0,0.0,0.0,0.0
515195000000,125,515194000000,base_link,-0.0935142680898015,-0.0904927710484145,0.7150095787574259,0.6868969663179014,0.0,0.0,0.0,0.0,0.0,0.0,0.0,0.0,0.0,-0.00988195975065047,-0.028056155399776357,0.024742209750671335,0.0,0.0,0.0,0.0,0.0,0.0,0.0,0.0,0.0,2.7744398916598336,2.5523702180398464,16.128994785540215,0.0,0.0,0.0,0.0,0.0,0.0,0.0,0.0,0.0
515196000000,126,515195000000,base_link,-0.09348276082959481,-0.09043037658670147,0.7150186746313852,0.6869000038917176,0.0,0.0,0.0,0.0,0.0,0.0,0.0,0.0,0.0,0.11134087627990599,0.02459469898249312,0.013365314738232381,0.0,0.0,0.0,0.0,0.0,0.0,0.0,0.0,0.0,2.883988632669027,-2.3136869705714544,8.166477478682006,0.0,0.0,0.0,0.0,0.0,0.0,0.0,0.0,0.0
515197000000,127,515196000000,base_link,-0.09344371166011489,-0.09039484184152836,0.7150316336173254,0.6868965047561134,0.0,0.0,0.0,0.0,0.0,0.0,0.0,0.0,0.0,0.10986197946167722,0.028050256089233616,0.009184687693808827,0.0,0.0,0.0,0.0,0.0,0.0,0.0,0.0,0.0,2.8031580555555573,-3.2819137228794975,9.392431984240366,0.0,0.0,0.0,0.0,0.0,0.0,0.0,0.0,0.0
515198000000,128,515197000000,base_link,-0.09344371166011489,-0.09039484184152836,0.7150316336173254,0.6868965047561134,0.0,0.0,0.0,0.0,0.0,0.0,0.0,0.0,0.0,0.10986197946167722,0.028050256089233616,0.009184687693808827,0.0,0.0,0.0,0.0,0.0,0.0,0.0,0.0,0.0,2.8031580555555573,-3.2819137228794975,9.392431984240366,0.0,0.0,0.0,0.0,0.0,0.0,0.0,0.0,0.0
515199000000,129,515198000000,base_link,-0.09341522811283583,-0.09036226915185136,0.7150402844981669,0.6868956594819448,0.0,0.0,0.0,0.0,0.0,0.0,0.0,0.0,0.0,0.10041807029780142,0.036688036184333535,0.00619733203568466,0.0,0.0,0.0,0.0,0.0,0.0,0.0,0.0,0.0,2.9443860167944713,-3.728548731897415,9.956906359670604,0.0,0.0,0.0,0.0,0.0,0.0,0.0,0.0,0.0
515200000000,130,515199000000,base_link,-0.0934180407442634,-0.09040148364646391,0.7150408234249367,0.6868895560814778,0.0,0.0,0.0,0.0,0.0,0.0,0.0,0.0,0.0,-0.0280622652007005,-0.028603516546722475,0.0005139233276454666,0.0,0.0,0.0,0.0,0.0,0.0,0.0,0.0,0.0,-2.3870923574141494,2.395630125960914,8.560500155679708,0.0,0.0,0.0,0.0,0.0,0.0,0.0,0.0,0.0
515201000000,131,515200000000,base_link,-0.0934180407442634,-0.09040148364646391,0.7150408234249367,0.6868895560814778,0.0,0.0,0.0,0.0,0.0,0.0,0.0,0.0,0.0,-0.0280622652007005,-0.028603516546722475,0.0005139233276454666,0.0,0.0,0.0,0.0,0.0,0.0,0.0,0.0,0.0,-2.3870923574141494,2.395630125960914,8.560500155679708,0.0,0.0,0.0,0.0,0.0,0.0,0.0,0.0,0.0
515203000000,132,515202000000,base_link,-0.0934007035664946,-0.09030183265757528,0.7150473983036811,0.6868981771493531,0.0,0.0,0.0,0.0,0.0,0.0,0.0,0.0,0.0,0.07767244754812001,0.05642096034845256,0.002582969475633512,0.0,0.0,0.0,0.0,0.0,0.0,0.0,0.0,0.0,3.2912142502404556,-4.195681025645149,10.525546615140275,0.0,0.0,0.0,0.0,0.0,0.0,0.0,0.0,0.0
515206000000,133,515203000000,base_link,-0.09341768119872632,-0.09034155935021877,0.715044970706577,0.6868931717238529,0.0,0.0,0.0,0.0,0.0,0.0,0.0,0.0,0.0,-0.049744074587232005,-0.008972520247628422,-0.0026238509634433343,0.0,0.0,0.0,0.0,0.0,0.0,0.0,0.0,0.0,-2.0918802820014024,2.130154242748416,8.190717021981179,0.0,0.0,0.0,0.0,0.0,0.0,0.0,0.0,0.0
515206000000,134,515204000000,base_link,-0.09341509623332984,-0.09027281580175103,0.7150467465241603,0.6869007124819089,0.0,0.0,0.0,0.0,0.0,0.0,0.0,0.0,0.0,0.06654207541265643,0.06629334257094704,0.0015443079020349849,0.0,0.0,0.0,0.0,0.0,0.0,0.0,0.0,0.0,3.4204136876046776,-4.338182548800322,10.69077599643857,0.0,0.0,0.0,0.0,0.0,0.0,0.0,0.0,0.0
515206000000,135,515205000000,base_link,-0.09341509623332984,-0.09027281580175103,0.7150467465241603,0.6869007124819089,0.0,0.0,0.0,0.0,0.0,0.0,0.0,0.0,0.0,0.06654207541265643,0.06629334257094704,0.0015443079020349849,0.0,0.0,0.0,0.0,0.0,0.0,0.0,0.0,0.0,3.4204136876046776,-4.338182548800322,10.69077599643857,0.0,0.0,0.0,0.0,0.0,0.0,0.0,0.0,0.0
515206000000,136,515207000000,base_link,-0.09344371151371957,-0.09024431577447639,0.7150436939415776,0.686903742895117,0.0,0.0,0.0,0.0,0.0,0.0,0.0,0.0,0.0,0.055707128613396134,0.07610358017081892,0.000877813422534823,0.0,0.0,0.0,0.0,0.0,0.0,0.0,0.0,0.0,0.7673823798868906,-1.20593764216325,9.430381393760502,0.0,0.0,0.0,0.0,0.0,0.0,0.0,0.0,0.0
515210000000,137,515210000000,base_link,-0.09352442313402795,-0.09025595114909311,0.715032597809287,0.686902780333376,0.0,0.0,0.0,0.0,0.0,0.0,0.0,0.0,0.0,-0.08106320165459328,0.020537653651557963,-0.004404575846080219,0.0,0.0,0.0,0.0,0.0,0.0,0.0,0.0,0.0,-1.839650716269235,1.900653716297163,7.863176529924157,0.0,0.0,0.0,0.0,0.0,0.0,0.0,0.0,0.0
515212000000,138,515211000000,base_link,-0.09354333620138067,-0.09018864895784864,0.715031108671885,0.6869105949706472,0.0,0.0,0.0,0.0,0.0,0.0,0.0,0.0,0.0,0.034590941146093415,0.09577462446606674,0.00019566934851196482,0.0,0.0,0.0,0.0,0.0,0.0,0.0,0.0,0.0,3.629196258752742,-4.584893986573727,10.959704384891019,0.0,0.0,0.0,0.0,0.0,0.0,0.0,0.0,0.0
515214000000,139,515213000000,base_link,-0.09355573586005839,-0.09017498492008748,0.7150177512834792,0.6869246041101322,0.0,0.0,0.0,0.0,0.0,0.0,0.0,0.0,0.0,0.008953408306709904,0.0040049695794859615,-0.023175485267303376,0.0,0.0,0.0,0.0,0.0,0.0,0.0,0.0,0.0,-4.318924776509922,-3.5019757949918753,9.795870255431513,0.0,0.0,0.0,0.0,0.0,0.0,0.0,0.0,0.0
515215000000,140,515214000000,base_link,-0.09357117868690672,-0.09015996672611101,0.7150088757370622,0.6869337104381411,0.0,0.0,0.0,0.0,0.0,0.0,0.0,0.0,0.0,0.00036438597817401233,0.046018692112166415,-0.019621022808511236,0.0,0.0,0.0,0.0,0.0,0.0,0.0,0.0,0.0,2.506909483924177,-5.250169231253054,10.178924521004573,0.0,0.0,0.0,0.0,0.0,0.0,0.0,0.0,0.0
515216000000,141,515215000000,base_link,-0.09357117868690672,-0.09015996672611101,0.7150088757370622,0.6869337104381411,0.0,0.0,0.0,0.0,0.0,0.0,0.0,0.0,0.0,0.00036438597817401233,0.046018692112166415,-0.019621022808511236,0.0,0.0,0.0,0.0,0.0,0.0,0.0,0.0,0.0,2.506909483924177,-5.250169231253054,10.178924521004573,0.0,0.0,0.0,0.0,0.0,0.0,0.0,0.0,0.0
515217000000,142,515216000000,base_link,-0.09354853796374038,-0.09015104229861255,0.7149906179782218,0.6869569686817661,0.0,0.0,0.0,0.0,0.0,0.0,0.0,0.0,0.0,-0.010538229891307508,-0.017427166436355064,-0.03500481481618238,0.0,0.0,0.0,0.0,0.0,0.0,0.0,0.0,0.0,-1.2247308240644514,0.5061895997645154,3.420551719517083,0.0,0.0,0.0,0.0,0.0,0.0,0.0,0.0,0.0
515218000000,143,515217000000,base_link,-0.09353208705100087,-0.0900991309831361,0.7149829420550908,0.6869740081387464,0.0,0.0,0.0,0.0,0.0,0.0,0.0,0.0,0.0,0.0867826527589238,0.029410451638375468,-0.02214510638993952,0.0,0.0,0.0,0.0,0.0,0.0,0.0,0.0,0.0,0.19648459056633005,-8.99710061364824,15.996019124942283,0.0,0.0,0.0,0.0,0.0,0.0,0.0,0.0,0.0
515219000000,144,515218000000,base_link,-0.09353193218508468,-0.09012326615109281,0.7149737389193235,0.6869804416544237,0.0,0.0,0.0,0.0,0.0,0.0,0.0,0.0,0.0,-0.024897721609730313,-0.023691029569698784,-0.027023071327694454,0.0,0.0,0.0,0.0,0.0,0.0,0.0,0.0,0.0,-1.602093956758968,1.2454531796670345,6.549716422956779,0.0,0.0,0.0,0.0,0.0,0.0,0.0,0.0,0.0
515220000000,145,515219000000,base_link,-0.09352356989605475,-0.09007267983510092,0.7149661050862666,0.6869961592316182,0.0,0.0,0.0,0.0,0.0,0.0,0.0,0.0,0.0,0.06901125791081364,0.03802405865538548,-0.022668347114538814,0.0,0.0,0.0,0.0,0.0,0.0,0.0,0.0,0.0,1.2165222718091204,-7.271168810707023,13.603585957228274,0.0,0.0,0.0,0.0,0.0,0.0,0.0,0.0,0.0
515221000000,146,515220000000,base_link,-0.09352709512228517,-0.09009139019640192,0.7149576625440442,0.6870020121222524,0.0,0.0,0.0,0.0,0.0,0.0,0.0,0.0,0.0,-0.027577597188708357,-0.014917020353223443,-0.023146056509274704,0.0,0.0,0.0,0.0,0.0,0.0,0.0,0.0,0.0,-1.3171410437365036,1.4462820851359366,6.146333356306728,0.0,0.0,0.0,0.0,0.0,0.0,0.0,0.0,0.0
515222000000,147,515221000000,base_link,-0.09351802158060385,-0.09004764645999248,0.7149504477743713,0.6870164905108843,0.0,0.0,0.0,0.0,0.0,0.0,0.0,0.0,0.0,0.06790318908918824,0.03482536100644823,-0.019566031734730552,0.0,0.0,0.0,0.0,0.0,0.0,0.0,0.0,0.0,1.1400371746706222,-7.017185110684595,13.279835297786665,0.0,0.0,0.0,0.0,0.0,0.0,0.0,0.0,0.0
515223000000,148,515222000000,base_link,-0.09351802158060385,-0.09004764645999248,0.7149504477743713,0.6870164905108843,0.0,0.0,0.0,0.0,0.0,0.0,0.0,0.0,0.0,0.06790318908918824,0.03482536100644823,-0.019566031734730552,0.0,0.0,0.0,0.0,0.0,0.0,0.0,0.0,0.0,1.1400371746706222,-7.017185110684595,13.279835297786665,0.0,0.0,0.0,0.0,0.0,0.0,0.0,0.0,0.0
515225000000,149,515224000000,base_link,-0.0935110775319545,-0.09003084905348345,0.7149292822691542,0.6870416624569676,0.0,0.0,0.0,0.0,0.0,0.0,0.0,0.0,0.0,-0.02030073033207968,-0.012594690745285226,-0.02017867423644932,0.0,0.0,0.0,0.0,0.0,0.0,0.0,0.0,0.0,-1.2429511650177276,1.3154682144241923,5.7078343347786245,0.0,0.0,0.0,0.0,0.0,0.0,0.0,0.0,0.0
515226000000,150,515225000000,base_link,-0.0935110775319545,-0.09003084905348345,0.7149292822691542,0.6870416624569676,0.0,0.0,0.0,0.0,0.0,0.0,0.0,0.0,0.0,-0.02030073033207968,-0.012594690745285226,-0.02017867423644932,0.0,0.0,0.0,0.0,0.0,0.0,0.0,0.0,0.0,-1.2429511650177276,1.3154682144241923,5.7078343347786245,0.0,0.0,0.0,0.0,0.0,0.0,0.0,0.0,0.0
515227000000,151,515226000000,base_link,-0.09350174334941494,-0.09000164757983715,0.7149162948244455,0.6870602730605384,0.0,0.0,0.0,0.0,0.0,0.0,0.0,0.0,0.0,-0.021189307506103795,-0.014569771205572755,-0.019242935810405867,0.0,0.0,0.0,0.0,0.0,0.0,0.0,0.0,0.0,-1.3322270987477103,1.425528665340888,5.965809759101203,0.0,0.0,0.0,0.0,0.0,0.0,0.0,0.0,0.0
515228000000,152,515227000000,base_link,-0.0934917639334921,-0.08995820112342626,0.714910084323205,0.6870737831268409,0.0,0.0,0.0,0.0,0.0,0.0,0.0,0.0,0.0,0.0707866679029234,0.0366923290007342,-0.01808801055043814,0.0,0.0,0.0,0.0,0.0,0.0,0.0,0.0,0.0,1.2371036770927701,-6.74009040195012,12.72967326303362,0.0,0.0,0.0,0.0,0.0,0.0,0.0,0.0,0.0
515229000000,153,515228000000,base_link,-0.09349316897703099,-0.08997208960547783,0.7149033728196919,0.687078756750407,0.0,0.0,0.0,0.0,0.0,0.0,0.0,0.0,0.0,-0.022063325643953333,-0.014932153747013708,-0.018673171586336707,0.0,0.0,0.0,0.0,0.0,0.0,0.0,0.0,0.0,-1.36889115413331,1.5013544178274767,6.101268217979256,0.0,0.0,0.0,0.0,0.0,0.0,0.0,0.0,0.0
515230000000,154,515229000000,base_link,-0.09348329298229507,-0.08992842652840342,0.7148972094680758,0.687092229566068,0.0,0.0,0.0,0.0,0.0,0.0,0.0,0.0,0.0,0.07069954815251758,0.036644941903243196,-0.017777926522468145,0.0,0.0,0.0,0.0,0.0,0.0,0.0,0.0,0.0,1.2364282671784528,-6.688223701083049,12.676897877100435,0.0,0.0,0.0,0.0,0.0,0.0,0.0,0.0,0.0
515231000000,155,515230000000,base_link,-0.09348464058488952,-0.08994220936024772,0.7148906119268521,0.6870971066224645,0.0,0.0,0.0,0.0,0.0,0.0,0.0,0.0,0.0,-0.02183046864752532,-0.014908737608590949,-0.018369118201196438,0.0,0.0,0.0,0.0,0.0,0.0,0.0,0.0,0.0,-1.3860760005374566,1.5168974079620243,6.117359892296864,0.0,0.0,0.0,0.0,0.0,0.0,0.0,0.0,0.0
515232000000,156,515231000000,base_link,-0.09347481806475463,-0.08989851731705542,0.7148844816850093,0.6871105390094899,0.0,0.0,0.0,0.0,0.0,0.0,0.0,0.0,0.0,0.07071399447902556,0.036844043317207684,-0.017684114541331113,0.0,0.0,0.0,0.0,0.0,0.0,0.0,0.0,0.0,1.2446430583027657,-6.652850864282225,12.606412686205283,0.0,0.0,0.0,0.0,0.0,0.0,0.0,0.0,0.0
515233000000,157,515232000000,base_link,-0.09347618529949045,-0.08991235541265195,0.714877932679957,0.6871153560307289,0.0,0.0,0.0,0.0,0.0,0.0,0.0,0.0,0.0,-0.021938389784961567,-0.014977375238610027,-0.018223400620424633,0.0,0.0,0.0,0.0,0.0,0.0,0.0,0.0,0.0,-1.40503226164186,1.5404388929712667,6.163626027629963,0.0,0.0,0.0,0.0,0.0,0.0,0.0,0.0,0.0
515234000000,158,515233000000,base_link,-0.09346636496893003,-0.08986853609116181,0.7148718148062412,0.6871287894099312,0.0,0.0,0.0,0.0,0.0,0.0,0.0,0.0,0.0,0.07079659435982533,0.03683625949631606,-0.01759127263020806,0.0,0.0,0.0,0.0,0.0,0.0,0.0,0.0,0.0,1.2393980184881235,-6.6393938011261415,12.580554641802099,0.0,0.0,0.0,0.0,0.0,0.0,0.0,0.0,0.0
515235000000,159,515234000000,base_link,-0.09346636496893003,-0.08986853609116181,0.7148718148062412,0.6871287894099312,0.0,0.0,0.0,0.0,0.0,0.0,0.0,0.0,0.0,0.07079659435982533,0.03683625949631606,-0.01759127263020806,0.0,0.0,0.0,0.0,0.0,0.0,0.0,0.0,0.0,1.2393980184881235,-6.6393938011261415,12.580554641802099,0.0,0.0,0.0,0.0,0.0,0.0,0.0,0.0,0.0
515237000000,160,515236000000,base_link,-0.0934592250242588,-0.08985238884644035,0.7148526623642945,0.6871517973396657,0.0,0.0,0.0,0.0,0.0,0.0,0.0,0.0,0.0,-0.021951588830851687,-0.01515411938094029,-0.01811853733641009,0.0,0.0,0.0,0.0,0.0,0.0,0.0,0.0,0.0,-1.4333687692580928,1.5644478567263427,6.219588490142106,0.0,0.0,0.0,0.0,0.0,0.0,0.0,0.0,0.0
515238000000,161,515237000000,base_link,-0.09344945520375574,-0.08980839106721296,0.7148465205050824,0.6871652671212484,0.0,0.0,0.0,0.0,0.0,0.0,0.0,0.0,0.0,0.07084106229712558,0.036900224257115845,-0.017561713302160845,0.0,0.0,0.0,0.0,0.0,0.0,0.0,0.0,0.0,1.240584188167406,-6.623463782092017,12.531338577616907,0.0,0.0,0.0,0.0,0.0,0.0,0.0,0.0,0.0
515239000000,162,515238000000,base_link,-0.09345073216422481,-0.08982229366643783,0.714840021199224,0.6871700374073098,0.0,0.0,0.0,0.0,0.0,0.0,0.0,0.0,0.0,-0.021904448462606328,-0.015215795245353748,-0.0181163093332247,0.0,0.0,0.0,0.0,0.0,0.0,0.0,0.0,0.0,-1.4423552617260915,1.5701319911696845,6.236000747508902,0.0,0.0,0.0,0.0,0.0,0.0,0.0,0.0,0.0
515240000000,163,515239000000,base_link,-0.09346952544061993,-0.08980351559608386,0.7148363203404007,0.6871737855322227,0.0,0.0,0.0,0.0,0.0,0.0,0.0,0.0,0.0,-0.009927225452249286,0.03320537469089427,-0.0036183133846504865,0.0,0.0,0.0,0.0,0.0,0.0,0.0,0.0,0.0,2.970654549852585,-2.489433490342393,25.67930657152885,0.0,0.0,0.0,0.0,0.0,0.0,0.0,0.0,0.0
515241000000,164,515240000000,base_link,-0.09347914551793746,-0.08980006531745091,0.7148314627102814,0.687177980978507,0.0,0.0,0.0,0.0,0.0,0.0,0.0,0.0,0.0,-0.008386164446421531,0.020154582021953023,-0.010306552249710575,0.0,0.0,0.0,0.0,0.0,0.0,0.0,0.0,0.0,-0.0989233425993501,-0.832230872993452,1.1815203606793627,0.0,0.0,0.0,0.0,0.0,0.0,0.0,0.0,0.0
515242000000,165,515241000000,base_link,-0.09347914551793746,-0.08980006531745091,0.7148314627102814,0.687177980978507,0.0,0.0,0.0,0.0,0.0,0.0,0.0,0.0,0.0,-0.008386164446421531,0.020154582021953023,-0.010306552249710575,0.0,0.0,0.0,0.0,0.0,0.0,0.0,0.0,0.0,-0.0989233425993501,-0.832230872993452,1.1815203606793627,0.0,0.0,0.0,0.0,0.0,0.0,0.0,0.0,0.0
515244000000,166,515243000000,base_link,-0.09355369722493671,-0.08978803543355751,0.7148216349667205,0.6871796305275876,0.0,0.0,0.0,0.0,0.0,0.0,0.0,0.0,0.0,-0.06772086205573337,0.07273178625287267,0.0027391817120274668,0.0,0.0,0.0,0.0,0.0,0.0,0.0,0.0,0.0,1.7999399960609308,2.2044760796625122,7.196351518635319,0.0,0.0,0.0,0.0,0.0,0.0,0.0,0.0,0.0
515245000000,167,515244000000,base_link,-0.09354435551673461,-0.08978464424132652,0.7148234600493236,0.6871794468496061,0.0,0.0,0.0,0.0,0.0,0.0,0.0,0.0,0.0,-0.004672484795306485,0.011307393991815774,0.0019539983686534127,0.0,0.0,0.0,0.0,0.0,0.0,0.0,0.0,0.0,-1.530260583205309,-3.283142565582872,20.57474582715824,0.0,0.0,0.0,0.0,0.0,0.0,0.0,0.0,0.0
515246000000,168,515245000000,base_link,-0.09355090439437877,-0.08978281933360319,0.7148232325332063,0.6871790304355051,0.0,0.0,0.0,0.0,0.0,0.0,0.0,0.0,0.0,-0.006510295812728412,0.011838451427397603,0.001800033270349168,0.0,0.0,0.0,0.0,0.0,0.0,0.0,0.0,0.0,-0.07594016671507375,-0.1120727313780625,-0.006583456299516399,0.0,0.0,0.0,0.0,0.0,0.0,0.0,0.0,0.0
