%time,field.header.seq,field.header.stamp,field.header.frame_id,field.wrench.force.x,field.wrench.force.y,field.wrench.force.z,field.wrench.torque.x,field.wrench.torque.y,field.wrench.torque.z
515054000000,0,515046000000,BR_wheel_link,-0.270282441649069,-0.1940156907662212,-0.5024352571304406,-0.028077198004589625,0.016750166021516726,-0.0010381286776436661
515054000000,1,515047000000,BR_wheel_link,0.28703160093237867,0.5268184269190359,-0.8663390856570929,0.02965724297164327,-0.016628544764634302,0.0010010779793765787
515054000000,2,515048000000,BR_wheel_link,-0.23273202527585118,-0.20616262604609442,-0.4198869600623367,-0.030238438576005708,0.015095228377637788,-0.0001612763920381872
515054000000,3,515049000000,BR_wheel_link,0.23863029625012758,0.502561524571859,-0.8529393092261419,0.02868267970626004,-0.015206338103856453,0.00018949947592000586
515054000000,4,515050000000,BR_wheel_link,-0.2699133562298485,-0.19417978999990018,-0.5015803990880126,-0.028100054958183743,0.016726043119108462,-0.0010323063045930018
515054000000,5,515051000000,BR_wheel_link,0.2864879293089212,0.5263122548729315,-0.8655154281907165,0.029627878054090506,-0.01660679589697315,0.0009922244102637827
515054000000,6,515052000000,BR_wheel_link,-0.2348456335267627,-0.2061075473231777,-0.42360388149683925,-0.030160708070243944,0.015167565335288544,-0.00021375140769873586
515054000000,7,515053000000,BR_wheel_link,0.24108274071348984,0.5033207671312893,-0.8524687904786057,0.028698057306728357,-0.015266096339473175,0.00023502502645309702
515054000000,8,515054000000,BR_wheel_link,-0.2690627128355465,-0.19463059527731738,-0.49935717162233395,-0.02816151761844756,0.016669104649795714,-0.00101944318085316
515055000000,9,515055000000,BR_wheel_link,0.28512119055607166,0.5251338291681836,-0.8638027006890975,0.029563176111767314,-0.016554818127644595,0.0009709511936300238
515056000000,10,515056000000,BR_wheel_link,-0.23927061235213531,-0.2060300401732198,-0.43140628849018375,-0.029994443275905246,0.015321617270110485,-0.00032932452380419054
515057000000,11,515057000000,BR_wheel_link,0.24626615683204528,0.5049686245930362,-0.8516442779540307,0.028734540514661275,-0.015393663833300557,0.00033218830970880165
515058000000,12,515058000000,BR_wheel_link,-0.2671801555690301,-0.19545830366558226,-0.494459269922944,-0.02829572713316177,0.016547159557312868,-0.0009862475273059682
515059000000,13,515059000000,BR_wheel_link,0.282134055212083,0.5226440117713883,-0.8603605179162077,0.02942944326886545,-0.01644381433987652,0.0009250263339983368
515060000000,14,515060000000,BR_wheel_link,-0.24856050282475356,-0.2061591975344907,-0.4474365810465316,-0.029650661280888387,0.01564548606441199,-0.0005778374719160057
515061000000,15,515061000000,BR_wheel_link,0.2571284435473912,0.508535171509568,-0.8502262563935179,0.02881911188325414,-0.015663668778700908,0.0005361633443830767
515062000000,16,515062000000,BR_wheel_link,-0.26305103898997767,-0.19693528216822212,-0.48397700212183825,-0.028583331791326397,0.016291612798526853,-0.0009022574659975377
515063000000,17,515063000000,BR_wheel_link,0.2761255800995329,0.5175270973493828,-0.8536456486139219,0.02915504950360266,-0.016207009920058968,0.0008513697266484084
515064000000,18,515064000000,BR_wheel_link,-0.2545023417343793,-0.20222661020878444,-0.4615450550394384,-0.029246390615391294,0.015846464162946265,-0.0007229067738841861
515065000000,19,515065000000,BR_wheel_link,0.26515392670097715,0.511100343922627,-0.8488406246117761,0.028871450670670783,-0.01585717307720299,0.0006895137975889121
515066000000,20,515066000000,BR_wheel_link,-0.2595932029164806,-0.19721145971647244,-0.4761356014144511,-0.02879199963383353,0.01608545142668399,-0.0008172210006765213
515066000000,21,515067000000,BR_wheel_link,0.2718613850457466,0.5141751755245605,-0.8497440482106781,0.028981237675775828,-0.016044998001026916,0.0008022224898611591
515066000000,22,515068000000,BR_wheel_link,-0.2565223397523131,-0.19874138645681164,-0.46806667078634034,-0.0290244394972166,0.015910957002168876,-0.0007494054251973509
515069000000,23,515069000000,BR_wheel_link,0.2679716658393504,0.5119774487310844,-0.848281691503183,0.028886937941805396,-0.015923823618319274,0.0007448419508818138
515071000000,24,515070000000,BR_wheel_link,-0.2586101950170832,-0.19715507226869725,-0.47352054324715964,-0.028860525339962157,0.01601099747166813,-0.0007841396754991888
515071000000,25,515071000000,BR_wheel_link,0.2705919812128271,0.5132479532802317,-0.8488500295030261,0.02893585394608631,-0.01600016694737285,0.0007880963800340679
515072000000,26,515072000000,BR_wheel_link,-0.2577362390508139,-0.197973536114037,-0.47057670438227694,-0.028951034548239156,0.01594967602587686,-0.0007654279117589259
515073000000,27,515073000000,BR_wheel_link,0.26919478915307227,0.5123867318753631,-0.8481894192897519,0.028897747937509682,-0.015955485526020483,0.0007681719356515649
515074000000,28,515074000000,BR_wheel_link,-0.2585608312215148,-0.19749395093852604,-0.4726212017826303,-0.028888211940387345,0.01599022329211551,-0.000779434830962183
515075000000,29,515075000000,BR_wheel_link,0.2702470150350559,0.512885951138735,-0.8483872821973237,0.028916736090748383,-0.015986085297601933,0.0007852541598710899
515076000000,30,515076000000,BR_wheel_link,-0.2582686682522783,-0.19790594207170875,-0.4714787331640913,-0.028923810884489247,0.01596636651597897,-0.0007747489261039531
515077000000,31,515077000000,BR_wheel_link,0.26974335654065035,0.5125680870450399,-0.8481268484528675,0.0289024566807238,-0.01596992135847727,0.0007779421671782884
515078000000,32,515078000000,BR_wheel_link,-0.25866722260875863,-0.19779415508160172,-0.4723713832696982,-0.028898491219298876,0.015984814010231753,-0.0007825597229252444
515079000000,33,515079000000,BR_wheel_link,0.27022322416531064,0.5127778875617405,-0.8481615814336754,0.0289096607481028,-0.01598336747789171,0.0007857017352697153
515080000000,34,515080000000,BR_wheel_link,-0.2585798909420798,-0.19800476792876673,-0.47196402659116854,-0.02891228957305602,0.015976225449240256,-0.0007819149295167985
515081000000,35,515081000000,BR_wheel_link,0.27006044757359093,0.5126494822064311,-0.8479989285750213,0.028902928664727264,-0.01597736172555496,0.0007833902175125777
515082000000,36,515082000000,BR_wheel_link,-0.2587558589521009,-0.1979774052883799,-0.47238376822779676,-0.02890109726039844,0.015984155075443852,-0.0007859474978305939
515083000000,37,515083000000,BR_wheel_link,0.27028761703208815,0.5127332463023417,-0.8479586500448416,0.02890486799478441,-0.015983133007707553,0.0007870478584223869
515084000000,38,515084000000,BR_wheel_link,-0.2587281292513926,-0.19806913430901157,-0.4722771280202387,-0.02890565268992079,0.015981079057429393,-0.0007861315853095095
515085000000,39,515085000000,BR_wheel_link,0.27024520501560134,0.5126760858756023,-0.8478356436215331,0.02890098232080944,-0.01598073230951992,0.0007864652976923095
515086000000,40,515086000000,BR_wheel_link,-0.25879586947334177,-0.1980522953636495,-0.4724974751357912,-0.028900079076548853,0.01598412459093526,-0.0007879777874882194
515087000000,41,515087000000,BR_wheel_link,0.2703529758611066,0.5127057503247529,-0.847773379373741,0.028900817193319158,-0.0159830246430235,0.0007881477041042554
515088000000,42,515088000000,BR_wheel_link,-0.25878569947769087,-0.19808313600727934,-0.4725123721022161,-0.02890078577151065,0.015983026228262406,-0.0007881953370050176
515089000000,43,515089000000,BR_wheel_link,0.27034871991684006,0.5126752718925994,-0.8476728226133471,0.028898122628566135,-0.015981878098448723,0.000788076539698739
515090000000,44,515090000000,BR_wheel_link,-0.2588038414440349,-0.1980649486512765,-0.4726445715708446,-0.028897532611083535,0.015983860270276692,-0.0007888969931568318
515091000000,45,515091000000,BR_wheel_link,0.27039462313238394,0.512675807052712,-0.8475971544230188,0.028896808340037362,-0.015982350258242087,0.0007887413624818123
515092000000,46,515092000000,BR_wheel_link,-0.25879080378881475,-0.19806149823903668,-0.4726984264552344,-0.02889660318991951,0.015983044152690883,-0.0007889093068252311
515093000000,47,515093000000,BR_wheel_link,0.2703958990978519,0.5126542258119617,-0.8475111987461348,0.028894627515836914,-0.015981511668659423,0.0007886921978172035
515094000000,48,515094000000,BR_wheel_link,-0.25878820898875093,-0.19803957220571064,-0.47279483773296227,-0.028894228852373628,0.01598293101056643,-0.0007890664144331579
515095000000,49,515095000000,BR_wheel_link,0.27041386190361044,0.5126438748239958,-0.8474362502110299,0.02889298268418002,-0.015981246164941596,0.0007888793706058272
515096000000,50,515096000000,BR_wheel_link,-0.2587736910591678,-0.19802321004550666,-0.47286059975421857,-0.028892736295220465,0.015982172929885564,-0.0007889502803652701
515097000000,51,515097000000,BR_wheel_link,0.2704136923619227,0.5126248015577629,-0.8473581860069095,0.028891014710239502,-0.015980463245217336,0.000788773628834297
515098000000,52,515098000000,BR_wheel_link,-0.2587628087098653,-0.1980000149874919,-0.4729411722100987,-0.02889070885179987,0.0159816517009745,-0.0007888817149108401
515099000000,53,515099000000,BR_wheel_link,0.2704192217585131,0.5126101087035801,-0.8472856823062975,0.028889280343703937,-0.01597990050056269,0.000788742412486735
515103000000,54,515100000000,BR_wheel_link,-0.2587481573824403,-0.1979798600132462,-0.47301030308566683,-0.02888902146524091,0.015980913252047188,-0.0007887280409366828
515103000000,55,515101000000,BR_wheel_link,0.27041798241171994,0.5125921357260047,-0.847212306192625,0.028887432247816043,-0.015979150573813966,0.0007886013459632828
515103000000,56,515102000000,BR_wheel_link,-0.25873486875274293,-0.19795769430208027,-0.4730843337800794,-0.028887146910820685,0.015980256863315036,-0.0007885998829942608
515103000000,57,515103000000,BR_wheel_link,0.2704184328885489,0.5125753319745227,-0.8471404005453738,0.028885647555203404,-0.01597846471838871,0.0007884834391404244
515103000000,58,515104000000,BR_wheel_link,-0.25871981836276087,-0.1979363604285008,-0.47315376342159254,-0.0288853892426782,0.015979501327686225,-0.0007884363919919429
515105000000,59,515105000000,BR_wheel_link,0.27041623265025133,0.5125572881120083,-0.8470682895290944,0.02888382188453167,-0.0159777070053808,0.0007883225329898769
515106000000,60,515106000000,BR_wheel_link,-0.2587052937091327,-0.19791424506822725,-0.4732250488825606,-0.02888356053873807,0.015978777800961786,-0.0007882808508712326
515107000000,61,515107000000,BR_wheel_link,0.27041485386832076,0.5125399369229916,-0.8469972586616017,0.02888203690373156,-0.015976984725864382,0.0007881723553285003
515108000000,62,515108000000,BR_wheel_link,-0.2586904088369623,-0.19789276573878423,-0.4732947825301543,-0.02888178168412489,0.015978031888119686,-0.0007881159082222406
515109000000,63,515109000000,BR_wheel_link,0.27041317853541097,0.5125228875976016,-0.8469276327851112,0.028880285863129334,-0.015976272494788644,0.0007880147556668618
515110000000,64,515110000000,BR_wheel_link,-0.2586766893411558,-0.19787203008736343,-0.4733658767724822,-0.028879992344136157,0.01597734628193207,-0.0007879692361767557
515111000000,65,515111000000,BR_wheel_link,0.270411810468575,0.5125055105543367,-0.8468570291878363,0.028878510066408812,-0.01597555832632317,0.000787865745548766
515112000000,66,515112000000,BR_wheel_link,-0.25866201359765734,-0.19785114235761442,-0.47343543751534256,-0.02887821825032285,0.015976610899888513,-0.0007878137527355898
515113000000,67,515113000000,BR_wheel_link,0.2704095548811002,0.512487499376885,-0.8467856995287526,0.02887670243783148,-0.015974811869932673,0.0007877039148689519
515114000000,68,515114000000,BR_wheel_link,-0.2586471912325374,-0.19782965053515983,-0.4735055189309597,-0.028876414259447484,0.015975872049784408,-0.0007876580174180566
515115000000,69,515115000000,BR_wheel_link,0.27040756355349205,0.5124697336696061,-0.8467146816978792,0.02887490736449302,-0.015974075686707116,0.0007875453848524823
515116000000,70,515116000000,BR_wheel_link,-0.2586322858564143,-0.1978082344959526,-0.4735753565876073,-0.02887462243076258,0.01597512950020597,-0.0007874989256704063
515117000000,71,515117000000,BR_wheel_link,0.27040544246120063,0.5124519294345105,-0.8466437076917384,0.028873111754139244,-0.015973336420629442,0.0007873847347511713
515118000000,72,515118000000,BR_wheel_link,-0.2586174856435115,-0.19778678390040613,-0.47364545665059654,-0.028872824997976658,0.01597439355914452,-0.000787341293830333
515119000000,73,515119000000,BR_wheel_link,0.2704034452813112,0.5124341746260171,-0.8465727393915609,0.028871317846204614,-0.015972600461128986,0.0007872262311552261
515120000000,74,515120000000,BR_wheel_link,-0.2586026282819247,-0.1977653677962141,-0.47371542694023094,-0.02887103137691002,0.015973654985173554,-0.0007871829428567804
515121000000,75,515121000000,BR_wheel_link,0.2704013919791841,0.512416372162024,-0.8465017095395597,0.02886952144222336,-0.015971862193160248,0.0007870670489229452
515122000000,76,515122000000,BR_wheel_link,-0.25858778265306853,-0.19774391457334314,-0.4737854862372647,-0.028869234677160117,0.015972917727230453,-0.0007870252028309214
515123000000,77,515123000000,BR_wheel_link,0.2703993969831311,0.5123985976428909,-0.8464306889031249,0.028867726063649415,-0.015971125475018083,0.0007869088495298859
515124000000,78,515124000000,BR_wheel_link,-0.2585718690677882,-0.19772196159464728,-0.47385385285081816,-0.02886746327777333,0.015972180878142,-0.0007867894394018846
515125000000,79,515125000000,BR_wheel_link,0.2703967988063114,0.5123813184108343,-0.8463611611742199,0.028865973302055863,-0.01597039187324889,0.0007867262658826962
515126000000,80,515126000000,BR_wheel_link,-0.25855530524221104,-0.19770047732986495,-0.47392035632826723,-0.02886573944533294,0.01597142966204193,-0.000786521831319092
515127000000,81,515127000000,BR_wheel_link,0.27039327919051853,0.5123644170574622,-0.8462931389320235,0.02886425987184656,-0.015969653095687486,0.0007865132319909553
515128000000,82,515128000000,BR_wheel_link,-0.25853933334273427,-0.19767995993815546,-0.4739871136086729,-0.028864028756375015,0.015970684624395094,-0.0007862956476558586
515129000000,83,515129000000,BR_wheel_link,0.27038982264594835,0.5123477586485922,-0.8462255305120707,0.028862560944820814,-0.01596892056425519,0.0007862977047626597
515130000000,84,515130000000,BR_wheel_link,-0.2585237162591243,-0.19765984271715697,-0.47405426075333096,-0.02886232143245016,0.015969954139370798,-0.0007860842173802759
515131000000,85,515131000000,BR_wheel_link,0.2703865576924915,0.5123310795612853,-0.8461575649926343,0.0288608552975131,-0.01596818852333472,0.0007860855831313405
515132000000,86,515132000000,BR_wheel_link,-0.25850801590926725,-0.1976397253462222,-0.47412141988312684,-0.028860613067075734,0.01596922070698411,-0.0007858763852853909
515133000000,87,515133000000,BR_wheel_link,0.2703833595784426,0.5123143405983029,-0.8460892623778996,0.028859141846047258,-0.01596745374025489,0.0007858748744671116
515134000000,88,515134000000,BR_wheel_link,-0.25849225882556237,-0.19761950260397357,-0.4741887286959869,-0.02885889972453667,0.015968486773496524,-0.0007856702685272847
515135000000,89,515135000000,BR_wheel_link,0.2703803204222312,0.5122976707822549,-0.8460208787616608,0.028857428819585588,-0.01596672167667007,0.0007856665815231686
515136000000,90,515136000000,BR_wheel_link,-0.25847650594078253,-0.19759927087111817,-0.47425614039337227,-0.028857186546562625,0.015967754770464374,-0.0007854650892281621
515137000000,91,515137000000,BR_wheel_link,0.2703774191918645,0.5122810952171677,-0.8459525321906163,0.02885571877240882,-0.01596599306943418,0.0007854605945377046
515138000000,92,515138000000,BR_wheel_link,-0.25846080151451073,-0.19757904046400832,-0.47432366585710317,-0.028855474050088106,0.015967026772475593,-0.0007852594772814955
515139000000,93,515139000000,BR_wheel_link,0.2703746221610366,0.5122645952116386,-0.8458842240186546,0.028854010999740658,-0.015965266953938424,0.0007852567274202684
515140000000,94,515140000000,BR_wheel_link,-0.2584451036965574,-0.19755877892752707,-0.474391207005711,-0.028853762997956035,0.015966300116732432,-0.0007850513909481137
515141000000,95,515141000000,BR_wheel_link,0.27037177155458136,0.51224801560837,-0.8458157240934769,0.028852297455900837,-0.015964536917656747,0.0007850523081018168
515141000000,96,515142000000,BR_wheel_link,-0.25842932436426885,-0.1975384357487197,-0.47445869084729997,-0.02885204981353301,0.01596556917506671,-0.0007848427169399728
515143000000,97,515143000000,BR_wheel_link,0.27036894565562175,0.5122315178924595,-0.8457473330274006,0.028850587122385384,-0.01596380770477738,0.0007848486345121515
515144000000,98,515144000000,BR_wheel_link,-0.2584135342141358,-0.19751800738960754,-0.4745261439535066,-0.028850338755576816,0.01596483777641542,-0.0007846293407664636
515145000000,99,515145000000,BR_wheel_link,0.27036604972696954,0.5122150092896105,-0.8456789194282583,0.028848875446725108,-0.015963075687920263,0.0007846439847442893
515146000000,100,515146000000,BR_wheel_link,-0.25839772780083653,-0.19749751321314865,-0.47459355287184424,-0.02884862714987804,0.015964104469249805,-0.0007844137783282481
515147000000,101,515147000000,BR_wheel_link,0.27036311105092425,0.5121984938996773,-0.8456104722180111,0.02884716293547071,-0.01596234191414392,0.0007844381524770704
515148000000,102,515148000000,BR_wheel_link,-0.25838193192292286,-0.19747705634518387,-0.47466090194690524,-0.028846915996627014,0.01596336942686954,-0.0007841997160980144
515149000000,103,515149000000,BR_wheel_link,0.27036019085121743,0.5121820182498585,-0.8455420581509656,0.02884545221329817,-0.01596160885691409,0.0007842319614754217
515150000000,104,515150000000,BR_wheel_link,-0.19805109826133377,0.24576785061467557,-1.010543095721961,-0.08275601924691481,0.014442703192331346,0.0011815048033281712
515151000000,105,515151000000,BR_wheel_link,0.008442975696084612,0.165027494411537,-0.23744908200512183,-0.05490268010546411,-8.826287952284559e-05,8.680794622637931e-05
515152000000,106,515152000000,BR_wheel_link,0.43016562889551824,1.9896225494841104,-2.0853809498086795,-0.05516968187422703,-0.013260404224121575,0.013684979661363561
515153000000,107,515153000000,BR_wheel_link,-0.014623886276980275,0.27703414201219884,-0.3841702438176307,-0.050471235783097465,-0.00037286254721493467,-0.0008322461581444004
515154000000,108,515154000000,BR_wheel_link,0.5275132222563887,1.7789251926309766,-2.448585835536126,-0.023027875581823034,0.028292412836475284,0.029835609087138937
515155000000,109,515155000000,BR_wheel_link,0.10661071634872098,-0.224884038343585,0.7061991511255215,-0.011150452758728339,-0.04185236203373818,-0.025413866817341244
515156000000,110,515156000000,BR_wheel_link,0.27940501508299426,1.5284653089615916,-2.0904727382056336,0.014895539982128473,0.026046517271363364,0.0262149132302424
515157000000,111,515157000000,BR_wheel_link,-0.2376352786754159,0.20095546736411513,-0.28767403509600564,0.01045727818636687,-0.022617549663170776,-0.022465957940571355
515160000000,112,515158000000,BR_wheel_link,-0.1287383260186291,0.16587518615968017,-0.8926444341412467,-0.020967067147295345,0.026223717962595868,0.010144784293910063
515160000000,113,515159000000,BR_wheel_link,0.03079871626590209,0.05249569863638113,-0.037674429465871594,0.0014480155925811217,-0.00034291227360608637,0.0005858385391753051
515160000000,114,515160000000,BR_wheel_link,0.1955599510326729,0.4437095040370901,-0.2059126916213362,-0.007222399154457236,-0.022505345957335776,-0.00547929089466547
515161000000,115,515161000000,BR_wheel_link,-0.034673696605265744,0.03886122448635443,-0.08643362528752299,0.002002570763842525,0.0004813658708717177,-0.0007789608165483242
515162000000,116,515162000000,BR_wheel_link,-0.020829838898386674,0.3312877488419128,-0.9765816258521256,-0.016590617639785123,0.024721682025957342,0.012520306816207236
515163000000,117,515163000000,BR_wheel_link,-0.31837170914008306,0.3005365608647266,-0.4518901701722178,0.015629883625361236,-0.02704699840165901,-0.02780588660593868
515164000000,118,515164000000,BR_wheel_link,-0.07204176851074033,0.32208185036904746,-0.9083256933415842,-0.013112084025238953,0.02279657349299712,0.011533828324195389
515165000000,119,515165000000,BR_wheel_link,-0.15386232783990508,0.1466571998168044,-0.16301355578099536,0.004842863811618422,-0.01600399713092903,-0.013708027552100866
515166000000,120,515166000000,BR_wheel_link,0.07833626720686701,0.39969867767497286,-0.8799431736981318,-0.007343759673790561,0.016443685637400125,0.008717917957377136
515166000000,121,515167000000,BR_wheel_link,-0.22128510854646072,0.19739654009840069,-0.17843177704516722,0.0015005209872844625,-0.018877016209579586,-0.013827686236569577
515168000000,122,515168000000,BR_wheel_link,0.11268295458271474,0.6545158369595672,-1.0158901081319125,0.0014995938550887572,0.015531168975551915,0.013096300325542954
515169000000,123,515169000000,BR_wheel_link,0.0929381405078637,-0.2312954567568274,0.6280978483213464,-0.017639999696560344,-0.020015044416833567,-0.006156203340907385
515170000000,124,515170000000,BR_wheel_link,0.03506252162463758,0.5603961019140576,-0.9027627639045223,0.0026456073379168806,0.014427758518335516,0.011053464507189706
515171000000,125,515171000000,BR_wheel_link,-0.22408503096214563,0.1886274957800742,-0.23850785479332604,0.003515288702320345,-0.014605295643240942,-0.012208100580415888
515172000000,126,515172000000,BR_wheel_link,-0.09824502949822515,0.12575918358813443,-0.7437406677099324,-0.018640359858678422,0.022401928540459207,0.00849302319950873
515173000000,127,515173000000,BR_wheel_link,-0.08596786543380303,0.08380142352314143,-0.07130132892085402,0.004305400381620392,-0.01468442845325436,-0.012380160823890318
515174000000,128,515174000000,BR_wheel_link,0.18413751890672275,0.6578025983254889,-1.0760588459518385,0.00020900998312051514,0.014922591723039039,0.011279193453523774
515175000000,129,515175000000,BR_wheel_link,0.0568373015540576,-0.18662607363848796,0.5349989111695452,-0.014256405422117292,-0.02126733778154826,-0.008794910233574418
515176000000,130,515176000000,BR_wheel_link,0.1122855683363097,0.6308501002516038,-0.9826736939078362,0.0027196222053328667,0.014066594891923934,0.01157693874782837
515177000000,131,515177000000,BR_wheel_link,-0.19952735928488705,0.14686487044635882,-0.15947515761304185,0.0014094114811012172,-0.01512638992843281,-0.011625219705281364
515178000000,132,515178000000,BR_wheel_link,-0.0765043765470124,0.15172149459050266,-0.7264831368396922,-0.016477310386349024,0.02085898915078434,0.008194882904333518
515179000000,133,515179000000,BR_wheel_link,-0.11145315766936609,0.10153340666853537,-0.09333721947057487,0.0033710208908378572,-0.014390432936663013,-0.011577668872310511
515180000000,134,515180000000,BR_wheel_link,0.1864276586937464,0.6370970853642471,-1.0520477515566868,-1.2301509568221104e-05,0.014563636988574165,0.01093396299858576
515181000000,135,515181000000,BR_wheel_link,0.056249969287324036,-0.1802264950178482,0.5256007384296657,-0.01405438207959269,-0.020576304925872882,-0.008236303764358157
515181000000,136,515182000000,BR_wheel_link,0.11821308692444576,0.6246198802613842,-0.9817085752106303,0.0026436556462156044,0.01395315917044712,0.011395389756329309
515181000000,137,515183000000,BR_wheel_link,-0.1930370859277415,0.13705325938019097,-0.14204043208105033,0.0009346813652615586,-0.015108881930905729,-0.011285342589953676
515181000000,138,515184000000,BR_wheel_link,-0.07076446819454867,0.15027412606969226,-0.7161859523537065,-0.01612838369697884,0.020472586104253118,0.007959634794771055
515181000000,139,515185000000,BR_wheel_link,-0.09724032790026388,0.08742267251055232,-0.07059161565646027,0.003050699136623608,-0.014154387633798175,-0.011134701664488447
515181000000,140,515186000000,BR_wheel_link,0.1750261882507307,0.5795635503233366,-1.0196868395073573,-0.0017220307737655267,0.014886902357008791,0.010180701474179026
515181000000,141,515187000000,BR_wheel_link,0.051912410817394165,-0.14422943611460431,0.47356539531007047,-0.012638253444201088,-0.01969711427155245,-0.007749077752940972
515188000000,142,515188000000,BR_wheel_link,0.09179018104369549,0.5560122012129227,-0.8959626882004168,0.0021998140413493185,0.013172790939304076,0.010394241754294308
515189000000,143,515189000000,BR_wheel_link,-0.20517903533487114,0.14623044463336676,-0.14198637632480726,0.0003892260580015527,-0.016211549218588354,-0.011555572883529213
515190000000,144,515190000000,BR_wheel_link,-0.060641600163992344,0.19000196433560196,-0.7601858616011319,-0.015296781979079478,0.0208554457580721,0.008605619996684449
515190000000,145,515191000000,BR_wheel_link,-0.07493428427399296,0.06904180505220489,-0.04158148866807274,0.002972416930702434,-0.01396638528385552,-0.010809911805429291
515192000000,146,515192000000,BR_wheel_link,-20.264458643347563,15.64242553731579,57.44495576558324,1.6210337919353044,2.152009987250274,-0.033946406316711586
515193000000,147,515193000000,BR_wheel_link,0.27210507169159814,0.07521648357750643,1.2161330484481092,0.013335601518843918,0.004936334757194172,0.010843401057343306
515194000000,148,515194000000,BR_wheel_link,-3.5644635042532617,6.612872966493765,16.550864791047033,0.6897194551402337,0.3531641994454212,-0.008131288851723914
515195000000,149,515195000000,BR_wheel_link,0.03359288353956809,-0.14290470561803353,1.2902302539000083,-0.00886378913760171,0.009635010079350718,0.006043945524967707
515196000000,150,515196000000,BR_wheel_link,-4.578765068434187,5.243220118203509,17.15109286360886,0.5212810166083462,0.4773621187392044,-0.004742651554896261
515197000000,151,515197000000,BR_wheel_link,0.003401015650744063,-0.24073799820870226,1.342510557525007,-0.01456727290562106,0.00884612420814011,0.0018675964081032602
515198000000,152,515198000000,BR_wheel_link,-4.491658751433733,4.651660677300028,16.957562708810556,0.45331168762631757,0.4705081036228608,-0.0037758643738834835
515199000000,153,515199000000,BR_wheel_link,0.0026101406740549477,-0.26751933873032124,1.335775891203204,-0.017445594455750467,0.006361090085440156,0.0006806702707769235
515200000000,154,515200000000,BR_wheel_link,-4.192079422793509,4.287705359985937,16.560526941807808,0.41395974280000913,0.4381571206009292,-0.003412581991529523
515201000000,155,515201000000,BR_wheel_link,0.009315422601201703,-0.2767589048626167,1.3128053401288053,-0.019260232769869802,0.003673370258451274,0.0003671771180440716
515202000000,156,515202000000,BR_wheel_link,-3.8719928855944215,4.012632767101178,16.13925694252516,0.3851900640247565,0.4030354485042051,-0.003224561089795283
515203000000,157,515203000000,BR_wheel_link,0.017279508184040587,-0.28139059919859,1.2884886119824546,-0.02065361617249962,0.0012724430899946973,0.00030685175618610193
515206000000,158,515204000000,BR_wheel_link,-3.592212237878516,3.78665500089477,15.761143956250583,0.36175125920419204,0.3723020489055259,-0.003084047887429636
515206000000,159,515205000000,BR_wheel_link,0.024708352984248963,-0.28465446829301977,1.2683556609806765,-0.021791774282603933,-0.000706039515813283,0.00031991876291569924
515206000000,160,515206000000,BR_wheel_link,-3.3657834800589392,3.610877824008493,15.456928868930833,0.34360737533624547,0.3474119643303591,-0.0029840505467408317
515208000000,161,515207000000,BR_wheel_link,0.030493339753707785,-0.2871647434913008,1.2529679408550263,-0.02272908247733371,-0.0022277237692682195,0.00034031202500769357
515208000000,162,515208000000,BR_wheel_link,-3.1972633093932887,3.475319259515639,15.223815133810913,0.3295933591168829,0.3289499699252536,-0.0029004522072070167
515209000000,163,515209000000,BR_wheel_link,0.03489386785442862,-0.2889408279562444,1.2424607911371544,-0.023467372352195967,-0.0033479866925820966,0.0003660370448978134
515210000000,164,515210000000,BR_wheel_link,-3.0774596211758176,3.379223075505272,15.057530193290667,0.3197014191756688,0.31585419421118743,-0.0028417560077453746
515211000000,165,515211000000,BR_wheel_link,0.03783593535891486,-0.2897873585472744,1.23559537421227,-0.024022501981434123,-0.004126860311321786,0.00039425835869503546
515212000000,166,515212000000,BR_wheel_link,-4.106373477193249,-0.817856424851489,12.812457799310412,-0.13618992927677034,0.45474017630221575,0.0009017799286137138
515213000000,167,515213000000,BR_wheel_link,-0.13091122897426008,-0.23873592317531478,0.4659932638696872,-0.022989315125661852,0.0031624351853788736,-0.00498751343065785
515214000000,168,515214000000,BR_wheel_link,-2.6829044139825244,-1.7245386319573148,5.93376921989741,-0.23086921219347462,0.31534156223915694,0.0038807724498024503
515215000000,169,515215000000,BR_wheel_link,0.07764923178660799,-2.568924533742805,3.6326995389203667,-0.3067721872175269,-0.013200456829357693,-8.962909887689705e-05
515216000000,170,515216000000,BR_wheel_link,-0.05754923470268125,-0.2033727653464784,-0.34491298175826135,-0.021324480550526798,0.009002586120869236,0.0011993401769172672
515217000000,171,515217000000,BR_wheel_link,-1.8874895720696057,0.7127891374381305,6.567010661880836,0.045276262729691694,0.20842966731509893,0.0012930911392511502
515218000000,172,515218000000,BR_wheel_link,0.06547349497425714,-0.15201291882588763,0.35890306812466755,-0.031087911544800582,-0.002848642662895756,-0.004011886390283986
515219000000,173,515219000000,BR_wheel_link,-2.425745547056797,2.6036459868334965,12.333478720877384,0.23867787098166351,0.25059236150031045,-0.002059526015064643
515220000000,174,515220000000,BR_wheel_link,0.15804511083840247,-0.024153582375771643,0.6603435837797319,-0.02082866204105073,-0.004449323204183451,0.00029904115242228367
515221000000,175,515221000000,BR_wheel_link,-1.9463822615157407,3.018134442019112,11.617267546694297,0.2945016134138053,0.1932053024058653,-0.0034940250758100193
515222000000,176,515222000000,BR_wheel_link,0.11618765703025394,-0.03502943364384918,0.5793515771691667,-0.019210469630198734,-0.003656173641305699,0.0002575328113336717
515223000000,177,515223000000,BR_wheel_link,-1.7816714980465682,2.536526016313573,10.255797676237197,0.24448356542170713,0.178941671268755,-0.002652206732839245
515224000000,178,515224000000,BR_wheel_link,0.12427843005478396,-0.017427497412477275,0.5166546937648032,-0.01926092486390497,-0.004313537974599857,0.0008680317427420298
515225000000,179,515225000000,BR_wheel_link,-1.8600372956991724,2.8191632003677083,10.778846454289077,0.27537136695606895,0.18589791696434063,-0.0031175363519376914
515226000000,180,515226000000,BR_wheel_link,0.12808370227737315,-0.015156955764739445,0.548002382380022,-0.018751398551225262,-0.003813859234542286,0.0010475165089182702
515227000000,181,515227000000,BR_wheel_link,-2.0185187664022717,3.0758548411253934,11.282098888791314,0.3028921610105826,0.2023505220180167,-0.0034454482351166243
515228000000,182,515228000000,BR_wheel_link,0.1391179564244655,-0.0038560404813133,0.5945992108575285,-0.017896624361868462,-0.0034655072297337637,0.0014937832374599274
515229000000,183,515229000000,BR_wheel_link,-2.0844917481837753,3.2624690792320092,11.546956961979047,0.3236763284877151,0.2087301325860407,-0.003741274259493752
515230000000,184,515230000000,BR_wheel_link,0.1391640061109391,0.0002479303405177463,0.6115324611046618,-0.017390494386020222,-0.003038980342855555,0.0016555759279296917
515231000000,185,515231000000,BR_wheel_link,-2.123433960841682,3.3218623865297316,11.578402403514367,0.33058073930782655,0.21298944120784774,-0.0038195274735731907
515232000000,186,515232000000,BR_wheel_link,0.13944333431111736,0.004848641083225261,0.6163982667065269,-0.01710401077708571,-0.002818231377696976,0.0017933401244830834
515232000000,187,515233000000,BR_wheel_link,-2.1606114621163037,3.398205592633915,11.666191932031454,0.3392276952599754,0.21687112369147002,-0.003933233233459784
515234000000,188,515234000000,BR_wheel_link,0.13836003595816948,0.007308843962482096,0.621497953830155,-0.016894404224083084,-0.0025766018529287905,0.0018580432353347382
515235000000,189,515235000000,BR_wheel_link,-2.193739981275156,3.452084656152534,11.720866058169106,0.34537276233369124,0.2204512839710429,-0.004007654041381651
515236000000,190,515236000000,BR_wheel_link,0.13801799605634077,0.01022408517829266,0.6258511399643796,-0.01672267505838086,-0.0024111234078392114,0.0019316901874139346
515237000000,191,515237000000,BR_wheel_link,-2.2176758299625465,3.5020983513779167,11.768355462420104,0.35112847881638726,0.22299129005180732,-0.004084832551863069
515238000000,192,515238000000,BR_wheel_link,0.13720608063572337,0.012480430366816751,0.6287486391243406,-0.0165939854877016,-0.0022707067795847587,0.0019821997796934435
515239000000,193,515239000000,BR_wheel_link,-2.2361077204650357,3.5403808235762684,11.796146839768017,0.35560360965045384,0.22498223572032097,-0.004145141783195687
515240000000,194,515240000000,BR_wheel_link,-0.1497420874529546,-0.060323161905637204,-1.121526160434887,0.008206437822069673,-0.0013818557946357253,-0.004136839074257518
515241000000,195,515241000000,BR_wheel_link,0.021517410050603418,0.0939237116070603,-0.20403867196268122,-0.0002397861662568415,0.0024335570582100703,0.002768543113073024
515242000000,196,515242000000,BR_wheel_link,0.047132068879077726,0.15119258810843056,-0.5606953803026085,0.015781354944060598,-0.00811774978175264,5.749277129728117e-06
515243000000,197,515243000000,BR_wheel_link,-0.21095236958087513,-0.38201149584903743,-0.08265773752744907,-0.03482145576739423,0.007518570016466481,-0.005307779945078852
515244000000,198,515244000000,BR_wheel_link,0.2658021450994517,0.5223043493456576,-1.198463084155701,0.03748602103167181,-0.018579567230322586,0.0021564095592375796
515245000000,199,515245000000,BR_wheel_link,-0.3092240845894271,-0.3731065531502513,-1.3771621803222778,-0.019686916642831568,0.018436921580621674,-0.0026951658074608853
515246000000,200,515246000000,BR_wheel_link,0.010867415996341773,0.017152793987730713,-0.019978036995640946,0.0006421607141815106,-0.0005557698471094697,-4.537862555144356e-05
515247000000,201,515247000000,BR_wheel_link,0.1291889443475115,0.1511938308139973,-1.4164141570420625,0.010909141464539182,-0.0029575548988499964,0.0012726679600047774
515248000000,202,515248000000,BR_wheel_link,0.0051222692846155035,-0.009571642222416295,-0.1743581640423626,-0.006692154807235239,0.0053757217899456046,0.0007675531887400544
515249000000,203,515249000000,BR_wheel_link,0.193013221725589,0.3279500116408012,-0.6838900816712778,0.022292121606482734,-0.011420876010588884,0.0017299769717788922
515250000000,204,515250000000,BR_wheel_link,-0.313847567488761,-0.40174604465068076,-1.0666620125889064,-0.02577277343694833,0.008963058694741727,-0.009825470284048055
515251000000,205,515251000000,BR_wheel_link,-0.02714983954480421,0.05639784966782997,-0.059880944778685496,0.0016990095256019819,-0.004033621711841277,-0.002744256875252327
515252000000,206,515252000000,BR_wheel_link,0.2149008782791393,0.3501275977548597,-1.3249836932845247,0.008206236956529722,0.002398161257788104,0.006201033585784778
515252000000,207,515253000000,BR_wheel_link,-0.004271850989936095,-0.027541806671552226,0.17806019531153372,-0.0064501346074132436,-0.0073668580841248915,-0.0014711976164746231
515254000000,208,515254000000,BR_wheel_link,0.02398205675996639,0.14072087154241597,-1.4273542623705358,-0.0026306342907945132,0.011165234921199894,0.0023847151209877276
515255000000,209,515255000000,BR_wheel_link,0.03190272134780378,0.0752800983578878,-0.059684965959738455,0.0017521451605127497,-0.0009182384534010009,0.00045367610259048176
515256000000,210,515256000000,BR_wheel_link,0.12580003391291544,0.26475251771883407,-1.4985656542678392,0.008160640992150695,-0.006121811329326046,0.003289139226622031
515257000000,211,515257000000,BR_wheel_link,-0.0069469700067447465,0.008008918587834153,-0.018558649316918894,0.00048305872018907837,9.739809188123353e-05,-0.0002159483142469343
515258000000,212,515258000000,BR_wheel_link,-0.16548649006957014,-0.06165100340529303,-1.058536865714365,-0.010785947923491707,0.003104869347775987,-0.006191367795347584
515259000000,213,515259000000,BR_wheel_link,0.07818290640766505,0.2580771361153219,-0.37152868000945205,0.0036886650466305877,0.003530785509620923,0.0037086014029038515
515260000000,214,515260000000,BR_wheel_link,0.12086965655763704,0.17294653322901118,-0.7992043362751314,0.0013015978097176018,-0.009386996401341823,0.0018555033684748467
515261000000,215,515261000000,BR_wheel_link,-0.010560511928655255,0.09176858512263678,-0.3211467545650172,-0.004560287531666705,0.007726217169469229,0.0025668743621501833
515262000000,216,515262000000,BR_wheel_link,0.025993791858015848,0.14651531012690192,-1.213480049516685,0.0076818682232341826,-0.006323633009733889,-0.001344597409624795
515263000000,217,515263000000,BR_wheel_link,-0.01570649769817511,0.016406595604506177,-0.22486715219990638,-0.006146266445587573,0.006605778520019047,0.0011480662773269811
515264000000,218,515264000000,BR_wheel_link,0.025671611818156314,0.12505511879692205,-1.023219902955576,0.004891565990915229,-0.006815501879061052,-0.0016105624004468235
515265000000,219,515265000000,BR_wheel_link,-0.007753200915529881,0.04132926196189228,-0.25883384139985244,-0.0056466855601033815,0.0068080277515208225,0.0014090184471968444
515266000000,220,515266000000,BR_wheel_link,0.025357079199498492,0.13259034780898943,-1.1306643399153773,0.006389318580031006,-0.006781414025476427,-0.0015710786183235515
515267000000,221,515267000000,BR_wheel_link,-0.008781830707988185,0.02896831309823046,-0.24084857303694934,-0.005854772547122075,0.00659187223850782,0.0011895657897733045
515268000000,222,515268000000,BR_wheel_link,0.022616379025795722,0.1275275923309279,-1.065246417636452,0.005433678180065943,-0.006401741668609705,-0.0015137001391660986
515269000000,223,515269000000,BR_wheel_link,-0.004329992581630252,0.03747927973974535,-0.25268510390993987,-0.0056945914882467015,0.006627179085243098,0.001251508494918663
515270000000,224,515270000000,BR_wheel_link,0.02645695933709824,0.13045893925550306,-1.1081341285966224,0.00597922270242481,-0.006782383866946551,-0.0013355800505618185
515271000000,225,515271000000,BR_wheel_link,-0.005550033280676777,0.03316106120496122,-0.24566015480746078,-0.005726377026867677,0.006547104719014435,0.001178252687395864
515272000000,226,515272000000,BR_wheel_link,0.021240275951523436,0.12658803030379373,-1.0756336023934256,0.005515043326307547,-0.006315226213940313,-0.0013325374623256517
515273000000,227,515273000000,BR_wheel_link,-0.003137450821401811,0.03614132974448218,-0.2503077098124389,-0.005674434069574184,0.0065443491100571575,0.0011757393603283534
515274000000,228,515274000000,BR_wheel_link,0.02434093702288423,0.12751846009454548,-1.1032206330939165,0.00584944545267288,-0.006701834760523612,-0.0011844826589374204
515275000000,229,515275000000,BR_wheel_link,-0.004500615165486496,0.0330390442848021,-0.24520054960889498,-0.005685763554902896,0.006493481839441343,0.0011253947906832511
515276000000,230,515276000000,BR_wheel_link,0.019335354040382297,0.12381732371691508,-1.080887825980558,0.00553833593388477,-0.006294708851123929,-0.0012124376749581387
515277000000,231,515277000000,BR_wheel_link,-0.002895466730762304,0.03442748899715477,-0.2477805405673983,-0.005666698356070788,0.0064877688879755105,0.0011098334236861688
515278000000,232,515278000000,BR_wheel_link,0.02211217068761196,0.12450246905263623,-1.103288784089312,0.005803391825104922,-0.006612565586170795,-0.0010798580096266358
515279000000,233,515279000000,BR_wheel_link,-0.004069423827018261,0.031454346962526296,-0.2429228014024007,-0.005679990448835507,0.006436643492906167,0.0010584036033354687
515280000000,234,515280000000,BR_wheel_link,0.01801503371053266,0.12129623424639308,-1.0860052620820517,0.005566076332003051,-0.006271354184578615,-0.0011063969999111516
515281000000,235,515281000000,BR_wheel_link,-0.002823413233050541,0.031994817810781055,-0.244279818050943,-0.0056780866275334815,0.0064260396965044545,0.0010339599757499026
515282000000,236,515282000000,BR_wheel_link,0.00035234927234682745,0.16276840260223763,-1.0225388769235098,0.004069388134795529,-0.008348631615182506,-0.0008351391671090291
515283000000,237,515283000000,BR_wheel_link,-0.10608158660672976,0.037129166128144056,-0.6246444330705034,0.0004043370256509777,0.005812233229130289,-0.0027077989372718473
515284000000,238,515284000000,BR_wheel_link,0.05928263066514385,0.1539097949667916,-0.10495630413612725,-0.009146746486943858,-0.005386463369407632,0.0014700644824930853
515284000000,239,515285000000,BR_wheel_link,-0.0367125812816082,0.1200650940137101,-1.2373971407337527,0.00866297723437458,0.0021745974514084925,-0.0011828453749140426
515286000000,240,515286000000,BR_wheel_link,0.005072696109666821,0.007101744752092666,-0.20195251293354077,-0.006571193841466481,0.006150164835267794,0.0010333465825263094
515287000000,241,515287000000,BR_wheel_link,0.11686049405707154,0.14902045024291313,-1.190319794301606,0.0067269712468052845,-0.010500394765362285,0.0024798620758314884
515288000000,242,515288000000,BR_wheel_link,-0.018528737230718628,0.012987043975885779,-0.21214736168471188,-0.005810475514023855,0.006381639619841428,0.0010082554003308594
515289000000,243,515289000000,BR_wheel_link,0.010712081691043516,0.09550184657401345,-1.0271209729023967,0.005241690979894846,-0.0034439786706180076,-0.0009755639397719577
515290000000,244,515290000000,BR_wheel_link,-0.004768298385379571,0.009236563836021072,-0.22677229308367183,-0.0064253823843915476,0.00641971947467113,0.0005704999503275987
515291000000,245,515291000000,BR_wheel_link,0.03321580277385509,0.11198666197543142,-1.2611567785367837,0.007969028291898023,-0.008272484852168815,-0.0006175973051793745
515292000000,246,515292000000,BR_wheel_link,-0.01328298010410082,0.006553973238629826,-0.20679831195818854,-0.006025579466345717,0.006167764375029483,0.0006922980328228536
515293000000,247,515293000000,BR_wheel_link,0.011034583620757696,0.1012722115556759,-0.9816084219564554,0.004280438120181239,-0.004406676327096659,-0.0011346493906587238
515294000000,248,515294000000,BR_wheel_link,-2.9439620763802328,2.6317615818086706,10.48838097014518,-0.031918878821932645,0.2992375178836726,-0.08000232179908388
515295000000,249,515295000000,BR_wheel_link,0.06425603357796716,-0.2682327452894943,1.1159303534726301,-0.025868106504589306,-0.004509984819584631,-0.0037056844946140605
515296000000,250,515296000000,BR_wheel_link,-3.2815357963903806,5.153670075007916,14.56284686082616,0.07172963364485777,0.3290237087151323,-0.0824879210368484
515297000000,251,515297000000,BR_wheel_link,0.00201313965372496,-0.9996615252290723,12.543862429978434,-0.46833309315349037,0.03481959087940173,-0.0009850723733541861
515298000000,252,515298000000,BR_wheel_link,0.0756571876350971,-0.11240140753184577,-0.09499913995180165,-0.0068712657982483135,-0.008313091566576848,0.0024084842655732667
515299000000,253,515299000000,BR_wheel_link,0.27307895973611895,2.542062345299798,16.49741111426753,-0.20887153732410468,-0.03976785818913568,0.00909438266920062
515300000000,254,515300000000,BR_wheel_link,0.2685525836299726,-0.4935105127361469,0.48191352160443923,-0.07239932634261956,-0.028434887623266528,0.008054576513283906
515301000000,255,515301000000,BR_wheel_link,0.028274642952472548,-0.12009666308922207,0.09602121448353365,-0.03076695882267564,-0.0037443329817661176,0.0002262244455685684
515302000000,256,515302000000,BR_wheel_link,-2.592219413685149,2.6653795775119997,12.085261859132054,-0.0979108884154819,0.266099585617914,-0.07069048991995552
515303000000,257,515303000000,BR_wheel_link,0.06238304767492171,-0.2695478294178303,1.069871939554948,-0.027336139328652934,-0.008138815510078293,-0.003935269478693025
515304000000,258,515304000000,BR_wheel_link,-2.436487272003175,3.8081104396414562,12.295633889419625,-0.0007889004688229617,0.2429200440929838,-0.060255946339974165
515305000000,259,515305000000,BR_wheel_link,0.5101855792466108,-2.199180593049358,9.945764279545076,-0.5285677121755488,-0.02295303542877586,0.014234477083172653
515306000000,260,515306000000,BR_wheel_link,0.09735174949100854,-0.14952324887936044,-0.12508360990742426,-0.010377173003805059,-0.010771937729968482,0.0030238707603547276
515307000000,261,515307000000,BR_wheel_link,-0.23851884390556188,0.7330531087909513,12.873534371822668,-0.3062077977724521,0.01398547682844245,-0.006334381200485665
515308000000,262,515308000000,BR_wheel_link,0.030568214971161894,-0.06378111419411797,-0.21976519244728626,-0.011080804002824357,0.0025906501731768157,0.0012681027289786068
515309000000,263,515309000000,BR_wheel_link,1.7883594961816962,-1.0984997170098227,13.060927382157738,-0.4828888308892946,-0.1850424721389633,0.04630190851117502
515310000000,264,515310000000,BR_wheel_link,-0.07361981619002775,-0.038970603202259715,-0.27977722570364755,-0.012312128154274163,-0.013092364875560024,-0.00031011389930359057
515311000000,265,515311000000,BR_wheel_link,-1.9756094361864542,-0.2223419398025187,6.7639737782386335,-0.23664807834714346,0.2123065303552248,-0.052479388807773475
515312000000,266,515312000000,BR_wheel_link,0.051882220086768585,-0.29313077776776647,0.8114858592954107,-0.030387738811054214,-0.011031372229250356,-0.0036759771485909607
515313000000,267,515313000000,BR_wheel_link,-2.56011007334706,4.305024898930098,13.202526256434574,0.0241728283014451,0.25384668956513057,-0.06349806477665042
515314000000,268,515314000000,BR_wheel_link,-0.16608906533162227,-3.156277396092328,9.723935458231164,-0.6218738937755348,0.04995148534144417,-0.004920332555048262
515315000000,269,515315000000,BR_wheel_link,0.15268363462623685,-0.020099275238207953,-0.38582228744163904,-0.011784348941604364,-0.006324313816472421,0.004342060582767182
515316000000,270,515316000000,BR_wheel_link,1.5775708748747372,0.41671339373390626,11.604109287442128,-0.2904649871050069,-0.1803275487738931,0.04184149988472004
515317000000,271,515317000000,BR_wheel_link,0.07356023019916967,-0.04057509982527893,-0.2663518284234143,-0.011694209416040453,0.000927694554854335,0.0021320529937551135
515318000000,272,515318000000,BR_wheel_link,1.6070657227802558,-0.6291452962949424,11.554298893250941,-0.40061231814753584,-0.1800754284713456,0.04118243746629888
515319000000,273,515319000000,BR_wheel_link,0.060611223397800756,-0.09094660137592563,-0.019625676238625545,-0.00866548103348609,-0.007101263682353224,0.0018108587807200286
515320000000,274,515320000000,BR_wheel_link,-1.1692211264288583,0.4697559818244137,15.18823975606633,-0.3966539204643145,0.1149684999870538,-0.03274465136473265
515321000000,275,515321000000,BR_wheel_link,0.023063331150515464,-0.018669407417023554,-0.24938635962649577,-0.010250445357443998,0.005382566257598018,0.0011329991241535824
515322000000,276,515322000000,BR_wheel_link,0.14127805128653334,0.062454059711003956,0.275102859454198,-0.014076345488752483,-0.009385998250598182,0.0033725641736974668
515323000000,277,515323000000,BR_wheel_link,-0.598581443942503,4.031606327596888,21.226073450503797,-0.19489809312512557,0.05231528941606818,-0.014617456415305237
515324000000,278,515324000000,BR_wheel_link,-0.0197856876149088,-0.01550946958451185,-0.0097620440191096,-0.002139443344222007,0.0021149072585304805,-0.0005322478245753297
515325000000,279,515325000000,BR_wheel_link,0.11267467531280806,0.0071548538669109485,0.18108822510094563,-0.025226614621819007,-0.006099792528083613,0.002861083860191436
515326000000,280,515326000000,BR_wheel_link,-2.8043247237942475,2.668042466426413,12.553189327396248,-0.10480063908009207,0.2873226266650115,-0.0761802533296022
515327000000,281,515327000000,BR_wheel_link,0.04922990324395536,-0.2598589437482468,1.0553179458184294,-0.02789558233681523,-0.006975038146594042,-0.00403704959253637
515328000000,282,515328000000,BR_wheel_link,-2.542821624776617,3.9130666561773024,12.216058273028512,0.015386175730745855,0.25571129730955505,-0.06363717311647085
515329000000,283,515329000000,BR_wheel_link,0.14395131714454568,-2.62829731978303,9.359630165649483,-0.5583312282102331,0.016895213496027406,0.004600035757151183
515330000000,284,515330000000,BR_wheel_link,0.08232060227985728,-0.1602189468160472,-0.13103598226569188,-0.012094937176005332,-0.009011070613499051,0.002497147145825538
515331000000,285,515331000000,BR_wheel_link,-0.19833448393994824,1.3134497109850856,13.878266946442583,-0.2696723082460813,0.009996685078130951,-0.006067808625578991
515332000000,286,515332000000,BR_wheel_link,0.015494656486371997,-0.06337964500561287,-0.21375416525422186,-0.011264624847430977,0.0032895119292248075,0.0015617628185167073
515333000000,287,515333000000,BR_wheel_link,1.218493912344383,-0.3892171142269217,13.239851474207946,-0.41345537514480224,-0.12509960061068143,0.030697596690299797
515334000000,288,515334000000,BR_wheel_link,-0.01382807626778812,-0.10216346449209204,-0.185142029224093,-0.013589009466552957,-0.013015074409021749,0.00032108655257652956
515335000000,289,515335000000,BR_wheel_link,-0.847963680845498,0.29413571454270415,11.782951501992311,-0.3213356920387823,0.08379192494453543,-0.021541343539624794
515336000000,290,515336000000,BR_wheel_link,0.024530789408822622,-0.0008045624491187457,-0.13483625878828998,-0.015686983680613414,-9.62208322709459e-05,0.00019148451063440483
515337000000,291,515337000000,BR_wheel_link,-0.08141148305402313,0.6431198526757073,8.960398512580412,-0.20694172611148903,0.01099065544535266,-0.0031732748203325946
515338000000,292,515338000000,BR_wheel_link,0.010878547867341042,-0.005159402177940484,-0.17198488303565374,-0.014277502219326228,-0.0010759248281363354,0.0006955180038822581
515339000000,293,515339000000,BR_wheel_link,-0.25614896545211296,1.764467686563112,12.343730694731914,-0.1820874895548531,0.02989586709797795,-0.00820600304778404
515340000000,294,515340000000,BR_wheel_link,0.35142008375524214,-1.1892870668241091,3.711197056355397,-0.2444988971045119,-0.03167553171123405,0.010319961132635563
515341000000,295,515341000000,BR_wheel_link,0.0017472061693419097,-0.03186037800427037,-0.17880759739337965,-0.013401921671105878,-0.0031994620221909315,2.23733408969049e-05
515342000000,296,515342000000,BR_wheel_link,-0.5578604678099504,2.916192935993526,16.452422117692738,-0.16750190961272773,0.05568830471972352,-0.015672686505858815
515343000000,297,515343000000,BR_wheel_link,-0.0006551847253719496,-0.04517644596919444,-0.11331708020362552,-0.008454462343334322,0.005379656482223607,-0.00046892853654574573
515344000000,298,515344000000,BR_wheel_link,1.077400957316389,-0.37488329482359345,14.034150957817513,-0.4373211833650567,-0.10724682550829132,0.02841531054825547
515345000000,299,515345000000,BR_wheel_link,0.05776199743689749,-0.09525592951591462,0.030526739533441018,-0.011991130242094934,-0.007261408413977939,0.0019717900752571904
515346000000,300,515346000000,BR_wheel_link,-0.49016593769218075,2.094956704910854,16.394429316709143,-0.2536500566684472,0.047432363753874274,-0.014145988549336103
515347000000,301,515347000000,BR_wheel_link,0.009747920930488797,-0.11589295646041649,0.21054794975056007,-0.013462495223596074,-0.006018407292273323,-0.0009594690748138406
515348000000,302,515348000000,BR_wheel_link,-0.9506132385655123,0.144535784616459,11.30749752933759,-0.32719493340836786,0.101116801195662,-0.02439946735133525
515349000000,303,515349000000,BR_wheel_link,0.041360670209101585,0.005320224337786596,-0.13379813925994172,-0.01616055197251616,4.629234528229914e-05,0.0009231522591732261
515350000000,304,515350000000,BR_wheel_link,-0.01564941728697311,1.0136982478575378,9.738668043994796,-0.19062969769831137,0.005434331395272024,-0.0012246776891382746
515351000000,305,515351000000,BR_wheel_link,0.5305319401912969,-1.4419984332836222,4.002416693806984,-0.28126816693685797,-0.04930539039853131,0.014861658105999091
515352000000,306,515352000000,BR_wheel_link,0.009886778002069503,-0.03983187563535088,-0.18625377189681724,-0.014110282366768492,-0.004083586481940469,0.00014950507613081967
515353000000,307,515353000000,BR_wheel_link,-3.3787899610386214,-2.550499263353968,6.686162122315168,-0.48287274428998245,0.36716264565664136,-0.09260738448338882
515354000000,308,515354000000,BR_wheel_link,-0.7135671586833803,-0.5729700409927894,0.5172946157656624,-0.08348828529293326,0.08463556590831757,-0.019798700288578844
515355000000,309,515355000000,BR_wheel_link,-0.16873105759836662,-0.28508690175813367,-0.36648154984302844,-0.023401435339554588,0.0012418933171841687,-0.013990528445704992
515356000000,310,515356000000,BR_wheel_link,-1.7145451130681857,-0.3386284812989536,9.680040768293637,-0.3438109612556057,0.19336461793298376,-0.05007579769383462
515357000000,311,515357000000,BR_wheel_link,-0.09995595559206953,-0.1108766255482641,-0.706644780033979,-0.024720321184075716,0.019054396849560486,-0.0053076949712969786
515358000000,312,515358000000,BR_wheel_link,0.014549238188799147,0.02181598466727296,-0.0070453381267512084,0.00026306706309689036,-0.0006799811760088337,0.0002347672009940784
515359000000,313,515359000000,BR_wheel_link,-0.9753650424585122,-2.8654305263681774,13.547098268460935,-0.7264737770192322,0.14140958696725747,-0.026831135889956996
515360000000,314,515360000000,BR_wheel_link,-0.004678484653540552,-0.13807977622380319,-0.15870073164973564,-0.012422978194622646,-0.006230022975804592,-0.00136051232112074
515361000000,315,515361000000,BR_wheel_link,-2.6916178781978632,-0.9798472572124851,6.432857859139782,-0.3090944440609485,0.2930211186219893,-0.06972009520647901
515362000000,316,515362000000,BR_wheel_link,0.0069327429724489464,-0.30276195489810026,0.7829375970948157,-0.029543288823140806,-0.008585634319116122,-0.007693373144291147
515363000000,317,515363000000,BR_wheel_link,-0.9590679963216746,3.8845391256576782,21.30830250790315,-0.22096129691276886,0.0939200268992588,-0.023661037814159402
515364000000,318,515364000000,BR_wheel_link,-0.03094918278899332,-0.052444198192663626,-0.010934529720692959,-0.006400721945319441,0.003591097387428744,-0.0008177066748725152
515365000000,319,515365000000,BR_wheel_link,0.05841482935406022,-0.024121366218847307,0.04175972826176594,-0.025063381424531902,-0.003878115748644632,0.0016255034370560287
515366000000,320,515366000000,BR_wheel_link,-0.8977038071318917,2.6779132290199623,15.917990885374731,-0.19507235514347263,0.09098213458574113,-0.023414554323250472
515367000000,321,515367000000,BR_wheel_link,-0.013743117892756201,-0.09858774262513487,0.22005501077891393,-0.012535112282331664,-0.003267359248853763,-0.0011326675960909266
515368000000,322,515368000000,BR_wheel_link,-1.0201005502683458,-0.13287933814863545,8.639134450061634,-0.2803897867589599,0.10905388183041624,-0.026353673379247246
515369000000,323,515369000000,BR_wheel_link,-0.048754488263686314,-0.13719702441995696,0.13473958699318953,-0.018166434837426654,-0.0014586573371232082,-0.0027018972837039995
515370000000,324,515370000000,BR_wheel_link,-1.497435286665152,1.2569401770474138,13.924449188473364,-0.28630948446350923,0.16141607315086176,-0.03919594344624518
515371000000,325,515371000000,BR_wheel_link,-0.03751717075598294,-0.1151951095396902,0.18876887207261583,-0.014924606068190368,-0.001075048431421444,-0.0017162912122133324
515372000000,326,515372000000,BR_wheel_link,-1.3671259213993219,0.23495151184958818,10.667297902222614,-0.30164827313157255,0.14743946577816286,-0.035538977154669936
515373000000,327,515373000000,BR_wheel_link,0.1845832248589101,-1.2965484693101117,4.658274568754438,-0.27894937742517445,-0.011389559285772732,0.005354687289308359
515374000000,328,515374000000,BR_wheel_link,-0.02617537095097707,-0.020042079005320856,-0.5495114141905519,-0.016585883183187676,0.002770287807516452,-0.0006761982848377144
515375000000,329,515375000000,BR_wheel_link,0.01311144819014437,0.45544443495139736,10.371777567923058,-0.2570080316866278,0.001407280575868669,0.00026867876082377036
515376000000,330,515376000000,BR_wheel_link,0.014750413800050082,-0.07064720410070878,0.19395780971174642,-0.010835420960436964,-0.008517906474283226,-3.75673222447626e-05
515377000000,331,515377000000,BR_wheel_link,-2.044537257981659,2.4920180891365074,17.14464906572384,-0.23248000136678715,0.20835727644648938,-0.055544020269127324
515378000000,332,515378000000,BR_wheel_link,0.03790666908881413,-1.2909845097436587,2.1384425461075596,-0.20259552794692864,0.003382942356393165,0.0007428840030159244
515379000000,333,515379000000,BR_wheel_link,-0.005491582513559516,0.11083105678734761,-0.3654174332364538,-0.005092078043276148,0.0004554809838188314,0.0005668965935024756
515380000000,334,515380000000,BR_wheel_link,-0.348126464444775,2.9410213735653157,14.921564321833486,-0.11729344674747869,0.03222990743351074,-0.009209342626545934
515381000000,335,515381000000,BR_wheel_link,0.35015289444196074,-0.5775017313952174,5.070974298132953,-0.2093847753245169,-0.03341157973316082,0.009965660938697836
515382000000,336,515382000000,BR_wheel_link,-0.03138899940641595,-0.041670031604887935,-0.3687112848779124,-0.0144621551273415,0.000970383124872679,-0.0007276464174419681
515383000000,337,515383000000,BR_wheel_link,-0.2772450753759441,2.8085409231811465,14.225027631073413,-0.10873378460057359,0.02592044475305838,-0.00759110869323479
515384000000,338,515384000000,BR_wheel_link,0.25106649431918127,-0.5213027919498124,5.495617397776613,-0.2166290787198114,-0.02301574923723855,0.006943025066918166
515385000000,339,515385000000,BR_wheel_link,-0.04060769025690919,-0.05245803254217214,-0.419795610430706,-0.0148929505055195,0.0024786638142989285,-0.001478349650990166
515386000000,340,515386000000,BR_wheel_link,-0.40970084890917713,1.5925250205124128,13.121383388088372,-0.21311740195994938,0.04661846437856407,-0.011283924301084755
515387000000,341,515387000000,BR_wheel_link,0.013573756833624554,-0.05705353258672077,0.24074383769122593,-0.009440693906103472,-0.006619916178428098,-0.0002364470017226688
515388000000,342,515388000000,BR_wheel_link,-2.0180326997648077,1.5769132748357082,14.385214235579813,-0.2501821262521796,0.2079327115249945,-0.05520673895954893
515389000000,343,515389000000,BR_wheel_link,-0.099339263734192,-1.5231540203083331,3.4892952174305116,-0.26889717797799484,0.02223442783214638,-0.0028976298435112384
515390000000,344,515390000000,BR_wheel_link,0.00044337553590346156,-0.010245419862156508,-0.3885230897544339,-0.015138077133090743,0.0009841463711261532,0.00014422726787504295
515391000000,345,515391000000,BR_wheel_link,-0.1531221125127218,2.9380283512788337,14.109575609466013,-0.09187712069788365,0.011079693714927744,-0.004963551064020175
515392000000,346,515392000000,BR_wheel_link,0.3110727074262746,-0.4396298831379592,5.556636336004633,-0.20585972883409046,-0.029350442762823642,0.00927118902479343
515393000000,347,515393000000,BR_wheel_link,0.0370103621186092,-0.3099220831924172,-1.7617857222765756,0.007992900916618218,-0.008530791760951442,0.0021128453775491364
515394000000,348,515394000000,BR_wheel_link,-0.09150482059360862,-0.10296203037275486,-0.10045775191349002,-0.008207947061500314,0.006938232004117221,-0.0007660038916898823
515395000000,349,515395000000,BR_wheel_link,0.1073645137640585,0.14901429176920605,-0.6852281462699088,0.01965968855922382,-0.009974888388154697,0.0028400781647455694
515395000000,350,515396000000,BR_wheel_link,-0.3620146269657912,-0.5238577676893111,-0.2710716044249747,-0.03430681316330184,0.01873481216456016,-0.010600468223138891
515397000000,351,515397000000,BR_wheel_link,0.39716443366968585,0.43037215393420614,-1.290203611077774,0.04022280360531291,-0.021957561556521392,0.008418936675462604
515398000000,352,515398000000,BR_wheel_link,-0.3485399037841988,-0.49739968483558095,-0.19059405054403006,-0.03775791631420242,0.01605220655787887,-0.00892873542775196
515399000000,353,515399000000,BR_wheel_link,0.25244142175102735,0.3271423871369078,-1.1105881334809378,0.033408699398008196,-0.0168536535193222,0.005334316394591981
515400000000,354,515400000000,BR_wheel_link,-0.3161274812147991,-0.43027502999835654,-0.37706240046424555,-0.030821300037735477,0.020683996690200136,-0.007521172600362199
515401000000,355,515401000000,BR_wheel_link,0.3127881610474994,0.3469929149680923,-1.1138498634837122,0.03417159710309152,-0.018286371263727078,0.006791719741265532
