%time,field.header.seq,field.header.stamp,field.header.frame_id,field.wrench.force.x,field.wrench.force.y,field.wrench.force.z,field.wrench.torque.x,field.wrench.torque.y,field.wrench.torque.z
160616000000,0,160616000000,BR_wheel_link,23.35628716757013,22.68444389383459,4.620006402300238,0.0038003506543567486,-0.03363918876568239,0.42278204792349844
160617000000,1,160617000000,BR_wheel_link,-22.219567852730755,-22.50885956373913,5.30930589363087,0.010743623240719438,0.031445308130127324,-0.4228322193036931
160618000000,2,160618000000,BR_wheel_link,22.828286276842256,22.69919213957206,4.327286814902829,0.003762543927606311,-0.03212218879429366,0.4230324423213742
160619000000,3,160619000000,BR_wheel_link,-22.739544476019056,-22.60692302276626,5.293756213401067,0.005338246450194512,0.03599695857332774,-0.4228665731003252
160620000000,4,160620000000,BR_wheel_link,22.12223870328206,22.554800095728336,4.486861831374737,-0.004145720969718228,-0.03024080512707911,0.42274174764222255
160621000000,5,160621000000,BR_wheel_link,-23.06868441652997,-22.766319980531172,5.58409402904402,-0.0026015773787387195,0.036387267297066574,-0.42263195627849365
160622000000,6,160622000000,BR_wheel_link,21.933706487771104,22.450267665125242,4.798593218914791,-0.00908690958277536,-0.031662737919469115,0.4225416721673715
160623000000,7,160623000000,BR_wheel_link,-22.869804496810648,-22.81343659257475,5.799554990367316,-0.0040143088982779445,0.03362370997055993,-0.4227477614862548
160624000000,8,160624000000,BR_wheel_link,22.48177805701743,22.431539854861683,4.852320571720924,-0.0089933213652577,-0.033806969886469564,0.42276869112605897
160625000000,9,160625000000,BR_wheel_link,-22.412423973618885,-22.71017244552926,5.633599317578405,0.0016828566030426828,0.028868076703684555,-0.42271420124496495
160626000000,10,160626000000,BR_wheel_link,23.131530829450067,22.563555467505914,4.589883246196368,-0.002105521966429443,-0.03469710813949611,0.42264342095093493
160627000000,11,160627000000,BR_wheel_link,-22.076310664086293,-22.54789937788715,5.319784864561556,0.00965824335842548,0.028708820103487093,-0.422782083415395
160628000000,12,160628000000,BR_wheel_link,23.164396818663583,22.731727031078478,4.341809260501547,0.00617460553253244,-0.0343815607307145,0.4229607560101894
160629000000,13,160629000000,BR_wheel_link,-22.273681263665168,-22.50367155816247,5.309646246818426,0.010447157218610231,0.03452555721536741,-0.423121802538557
160630000000,14,160630000000,BR_wheel_link,22.492433485106304,22.65853824631608,4.4851444550913,0.0016764161304059248,-0.03198281519854928,0.42311159492512795
160631000000,15,160631000000,BR_wheel_link,-22.84088375475519,-22.6746089401501,5.68067891300201,0.001985927303738244,0.03774070021456498,-0.4227191763593183
160632000000,16,160632000000,BR_wheel_link,21.852701927045548,22.490348412507615,4.922483693575532,-0.007414522920179994,-0.03147302256128412,0.42265620724218833
160633000000,17,160633000000,BR_wheel_link,-22.949697582369037,-22.81984067183367,6.090225348209961,-0.004985453709946732,0.03774287925945529,-0.4225288789068477
160634000000,18,160634000000,BR_wheel_link,21.79978463105683,22.405618638193314,5.115165590156989,-0.010848157402500851,-0.03547304849121423,0.4223850546019215
160635000000,19,160635000000,BR_wheel_link,-22.40571904911438,-22.7964246364924,6.01931030319504,-0.002903738889780508,0.03468431865748864,-0.4226871920516823
160636000000,20,160636000000,BR_wheel_link,22.518619907557724,22.47275367022846,4.7365626798677445,-0.006805129060120067,-0.03723655237159145,0.422774158109374
160637000000,21,160637000000,BR_wheel_link,-21.995030071945667,-22.6381316628321,5.403747232508033,0.005137805517885276,0.029873133598428477,-0.42275434435705767
160638000000,22,160638000000,BR_wheel_link,23.145429447507116,22.627707548574577,4.124092378693347,0.0008662875251465986,-0.03649419011474912,0.4227312709451918
160639000000,23,160639000000,BR_wheel_link,-21.935043996290258,-22.490717738656894,4.920573374524969,0.01174396873598996,0.03214932626846713,-0.42283935705711356
160640000000,24,160640000000,BR_wheel_link,22.872629497599767,22.76010984369108,3.852632879675524,0.006634129284566009,-0.03501642572753528,0.4230948346160081
160641000000,25,160641000000,BR_wheel_link,-22.39721364867014,-22.517532575435837,5.031032440544,0.009556916391352139,0.03712652955870811,-0.42293269177968645
160642000000,26,160642000000,BR_wheel_link,22.13419317521219,22.655040056122765,4.255329514591234,0.0006572292553058255,-0.03355549281085953,0.4227814869954248
160643000000,27,160643000000,BR_wheel_link,-22.763677945975406,-22.73216034437465,5.727622492201825,-0.001240262719645547,0.04177177409545841,-0.42262395354088983
160644000000,28,160644000000,BR_wheel_link,21.41070250282711,22.464834962341484,4.945315541951949,-0.00892193770908883,-0.03583106539957719,0.4225351505012494
160645000000,29,160645000000,BR_wheel_link,-22.52964413065582,-22.870498939859775,6.380458417461104,-0.007341436830577328,0.04139525268844202,-0.42236997902909407
160646000000,30,160646000000,BR_wheel_link,21.590977741980986,22.351705985298832,5.453723909795004,-0.012858287551770216,-0.03964724209210946,0.4225375948811146
160647000000,31,160647000000,BR_wheel_link,-22.04460608890932,-22.808824297115827,6.239127451678133,-0.0031995833381336758,0.03570816348031639,-0.42281748124135793
160648000000,32,160648000000,BR_wheel_link,22.50581972216088,22.510088612608513,4.770643941326585,-0.004565338933460864,-0.040519690290254304,0.42257946250971146
160649000000,33,160649000000,BR_wheel_link,-21.587401764109263,-22.601394910877215,5.464665262862479,0.007429028661475709,0.032382494984418864,-0.4227121671197327
160650000000,34,160650000000,BR_wheel_link,22.94514691083896,22.7084174064854,3.995367224963042,0.00529104842236382,-0.03942426222330587,0.4228001381835036
160651000000,35,160651000000,BR_wheel_link,-21.6708273895642,-22.45060841023569,4.928697964562797,0.013384034557901206,0.036516347259128806,-0.4229254789749602
160652000000,36,160652000000,BR_wheel_link,22.44012656813323,22.784723674900384,3.6753726719626068,0.007893125035722894,-0.03837619167304013,0.423203306575528
160653000000,37,160653000000,BR_wheel_link,-22.24391801239359,-22.5569055807153,5.171308580648667,0.0074271097467129765,0.04517696378571252,-0.42292740029220105
160654000000,38,160654000000,BR_wheel_link,21.270790958236432,22.590979347747897,4.151619330115724,-0.002658241653475361,-0.03902262978513807,0.4227404267850442
160655000000,39,160655000000,BR_wheel_link,-22.332676739463,-22.7634766476817,5.87585396003931,-0.0028466872732126063,0.04472296495848747,-0.4226068930901601
160656000000,40,160656000000,BR_wheel_link,21.143635825449724,22.39908055516749,5.051453668948926,-0.012286140331622331,-0.03676876570705587,0.42246352385814856
160657000000,41,160657000000,BR_wheel_link,-22.432996035882265,-22.86814570833014,6.388585981902039,-0.00666792339535407,0.03857617027206731,-0.4224326348801316
160658000000,42,160658000000,BR_wheel_link,21.922685061823515,22.374102908874995,5.593963886791493,-0.01154893195471742,-0.03575902115444202,0.42266376052878585
160659000000,43,160659000000,BR_wheel_link,-22.314017614358995,-22.76123276940193,6.119490721837826,-0.0007653741701453744,0.028441330901887683,-0.4228867294399296
160660000000,44,160660000000,BR_wheel_link,23.265655370098642,22.512940337221487,4.924678933138767,-0.004419155296127833,-0.03588220724147937,0.4225926142782358
160661000000,45,160661000000,BR_wheel_link,-21.868037865200137,-22.560650614462578,5.35692313633115,0.009486956918304056,0.026124729484413828,-0.4226852422888569
160662000000,46,160662000000,BR_wheel_link,23.56194363088814,22.724023895977638,4.156199603243059,0.00590349226417768,-0.03413565879523652,0.4227938178047154
160663000000,47,160663000000,BR_wheel_link,-22.126751420315905,-22.43641886320971,4.884933637893928,0.014014687821865279,0.033141685206697795,-0.422826752982919
160664000000,48,160664000000,BR_wheel_link,22.53802368811325,22.791357971129866,4.055952775006425,0.00815837972035435,-0.02760794725510487,0.42315048269330124
160665000000,49,160665000000,BR_wheel_link,-23.31433760652129,-22.594675249737985,5.025508605056255,0.00556793053008676,0.03286334481150481,-0.4229375324915873
160666000000,50,160666000000,BR_wheel_link,22.30375253054223,22.524508817806826,4.655166423194256,-0.0060799761420212645,-0.026012961046026177,0.42267853875696143
160667000000,51,160667000000,BR_wheel_link,-23.520241812900185,-22.828928818153116,5.800875521987559,-0.005647962825419496,0.033760850523440605,-0.42256883600645395
160668000000,52,160668000000,BR_wheel_link,22.143518350699903,22.373046713618223,5.368341254507161,-0.01289839722790432,-0.02914014160761521,0.4224970750142832
160669000000,53,160669000000,BR_wheel_link,-23.093057292135267,-22.88504923983064,6.193142205101688,-0.007102231451796189,0.030566354405063296,-0.4226646737237995
160670000000,54,160670000000,BR_wheel_link,22.784500870607825,22.370418217741022,5.329083894199369,-0.01174096375224004,-0.03237201399559432,0.42266314556567247
160671000000,55,160671000000,BR_wheel_link,-22.4502385379665,-22.724756944257336,5.771080681125919,0.0015019539504091792,0.025154383038747265,-0.42267936779744925
160672000000,56,160672000000,BR_wheel_link,23.572652451249034,22.56968070901742,4.6246205020683355,-0.0015459964497639277,-0.033342450405096556,0.4225651477250854
160673000000,57,160673000000,BR_wheel_link,-22.083887262775335,-22.488091099724404,5.015991463863944,0.01294039113787817,0.025268985639980597,-0.42269876221127684
160674000000,58,160674000000,BR_wheel_link,23.559586471791548,22.812334471788635,4.013412668410809,0.010065832968754266,-0.03179948901947181,0.4228900087960962
160675000000,59,160675000000,BR_wheel_link,-22.48420291104582,-22.42210658883998,4.838613184733161,0.01430790560474363,0.03303704111285197,-0.423015844120058
160676000000,60,160676000000,BR_wheel_link,22.724258568667103,22.598608872959154,6.718615628069327,-0.0003285198501440113,-0.036766048082722526,0.42300034272682363
160677000000,61,160677000000,BR_wheel_link,-22.41097363949531,-22.64293646229983,5.252497060481383,0.003302556250301884,0.048413218134551836,-0.4225803081489809
160678000000,62,160678000000,BR_wheel_link,20.85333688952052,22.37881025938711,7.017774674257926,-0.012252119131751952,-0.04381416987932726,0.4225272429386186
160679000000,63,160679000000,BR_wheel_link,-21.97986371866834,-22.80534236218252,5.3982474358979715,-0.004507432409688556,0.05373552558245677,-0.42246463163466724
160680000000,64,160680000000,BR_wheel_link,20.36907610512987,22.299956883763254,6.799071297987075,-0.01442456284308155,-0.05094011351153684,0.42239002080092297
160681000000,65,160681000000,BR_wheel_link,-21.198472215020605,-22.750898550804187,4.994980301102905,-0.0016016014236688047,0.053266250877743934,-0.42263009766699544
160682000000,66,160682000000,BR_wheel_link,20.82384160429478,22.38590370132619,5.682633489639411,-0.009897976563079636,-0.05459841175105898,0.42271077866906576
160683000000,67,160683000000,BR_wheel_link,-20.622704230536282,-22.5655318945701,4.24069038547952,0.007571008794848961,0.04944827482626146,-0.42273476959889433
160684000000,68,160684000000,BR_wheel_link,21.40242440916826,22.5944843349742,4.548142660784826,0.00042902257376453484,-0.05559989363094457,0.4226918052694727
160685000000,69,160685000000,BR_wheel_link,-20.32585463144051,-22.367188080508452,4.003194250307447,0.016881393280334726,0.050350480287240894,-0.42288827430030484
160686000000,70,160686000000,BR_wheel_link,21.38094389919058,22.741008524594502,4.614289876301102,0.006721563483716626,-0.054761762948745275,0.4231888228520617
160687000000,71,160687000000,BR_wheel_link,-20.66530401795494,-22.398995018128847,4.523761079157048,0.014645600091149472,0.056027908285227496,-0.4230084562525958
160688000000,72,160688000000,BR_wheel_link,20.584309002843348,22.594096061666807,6.1171457135623495,-0.0014648825675393387,-0.054363522243633076,0.4228404308436695
160689000000,73,160689000000,BR_wheel_link,-20.760153286718996,-22.782181852918196,8.414604020579517,-0.0031688492173078523,0.05490024501737028,-0.42264715710199696
160690000000,74,160690000000,BR_wheel_link,20.417282950377007,22.349119429159973,7.499215643300704,-0.014051424121296875,-0.04803111113290284,0.4224808881312479
160691000000,75,160691000000,BR_wheel_link,-21.35662684238564,-22.960315482302462,8.876474033480527,-0.01029844797086196,0.049983664589450236,-0.42232963785365857
160692000000,76,160692000000,BR_wheel_link,20.885458380280017,22.318795573927936,6.974677898351631,-0.01310243341769281,-0.04494410580489505,0.4226570590213503
160693000000,77,160693000000,BR_wheel_link,-21.67925411804669,-22.814066644448733,7.293533237408858,-0.0027355905794467883,0.04183333447050767,-0.42291250452647744
160694000000,78,160694000000,BR_wheel_link,21.862238236518426,22.5552511467512,4.965238064907951,-0.0016511190416171925,-0.04173182943371719,0.42266908279301657
160695000000,79,160695000000,BR_wheel_link,-21.707885785546896,-22.547397769445777,5.195670005416128,0.009895246400862059,0.037140795459804386,-0.422777574586719
160696000000,80,160696000000,BR_wheel_link,22.348464789559287,22.77166910549693,3.3728648532653693,0.008188730415099389,-0.03896776368448738,0.422934205447827
160697000000,81,160697000000,BR_wheel_link,-21.91531525579116,-22.404116048993156,4.310428082145128,0.014796614262625173,0.03626383386525842,-0.42311526480015327
160698000000,82,160698000000,BR_wheel_link,22.40398407039699,22.769243975247946,3.3087344835784345,0.006787587784617557,-0.035772423319682785,0.4231849486554583
160699000000,83,160699000000,BR_wheel_link,-22.41230339366882,-22.554361578270715,4.913097117251891,0.007407398177801315,0.03664520645742946,-0.42292128615661334
160700000000,84,160700000000,BR_wheel_link,22.18570923373362,22.55789640903105,4.842615617713104,-0.004273412129050681,-0.03245816351814006,0.4227719810454529
160701000000,85,160701000000,BR_wheel_link,-22.774710624227392,-22.800853511992504,6.820603312819855,-0.004397260186402593,0.035073627505831824,-0.42265981771813294
160702000000,86,160702000000,BR_wheel_link,22.196778806395034,22.348677938537218,7.0502921184032905,-0.013731598983783068,-0.031750907982039084,0.4225618199675456
160703000000,87,160703000000,BR_wheel_link,-22.71722662901838,-22.939264740720713,8.429003603990521,-0.008960898433420364,0.03306951450050125,-0.42242598319328467
160704000000,88,160704000000,BR_wheel_link,22.512673817129446,22.33514525759977,7.911143905791649,-0.011990589314023924,-0.03465816350118875,0.4225988802736871
160705000000,89,160705000000,BR_wheel_link,-22.37134372865926,-22.788337207426796,8.206057849119064,-0.000449267697241988,0.03152693925216707,-0.42282691617423634
160706000000,90,160706000000,BR_wheel_link,22.86198276785222,22.579102776288437,6.692282181528449,0.0005781148997038053,-0.03598665550138733,0.42261769812813743
160707000000,91,160707000000,BR_wheel_link,-22.09338237342448,-22.525796071404915,6.658232114187381,0.012002200176344738,0.03325593373236087,-0.42269996794896536
160708000000,92,160708000000,BR_wheel_link,22.64969490903217,22.761458799004597,4.9259212993343,0.008290984929723612,-0.03563009615143221,0.4228652844239063
160709000000,93,160709000000,BR_wheel_link,-22.283276466020745,-22.463512190332295,5.41154810721616,0.012522063211129697,0.035900052658379075,-0.42304404624290703
160710000000,94,160710000000,BR_wheel_link,22.35605706856956,22.678493951859338,4.211418700749044,0.002378792952476085,-0.033493194215496944,0.4230503408853056
160711000000,95,160711000000,BR_wheel_link,-22.659171689371387,-22.643952332252557,5.110341949562246,0.0030338414367702547,0.035510834101231424,-0.42275403028009745
160712000000,96,160712000000,BR_wheel_link,22.222762611632294,22.5151312109743,4.502841689834069,-0.006653287336519784,-0.031564917328666314,0.42270975037853026
160713000000,97,160713000000,BR_wheel_link,-22.808300298038365,-22.783384133914694,5.702093134258655,-0.0037438550641376044,0.03233960727327478,-0.42262900780400264
160714000000,98,160714000000,BR_wheel_link,22.498895697701517,22.40625999397982,5.3592343019749205,-0.011241787854162867,-0.03053727382497525,0.4224980087196114
160715000000,99,160715000000,BR_wheel_link,-22.830711861741307,-22.853397381249575,6.439944148372957,-0.005386703343570913,0.030594466163181365,-0.4226681619301345
160716000000,100,160716000000,BR_wheel_link,22.79539687942877,22.40855814671906,5.964790674878459,-0.009373243243937334,-0.0297364619669369,0.4227644210090536
160717000000,101,160717000000,BR_wheel_link,-22.847988741476236,-22.752514951139464,6.741958526719832,0.0006672492849943416,0.028055446203478586,-0.42268303411791314
160718000000,102,160718000000,BR_wheel_link,23.09927372511694,22.598906667235475,6.04124157994209,0.0009989084597298147,-0.032126728066300396,0.4226208980921276
160719000000,103,160719000000,BR_wheel_link,-22.45898843377367,-22.480050927450954,6.872982760786236,-0.047715313425176216,0.030665283878461094,-0.4227300914812522
160720000000,104,160720000000,BR_wheel_link,22.836549673977025,22.69404979297985,6.267226344600379,-0.05230125905421329,-0.032864778458043344,0.4227516786916916
160721000000,105,160721000000,BR_wheel_link,-22.46889036940514,-22.69466180863833,7.685431059086831,-0.050295066577872555,0.03352038595947849,-0.42264876255130596
160722000000,106,160722000000,BR_wheel_link,22.411966127394088,22.23620413916254,7.721108771490396,-0.06303773390203969,-0.03217225083307156,0.42254276222348
160723000000,107,160723000000,BR_wheel_link,-22.534008947972023,-23.343858381677606,9.568903992445648,-0.04339055353673016,0.03326004098943947,-0.4223635164649649
160724000000,108,160724000000,BR_wheel_link,22.28085973581202,21.530179381911562,9.204830667603245,-0.012783193393139968,-0.03230605569138167,0.4220316555314825
160725000000,109,160725000000,BR_wheel_link,-22.440992711292136,-23.545446613468812,7.832710298715536,-0.0032000579005909214,0.0369411993927989,-0.4216498528962034
160726000000,110,160726000000,BR_wheel_link,21.62261243167558,21.633194104694265,6.455326459156906,-0.005678016654851027,-0.0329917661390769,0.4219359166817108
160727000000,111,160727000000,BR_wheel_link,-22.23347437724266,-23.61853172792426,7.650760595558812,0.0032527287557645446,0.030851751062053786,-0.42256677401613
160728000000,112,160728000000,BR_wheel_link,22.39578617483327,21.625469295533275,5.913340944914833,-0.0012001769913374486,-0.033558400673810954,0.4222118287093219
160729000000,113,160729000000,BR_wheel_link,-21.79281571310981,-23.61700350147317,6.994272973373953,0.006533607911824656,0.03055436343786664,-0.42252819951938386
160730000000,114,160730000000,BR_wheel_link,22.41650227772951,21.54639875748995,5.126819638850692,0.0013181806454684777,-0.03306362480674951,0.4225845472359906
160731000000,115,160731000000,BR_wheel_link,-21.736334054447735,-23.696660250437198,6.782507886047777,0.006641936054685839,0.030683151612965295,-0.42234969561745705
160732000000,116,160732000000,BR_wheel_link,22.23560870122602,21.428542691421736,4.844335978274029,-0.0004791925762722241,-0.0320429609375044,0.4225576559113397
160733000000,117,160733000000,BR_wheel_link,-21.82303013292885,-23.88266593703729,6.741266426884263,0.003853340813177626,0.031668583051422915,-0.42219752261488613
160734000000,118,160734000000,BR_wheel_link,21.91149539794263,21.22944222656431,4.7358620803435345,-0.0035298386894281465,-0.031621691692221295,0.4222454506103326
160735000000,119,160735000000,BR_wheel_link,-21.83562097495132,-24.076498245886924,6.813071403359959,0.001638441283614836,0.031929498181978606,-0.42194240524218585
160736000000,120,160736000000,BR_wheel_link,21.68386023586582,21.060378887952037,4.805948620422272,-0.004562908125815819,-0.03021285083537059,0.4221361102520234
160737000000,121,160737000000,BR_wheel_link,-21.95577830783466,-24.25798681070142,6.994150112386765,0.0005500035637444009,0.031308911231164596,-0.42197921103137326
160738000000,122,160738000000,BR_wheel_link,21.568226414717035,20.873579323624156,4.977266121054708,-0.005395724745751289,-0.02905221664809673,0.422049747293422
160739000000,123,160739000000,BR_wheel_link,-22.013110368333262,-24.450575816590412,7.273732116330388,-0.00013839882797087564,0.03074386054685459,-0.4219574950064147
160740000000,124,160740000000,BR_wheel_link,21.48243423305086,20.602146245173103,5.297398284679499,-0.00570152341312608,-0.029101879213648662,0.4216994756491439
160741000000,125,160741000000,BR_wheel_link,-21.854443724877328,-24.714077840485807,7.694872695887549,0.00011942302137608795,0.03068645995124534,-0.42183095887616695
160742000000,126,160742000000,BR_wheel_link,21.406420074252082,20.388736585641833,5.63079152170862,-0.005248964648485356,-0.02949011416946406,0.4217355554336867
160743000000,127,160743000000,BR_wheel_link,-21.689282456047327,-24.907922100387207,8.156092329699156,0.0010387664287719006,0.030799849049704973,-0.4218534602565795
160744000000,128,160744000000,BR_wheel_link,21.334465458980073,20.209392566136682,5.919700276630397,-0.0037768458215969485,-0.030821774112801834,0.4216554631158278
160745000000,129,160745000000,BR_wheel_link,-21.39491655395788,-25.05499594717449,8.595249105188042,0.003112581198446575,0.0315270822504624,-0.42172632882317035
160746000000,130,160746000000,BR_wheel_link,21.227264079304057,20.093622529891945,6.099599574186302,-0.001097277395407582,-0.033334193256139205,0.42152713059592056
160747000000,131,160747000000,BR_wheel_link,-20.932107436856683,-25.13840086890217,8.967527437468254,0.005859359141465076,0.03301893764768383,-0.42204622246400597
160748000000,132,160748000000,BR_wheel_link,21.10178318258422,19.975708511959876,6.185414936207638,0.0008720759273356735,-0.035588786741156564,0.422052219142925
160749000000,133,160749000000,BR_wheel_link,-20.553542469355197,-25.239422768210385,9.243290204778859,0.006819653411779063,0.03480265575917941,-0.42214771312356975
160750000000,134,160750000000,BR_wheel_link,24.75102511546494,19.407962746814203,3.5592931541497057,-0.08386381095403651,-0.037682739574627595,0.2514707680981456
160751000000,135,160751000000,BR_wheel_link,-1.2794708089865168,27.303491719653724,3.4990074290974653,-0.07230859452870309,0.03716369027605916,-0.041317049090622136
160752000000,136,160752000000,BR_wheel_link,-3.1215578597243967,-28.19268004409892,5.131630129189957,0.12141742187186012,-0.032338977398735126,-0.004268734734920419
160753000000,137,160753000000,BR_wheel_link,3.648177260545578,27.915691656751015,-0.41333953020698005,-0.051780153475314325,0.023683613067313702,0.011150091376936542
160754000000,138,160754000000,BR_wheel_link,-2.677008803916776,-27.17221152232975,4.2458440750286774,0.12639739427913121,-0.01874736446299589,-0.011780936708603787
160755000000,139,160755000000,BR_wheel_link,2.39910934569891,27.43935059805761,-0.7066032090551244,-0.06457764450471506,0.015724016916887178,0.01309822356285061
160756000000,140,160756000000,BR_wheel_link,-2.4903310761592876,27.715933881698273,-1.2142869163562702,-0.061601392290232204,-0.011671757136493658,-0.002030238653712835
160757000000,141,160757000000,BR_wheel_link,0.48750988594371714,-27.748270038779538,5.584461927237745,0.11825491296361053,0.007993587916803397,-0.011288337478790735
160758000000,142,160758000000,BR_wheel_link,0.04556886017618834,27.133263090697493,-0.7459006337563711,-0.06371889051382357,-0.006202563608955469,0.013472888698434686
160759000000,143,160759000000,BR_wheel_link,-0.13596885072659284,-28.31182337543241,6.468935279831606,0.1109011276034356,-0.00044552061582343216,-0.01292717738336018
160760000000,144,160760000000,BR_wheel_link,0.9479858560536345,26.290455265884955,0.6046530094550415,-0.07814018168161231,-0.002425905879858546,0.013090696302704265
160761000000,145,160761000000,BR_wheel_link,-0.4480479561251834,-29.10735808292719,7.8549904533201556,0.09681211930194844,0.0027983953522394893,-0.013857994173355374
160762000000,146,160762000000,BR_wheel_link,0.5065514583625497,25.94142942628174,0.501097551392481,-0.09083092126295453,-0.00016243938433378288,0.01384478196575505
160763000000,147,160763000000,BR_wheel_link,1.0802190792283748,-3.5243433400492323,3.1329970567144123,-0.040455513620411915,0.0018303747904422915,-0.09964315588710619
160764000000,148,160764000000,BR_wheel_link,8.230627049218777,24.308014596432418,3.433595172979924,0.004897939671912175,0.0026857685273217486,0.2845465437656045
160765000000,149,160765000000,BR_wheel_link,-22.16219929150015,-24.00777922701782,4.573366503283005,0.016699628561383382,0.003323792781197095,-0.4000640302149122
160766000000,150,160766000000,BR_wheel_link,23.009400919986085,21.642746133231356,2.2324032079678853,0.005260703664466059,-0.007473707421866312,0.41854169844023914
160767000000,151,160767000000,BR_wheel_link,-23.19289975577886,-23.72666199010373,5.372392309792352,0.011598920383343026,0.016512718077108118,-0.4213550013567747
160768000000,152,160768000000,BR_wheel_link,21.82880771534664,21.367129321892754,2.5734445967545594,0.0020712074526165916,-0.012117396197693904,0.4227281572346814
160769000000,153,160769000000,BR_wheel_link,-23.095743619563848,-23.814631570724355,6.280965989887141,0.011039868055422921,0.019930431042128726,-0.42329378032197734
160770000000,154,160770000000,BR_wheel_link,21.368651769141767,21.076480195522926,3.787791762395235,-0.00044774235016329007,-0.016222813162935515,0.4228420812175984
160771000000,155,160771000000,BR_wheel_link,-22.485722145141594,-24.18718720200456,8.118702298723553,0.008046309285879242,0.021066835242486204,-0.42333906903399177
160772000000,156,160772000000,BR_wheel_link,21.232579090464668,20.751731806939254,4.9149918300559445,-0.0038684080907991562,-0.018323910165465706,0.4227681482362828
160773000000,157,160773000000,BR_wheel_link,-22.033020029181518,-24.506836004826514,9.213545961469046,0.005451480634579919,0.020824772090855953,-0.4231484434915695
160774000000,158,160774000000,BR_wheel_link,21.28390370171139,20.504563727962967,5.382048070223289,-0.005918579557045472,-0.020454253196236977,0.4225264353741974
160775000000,159,160775000000,BR_wheel_link,-21.539276153431633,-24.708983686853514,9.497172706178095,0.004033236276138182,0.02050922053451523,-0.4228326141521309
160776000000,160,160776000000,BR_wheel_link,21.386957024453512,20.33421787958726,5.379951140900372,-0.007126836436775602,-0.022121346257399793,0.4224320967357857
160777000000,161,160777000000,BR_wheel_link,-21.1049469597817,-24.89118890352763,9.606821762672409,0.002278984431137017,0.019306953407184767,-0.42267909277444576
160778000000,162,160778000000,BR_wheel_link,21.617634955087937,20.15505161908763,5.398602597709625,-0.0084444806483655,-0.022931281444057556,0.42246268931541014
160779000000,163,160779000000,BR_wheel_link,-20.77632559757131,-25.063118508944548,9.705477842603857,0.0006771834256142422,0.018080314456736052,-0.4224385049699405
160780000000,164,160780000000,BR_wheel_link,21.905490156347106,20.962565369291234,5.23107908462467,-0.011174094473356268,-0.020676577568655367,0.42386616349467265
160781000000,165,160781000000,BR_wheel_link,-21.30639644227936,-24.13762791793042,9.470763872671169,-0.002066493108642806,0.015780679819392567,-0.4229247937814848
160782000000,166,160782000000,BR_wheel_link,21.991877129237466,20.95219813546011,5.348764612011403,-0.010095645876233822,-0.018128825482585473,0.42349164592472244
160783000000,167,160783000000,BR_wheel_link,-21.54039025022421,-24.14064894917123,9.31400298911672,-0.0009204656773370967,0.013179006444076848,-0.42317085489396894
160784000000,168,160784000000,BR_wheel_link,22.215430375293998,20.934220548817603,5.242438050311034,-0.008714694144799303,-0.016964359087165936,0.42361571330307257
160785000000,169,160785000000,BR_wheel_link,-21.562287870762372,-24.13131672852601,9.012074236799695,0.001034615076088056,0.011225576175495982,-0.42318917281175117
160786000000,170,160786000000,BR_wheel_link,22.390177523856643,20.928746274649935,4.718579243081734,-0.00636690687819977,-0.015801706825825372,0.42368182359796
160787000000,171,160787000000,BR_wheel_link,-21.622380736726235,-24.055741990375783,8.241027049264225,0.003829806236612087,0.010329680398362132,-0.4231185965812205
160788000000,172,160788000000,BR_wheel_link,22.398586582263047,20.927007980256015,3.914664908241155,-0.003728363748049517,-0.014700177294933807,0.42364959353371595
160789000000,173,160789000000,BR_wheel_link,-21.71252484253458,-24.016395175270834,7.391191525001991,0.00643470499143666,0.010247429632023774,-0.4231755636381268
160790000000,174,160790000000,BR_wheel_link,22.281675418796684,20.915123095516844,3.0370300883284145,-0.0015187312761432978,-0.013382593485149946,0.42361557164856367
160791000000,175,160791000000,BR_wheel_link,-21.866245458130606,-24.04256914131122,6.738414822452279,0.008807108088994233,0.01179517045947466,-0.42346861512635964
160792000000,176,160792000000,BR_wheel_link,25.824910739796398,20.336545366242508,-0.3434988314747975,-0.08421510888416019,-0.017380182982632764,0.2530774095616839
160793000000,177,160793000000,BR_wheel_link,-0.8131256835212165,-0.5964731073602758,2.308145155830484,-0.029848801744398332,0.0229328233828836,-0.13765076454882944
160794000000,178,160794000000,BR_wheel_link,6.285842332669182,25.15156398503931,-0.45624072986669706,0.01374548991185369,-0.00866488493529646,0.2892424519703956
160795000000,179,160795000000,BR_wheel_link,-21.17830196246581,-22.809422503122455,2.854310489221065,0.025546430261737356,0.006665915576200047,-0.401602378254325
160796000000,180,160796000000,BR_wheel_link,22.036011078114747,22.804877565536874,-1.5076958216507816,0.01496584306000133,-0.000999772987952403,0.4199950432156578
160797000000,181,160797000000,BR_wheel_link,-23.819446649450818,-21.9517992553341,2.8248272881800833,0.02461310987578472,0.003418715506112633,-0.4236797052934062
160798000000,182,160798000000,BR_wheel_link,22.777492342469365,22.809701616391695,-1.0935301328647247,0.009356538760760267,0.0013681542580441836,0.4221856762366758
160799000000,183,160799000000,BR_wheel_link,-23.799110376518357,-22.271012865976555,3.4652394934769766,0.017294864268530538,-9.812290957680273e-05,-0.42352751673267863
160800000000,184,160800000000,BR_wheel_link,23.273885791259243,22.64925648408511,0.17912855308782302,0.005807306438420813,0.0060825782576142485,0.42325360903674425
160801000000,185,160801000000,BR_wheel_link,-24.119343846943195,-22.422391597910654,5.036372612634478,0.014450930697904405,-0.0055262771397408235,-0.42334143376194316
160802000000,186,160802000000,BR_wheel_link,23.739091896801845,22.504571348336206,1.3730458951223505,0.004675810442393315,0.007053578782611631,0.4230285108309274
160803000000,187,160803000000,BR_wheel_link,-23.985308983126547,-22.5435111561205,5.498544161899847,0.014530845657604177,-0.006024306732820407,-0.4231069352988105
160804000000,188,160804000000,BR_wheel_link,23.692257244435687,22.398877067542575,1.451748571648266,0.005009990942016068,0.007350965429640766,0.4229705102950571
160805000000,189,160805000000,BR_wheel_link,-23.969583533721575,-22.663318916849008,5.6956910055404775,0.013584929114799596,-0.003466632133844666,-0.4232874631914505
160806000000,190,160806000000,BR_wheel_link,23.1976991537955,22.23063612954774,1.8603068656757544,0.0012377626884730833,0.008814281411137907,0.42269755091056604
160807000000,191,160807000000,BR_wheel_link,-24.16690742913001,-22.855251872867022,7.43551147001807,0.006924214566326653,-0.0024481436490848114,-0.4232982564893337
160808000000,192,160808000000,BR_wheel_link,22.91538605089429,21.989442336945977,4.479725215823697,-0.007332019296776844,0.006162295454001972,0.42282213953353176
160809000000,193,160809000000,BR_wheel_link,-23.73681982188542,-23.12148195892927,9.803362765782806,0.0007658976240334664,-0.00330592233158162,-0.42321686672714254
160810000000,194,160810000000,BR_wheel_link,23.0392619058555,21.74547212692797,5.263706538986306,-0.009307606484695165,0.0040401555219464385,0.42290859320771956
160811000000,195,160811000000,BR_wheel_link,-23.307348497652818,-23.380730301519655,10.02774623690751,-0.0012694284476874515,-0.0028025215811286817,-0.4231397528396397
160812000000,196,160812000000,BR_wheel_link,23.028494086903095,21.528030097812874,5.307011600336588,-0.009113191408824087,0.0008689648233603846,0.4230637792753231
160813000000,197,160813000000,BR_wheel_link,-22.787331666896357,-23.646705383089973,10.26324591022614,-0.003448643796488934,-0.0013978430876957538,-0.42304182524459194
160814000000,198,160814000000,BR_wheel_link,22.960917291655615,21.329206582214937,5.322291766382055,-0.007999316005651395,-0.003815029735194789,0.42319858326047505
160815000000,199,160815000000,BR_wheel_link,-22.09354401561005,-23.855114152536856,10.564000297650356,-0.003554861487530523,0.0016406280606739894,-0.42299268510782173
160816000000,200,160816000000,BR_wheel_link,22.680649031662142,21.112861902262736,5.3137949231805095,-0.007718977687448202,-0.006909436844042364,0.42341199648219074
160817000000,201,160817000000,BR_wheel_link,-21.56059072693696,-24.00579341434223,10.782447324200175,-0.0013912012308864342,-0.0006531023624183166,-0.423124397437854
160818000000,202,160818000000,BR_wheel_link,23.046960704140496,20.90082329255546,5.45622277102284,-0.007202293436493319,-0.004802045282281707,0.4237835439163027
160819000000,203,160819000000,BR_wheel_link,-21.65717156499221,-24.10525212588976,10.484978222041773,-7.375559989948703e-05,-0.0011263792467818832,-0.4229553125970078
160820000000,204,160820000000,BR_wheel_link,22.989865984807803,20.754361102090645,5.338985525767678,-0.005944107811222873,-0.004567906893138108,0.4236610622744245
160821000000,205,160821000000,BR_wheel_link,-23.556950829631234,1.7632535673476928,6.77434766802203,-0.04080774418672515,0.003971623886713071,-0.3374680795898878
160822000000,206,160822000000,BR_wheel_link,14.918020299385878,22.622851593392404,1.1981885275076973,-0.08492334273375904,-0.016358074845937823,0.1540276183232704
160823000000,207,160823000000,BR_wheel_link,-0.8739919509425454,-27.389221194946856,8.653327975404437,0.10252246685646524,0.02007744876628079,-0.038238706656635105
160824000000,208,160824000000,BR_wheel_link,-0.7772807071416762,26.738462576754987,-2.7319199091819417,-0.07090545366865407,-0.015047433850978889,0.019267253545356095
160825000000,209,160825000000,BR_wheel_link,3.0787393862311747,-27.781340554433946,5.83700490090738,0.05093280144312483,0.0036134181977404527,-0.12825424032479107
160826000000,210,160826000000,BR_wheel_link,11.598509411289838,24.772235710845138,-0.45303741377364637,0.014679069341304238,0.008941857773518453,0.31654740620590216
160827000000,211,160827000000,BR_wheel_link,-22.020990796737067,-23.124810939032006,4.8221459716140425,0.019945570826958504,-0.013581318903396472,-0.40527144006677973
160828000000,212,160828000000,BR_wheel_link,23.433576439083897,22.145548931545452,0.1757867647663568,0.012832903202833116,0.013892269188144398,0.4203724128776554
160829000000,213,160829000000,BR_wheel_link,-23.791319022818097,-23.02871684265931,5.860764398222524,0.017348430762163792,-0.010102780178994037,-0.4226925863748106
160830000000,214,160830000000,BR_wheel_link,23.003930908581033,21.603192254285872,1.4500677330492895,0.009347084704864684,0.010263402016564841,0.42302223488496643
160831000000,215,160831000000,BR_wheel_link,-23.22394967021714,-23.573740575765147,7.869522908463535,0.014479265411495098,-0.009999402898284446,-0.42362397028602805
160832000000,216,160832000000,BR_wheel_link,24.89699668947104,20.955681144636372,1.1174106407992477,-0.033506600816111336,0.0036664601818820843,0.3414420245817636
160833000000,217,160833000000,BR_wheel_link,-13.529008558396816,-0.4547555777419777,4.596051346870317,-0.028367204560779187,0.004303478476937977,-0.24544582113349883
160834000000,218,160834000000,BR_wheel_link,9.565120959334514,23.76087529969274,2.2036569931642376,0.007831474659876964,0.0027215947882157786,0.3110897393363986
160835000000,219,160835000000,BR_wheel_link,-21.10929172802124,-24.167469870807373,8.214180603959411,0.014108208212466096,-0.008873547993192185,-0.4046610873155874
160836000000,220,160836000000,BR_wheel_link,22.530753924187547,21.192147664317538,2.450824825937061,0.007846193556251388,0.010792987033635093,0.4199867912258128
160837000000,221,160837000000,BR_wheel_link,-23.06464685658576,-23.800036466062735,8.371078510740617,0.01376616149696547,-0.0074486154614564785,-0.4229974200937846
160838000000,222,160838000000,BR_wheel_link,22.42836656927369,21.001248520393723,2.4633578170463593,0.0069239928622636246,0.009522446129742478,0.42308457708558
160839000000,223,160839000000,BR_wheel_link,-22.939369944502786,-23.919956939539706,8.965220691588703,0.01190330391164603,-0.005050041547964175,-0.4238016476026549
160840000000,224,160840000000,BR_wheel_link,22.07912564331239,20.82491338330615,3.4029268585719574,0.0030086282453680733,0.0059655137652840085,0.4234386649565949
160841000000,225,160841000000,BR_wheel_link,-22.43179198904983,-24.129221791901887,10.311740362612912,0.007024505947163952,-0.0025996407225907588,-0.42390040456825917
160842000000,226,160842000000,BR_wheel_link,25.70941009391539,19.8947151848593,1.8585452299729073,-0.08767089932467655,-0.009488010977563929,0.25347506868648184
160843000000,227,160843000000,BR_wheel_link,1.5151237607321963,-28.857296356345614,11.009275590089146,0.006852719116226491,0.012221284870167734,-0.22536981231635156
160844000000,228,160844000000,BR_wheel_link,18.449792099864695,21.403193608287832,3.7473354359176256,0.005530498502102801,0.0007672796981868208,0.3899199867197471
160845000000,229,160845000000,BR_wheel_link,-21.200772128203365,-24.280239164180564,9.897800897647693,0.013037594390343169,-0.006035114847780578,-0.41798046827643864
160846000000,230,160846000000,BR_wheel_link,22.464208042475654,20.678485293610823,3.1970416976349347,0.00863392749977808,0.004441059689352824,0.4231303279813041
160847000000,231,160847000000,BR_wheel_link,-21.8299736122875,-24.13610310630727,9.561472433621958,0.014800639753850152,-0.006731276187975849,-0.4235270036248216
160848000000,232,160848000000,BR_wheel_link,22.485930776250182,20.621735602855537,2.9244270604681635,0.009018416771984318,0.0042288779158447575,0.42410604709802896
160849000000,233,160849000000,BR_wheel_link,-21.70074802282053,-24.206496814249675,9.650814384125537,0.013552648749812194,-0.006409305146544043,-0.4237541651228199
160850000000,234,160850000000,BR_wheel_link,22.37280276006884,20.437343283559382,3.08095887928413,0.005520224208278161,0.002931499800108299,0.42402409590963464
160851000000,235,160851000000,BR_wheel_link,-21.41060619296459,-24.462993958247445,10.184494677792227,0.007927705321178738,-0.004519877124082157,-0.42337064376056605
160852000000,236,160852000000,BR_wheel_link,25.944790350463347,19.41861343901599,0.938469321726892,-0.0864478500111813,-0.010858652977056658,0.25381602430938177
160853000000,237,160853000000,BR_wheel_link,-2.086070314658524,26.73160288512446,0.7141495003486878,-0.07948513213275925,0.024807822785377895,-0.04430740714157043
160854000000,238,160854000000,BR_wheel_link,-2.2532473601875136,-28.458693228116196,8.982267144515538,0.10599663376618519,-0.02504800624208789,-0.0012094809980695796
160855000000,239,160855000000,BR_wheel_link,3.0638453975091555,26.257338007275358,-1.387925814123058,-0.0708866686141427,0.018758555972182636,0.009676448216485051
160856000000,240,160856000000,BR_wheel_link,-2.2890804303096584,-28.143446996820877,8.92753770931985,0.10624972710080355,-0.014293326579358629,-0.010911506848641865
160857000000,241,160857000000,BR_wheel_link,1.9886199688367647,26.257535349213573,-1.8312980667919108,-0.07019718194734925,0.01163250439696793,0.011869429904154407
160858000000,242,160858000000,BR_wheel_link,-1.7772476133672066,-28.295619477803218,9.569131439362184,0.10471456853172037,-0.009149150211126023,-0.012251707547780911
160859000000,243,160859000000,BR_wheel_link,1.55275997020607,25.812790671015684,-1.1112424532822183,-0.07402142371512145,0.006980583402319461,0.012439168128555377
160860000000,244,160860000000,BR_wheel_link,-1.5497419777774306,26.122200038427366,-1.326401352481144,-0.07216461960213337,-0.005224732979263465,-0.0016747636087793563
160861000000,245,160861000000,BR_wheel_link,0.03050430361582506,-28.535780130567577,10.613310083366715,0.10353343240965032,0.001968072310553603,-0.011053102880342202
160862000000,246,160862000000,BR_wheel_link,0.5659247464699767,25.741009156341114,-1.2296440856780089,-0.0720025239210553,-0.0017092204943366532,0.013358494837494073
160863000000,247,160863000000,BR_wheel_link,-0.4486999151665591,-28.639299961742253,11.061568011154495,0.10290227308220251,0.000423172029621196,-0.013469945970809773
160864000000,248,160864000000,BR_wheel_link,0.7329597880958814,25.618210062755235,-1.0353496604826595,-0.0731301291569969,-0.0007865993691787478,0.013581548259414482
160865000000,249,160865000000,BR_wheel_link,-0.5297406632053218,-28.776314286020874,11.578317231987313,0.10340433397896309,-2.444465181097546e-05,-0.01330334412408485
160866000000,250,160866000000,BR_wheel_link,0.7093472184571784,25.52737215666247,-0.9945008322921173,-0.07535054459344609,0.001190417360907024,0.013707280923267198
160867000000,251,160867000000,BR_wheel_link,1.0806318252379774,-2.5188191558918263,4.00369826631392,-0.02863128840956644,-0.011157808932907782,-0.09425286398921719
160868000000,252,160868000000,BR_wheel_link,8.607064443650549,23.682871279138638,2.7360319973595617,0.009903801215174144,0.020479417504484353,0.27728197216229444
160869000000,253,160869000000,BR_wheel_link,-21.24121499591069,-24.98503922785497,9.503932484918375,0.013959270655521045,-0.032140054202118615,-0.396578702413859
160870000000,254,160870000000,BR_wheel_link,24.211650705150458,20.409195816622635,2.8947280179230166,0.008550096501203096,0.02665219400550762,0.41737867708442095
160871000000,255,160871000000,BR_wheel_link,-23.041985322702715,-24.423492314337807,9.748123428199518,0.013871145494179253,-0.027212027902572506,-0.4203782825374967
160872000000,256,160872000000,BR_wheel_link,23.777110931367872,20.26696846254322,2.784361674242323,0.007746279553492918,0.025661633914145582,0.4213935485083787
160873000000,257,160873000000,BR_wheel_link,-23.146519099564514,-24.462748744969588,9.912791244840706,0.010772792935822294,-0.021288532458106236,-0.4221551059731443
160874000000,258,160874000000,BR_wheel_link,22.855082559209055,20.162609132456797,2.6337362762968275,0.004824449311218297,0.024344128894557407,0.42166337242599666
160875000000,259,160875000000,BR_wheel_link,-23.204857217296144,-24.520542299740953,10.109817408525712,0.008250123544200185,-0.015271032497128656,-0.4232102419051239
160876000000,260,160876000000,BR_wheel_link,21.900378957336773,20.04152420345724,2.4510941462483418,0.0009934868709565849,0.022396009299772687,0.4217618689361159
160877000000,261,160877000000,BR_wheel_link,-23.13199732678412,-24.619141925891103,10.256036099907107,0.005091609700728,-0.012044590707005072,-0.423641078945358
160878000000,262,160878000000,BR_wheel_link,21.398637869045814,19.943098002108893,2.3053273849532503,-0.0022370885484084588,0.01925530293207288,0.42180739436752634
160879000000,263,160879000000,BR_wheel_link,-22.728510696172194,-24.72418086961449,10.386947739005855,0.0021740036174682023,-0.01095629086511583,-0.423747914292404
160880000000,264,160880000000,BR_wheel_link,21.361694734236423,19.88374593151626,2.672350135170824,-0.006136978353406866,0.015711192006425317,0.4219147665240234
160881000000,265,160881000000,BR_wheel_link,-22.079580818735433,-24.751761209287935,11.261791982596044,-0.0015851636017641274,-0.012397938017358928,-0.4232363147959063
160882000000,266,160882000000,BR_wheel_link,21.764530449646813,19.89680627115224,3.4196145072307162,-0.008785696896493639,0.014114166998320184,0.42216009944184457
160883000000,267,160883000000,BR_wheel_link,-21.60947147505602,-24.72318945013774,12.04984504685364,-0.0032379003317826497,-0.01474857190276738,-0.4227653876170728
160884000000,268,160884000000,BR_wheel_link,22.257132654990865,19.933616303131483,4.097474056581219,-0.009289595271084127,0.013799396559366841,0.42255754148065783
160885000000,269,160885000000,BR_wheel_link,-22.465015611757398,1.7709635318700656,7.935992712288753,-0.02825104796847719,-0.013421235525408453,-0.3710719823376781
160886000000,270,160886000000,BR_wheel_link,17.58940671982254,20.953365891527465,2.9549036787985297,-0.047554300731828446,0.004148416817773237,0.2829819560902872
160887000000,271,160887000000,BR_wheel_link,-9.666710241567028,-26.92465196628142,12.503725113228095,0.0035026185676709488,-0.010898067803832562,-0.3176314204749956
160888000000,272,160888000000,BR_wheel_link,21.125257454752223,20.46432251845438,3.9366584332544887,0.0008542670406179681,0.01737291261451348,0.4054620563789019
160889000000,273,160889000000,BR_wheel_link,-21.599967464262186,-24.478971224471753,11.624483891653488,0.008490052671233598,-0.025531107642938464,-0.4188017112615831
160890000000,274,160890000000,BR_wheel_link,23.556962482947412,20.080349455313943,3.432022699274381,0.005120462068894424,0.018102970532821193,0.42274573136123517
160891000000,275,160891000000,BR_wheel_link,-21.568240006272063,-24.419695826989198,11.305804504616415,0.012050951844915078,-0.025686637179244673,-0.42146950163459607
160892000000,276,160892000000,BR_wheel_link,23.580773087585612,20.00033498409257,3.1207836380151712,0.007451894808051016,0.01870840884667277,0.42335079654911495
160893000000,277,160893000000,BR_wheel_link,-21.586191825449294,-24.507870419130988,11.337812879703073,0.012979895448607252,-0.024646674944850944,-0.42163782828893615
160894000000,278,160894000000,BR_wheel_link,27.173313374707945,19.18906673114849,0.2631204559902097,-0.07672368759238621,0.0027241148838187397,0.2541962794566474
160895000000,279,160895000000,BR_wheel_link,-2.6849425093940424,26.594105516274627,-0.8130984900844164,-0.07370000130121586,0.01627613953794575,-0.044678871134970884
160896000000,280,160896000000,BR_wheel_link,-1.439732032570795,-28.296741083598373,9.548108900532636,0.10115704716937035,-0.022305165847367293,-0.0014277035896237925
160897000000,281,160897000000,BR_wheel_link,3.10071904688307,26.20053557509238,-3.810990019045587,-0.07385216228572163,0.015459914585315366,0.010182345850036191
160898000000,282,160898000000,BR_wheel_link,-1.919264262403797,-27.00541959337117,7.495344661941905,0.10325587350140712,-0.010374869007007266,-0.00972204226301956
160899000000,283,160899000000,BR_wheel_link,1.4018082505932266,26.920077926802723,-5.656041081055169,-0.07248582215684485,0.00929741564791745,0.011617978309402546
160900000000,284,160900000000,BR_wheel_link,-1.7906248112036802,-27.017642559285502,8.179571322893786,0.1006926229727395,-0.004460242597286473,-0.01161400044194224
160901000000,285,160901000000,BR_wheel_link,0.5915045976695213,26.771645517607336,-5.648727253695707,-0.08055142647154205,0.00781912257108423,0.010740685297810007
160902000000,286,160902000000,BR_wheel_link,-2.026938092133625,27.021886988816213,-5.881304967633829,-0.08220348818373974,0.001698296392212893,-0.0023408816112154007
160903000000,287,160903000000,BR_wheel_link,-1.1827395388821398,-27.271748852694095,8.453401435970957,0.09419391277897368,0.0025348329755382924,-0.011637405015460085
160904000000,288,160904000000,BR_wheel_link,-0.08949648917111969,26.69234401806773,-5.958093280739225,-0.08098503773803525,0.005626456026954913,0.011702190573952718
160905000000,289,160905000000,BR_wheel_link,-1.6797162070682414,-27.17297159341506,8.436855804129372,0.09430699179793867,0.002152934149192502,-0.014060699140455893
160906000000,290,160906000000,BR_wheel_link,-0.03507632736490712,26.77350467266531,-5.900626561651946,-0.0798937722956744,0.004122682835864016,0.012514831724666631
160907000000,291,160907000000,BR_wheel_link,-1.4830940743741106,-27.0646560202567,8.9950909849381,0.09660207365883594,0.0026551371606846445,-0.014389517206562284
160908000000,292,160908000000,BR_wheel_link,-0.028165521242315344,26.84723056959996,-5.23462905950478,-0.07734172401922333,0.003525790201515993,0.012940590006214921
160909000000,293,160909000000,BR_wheel_link,-1.3701781210156212,-26.96147276623384,9.971842847347808,0.09919439348246194,0.00022316813809549813,-0.013713549537764942
160910000000,294,160910000000,BR_wheel_link,0.35541896962290453,26.867440653014604,-4.811115150512284,-0.07405166783733415,-0.0004189348124536376,0.013840159334275383
160911000000,295,160911000000,BR_wheel_link,-0.8624520600049314,-26.840495378942272,10.532874498063505,0.10481248806689278,0.0039730038602910495,-0.014691432472610812
160912000000,296,160912000000,BR_wheel_link,-0.09993456189241261,26.93582568322469,-4.642755278683506,-0.06821271846875938,0.0026831520564327615,0.013291010046928576
160913000000,297,160913000000,BR_wheel_link,-1.3596492522823733,-26.773075055106602,10.65867676529963,0.10837916724622172,0.0029828619951653246,-0.015417281844908724
160914000000,298,160914000000,BR_wheel_link,-0.00838899501370283,26.894204153526168,-4.62689517370326,-0.06596040157110031,0.0018630847491648947,0.01447801341121599
160915000000,299,160915000000,BR_wheel_link,-1.3847253662673527,27.370282009611255,-4.734168293364655,-0.059828620544531204,-0.003556975566944997,-0.001641065808545716
160916000000,300,160916000000,BR_wheel_link,-0.3728426516270149,-26.68752088307617,10.961598398582323,0.11455572237429908,0.003977803524342095,-0.013982192272220683
160917000000,301,160917000000,BR_wheel_link,0.16385060989952932,26.87764711615814,-4.460842755931706,-0.061999351175957375,-0.001661590009263958,0.01646910852771418
160918000000,302,160918000000,BR_wheel_link,-0.8101358842766514,-26.516824280128112,11.6364227072306,0.1148574683923714,0.002629173976917421,-0.017337874559681492
160919000000,303,160919000000,BR_wheel_link,0.478433963534523,26.864250712939235,-3.278497858632999,-0.06950483753778139,-0.008797991907866067,0.01872132615912623
160920000000,304,160920000000,BR_wheel_link,0.3181624661439713,-26.52430743407656,12.988638505959026,0.10683512328394028,-0.0010942980996639453,-0.0164975774625269
160921000000,305,160921000000,BR_wheel_link,1.1911033578427646,26.493579936332598,-2.9563965897910616,-0.08385472071831274,-0.00616809061978554,0.018060109267306865
160922000000,306,160922000000,BR_wheel_link,4.1502375572294135,-27.832166242884828,10.206570833133847,0.0060462285956916035,-0.02509694868001461,-0.1846725330748502
160923000000,307,160923000000,BR_wheel_link,21.403525671614076,22.602675017503053,0.49471358738226595,-0.003214715034070672,0.042671200547976844,0.3829471627630856
160924000000,308,160924000000,BR_wheel_link,-23.47463221486457,-22.555076068425237,9.34847672437132,0.0020455612199176197,-0.052706279011733415,-0.41325932564975276
160925000000,309,160925000000,BR_wheel_link,25.271240769294604,21.746450211240585,0.6038923129341303,-0.005170853050818745,0.04686096705595151,0.4210842725772607
160926000000,310,160926000000,BR_wheel_link,-24.332632929441857,-22.40926709333353,9.548728578951872,0.0010124524903035981,-0.04970834635382508,-0.42104163290461216
160927000000,311,160927000000,BR_wheel_link,24.799412821438647,21.653972089961172,0.5816030698259224,-0.006380391707251816,0.0459782359307538,0.4223761746138783
160928000000,312,160928000000,BR_wheel_link,-24.35793062447893,-22.398561331734633,9.85745441363411,0.00013907289717858147,-0.04758282590244487,-0.4217349763594978
160929000000,313,160929000000,BR_wheel_link,24.375342207136576,21.619023941531328,0.6298307010270531,-0.006705229883987088,0.04795281055262919,0.42249920590076523
160930000000,314,160930000000,BR_wheel_link,-24.748185407979125,-22.366845871246394,9.97893563994827,0.0011230484507809425,-0.04769784476250517,-0.42249191959464244
160931000000,315,160931000000,BR_wheel_link,24.360573580969486,21.694271956259815,0.7832973902907439,-0.0031702618381123583,0.043445435080580734,0.4225060974273933
160932000000,316,160932000000,BR_wheel_link,-24.002064969822722,-22.302954656099377,10.294329310478087,0.004324292612281217,-0.0451511334230076,-0.42221693796266285
160933000000,317,160933000000,BR_wheel_link,24.08805812871538,21.681956486713034,0.8538211587446154,-0.002171143097671575,0.04492708592227092,0.42284983971788115
160934000000,318,160934000000,BR_wheel_link,-24.275197141467416,-22.226162808289157,10.148041600606094,0.00588686670708314,-0.0453312201122377,-0.42232492581021447
160935000000,319,160935000000,BR_wheel_link,23.88851037733106,21.738576260950147,0.6798716452833646,-0.001142829366784398,0.047167365880602566,0.4223180631306711
160936000000,320,160936000000,BR_wheel_link,-24.620182207316223,-22.22737432835813,10.274743166808667,0.005574690303966143,-0.04477077419196263,-0.4227752593235074
160937000000,321,160937000000,BR_wheel_link,23.700410058390545,21.7319100258996,0.6814877603111658,-0.0004676863018706549,0.045296500659061094,0.4219831344923419
160938000000,322,160938000000,BR_wheel_link,-24.321803392139547,-22.247723948147193,10.458320206155424,0.005138223116940258,-0.04244049543005579,-0.4226276786868274
160938000000,323,160939000000,BR_wheel_link,23.4513930403173,21.713427744821534,0.6328848410263181,0.00013252488201925223,0.041636294746466705,0.42198197732680637
160940000000,324,160940000000,BR_wheel_link,-23.78455432048824,-22.255899685126465,10.684843715902813,0.005066456654606367,-0.039528666041470595,-0.4225914822716291
160941000000,325,160941000000,BR_wheel_link,23.131815577048645,21.673277883524356,0.6216781274904152,-0.00016670479545841905,0.0401675358742111,0.4224695375855749
160942000000,326,160942000000,BR_wheel_link,-23.612785542925554,-22.24064622459837,10.872393778051737,0.004977697060643719,-0.038633399895525285,-0.4228842774565429
160943000000,327,160943000000,BR_wheel_link,22.929638404233906,21.653715784871473,0.702972441757548,-0.001010476636012924,0.0417945445899597,0.4227200693699494
160944000000,328,160944000000,BR_wheel_link,-23.711708343082908,-22.558225018043203,12.153784248367183,0.004144571192096706,-0.04368330118478675,-0.4236801717933611
160945000000,329,160945000000,BR_wheel_link,26.891747725596474,20.2978241867563,1.1827910769082064,-0.07143778181083335,0.0206809095170518,0.288554399037667
160946000000,330,160946000000,BR_wheel_link,-3.8379219411551015,-26.395853053965798,14.32644779471782,0.008699316396921392,-0.02522633344700464,-0.2665418761604619
160947000000,331,160947000000,BR_wheel_link,21.872585675294257,21.707295029683703,3.562133995794131,0.006628430998803089,0.037686097193137515,0.39754759353977986
160948000000,332,160948000000,BR_wheel_link,-22.019161709536498,-22.75931404993652,14.315792596175683,0.016181681920817977,-0.04992900495666707,-0.4177950491890482
160949000000,333,160949000000,BR_wheel_link,25.228256026807987,21.082285607517612,5.497881714191115,0.010671869137943832,0.04389990021235362,0.42396103502702986
160950000000,334,160950000000,BR_wheel_link,-22.631403992951636,-22.835382843974507,17.275431664205072,0.01699065336475696,-0.05144154704230344,-0.42215443028431193
160951000000,335,160951000000,BR_wheel_link,25.35862922681634,20.613494165084692,9.2412981276384,0.0052552850139785815,0.04255444502282559,0.42474416733004483
160952000000,336,160952000000,BR_wheel_link,-24.384298223858952,3.9362777424351574,13.032618001637323,-0.03795194475414019,-0.03301981380224807,-0.33457450347916773
160953000000,337,160953000000,BR_wheel_link,15.629834812451618,22.695677800755305,6.5423078916638895,-0.08723775688984643,0.005769971125245513,0.15479520015309026
160954000000,338,160954000000,BR_wheel_link,-1.9778561680954558,-26.43107460802691,20.052301166182843,0.09927684957563723,0.017693958174451255,-0.04556584928372967
160955000000,339,160955000000,BR_wheel_link,-1.027404248462539,25.386642531625466,3.003637138835667,-0.08154098505475746,-0.007842219622112716,0.02381501655254097
160956000000,340,160956000000,BR_wheel_link,2.5695731023156307,-29.77421050518998,14.71506851350042,0.003344536952191577,0.00011022686637985337,-0.16033225464947495
160957000000,341,160957000000,BR_wheel_link,13.272806112168636,22.8376351643455,0.9963237084306357,0.020181746592574646,0.05212005592022816,0.34454332189833964
160958000000,342,160958000000,BR_wheel_link,-24.918509417850192,-22.962225682626013,10.51860368548918,0.025651725251750766,-0.04922892097626784,-0.4101907806563736
160959000000,343,160959000000,BR_wheel_link,23.026937787251995,20.985142870316544,0.5394189073698482,0.016337240833561573,0.055795326908674746,0.4175812411394262
160960000000,344,160960000000,BR_wheel_link,-24.686434046615076,-22.99302621485512,10.877586198263682,0.01896366252223703,-0.054151122469353094,-0.42153819384875174
160961000000,345,160961000000,BR_wheel_link,24.34406045082416,20.469875821211367,0.5749854592551175,0.004041172278078989,0.047141191180825937,0.421927524583149
160962000000,346,160962000000,BR_wheel_link,-22.97047978904402,-23.520053862295946,11.492297183027715,0.0043281139872428645,-0.05318504007314376,-0.42088777165534397
160963000000,347,160963000000,BR_wheel_link,24.669343646491342,21.180611778334377,0.6413078885950823,-0.011533999208559085,0.046963945805411085,0.4223123259004373
160964000000,348,160964000000,BR_wheel_link,-22.789365623428935,-22.520414268829246,11.702792972445923,-0.006862550859389226,-0.05329437222594281,-0.42033975107795624
160965000000,349,160965000000,BR_wheel_link,24.628208162031346,21.24147455618921,1.4168287636525585,-0.015087417280401787,0.050359047655934144,0.4216231357044165
160966000000,350,160966000000,BR_wheel_link,-23.177258797928392,-22.284109617648333,12.840834038893409,-0.00817810212388103,-0.05608022412667255,-0.41996361684442496
160967000000,351,160967000000,BR_wheel_link,24.826612086061385,21.394891694516673,1.8886320630157376,-0.012144523508468815,0.05334800543038935,0.42152439237221706
160968000000,352,160968000000,BR_wheel_link,-23.5146310829559,-22.18928858969348,13.182818282847135,-0.003437193612644835,-0.05709775690778764,-0.4205154248986207
160969000000,353,160969000000,BR_wheel_link,24.816150102710054,21.421642324123255,2.5977641368790065,-0.008529753712364668,0.055179642126739134,0.42145938705764396
160970000000,354,160970000000,BR_wheel_link,-23.78258451176342,-22.220582545431995,13.484788741033665,0.0007040536942922448,-0.054913056486378134,-0.4213231786460903
160971000000,355,160971000000,BR_wheel_link,24.34415299132032,21.372685029014693,2.7633171263933116,-0.0038140251056387373,0.05714045984381397,0.42095609539555806
160972000000,356,160972000000,BR_wheel_link,-24.070174356306012,-22.188427869493797,13.595292049953304,0.008525205235893413,-0.05805159790570769,-0.4206931795302469
160973000000,357,160973000000,BR_wheel_link,24.55091021237267,21.321305102476884,2.9871163578610966,-0.00039793162879774946,0.06161431075415844,0.4199023496034605
160974000000,358,160974000000,BR_wheel_link,-24.51299211587716,-22.299389828041672,13.64739815443357,0.009957981535732295,-0.06287829879087416,-0.41953113309012785
160975000000,359,160975000000,BR_wheel_link,25.076511592002124,21.270685916834395,3.0443145608583437,0.0031806106609654767,0.06086433504275055,0.41985902077127224
160976000000,360,160976000000,BR_wheel_link,-27.006906616290383,0.05529109919961537,6.6563068585053236,-0.049282456720257585,-0.04222285252145006,-0.3000951017303355
160977000000,361,160977000000,BR_wheel_link,11.861315149257933,23.460533980127423,-1.1198443817209285,-0.0772952200012334,0.01057303635516096,0.11387383993313371
160978000000,362,160978000000,BR_wheel_link,-2.0371354725419804,-26.06367113121081,13.52481097138616,0.1079186723111984,0.005856259523703679,-0.03487296227517846
160979000000,363,160979000000,BR_wheel_link,0.09771312215933997,25.960016425022495,-4.757188681841978,-0.06785166332291664,-0.001465026472978247,0.02074512168983868
160980000000,364,160980000000,BR_wheel_link,0.9466648494389927,-26.58592816200941,10.449794490098046,0.07258337788825478,-0.0072809560285866,-0.09988363526874304
160981000000,365,160981000000,BR_wheel_link,11.25150727292899,24.211925071428936,-6.294238196900859,-0.0627886161592709,0.016640878520883227,0.11122351887679627
