%time,field.header.seq,field.header.stamp,field.header.frame_id,field.orientation.x,field.orientation.y,field.orientation.z,field.orientation.w,field.orientation_covariance0,field.orientation_covariance1,field.orientation_covariance2,field.orientation_covariance3,field.orientation_covariance4,field.orientation_covariance5,field.orientation_covariance6,field.orientation_covariance7,field.orientation_covariance8,field.angular_velocity.x,field.angular_velocity.y,field.angular_velocity.z,field.angular_velocity_covariance0,field.angular_velocity_covariance1,field.angular_velocity_covariance2,field.angular_velocity_covariance3,field.angular_velocity_covariance4,field.angular_velocity_covariance5,field.angular_velocity_covariance6,field.angular_velocity_covariance7,field.angular_velocity_covariance8,field.linear_acceleration.x,field.linear_acceleration.y,field.linear_acceleration.z,field.linear_acceleration_covariance0,field.linear_acceleration_covariance1,field.linear_acceleration_covariance2,field.linear_acceleration_covariance3,field.linear_acceleration_covariance4,field.linear_acceleration_covariance5,field.linear_acceleration_covariance6,field.linear_acceleration_covariance7,field.linear_acceleration_covariance8
160615000000,0,160615000000,base_link,-0.004055804310136108,-0.005066092317972372,-0.7071121014754101,0.7070716803175283,0.0,0.0,0.0,0.0,0.0,0.0,0.0,0.0,0.0,-0.06815736107319828,0.015771674002648728,-0.48655220267271154,0.0,0.0,0.0,0.0,0.0,0.0,0.0,0.0,0.0,-1.194385529519028,-3.9993832820280826,10.491683879220163,0.0,0.0,0.0,0.0,0.0,0.0,0.0,0.0,0.0
160617000000,1,160616000000,base_link,-0.004051968534392574,-0.0050835032136247104,-0.7069397994200406,0.7072438472988127,0.0,0.0,0.0,0.0,0.0,0.0,0.0,0.0,0.0,0.03318959522469684,-0.018850075353084323,0.4869624388697409,0.0,0.0,0.0,0.0,0.0,0.0,0.0,0.0,0.0,1.0123498060307263,5.983258007516177,11.006723949940824,0.0,0.0,0.0,0.0,0.0,0.0,0.0,0.0,0.0
160618000000,2,160617000000,base_link,-0.004051968534392574,-0.0050835032136247104,-0.7069397994200406,0.7072438472988127,0.0,0.0,0.0,0.0,0.0,0.0,0.0,0.0,0.0,0.03318959522469684,-0.018850075353084323,0.4869624388697409,0.0,0.0,0.0,0.0,0.0,0.0,0.0,0.0,0.0,1.0123498060307263,5.983258007516177,11.006723949940824,0.0,0.0,0.0,0.0,0.0,0.0,0.0,0.0,0.0
160620000000,3,160619000000,base_link,-0.0040886942464872095,-0.005102794841398774,-0.7069398529647193,0.7072434434863192,0.0,0.0,0.0,0.0,0.0,0.0,0.0,0.0,0.0,0.04565277375829628,-0.04821646493359431,0.4865822977967199,0.0,0.0,0.0,0.0,0.0,0.0,0.0,0.0,0.0,-0.02596274638079682,0.07387920780663271,10.65449596661343,0.0,0.0,0.0,0.0,0.0,0.0,0.0,0.0,0.0
160622000000,4,160621000000,base_link,-0.004116223713598325,-0.005116428762527973,-0.7071119531997297,0.7070711170038844,0.0,0.0,0.0,0.0,0.0,0.0,0.0,0.0,0.0,-0.03655559527753435,0.0028053380393343024,-0.48651650414028014,0.0,0.0,0.0,0.0,0.0,0.0,0.0,0.0,0.0,-0.8090110968082705,-6.392935306632667,9.010325708546631,0.0,0.0,0.0,0.0,0.0,0.0,0.0,0.0,0.0
160623000000,5,160622000000,base_link,-0.004086521921885357,-0.005135276683313307,-0.7069396782808142,0.707243395546531,0.0,0.0,0.0,0.0,0.0,0.0,0.0,0.0,0.0,0.07183887916970222,0.015696001141691087,0.4868025882985406,0.0,0.0,0.0,0.0,0.0,0.0,0.0,0.0,0.0,1.4810382825023858,4.846500877055211,8.846650568730928,0.0,0.0,0.0,0.0,0.0,0.0,0.0,0.0,0.0
160624000000,6,160623000000,base_link,-0.004086521921885357,-0.005135276683313307,-0.7069396782808142,0.707243395546531,0.0,0.0,0.0,0.0,0.0,0.0,0.0,0.0,0.0,0.07183887916970222,0.015696001141691087,0.4868025882985406,0.0,0.0,0.0,0.0,0.0,0.0,0.0,0.0,0.0,1.4810382825023858,4.846500877055211,8.846650568730928,0.0,0.0,0.0,0.0,0.0,0.0,0.0,0.0,0.0
160626000000,7,160625000000,base_link,-0.004052477648626424,-0.005077146359979481,-0.7071119773996314,0.7070717441870591,0.0,0.0,0.0,0.0,0.0,0.0,0.0,0.0,0.0,-0.05596698021587569,0.04604010757676784,-0.48639899187458163,0.0,0.0,0.0,0.0,0.0,0.0,0.0,0.0,0.0,-1.0078867870453776,-4.357499919026884,8.813509032627625,0.0,0.0,0.0,0.0,0.0,0.0,0.0,0.0,0.0
160627000000,8,160626000000,base_link,-0.004052477648626424,-0.005077146359979481,-0.7071119773996314,0.7070717441870591,0.0,0.0,0.0,0.0,0.0,0.0,0.0,0.0,0.0,-0.05596698021587569,0.04604010757676784,-0.48639899187458163,0.0,0.0,0.0,0.0,0.0,0.0,0.0,0.0,0.0,-1.0078867870453776,-4.357499919026884,8.813509032627625,0.0,0.0,0.0,0.0,0.0,0.0,0.0,0.0,0.0
160628000000,9,160627000000,base_link,-0.0040355005889322094,-0.0050838332348808225,-0.7069397223515163,0.7072440161190463,0.0,0.0,0.0,0.0,0.0,0.0,0.0,0.0,0.0,0.03661012266780188,0.01490634450726401,0.4869978752641654,0.0,0.0,0.0,0.0,0.0,0.0,0.0,0.0,0.0,1.070589402998038,6.20299314390682,10.349325190249482,0.0,0.0,0.0,0.0,0.0,0.0,0.0,0.0,0.0
160630000000,10,160629000000,base_link,-0.00406410708709608,-0.005086138250398435,-0.7069395298644962,0.7072440281446338,0.0,0.0,0.0,0.0,0.0,0.0,0.0,0.0,0.0,0.037026019576203294,-0.03869169427700715,0.4873715053199113,0.0,0.0,0.0,0.0,0.0,0.0,0.0,0.0,0.0,-0.1330086060162799,0.790463129622096,11.061671776529142,0.0,0.0,0.0,0.0,0.0,0.0,0.0,0.0,0.0
160632000000,11,160631000000,base_link,-0.004101256163729771,-0.0051159166996231475,-0.7069394753084725,0.7072436534496324,0.0,0.0,0.0,0.0,0.0,0.0,0.0,0.0,0.0,-0.04581060273196256,-0.02662807583906636,-0.48664240828941197,0.0,0.0,0.0,0.0,0.0,0.0,0.0,0.0,0.0,0.05989913388330387,-0.3164885748248724,10.887395901312921,0.0,0.0,0.0,0.0,0.0,0.0,0.0,0.0,0.0
160633000000,12,160632000000,base_link,-0.004125623077143523,-0.005110138076235503,-0.707111604082676,0.7070714568519169,0.0,0.0,0.0,0.0,0.0,0.0,0.0,0.0,0.0,-0.04581060273196256,-0.02662807583906636,-0.48664240828941197,0.0,0.0,0.0,0.0,0.0,0.0,0.0,0.0,0.0,-0.8700564229609049,-6.555230379060385,10.107638121796509,0.0,0.0,0.0,0.0,0.0,0.0,0.0,0.0,0.0
160634000000,13,160633000000,base_link,-0.004107564970403645,-0.005118443946725119,-0.7071115840302331,0.7070715219635372,0.0,0.0,0.0,0.0,0.0,0.0,0.0,0.0,0.0,-0.03853101314376057,0.024389575588314838,-0.48630845296031766,0.0,0.0,0.0,0.0,0.0,0.0,0.0,0.0,0.0,-0.7367888971163847,-6.589706509675252,8.97276337807174,0.0,0.0,0.0,0.0,0.0,0.0,0.0,0.0,0.0
160635000000,14,160634000000,base_link,-0.004107564970403645,-0.005118443946725119,-0.7071115840302331,0.7070715219635372,0.0,0.0,0.0,0.0,0.0,0.0,0.0,0.0,0.0,-0.03853101314376057,0.024389575588314838,-0.48630845296031766,0.0,0.0,0.0,0.0,0.0,0.0,0.0,0.0,0.0,-0.7367888971163847,-6.589706509675252,8.97276337807174,0.0,0.0,0.0,0.0,0.0,0.0,0.0,0.0,0.0
160637000000,15,160636000000,base_link,-0.004066599013621278,-0.005096223335328289,-0.7071115697225725,0.7070719335715837,0.0,0.0,0.0,0.0,0.0,0.0,0.0,0.0,0.0,-0.046780093701129746,0.05565545209621149,-0.48650684445690795,0.0,0.0,0.0,0.0,0.0,0.0,0.0,0.0,0.0,0.2908378969631642,0.0979773575052483,8.689041080395636,0.0,0.0,0.0,0.0,0.0,0.0,0.0,0.0,0.0
160638000000,16,160637000000,base_link,-0.0040364965134623235,-0.005098948131011616,-0.7069393915097565,0.7072442323240745,0.0,0.0,0.0,0.0,0.0,0.0,0.0,0.0,0.0,0.049578993710378334,0.039074186697550604,0.48682468161381975,0.0,0.0,0.0,0.0,0.0,0.0,0.0,0.0,0.0,1.1991854589759223,6.336383950171596,9.289645096038274,0.0,0.0,0.0,0.0,0.0,0.0,0.0,0.0,0.0
160639000000,17,160638000000,base_link,-0.0040465218122582355,-0.005063030180107636,-0.7071116377338245,0.7070722192025414,0.0,0.0,0.0,0.0,0.0,0.0,0.0,0.0,0.0,-0.06810951013473916,0.03626734166299051,-0.48645381238707724,0.0,0.0,0.0,0.0,0.0,0.0,0.0,0.0,0.0,-1.1113063537441186,-4.355898417612115,8.69739064340491,0.0,0.0,0.0,0.0,0.0,0.0,0.0,0.0,0.0
160640000000,18,160639000000,base_link,-0.004035750662430141,-0.005075167282918583,-0.7069393245899334,0.7072444745220494,0.0,0.0,0.0,0.0,0.0,0.0,0.0,0.0,0.0,0.03553545908728312,-0.0015810757230301075,0.4870758753746913,0.0,0.0,0.0,0.0,0.0,0.0,0.0,0.0,0.0,0.9874590605523739,6.475610459027384,10.25909219774264,0.0,0.0,0.0,0.0,0.0,0.0,0.0,0.0,0.0
160641000000,19,160640000000,base_link,-0.004069982677543712,-0.005056954795701719,-0.7071116822513559,0.7070720835055333,0.0,0.0,0.0,0.0,0.0,0.0,0.0,0.0,0.0,-0.07731199850795425,-0.022997195486481336,-0.4870435312444468,0.0,0.0,0.0,0.0,0.0,0.0,0.0,0.0,0.0,-1.3184461582395564,-4.896815317335098,10.394332557705575,0.0,0.0,0.0,0.0,0.0,0.0,0.0,0.0,0.0
160643000000,20,160642000000,base_link,-0.00411707668674483,-0.005087454665194977,-0.7071115148038744,0.7070717595239929,0.0,0.0,0.0,0.0,0.0,0.0,0.0,0.0,0.0,0.06877560240606385,-0.051964899533887166,0.4863438295649056,0.0,0.0,0.0,0.0,0.0,0.0,0.0,0.0,0.0,-0.05368441465939136,-0.19399412488521728,10.77763398255962,0.0,0.0,0.0,0.0,0.0,0.0,0.0,0.0,0.0
160644000000,21,160643000000,base_link,-0.004135820206812961,-0.005121849200281997,-0.7071113553530286,0.7070715612883814,0.0,0.0,0.0,0.0,0.0,0.0,0.0,0.0,0.0,-0.04665837416157516,-0.02319014488586356,-0.4864891790637281,0.0,0.0,0.0,0.0,0.0,0.0,0.0,0.0,0.0,-0.8262754734939062,-7.2998281806869585,10.025134386146464,0.0,0.0,0.0,0.0,0.0,0.0,0.0,0.0,0.0
160645000000,22,160644000000,base_link,-0.004135820206812961,-0.005121849200281997,-0.7071113553530286,0.7070715612883814,0.0,0.0,0.0,0.0,0.0,0.0,0.0,0.0,0.0,-0.04665837416157516,-0.02319014488586356,-0.4864891790637281,0.0,0.0,0.0,0.0,0.0,0.0,0.0,0.0,0.0,-0.8262754734939062,-7.2998281806869585,10.025134386146464,0.0,0.0,0.0,0.0,0.0,0.0,0.0,0.0,0.0
160646000000,23,160645000000,base_link,-0.00410470610044452,-0.005123036660303928,-0.7071116462671323,0.7070714430639893,0.0,0.0,0.0,0.0,0.0,0.0,0.0,0.0,0.0,-0.041070211928213154,0.04189700805233525,-0.48687105905572026,0.0,0.0,0.0,0.0,0.0,0.0,0.0,0.0,0.0,-0.6593207573124392,-6.982844916049175,8.837838655092396,0.0,0.0,0.0,0.0,0.0,0.0,0.0,0.0,0.0
160647000000,24,160646000000,base_link,-0.00410470610044452,-0.005123036660303928,-0.7071116462671323,0.7070714430639893,0.0,0.0,0.0,0.0,0.0,0.0,0.0,0.0,0.0,-0.041070211928213154,0.04189700805233525,-0.48687105905572026,0.0,0.0,0.0,0.0,0.0,0.0,0.0,0.0,0.0,-0.6593207573124392,-6.982844916049175,8.837838655092396,0.0,0.0,0.0,0.0,0.0,0.0,0.0,0.0,0.0
160648000000,25,160647000000,base_link,-0.004061312781357963,-0.005129795636497628,-0.7069395094829588,0.7072437492599092,0.0,0.0,0.0,0.0,0.0,0.0,0.0,0.0,0.0,0.07410131602676356,0.05216200618896667,0.4866053610492165,0.0,0.0,0.0,0.0,0.0,0.0,0.0,0.0,0.0,1.4730645727337865,6.28105603610514,9.193917469539372,0.0,0.0,0.0,0.0,0.0,0.0,0.0,0.0,0.0
160649000000,26,160648000000,base_link,-0.004056435188823755,-0.005087123907359036,-0.7071117426928849,0.7070718844995474,0.0,0.0,0.0,0.0,0.0,0.0,0.0,0.0,0.0,-0.056596406030367745,0.06689067887381489,-0.48632115151744454,0.0,0.0,0.0,0.0,0.0,0.0,0.0,0.0,0.0,-0.9260104258361408,-5.429482493652763,8.718415158905476,0.0,0.0,0.0,0.0,0.0,0.0,0.0,0.0,0.0
160650000000,27,160649000000,base_link,-0.00402557413367069,-0.005087879947990292,-0.7069395456365671,0.7072442202278456,0.0,0.0,0.0,0.0,0.0,0.0,0.0,0.0,0.0,0.047861293658259405,0.04293165413765125,0.48691252156102854,0.0,0.0,0.0,0.0,0.0,0.0,0.0,0.0,0.0,1.1476340866675445,7.03119915548307,9.764457203111045,0.0,0.0,0.0,0.0,0.0,0.0,0.0,0.0,0.0
160651000000,28,160650000000,base_link,-0.004043228553492551,-0.005051698698663676,-0.7071118235701382,0.707072133244152,0.0,0.0,0.0,0.0,0.0,0.0,0.0,0.0,0.0,-0.07926644380224346,0.0258526640255371,-0.48652440078488046,0.0,0.0,0.0,0.0,0.0,0.0,0.0,0.0,0.0,-1.2312979482331912,-4.719867059424903,9.71984466374853,0.0,0.0,0.0,0.0,0.0,0.0,0.0,0.0,0.0
160652000000,29,160651000000,base_link,-0.004036980397726807,-0.0050704104072501355,-0.7069394260036916,0.7072444002529406,0.0,0.0,0.0,0.0,0.0,0.0,0.0,0.0,0.0,0.038433166464163185,-0.01727836977349108,0.48720468313245774,0.0,0.0,0.0,0.0,0.0,0.0,0.0,0.0,0.0,0.9327685737968352,6.964857317246807,10.697170315837095,0.0,0.0,0.0,0.0,0.0,0.0,0.0,0.0,0.0
160653000000,30,160652000000,base_link,-0.004080992590801587,-0.005056391949217549,-0.7071118066795041,0.7070718996356576,0.0,0.0,0.0,0.0,0.0,0.0,0.0,0.0,0.0,-0.08521600293130996,-0.04275646148030181,-0.4871660208567954,0.0,0.0,0.0,0.0,0.0,0.0,0.0,0.0,0.0,-1.3651847138602282,-5.674999606474024,10.815129775205332,0.0,0.0,0.0,0.0,0.0,0.0,0.0,0.0,0.0
160654000000,31,160653000000,base_link,-0.004084484463413183,-0.005100304641954371,-0.7069394753646538,0.7072438632115342,0.0,0.0,0.0,0.0,0.0,0.0,0.0,0.0,0.0,0.06031067234296224,-0.06670468804363754,0.48657312265538477,0.0,0.0,0.0,0.0,0.0,0.0,0.0,0.0,0.0,1.097130358048419,5.989760160423558,10.589426600857976,0.0,0.0,0.0,0.0,0.0,0.0,0.0,0.0,0.0
160655000000,32,160654000000,base_link,-0.004126910898576348,-0.005098751344754927,-0.7071116219806106,0.7070715136399639,0.0,0.0,0.0,0.0,0.0,0.0,0.0,0.0,0.0,-0.06537176669078838,-0.05814053586820156,-0.48673525738145323,0.0,0.0,0.0,0.0,0.0,0.0,0.0,0.0,0.0,-1.0327021425550802,-7.580905841337391,10.151671116305035,0.0,0.0,0.0,0.0,0.0,0.0,0.0,0.0,0.0
160656000000,33,160655000000,base_link,-0.004133777784193123,-0.005133154928072392,-0.7071114503519713,0.7070713962414594,0.0,0.0,0.0,0.0,0.0,0.0,0.0,0.0,0.0,-0.03976966105747492,-0.009371747612450652,-0.48640152909746626,0.0,0.0,0.0,0.0,0.0,0.0,0.0,0.0,0.0,-0.7172329880589023,-7.7378224415511765,9.183845923383387,0.0,0.0,0.0,0.0,0.0,0.0,0.0,0.0,0.0
160657000000,34,160656000000,base_link,-0.004133777784193123,-0.005133154928072392,-0.7071114503519713,0.7070713962414594,0.0,0.0,0.0,0.0,0.0,0.0,0.0,0.0,0.0,-0.03976966105747492,-0.009371747612450652,-0.48640152909746626,0.0,0.0,0.0,0.0,0.0,0.0,0.0,0.0,0.0,-0.7172329880589023,-7.7378224415511765,9.183845923383387,0.0,0.0,0.0,0.0,0.0,0.0,0.0,0.0,0.0
160658000000,35,160657000000,base_link,-0.004100859986146062,-0.005157788370790926,-0.7069393501621386,0.7072434767170562,0.0,0.0,0.0,0.0,0.0,0.0,0.0,0.0,0.0,0.08457716701398668,0.012061682331745413,0.4861928045284405,0.0,0.0,0.0,0.0,0.0,0.0,0.0,0.0,0.0,1.5660159841789827,5.575068027404453,9.384650016258531,0.0,0.0,0.0,0.0,0.0,0.0,0.0,0.0,0.0
160659000000,36,160658000000,base_link,-0.004093035070864911,-0.005130480541995347,-0.7071116984051515,0.707071404606281,0.0,0.0,0.0,0.0,0.0,0.0,0.0,0.0,0.0,-0.030730876627717757,0.04932857905174839,-0.48693019552030614,0.0,0.0,0.0,0.0,0.0,0.0,0.0,0.0,0.0,-0.7011322765447981,-6.429407482925667,8.784632775776727,0.0,0.0,0.0,0.0,0.0,0.0,0.0,0.0,0.0
160660000000,37,160659000000,base_link,-0.004054412084350412,-0.0051327619984706425,-0.7069395582966859,0.7072437185385276,0.0,0.0,0.0,0.0,0.0,0.0,0.0,0.0,0.0,0.061021806521398596,0.05175418303920696,0.4867061208200406,0.0,0.0,0.0,0.0,0.0,0.0,0.0,0.0,0.0,1.3920449824731365,5.815322434796947,9.238423819163959,0.0,0.0,0.0,0.0,0.0,0.0,0.0,0.0,0.0
160662000000,38,160661000000,base_link,-0.004027452667392778,-0.005088000685233464,-0.7069395912403739,0.7072441630801432,0.0,0.0,0.0,0.0,0.0,0.0,0.0,0.0,0.0,0.029552401556378814,0.03542741714257154,0.4869215047676786,0.0,0.0,0.0,0.0,0.0,0.0,0.0,0.0,0.0,0.07013076344540115,1.2037003532684323,9.252070655142221,0.0,0.0,0.0,0.0,0.0,0.0,0.0,0.0,0.0
160663000000,39,160662000000,base_link,-0.004048904510408183,-0.005054735417443872,-0.7071118452764552,0.7070720573547308,0.0,0.0,0.0,0.0,0.0,0.0,0.0,0.0,0.0,-0.080515606230301,0.016359161043954573,-0.4865017977545542,0.0,0.0,0.0,0.0,0.0,0.0,0.0,0.0,0.0,-1.2537034877879434,-3.651842857154243,10.051808467925259,0.0,0.0,0.0,0.0,0.0,0.0,0.0,0.0,0.0
160665000000,40,160664000000,base_link,-0.00409141456524283,-0.005071562184354465,-0.7071118543656556,0.7070716830699906,0.0,0.0,0.0,0.0,0.0,0.0,0.0,0.0,0.0,-0.06263196932913703,-0.055116971427261074,-0.48724811864182427,0.0,0.0,0.0,0.0,0.0,0.0,0.0,0.0,0.0,-0.23644358263246695,0.3377758077946129,11.320422606107837,0.0,0.0,0.0,0.0,0.0,0.0,0.0,0.0,0.0
160667000000,41,160666000000,base_link,-0.004135210116766437,-0.00511724085113153,-0.7071116367649478,0.7070713167955255,0.0,0.0,0.0,0.0,0.0,0.0,0.0,0.0,0.0,-0.040556330656243075,-0.05346987663381807,-0.4866506169328624,0.0,0.0,0.0,0.0,0.0,0.0,0.0,0.0,0.0,0.11813316533120993,-0.8204414504956942,10.245532163643515,0.0,0.0,0.0,0.0,0.0,0.0,0.0,0.0,0.0
160668000000,42,160667000000,base_link,-0.004124827058477399,-0.005152829512292831,-0.7069394573562539,0.7072432663395251,0.0,0.0,0.0,0.0,0.0,0.0,0.0,0.0,0.0,0.068197702343235,-0.03530766301111846,0.48626070578478775,0.0,0.0,0.0,0.0,0.0,0.0,0.0,0.0,0.0,1.5083764565907254,3.713108506857577,9.546625661099043,0.0,0.0,0.0,0.0,0.0,0.0,0.0,0.0,0.0
160669000000,43,160668000000,base_link,-0.0041304367612885595,-0.005142518660415026,-0.7071115461954988,0.7070712518770645,0.0,0.0,0.0,0.0,0.0,0.0,0.0,0.0,0.0,-0.025705694621783706,0.006300071789771907,-0.48648210882306636,0.0,0.0,0.0,0.0,0.0,0.0,0.0,0.0,0.0,-0.682292083451541,-6.02366704071672,9.018998301627263,0.0,0.0,0.0,0.0,0.0,0.0,0.0,0.0,0.0
160670000000,44,160669000000,base_link,-0.00408185368399811,-0.005123109318749808,-0.7071115765841081,0.7070716445185365,0.0,0.0,0.0,0.0,0.0,0.0,0.0,0.0,0.0,-0.03156868570064715,0.06701259333324844,-0.48647530938593275,0.0,0.0,0.0,0.0,0.0,0.0,0.0,0.0,0.0,-0.7054735594358863,-4.9542147638543685,7.930140575919424,0.0,0.0,0.0,0.0,0.0,0.0,0.0,0.0,0.0
160671000000,45,160670000000,base_link,-0.00404359086494059,-0.005117686393179401,-0.7069394949347362,0.7072439530744099,0.0,0.0,0.0,0.0,0.0,0.0,0.0,0.0,0.0,0.0496097462284037,0.06214164721565855,0.48668309559240613,0.0,0.0,0.0,0.0,0.0,0.0,0.0,0.0,0.0,1.3250448383991047,5.529881430302073,9.04751329427945,0.0,0.0,0.0,0.0,0.0,0.0,0.0,0.0,0.0
160672000000,46,160671000000,base_link,-0.00404359086494059,-0.005117686393179401,-0.7069394949347362,0.7072439530744099,0.0,0.0,0.0,0.0,0.0,0.0,0.0,0.0,0.0,0.0496097462284037,0.06214164721565855,0.48668309559240613,0.0,0.0,0.0,0.0,0.0,0.0,0.0,0.0,0.0,1.3250448383991047,5.529881430302073,9.04751329427945,0.0,0.0,0.0,0.0,0.0,0.0,0.0,0.0,0.0
160673000000,47,160672000000,base_link,-0.004039118971935045,-0.005074447047878788,-0.7071116923094594,0.7070721251077158,0.0,0.0,0.0,0.0,0.0,0.0,0.0,0.0,0.0,-0.057961873368131925,0.06711811678088397,-0.4862111578916885,0.0,0.0,0.0,0.0,0.0,0.0,0.0,0.0,0.0,-1.018937027250837,-3.58578748015065,8.578308719878322,0.0,0.0,0.0,0.0,0.0,0.0,0.0,0.0,0.0
160675000000,48,160674000000,base_link,-0.004062544427435805,-0.005075892175169666,-0.7069392765741891,0.7072443639140316,0.0,0.0,0.0,0.0,0.0,0.0,0.0,0.0,0.0,0.02746919318218992,-0.0531673378203334,0.4872876625775904,0.0,0.0,0.0,0.0,0.0,0.0,0.0,0.0,0.0,0.877863171568632,5.559512674114534,11.565573181727954,0.0,0.0,0.0,0.0,0.0,0.0,0.0,0.0,0.0
160676000000,49,160675000000,base_link,-0.004111909217680772,-0.005063174934459878,-0.7071114584818714,0.7070720201972424,0.0,0.0,0.0,0.0,0.0,0.0,0.0,0.0,0.0,-0.09095483767342719,-0.052158029138345406,-0.48661799814730955,0.0,0.0,0.0,0.0,0.0,0.0,0.0,0.0,0.0,-1.076637832660147,-5.132508809480572,12.260195458971467,0.0,0.0,0.0,0.0,0.0,0.0,0.0,0.0,0.0
160677000000,50,160676000000,base_link,-0.004111909217680772,-0.005063174934459878,-0.7071114584818714,0.7070720201972424,0.0,0.0,0.0,0.0,0.0,0.0,0.0,0.0,0.0,-0.09095483767342719,-0.052158029138345406,-0.48661799814730955,0.0,0.0,0.0,0.0,0.0,0.0,0.0,0.0,0.0,-1.076637832660147,-5.132508809480572,12.260195458971467,0.0,0.0,0.0,0.0,0.0,0.0,0.0,0.0,0.0
160678000000,51,160677000000,base_link,-0.004112367796083532,-0.005107363210210724,-0.7069392106064175,0.7072439153356668,0.0,0.0,0.0,0.0,0.0,0.0,0.0,0.0,0.0,0.06500145496006368,-0.06281298575707193,0.4863226128609487,0.0,0.0,0.0,0.0,0.0,0.0,0.0,0.0,0.0,1.2290471965875036,5.6540313925909365,10.767438224560193,0.0,0.0,0.0,0.0,0.0,0.0,0.0,0.0,0.0
160679000000,52,160678000000,base_link,-0.004146302072448778,-0.005089694770585419,-0.7071113705287574,0.7070717169108155,0.0,0.0,0.0,0.0,0.0,0.0,0.0,0.0,0.0,-0.07615550181846628,-0.02333013892312977,-0.48649381932787095,0.0,0.0,0.0,0.0,0.0,0.0,0.0,0.0,0.0,-0.7038935557411851,-8.25719933600307,10.983659484685882,0.0,0.0,0.0,0.0,0.0,0.0,0.0,0.0,0.0
160680000000,53,160679000000,base_link,-0.004116366738826128,-0.005126119783265974,-0.7069392028686139,0.7072437641070637,0.0,0.0,0.0,0.0,0.0,0.0,0.0,0.0,0.0,0.09702522071141922,-0.008851346032850399,0.4861760568860267,0.0,0.0,0.0,0.0,0.0,0.0,0.0,0.0,0.0,1.4837814684847404,6.396690419839916,9.190064112021824,0.0,0.0,0.0,0.0,0.0,0.0,0.0,0.0,0.0
160681000000,54,160680000000,base_link,-0.004125566301064576,-0.0050900515702448435,-0.7071114037734162,0.7070718023873507,0.0,0.0,0.0,0.0,0.0,0.0,0.0,0.0,0.0,0.10456406534124796,0.042765697035720154,0.4867261239194136,0.0,0.0,0.0,0.0,0.0,0.0,0.0,0.0,0.0,1.3976639617971283,7.738048068791329,7.85127496243207,0.0,0.0,0.0,0.0,0.0,0.0,0.0,0.0,0.0
160682000000,55,160681000000,base_link,-0.004072360102204044,-0.005060197479239262,-0.7071114790753538,0.7070722498051629,0.0,0.0,0.0,0.0,0.0,0.0,0.0,0.0,0.0,-0.07151168797757135,0.0746948462141624,-0.48650061203439277,0.0,0.0,0.0,0.0,0.0,0.0,0.0,0.0,0.0,-0.7659674235908509,-8.367827323359172,7.75472628872094,0.0,0.0,0.0,0.0,0.0,0.0,0.0,0.0,0.0
160683000000,56,160682000000,base_link,-0.004072360102204044,-0.005060197479239262,-0.7071114790753538,0.7070722498051629,0.0,0.0,0.0,0.0,0.0,0.0,0.0,0.0,0.0,-0.07151168797757135,0.0746948462141624,-0.48650061203439277,0.0,0.0,0.0,0.0,0.0,0.0,0.0,0.0,0.0,-0.7659674235908509,-8.367827323359172,7.75472628872094,0.0,0.0,0.0,0.0,0.0,0.0,0.0,0.0,0.0
160684000000,57,160683000000,base_link,-0.004038516660727629,-0.005023961664179585,-0.7071115529184469,0.7070726284630461,0.0,0.0,0.0,0.0,0.0,0.0,0.0,0.0,0.0,-0.0913244989836873,0.048862214872270174,-0.4864026036891921,0.0,0.0,0.0,0.0,0.0,0.0,0.0,0.0,0.0,-1.0964876767381853,-7.368729633760713,8.035791475869116,0.0,0.0,0.0,0.0,0.0,0.0,0.0,0.0,0.0
160685000000,58,160684000000,base_link,-0.004016610626140282,-0.005050044742780441,-0.7069390854428984,0.7072450023579752,0.0,0.0,0.0,0.0,0.0,0.0,0.0,0.0,0.0,0.07099081915414343,-0.005566267654265041,0.4872384382893873,0.0,0.0,0.0,0.0,0.0,0.0,0.0,0.0,0.0,0.8075860477330954,9.291114792764507,9.22137945848367,0.0,0.0,0.0,0.0,0.0,0.0,0.0,0.0,0.0
160686000000,59,160685000000,base_link,-0.004062320830845259,-0.005023373057315876,-0.7071115240417788,0.7070725251626648,0.0,0.0,0.0,0.0,0.0,0.0,0.0,0.0,0.0,-0.10549433756346593,-0.027258626659039352,-0.4870984944292345,0.0,0.0,0.0,0.0,0.0,0.0,0.0,0.0,0.0,-1.3232030288874177,-7.513526639262044,10.298482256758714,0.0,0.0,0.0,0.0,0.0,0.0,0.0,0.0,0.0
160687000000,60,160686000000,base_link,-0.004062320830845259,-0.005023373057315876,-0.7071115240417788,0.7070725251626648,0.0,0.0,0.0,0.0,0.0,0.0,0.0,0.0,0.0,-0.10549433756346593,-0.027258626659039352,-0.4870984944292345,0.0,0.0,0.0,0.0,0.0,0.0,0.0,0.0,0.0,-1.3232030288874177,-7.513526639262044,10.298482256758714,0.0,0.0,0.0,0.0,0.0,0.0,0.0,0.0,0.0
160688000000,61,160687000000,base_link,-0.004063356527048757,-0.005075234040957186,-0.7069390509314651,0.7072445895171505,0.0,0.0,0.0,0.0,0.0,0.0,0.0,0.0,0.0,0.07500913080280064,-0.07447625640623289,0.48682843970251,0.0,0.0,0.0,0.0,0.0,0.0,0.0,0.0,0.0,0.8519799038650027,8.73671295315465,10.613260142138078,0.0,0.0,0.0,0.0,0.0,0.0,0.0,0.0,0.0
160689000000,62,160688000000,base_link,-0.004122183978051845,-0.0050655121593851,-0.7071112537394181,0.7070721483843657,0.0,0.0,0.0,0.0,0.0,0.0,0.0,0.0,0.0,-0.100105670198896,-0.06977426608107977,-0.48671363216615515,0.0,0.0,0.0,0.0,0.0,0.0,0.0,0.0,0.0,-1.0653768910045491,-8.794498269851815,11.688862518647658,0.0,0.0,0.0,0.0,0.0,0.0,0.0,0.0,0.0
160690000000,63,160689000000,base_link,-0.0041487354674430935,-0.005091188483644603,-0.7071110854935807,0.7070719769344102,0.0,0.0,0.0,0.0,0.0,0.0,0.0,0.0,0.0,-0.07800602589937394,-0.014286215881319519,-0.48632683625934436,0.0,0.0,0.0,0.0,0.0,0.0,0.0,0.0,0.0,-0.6531945938924641,-8.998781036586657,11.526138535194974,0.0,0.0,0.0,0.0,0.0,0.0,0.0,0.0,0.0
160691000000,64,160690000000,base_link,-0.0041487354674430935,-0.005091188483644603,-0.7071110854935807,0.7070719769344102,0.0,0.0,0.0,0.0,0.0,0.0,0.0,0.0,0.0,-0.07800602589937394,-0.014286215881319519,-0.48632683625934436,0.0,0.0,0.0,0.0,0.0,0.0,0.0,0.0,0.0,-0.6531945938924641,-8.998781036586657,11.526138535194974,0.0,0.0,0.0,0.0,0.0,0.0,0.0,0.0,0.0
160692000000,65,160691000000,base_link,-0.004113916200670405,-0.005112893141036587,-0.7069390624802407,0.7072440144368706,0.0,0.0,0.0,0.0,0.0,0.0,0.0,0.0,0.0,-0.06181457732926999,0.061121939171934016,-0.4870764216864796,0.0,0.0,0.0,0.0,0.0,0.0,0.0,0.0,0.0,-0.6227579742709604,-8.224103187927263,10.383096942823403,0.0,0.0,0.0,0.0,0.0,0.0,0.0,0.0,0.0
160693000000,66,160692000000,base_link,-0.004063590048367116,-0.0050705716353962055,-0.7069394657395993,0.7072442069886605,0.0,0.0,0.0,0.0,0.0,0.0,0.0,0.0,0.0,0.07312843173341672,0.06990443435302457,0.4866162460962513,0.0,0.0,0.0,0.0,0.0,0.0,0.0,0.0,0.0,1.4699397893280892,6.940552929394457,9.750745403578538,0.0,0.0,0.0,0.0,0.0,0.0,0.0,0.0,0.0
160694000000,67,160693000000,base_link,-0.004063590048367116,-0.0050705716353962055,-0.7069394657395993,0.7072442069886605,0.0,0.0,0.0,0.0,0.0,0.0,0.0,0.0,0.0,-0.06149663018634684,0.0752352774038923,-0.486515254732524,0.0,0.0,0.0,0.0,0.0,0.0,0.0,0.0,0.0,1.4699397893280892,6.940552929394457,9.750745403578538,0.0,0.0,0.0,0.0,0.0,0.0,0.0,0.0,0.0
160695000000,68,160694000000,base_link,-0.004022803994815171,-0.005027528505648471,-0.7069395899092584,0.7072446233263805,0.0,0.0,0.0,0.0,0.0,0.0,0.0,0.0,0.0,0.058303527650721845,0.04331972367641533,0.4868679966448949,0.0,0.0,0.0,0.0,0.0,0.0,0.0,0.0,0.0,1.0510070792119601,6.854079615883778,8.71943039622019,0.0,0.0,0.0,0.0,0.0,0.0,0.0,0.0,0.0
160696000000,69,160695000000,base_link,-0.004039415000739571,-0.004998720170459384,-0.7071119428194098,0.7070724123067375,0.0,0.0,0.0,0.0,0.0,0.0,0.0,0.0,0.0,-0.06734615731455132,0.01691821774855325,-0.4868781227839657,0.0,0.0,0.0,0.0,0.0,0.0,0.0,0.0,0.0,-1.351171851206193,-5.764902724247259,8.427163895806562,0.0,0.0,0.0,0.0,0.0,0.0,0.0,0.0,0.0
160697000000,70,160696000000,base_link,-0.004034009018997785,-0.0050261274865337465,-0.7069394614520965,0.7072446978631538,0.0,0.0,0.0,0.0,0.0,0.0,0.0,0.0,0.0,0.049521161528246975,-0.030783679678396934,0.4872885316062028,0.0,0.0,0.0,0.0,0.0,0.0,0.0,0.0,0.0,0.8386343217723923,6.575792896667766,8.3835467955301,0.0,0.0,0.0,0.0,0.0,0.0,0.0,0.0,0.0
160698000000,71,160697000000,base_link,-0.004034009018997785,-0.0050261274865337465,-0.7069394614520965,0.7072446978631538,0.0,0.0,0.0,0.0,0.0,0.0,0.0,0.0,0.0,0.049521161528246975,-0.030783679678396934,0.4872885316062028,0.0,0.0,0.0,0.0,0.0,0.0,0.0,0.0,0.0,0.8386343217723923,6.575792896667766,8.3835467955301,0.0,0.0,0.0,0.0,0.0,0.0,0.0,0.0,0.0
160699000000,72,160698000000,base_link,-0.004074642830900094,-0.005022507547655443,-0.707111727343469,0.7070722570975825,0.0,0.0,0.0,0.0,0.0,0.0,0.0,0.0,0.0,-0.0657171692031989,-0.0526745008823032,-0.48704098818567576,0.0,0.0,0.0,0.0,0.0,0.0,0.0,0.0,0.0,-1.366327888132819,-5.733841583974867,8.093423811335398,0.0,0.0,0.0,0.0,0.0,0.0,0.0,0.0,0.0
160700000000,73,160699000000,base_link,-0.004084446246276021,-0.005067072472721927,-0.7069393580613225,0.7072442195587479,0.0,0.0,0.0,0.0,0.0,0.0,0.0,0.0,0.0,0.05229414107591775,-0.07656278761937252,0.48668373875246207,0.0,0.0,0.0,0.0,0.0,0.0,0.0,0.0,0.0,1.06535944860662,5.677994871483626,8.3315093639226,0.0,0.0,0.0,0.0,0.0,0.0,0.0,0.0,0.0
160701000000,74,160700000000,base_link,-0.004123872367955878,-0.005071812159021886,-0.7071114473780375,0.7070718997280637,0.0,0.0,0.0,0.0,0.0,0.0,0.0,0.0,0.0,0.06074891946003635,-0.048643571635293356,0.48642483478256304,0.0,0.0,0.0,0.0,0.0,0.0,0.0,0.0,0.0,1.454279825742244,5.003156271448249,9.306082904473117,0.0,0.0,0.0,0.0,0.0,0.0,0.0,0.0,0.0
160702000000,75,160701000000,base_link,-0.004120827056881501,-0.0051094844065530404,-0.7069392029147997,0.7072438584644295,0.0,0.0,0.0,0.0,0.0,0.0,0.0,0.0,0.0,0.06074891946003635,-0.048643571635293356,0.48642483478256304,0.0,0.0,0.0,0.0,0.0,0.0,0.0,0.0,0.0,1.454279825742244,5.003156271448249,9.306082904473117,0.0,0.0,0.0,0.0,0.0,0.0,0.0,0.0,0.0
160703000000,76,160702000000,base_link,-0.004135821535920941,-0.0050973443319513615,-0.7071113048668239,0.7070717888521095,0.0,0.0,0.0,0.0,0.0,0.0,0.0,0.0,0.0,-0.0415509396943511,-0.004368353085123074,-0.4864683384434254,0.0,0.0,0.0,0.0,0.0,0.0,0.0,0.0,0.0,-0.6591326456859006,-5.938219399379452,10.001490076216953,0.0,0.0,0.0,0.0,0.0,0.0,0.0,0.0,0.0
160704000000,77,160703000000,base_link,-0.004098364003480772,-0.0050728471250209685,-0.7071117040238818,0.707071783956186,0.0,0.0,0.0,0.0,0.0,0.0,0.0,0.0,0.0,-0.0467185387297019,0.0631387292968593,-0.48686318382497595,0.0,0.0,0.0,0.0,0.0,0.0,0.0,0.0,0.0,-0.6471802416806965,-5.402631167327471,11.426957656278606,0.0,0.0,0.0,0.0,0.0,0.0,0.0,0.0,0.0
160705000000,78,160704000000,base_link,-0.004098364003480772,-0.0050728471250209685,-0.7071117040238818,0.707071783956186,0.0,0.0,0.0,0.0,0.0,0.0,0.0,0.0,0.0,0.05500035398589883,0.0645606538939352,0.4866340722688618,0.0,0.0,0.0,0.0,0.0,0.0,0.0,0.0,0.0,-0.6471802416806965,-5.402631167327471,11.426957656278606,0.0,0.0,0.0,0.0,0.0,0.0,0.0,0.0,0.0
160706000000,79,160705000000,base_link,-0.004057327793657106,-0.005068470957299944,-0.7069396326432372,0.7072440911676638,0.0,0.0,0.0,0.0,0.0,0.0,0.0,0.0,0.0,0.05500035398589883,0.0645606538939352,0.4866340722688618,0.0,0.0,0.0,0.0,0.0,0.0,0.0,0.0,0.0,1.4232000920060974,5.709875646719474,11.979390410158738,0.0,0.0,0.0,0.0,0.0,0.0,0.0,0.0,0.0
160707000000,80,160706000000,base_link,-0.004055538918596894,-0.005025693709709264,-0.7071118880492137,0.7070721835755471,0.0,0.0,0.0,0.0,0.0,0.0,0.0,0.0,0.0,-0.06109263657494951,0.06269234247616733,-0.4863808420762121,0.0,0.0,0.0,0.0,0.0,0.0,0.0,0.0,0.0,-1.0432991493401533,-4.825637468000836,12.146949817327451,0.0,0.0,0.0,0.0,0.0,0.0,0.0,0.0,0.0
160708000000,81,160707000000,base_link,-0.004031958734413815,-0.005032542506920215,-0.7069396890977512,0.7072444363889016,0.0,0.0,0.0,0.0,0.0,0.0,0.0,0.0,0.0,0.04615951222653797,0.023997130500209036,0.48682565127844546,0.0,0.0,0.0,0.0,0.0,0.0,0.0,0.0,0.0,1.0229012024005335,6.170574889378806,12.163607062805077,0.0,0.0,0.0,0.0,0.0,0.0,0.0,0.0,0.0
160709000000,82,160708000000,base_link,-0.004055998301577308,-0.005010210195765099,-0.7071119654607751,0.7070722134080587,0.0,0.0,0.0,0.0,0.0,0.0,0.0,0.0,0.0,-0.0687016646876411,-0.0027444592940557497,-0.4867634881080489,0.0,0.0,0.0,0.0,0.0,0.0,0.0,0.0,0.0,-1.3308496922498703,-5.2422855883697075,11.29535461616836,0.0,0.0,0.0,0.0,0.0,0.0,0.0,0.0,0.0
160710000000,83,160709000000,base_link,-0.004055855694662742,-0.005041069819808567,-0.7069394819119428,0.7072444461172739,0.0,0.0,0.0,0.0,0.0,0.0,0.0,0.0,0.0,0.046969595834712066,-0.0431116303553966,0.48724052091837067,0.0,0.0,0.0,0.0,0.0,0.0,0.0,0.0,0.0,0.9255671444430387,5.913989261625575,10.364930466305143,0.0,0.0,0.0,0.0,0.0,0.0,0.0,0.0,0.0
160711000000,84,160710000000,base_link,-0.004097868683181591,-0.005077809114790205,-0.7069393504994022,0.7072440724688562,0.0,0.0,0.0,0.0,0.0,0.0,0.0,0.0,0.0,0.053457517220153926,-0.06058520783069955,0.4865593016506774,0.0,0.0,0.0,0.0,0.0,0.0,0.0,0.0,0.0,1.2007747286744388,5.222589476371264,7.832865718341035,0.0,0.0,0.0,0.0,0.0,0.0,0.0,0.0,0.0
160712000000,85,160711000000,base_link,-0.004097868683181591,-0.005077809114790205,-0.7069393504994022,0.7072440724688562,0.0,0.0,0.0,0.0,0.0,0.0,0.0,0.0,0.0,0.053457517220153926,-0.06058520783069955,0.4865593016506774,0.0,0.0,0.0,0.0,0.0,0.0,0.0,0.0,0.0,1.2007747286744388,5.222589476371264,7.832865718341035,0.0,0.0,0.0,0.0,0.0,0.0,0.0,0.0,0.0
160713000000,86,160712000000,base_link,-0.004127513179154665,-0.005075605961991069,-0.7071114709309272,0.7070718277070407,0.0,0.0,0.0,0.0,0.0,0.0,0.0,0.0,0.0,-0.048206442607430657,-0.03913598731073913,-0.4866764099813682,0.0,0.0,0.0,0.0,0.0,0.0,0.0,0.0,0.0,-0.9299781356816527,-5.925266943518038,7.203660337773282,0.0,0.0,0.0,0.0,0.0,0.0,0.0,0.0,0.0
160714000000,87,160713000000,base_link,-0.004129064117402902,-0.00508674111892467,-0.7071113997288273,0.707071809838182,0.0,0.0,0.0,0.0,0.0,0.0,0.0,0.0,0.0,-0.04243237158175921,0.009150692541420225,-0.48637275868119284,0.0,0.0,0.0,0.0,0.0,0.0,0.0,0.0,0.0,-0.7574958890852196,-5.406810187181731,7.338350643175152,0.0,0.0,0.0,0.0,0.0,0.0,0.0,0.0,0.0
160715000000,88,160714000000,base_link,-0.004129064117402902,-0.00508674111892467,-0.7071113997288273,0.707071809838182,0.0,0.0,0.0,0.0,0.0,0.0,0.0,0.0,0.0,0.05621229260008892,0.026483559555482816,0.48676244985920614,0.0,0.0,0.0,0.0,0.0,0.0,0.0,0.0,0.0,1.5184226890926813,4.889929945699342,7.94224511956531,0.0,0.0,0.0,0.0,0.0,0.0,0.0,0.0,0.0
160716000000,89,160715000000,base_link,-0.004093819736092692,-0.005063158600047816,-0.7071114680862363,0.707072115675542,0.0,0.0,0.0,0.0,0.0,0.0,0.0,0.0,0.0,-0.03970053514386042,0.05670858372751271,-0.48659252506301076,0.0,0.0,0.0,0.0,0.0,0.0,0.0,0.0,0.0,-0.7798795355504788,-4.955106429812153,8.51953007722358,0.0,0.0,0.0,0.0,0.0,0.0,0.0,0.0,0.0
160717000000,90,160716000000,base_link,-0.004093819736092692,-0.005063158600047816,-0.7071114680862363,0.707072115675542,0.0,0.0,0.0,0.0,0.0,0.0,0.0,0.0,0.0,-0.03970053514386042,0.05670858372751271,-0.48659252506301076,0.0,0.0,0.0,0.0,0.0,0.0,0.0,0.0,0.0,-0.7798795355504788,-4.955106429812153,8.51953007722358,0.0,0.0,0.0,0.0,0.0,0.0,0.0,0.0,0.0
160718000000,91,160717000000,base_link,-0.0040578063785217545,-0.005060849607890853,-0.7069394080246836,0.7072443675211211,0.0,0.0,0.0,0.0,0.0,0.0,0.0,0.0,0.0,0.05081532450261343,0.054531676951186915,0.4865744915575776,0.0,0.0,0.0,0.0,0.0,0.0,0.0,0.0,0.0,1.3581089764909906,4.859570779155784,9.72045266642748,0.0,0.0,0.0,0.0,0.0,0.0,0.0,0.0,0.0
160719000000,92,160718000000,base_link,-0.0040571168581228665,-0.005025021880874579,-0.7071116435996007,0.7070724237613624,0.0,0.0,0.0,0.0,0.0,0.0,0.0,0.0,0.0,-0.05281949267061674,0.051310250315104035,-0.48644914984661136,0.0,0.0,0.0,0.0,0.0,0.0,0.0,0.0,0.0,-1.0701392685031732,-4.41519077249309,11.134979584875007,0.0,0.0,0.0,0.0,0.0,0.0,0.0,0.0,0.0
160720000000,93,160719000000,base_link,-0.004040193845669463,-0.0050385788599950675,-0.7069394080021164,0.7072446273888393,0.0,0.0,0.0,0.0,0.0,0.0,0.0,0.0,0.0,0.04623246359609663,0.0050944803820826765,0.48682039590096304,0.0,0.0,0.0,0.0,0.0,0.0,0.0,0.0,0.0,0.9483068493752393,5.546420276921374,12.555798145818837,0.0,0.0,0.0,0.0,0.0,0.0,0.0,0.0,0.0
160721000000,94,160720000000,base_link,-0.004069585410763291,-0.005027575784671643,-0.707111514095097,0.7070724634649925,0.0,0.0,0.0,0.0,0.0,0.0,0.0,0.0,0.0,-0.060256561426790464,-0.026336619293187622,-0.4864760661124139,0.0,0.0,0.0,0.0,0.0,0.0,0.0,0.0,0.0,-1.2003960958236033,-4.902583727494354,13.286287758969072,0.0,0.0,0.0,0.0,0.0,0.0,0.0,0.0,0.0
160722000000,95,160721000000,base_link,-0.00411663205635899,-0.005069122488213466,-0.7071111458761447,0.7070722627252732,0.0,0.0,0.0,0.0,0.0,0.0,0.0,0.0,0.0,-0.056678717269192526,-0.061055231373155695,-0.48616607293097563,0.0,0.0,0.0,0.0,0.0,0.0,0.0,0.0,0.0,-0.5011222600591129,-5.594972421795562,13.577900539238545,0.0,0.0,0.0,0.0,0.0,0.0,0.0,0.0,0.0
160723000000,96,160722000000,base_link,-0.00411663205635899,-0.005069122488213466,-0.7071111458761447,0.7070722627252732,0.0,0.0,0.0,0.0,0.0,0.0,0.0,0.0,0.0,-0.056678717269192526,-0.061055231373155695,-0.48616607293097563,0.0,0.0,0.0,0.0,0.0,0.0,0.0,0.0,0.0,-0.5011222600591129,-5.594972421795562,13.577900539238545,0.0,0.0,0.0,0.0,0.0,0.0,0.0,0.0,0.0
160724000000,97,160723000000,base_link,-0.004118428897626877,-0.005106382436802476,-0.7069390443578347,0.7072440533254809,0.0,0.0,0.0,0.0,0.0,0.0,0.0,0.0,0.0,0.053312062992358016,-0.05490738901796118,0.4860379767944778,0.0,0.0,0.0,0.0,0.0,0.0,0.0,0.0,0.0,2.229165765785121,5.337598206877741,13.65218786356727,0.0,0.0,0.0,0.0,0.0,0.0,0.0,0.0,0.0
160725000000,98,160724000000,base_link,-0.004141328578916874,-0.005092941662764984,-0.7071107497916121,0.7070723434500642,0.0,0.0,0.0,0.0,0.0,0.0,0.0,0.0,0.0,-0.05456288141426474,-0.013704862346593478,-0.485307560067789,0.0,0.0,0.0,0.0,0.0,0.0,0.0,0.0,0.0,0.41415523520478736,-5.742443540433173,13.512961460873807,0.0,0.0,0.0,0.0,0.0,0.0,0.0,0.0,0.0
160726000000,99,160725000000,base_link,-0.004119311186762635,-0.0051176128846579004,-0.7069390842278407,0.7072439271600793,0.0,0.0,0.0,0.0,0.0,0.0,0.0,0.0,0.0,0.06919608707977895,-0.003425323472436931,0.4849887213030574,0.0,0.0,0.0,0.0,0.0,0.0,0.0,0.0,0.0,2.653328424138273,5.414799462086981,11.876315669930147,0.0,0.0,0.0,0.0,0.0,0.0,0.0,0.0,0.0
160727000000,100,160726000000,base_link,-0.004127924273703307,-0.005098229815967865,-0.7071110398676395,0.7070720936306563,0.0,0.0,0.0,0.0,0.0,0.0,0.0,0.0,0.0,-0.042764082153178555,0.014897182709527453,-0.48593300763183056,0.0,0.0,0.0,0.0,0.0,0.0,0.0,0.0,0.0,0.4996892818459951,-6.763394508629044,11.492644184761147,0.0,0.0,0.0,0.0,0.0,0.0,0.0,0.0,0.0
160728000000,101,160727000000,base_link,-0.004119632836885475,-0.005097589045321631,-0.7071105502889418,0.7070726362130586,0.0,0.0,0.0,0.0,0.0,0.0,0.0,0.0,0.0,-0.05238631357561178,0.008254117464823567,-0.4849726577882481,0.0,0.0,0.0,0.0,0.0,0.0,0.0,0.0,0.0,0.5929725364031784,-5.600615371628725,10.925630185560156,0.0,0.0,0.0,0.0,0.0,0.0,0.0,0.0,0.0
160729000000,102,160728000000,base_link,-0.004119632836885475,-0.005097589045321631,-0.7071105502889418,0.7070726362130586,0.0,0.0,0.0,0.0,0.0,0.0,0.0,0.0,0.0,-0.05238631357561178,0.008254117464823567,-0.4849726577882481,0.0,0.0,0.0,0.0,0.0,0.0,0.0,0.0,0.0,0.5929725364031784,-5.600615371628725,10.925630185560156,0.0,0.0,0.0,0.0,0.0,0.0,0.0,0.0,0.0
160730000000,103,160729000000,base_link,-0.004132661639725724,-0.005105709695338725,-0.7071097594794928,0.7070732924422561,0.0,0.0,0.0,0.0,0.0,0.0,0.0,0.0,0.0,-0.06136597216356125,-0.017080588200799038,-0.48492967374259976,0.0,0.0,0.0,0.0,0.0,0.0,0.0,0.0,0.0,0.7465905520636166,-5.646070530092811,9.970734951148678,0.0,0.0,0.0,0.0,0.0,0.0,0.0,0.0,0.0
160731000000,104,160730000000,base_link,-0.004130673003353226,-0.005135157744629693,-0.70693754858236,0.707245268700923,0.0,0.0,0.0,0.0,0.0,0.0,0.0,0.0,0.0,0.047638187937451684,-0.03849874815375137,0.4864799440367563,0.0,0.0,0.0,0.0,0.0,0.0,0.0,0.0,0.0,3.0945297576157706,6.602612285738892,9.689805878478074,0.0,0.0,0.0,0.0,0.0,0.0,0.0,0.0,0.0
160732000000,105,160731000000,base_link,-0.004130673003353226,-0.005135157744629693,-0.70693754858236,0.707245268700923,0.0,0.0,0.0,0.0,0.0,0.0,0.0,0.0,0.0,0.047638187937451684,-0.03849874815375137,0.4864799440367563,0.0,0.0,0.0,0.0,0.0,0.0,0.0,0.0,0.0,3.0945297576157706,6.602612285738892,9.689805878478074,0.0,0.0,0.0,0.0,0.0,0.0,0.0,0.0,0.0
160733000000,106,160732000000,base_link,-0.004166062697011461,-0.0051256742369523555,-0.7071092151352487,0.7070734963609043,0.0,0.0,0.0,0.0,0.0,0.0,0.0,0.0,0.0,-0.0666490245423295,-0.03696823513673736,-0.4852435533606879,0.0,0.0,0.0,0.0,0.0,0.0,0.0,0.0,0.0,0.9140110491778238,-5.88693852166765,9.092318267100898,0.0,0.0,0.0,0.0,0.0,0.0,0.0,0.0,0.0
160734000000,107,160733000000,base_link,-0.004204069954369742,-0.005149488519307636,-0.7071089612662281,0.707073352249117,0.0,0.0,0.0,0.0,0.0,0.0,0.0,0.0,0.0,-0.06740721418943109,-0.038031631514203065,-0.48522896502930324,0.0,0.0,0.0,0.0,0.0,0.0,0.0,0.0,0.0,1.0527628739896253,-6.317865220014891,8.328924389951373,0.0,0.0,0.0,0.0,0.0,0.0,0.0,0.0,0.0
160735000000,108,160734000000,base_link,-0.004203236349519923,-0.005181183085573088,-0.7069373354513857,0.7072447185316542,0.0,0.0,0.0,0.0,0.0,0.0,0.0,0.0,0.0,0.04921030668828134,-0.04332002526582581,0.48477828542463575,0.0,0.0,0.0,0.0,0.0,0.0,0.0,0.0,0.0,3.440429342299468,6.4343675011821535,8.374416197168596,0.0,0.0,0.0,0.0,0.0,0.0,0.0,0.0,0.0
160736000000,109,160735000000,base_link,-0.0042343011223704655,-0.00517012856828659,-0.7071091458395441,0.7070728366545155,0.0,0.0,0.0,0.0,0.0,0.0,0.0,0.0,0.0,-0.0627957794025931,-0.028621982029572078,-0.4856285922572443,0.0,0.0,0.0,0.0,0.0,0.0,0.0,0.0,0.0,1.279437021233571,-6.608961325579318,8.260201781462658,0.0,0.0,0.0,0.0,0.0,0.0,0.0,0.0,0.0
160737000000,110,160736000000,base_link,-0.004227336180605216,-0.005198822688017359,-0.7069377151958558,0.7072440658677437,0.0,0.0,0.0,0.0,0.0,0.0,0.0,0.0,0.0,0.053651901883679215,-0.030408941967543183,0.48426838451226206,0.0,0.0,0.0,0.0,0.0,0.0,0.0,0.0,0.0,3.680821740771703,6.264606248603686,8.363872062692156,0.0,0.0,0.0,0.0,0.0,0.0,0.0,0.0,0.0
160738000000,111,160737000000,base_link,-0.00425063476046306,-0.005184501364493676,-0.7071096004958726,0.707072178731636,0.0,0.0,0.0,0.0,0.0,0.0,0.0,0.0,0.0,-0.056444585658621066,-0.013017935449112662,-0.4857933975018477,0.0,0.0,0.0,0.0,0.0,0.0,0.0,0.0,0.0,1.526952003712201,-6.736316838591075,8.364658922714248,0.0,0.0,0.0,0.0,0.0,0.0,0.0,0.0,0.0
160739000000,112,160738000000,base_link,-0.0042351235578449685,-0.005209145673020637,-0.7069383360703633,0.707243322714236,0.0,0.0,0.0,0.0,0.0,0.0,0.0,0.0,0.0,0.060018318176923935,-0.012595742266512389,0.48385739807146666,0.0,0.0,0.0,0.0,0.0,0.0,0.0,0.0,0.0,3.941052358946624,6.178551599392319,8.528049044914404,0.0,0.0,0.0,0.0,0.0,0.0,0.0,0.0,0.0
160740000000,113,160739000000,base_link,-0.004250223819283244,-0.0051897231219027165,-0.7071100370868472,0.7070717062805169,0.0,0.0,0.0,0.0,0.0,0.0,0.0,0.0,0.0,-0.052062676452732506,0.0057894319913733006,-0.48519144872752296,0.0,0.0,0.0,0.0,0.0,0.0,0.0,0.0,0.0,1.8296716602691696,-6.816686090845288,8.683346427797488,0.0,0.0,0.0,0.0,0.0,0.0,0.0,0.0,0.0
160741000000,114,160740000000,base_link,-0.004226229472815182,-0.005210147003700964,-0.7069387639660893,0.707242940830618,0.0,0.0,0.0,0.0,0.0,0.0,0.0,0.0,0.0,0.06604860307496599,0.005372410311084746,0.483945447879699,0.0,0.0,0.0,0.0,0.0,0.0,0.0,0.0,0.0,4.255941265992699,6.367054398589588,8.934168482906676,0.0,0.0,0.0,0.0,0.0,0.0,0.0,0.0,0.0
160742000000,115,160741000000,base_link,-0.004234451869123586,-0.005185920863938832,-0.7071104078631675,0.7070714580109607,0.0,0.0,0.0,0.0,0.0,0.0,0.0,0.0,0.0,-0.049121290916959784,0.02230598355360979,-0.48495313842436316,0.0,0.0,0.0,0.0,0.0,0.0,0.0,0.0,0.0,2.1577089920613486,-6.951651436871813,9.245727115559163,0.0,0.0,0.0,0.0,0.0,0.0,0.0,0.0,0.0
160743000000,116,160742000000,base_link,-0.0042038499439594245,-0.005203376569413915,-0.7069391307533387,0.707242757423248,0.0,0.0,0.0,0.0,0.0,0.0,0.0,0.0,0.0,0.07118889716425289,0.01891917893014324,0.48400029160659525,0.0,0.0,0.0,0.0,0.0,0.0,0.0,0.0,0.0,4.592577655747453,6.629512778304308,9.551010920831276,0.0,0.0,0.0,0.0,0.0,0.0,0.0,0.0,0.0
160744000000,117,160743000000,base_link,-0.004209307143183409,-0.0051756862232400025,-0.7071106011797496,0.7070714898118194,0.0,0.0,0.0,0.0,0.0,0.0,0.0,0.0,0.0,-0.050094326329616926,0.031111111270725102,-0.48440439765479015,0.0,0.0,0.0,0.0,0.0,0.0,0.0,0.0,0.0,2.455769941233171,-7.0824222885410535,9.811454591927788,0.0,0.0,0.0,0.0,0.0,0.0,0.0,0.0,0.0
160745000000,118,160744000000,base_link,-0.004176829432082869,-0.0051935234718975525,-0.7069393291704655,0.7072427916082666,0.0,0.0,0.0,0.0,0.0,0.0,0.0,0.0,0.0,0.0743689687319257,0.02103758402084623,0.4839754028042644,0.0,0.0,0.0,0.0,0.0,0.0,0.0,0.0,0.0,4.932471106601906,7.090165886484991,10.169366894634004,0.0,0.0,0.0,0.0,0.0,0.0,0.0,0.0,0.0
160746000000,119,160745000000,base_link,-0.004186969725263005,-0.00516575826529748,-0.7071105581131514,0.707071738107932,0.0,0.0,0.0,0.0,0.0,0.0,0.0,0.0,0.0,-0.05680741891295964,0.02458998850207711,-0.48371251002960663,0.0,0.0,0.0,0.0,0.0,0.0,0.0,0.0,0.0,2.831836521070181,-7.297296367308406,10.474876896643574,0.0,0.0,0.0,0.0,0.0,0.0,0.0,0.0,0.0
160747000000,120,160746000000,base_link,-0.004186969725263005,-0.00516575826529748,-0.7071105581131514,0.707071738107932,0.0,0.0,0.0,0.0,0.0,0.0,0.0,0.0,0.0,-0.05680741891295964,0.02458998850207711,-0.48371251002960663,0.0,0.0,0.0,0.0,0.0,0.0,0.0,0.0,0.0,2.831836521070181,-7.297296367308406,10.474876896643574,0.0,0.0,0.0,0.0,0.0,0.0,0.0,0.0,0.0
160748000000,121,160747000000,base_link,-0.00415996102713275,-0.005188998287681939,-0.7069388720704156,0.707243381147418,0.0,0.0,0.0,0.0,0.0,0.0,0.0,0.0,0.0,0.07427181250385587,0.0056671897195377866,0.48505627143698826,0.0,0.0,0.0,0.0,0.0,0.0,0.0,0.0,0.0,5.274419366404576,7.816449652652443,10.843402800357417,0.0,0.0,0.0,0.0,0.0,0.0,0.0,0.0,0.0
160749000000,122,160748000000,base_link,-0.004163371782041173,-0.005197100946359095,-0.706938183791736,0.7072439895639975,0.0,0.0,0.0,0.0,0.0,0.0,0.0,0.0,0.0,0.0726265534892535,-0.019146137734119908,0.4852068273549283,0.0,0.0,0.0,0.0,0.0,0.0,0.0,0.0,0.0,5.4991930842985335,8.433618259079402,11.129728314219825,0.0,0.0,0.0,0.0,0.0,0.0,0.0,0.0,0.0
160750000000,123,160749000000,base_link,-0.004097391246830788,-0.005085456638149516,-0.706970767803935,0.7072126151211293,0.0,0.0,0.0,0.0,0.0,0.0,0.0,0.0,0.0,-0.06512250739694235,0.2511530601442772,-0.09020545921460665,0.0,0.0,0.0,0.0,0.0,0.0,0.0,0.0,0.0,-31.427933906234315,-8.216714782717728,11.53080606980089,0.0,0.0,0.0,0.0,0.0,0.0,0.0,0.0,0.0
160751000000,124,160750000000,base_link,-0.003905921597505801,-0.00493454256355859,-0.7069710754206866,0.707214460107173,0.0,0.0,0.0,0.0,0.0,0.0,0.0,0.0,0.0,0.05744781668231838,0.4842048651247298,0.0014628883667399722,0.0,0.0,0.0,0.0,0.0,0.0,0.0,0.0,0.0,-31.642261228068158,7.685344866342696,11.576733266113708,0.0,0.0,0.0,0.0,0.0,0.0,0.0,0.0,0.0
160752000000,125,160751000000,base_link,-0.003889568591635327,-0.004885250999920198,-0.7069662971965208,0.7072196689905332,0.0,0.0,0.0,0.0,0.0,0.0,0.0,0.0,0.0,-0.046477407456327044,0.09285569772885306,0.014347186967913723,0.0,0.0,0.0,0.0,0.0,0.0,0.0,0.0,0.0,39.08000313994055,-5.925093913364171,9.516222019993737,0.0,0.0,0.0,0.0,0.0,0.0,0.0,0.0,0.0
160753000000,126,160752000000,base_link,-0.0037874507804035685,-0.00480369188521319,-0.7069715397504389,0.7072155412204624,0.0,0.0,0.0,0.0,0.0,0.0,0.0,0.0,0.0,0.029037026036082006,0.25974857636557647,-0.013614945992271517,0.0,0.0,0.0,0.0,0.0,0.0,0.0,0.0,0.0,-32.59777320774723,5.179200074439429,10.539764170607343,0.0,0.0,0.0,0.0,0.0,0.0,0.0,0.0,0.0
160754000000,127,160753000000,base_link,-0.0038504790313668865,-0.004845081583577744,-0.7069658938880253,0.7072205623953411,0.0,0.0,0.0,0.0,0.0,0.0,0.0,0.0,0.0,-0.030534162884541756,-0.14765576204425196,0.015377352504456368,0.0,0.0,0.0,0.0,0.0,0.0,0.0,0.0,0.0,38.77840235092048,-3.5055195153194303,9.090668456294205,0.0,0.0,0.0,0.0,0.0,0.0,0.0,0.0,0.0
160755000000,128,160754000000,base_link,-0.0038222852371978,-0.004830493347642766,-0.7069717555260845,0.7072149555530836,0.0,0.0,0.0,0.0,0.0,0.0,0.0,0.0,0.0,0.019151713144566557,0.06048911168328018,-0.016379493508085773,0.0,0.0,0.0,0.0,0.0,0.0,0.0,0.0,0.0,-34.59610256182186,2.816584423437571,9.0452960447915,0.0,0.0,0.0,0.0,0.0,0.0,0.0,0.0,0.0
160756000000,129,160755000000,base_link,-0.0037371525190175053,-0.004732450597437571,-0.7069759890705901,0.7072118413036177,0.0,0.0,0.0,0.0,0.0,0.0,0.0,0.0,0.0,-0.01827735492135453,0.2590497320006355,-0.010464396235551638,0.0,0.0,0.0,0.0,0.0,0.0,0.0,0.0,0.0,-34.38322467859945,-2.349727474698434,10.064264458867392,0.0,0.0,0.0,0.0,0.0,0.0,0.0,0.0,0.0
160757000000,130,160756000000,base_link,-0.003777404528301338,-0.0047785535179083955,-0.7069705623360668,0.7072167423297696,0.0,0.0,0.0,0.0,0.0,0.0,0.0,0.0,0.0,0.008341915680607298,-0.12211764427520458,0.014641911479198327,0.0,0.0,0.0,0.0,0.0,0.0,0.0,0.0,0.0,36.989710633316975,1.762707208206177,9.580386152659294,0.0,0.0,0.0,0.0,0.0,0.0,0.0,0.0,0.0
160758000000,131,160757000000,base_link,-0.003752433358553618,-0.0047446415089312174,-0.7069762869414379,0.7072113809345398,0.0,0.0,0.0,0.0,0.0,0.0,0.0,0.0,0.0,-0.012724740465973071,0.0832660538156974,-0.01566022412816181,0.0,0.0,0.0,0.0,0.0,0.0,0.0,0.0,0.0,-34.200052082242735,-1.236628047713283,10.17323886293105,0.0,0.0,0.0,0.0,0.0,0.0,0.0,0.0,0.0
160759000000,132,160758000000,base_link,-0.0038540281753819262,-0.0048369369036782486,-0.7069707930679751,0.707215701364903,0.0,0.0,0.0,0.0,0.0,0.0,0.0,0.0,0.0,-0.013112153399425869,-0.2741951954846711,0.014150940776343844,0.0,0.0,0.0,0.0,0.0,0.0,0.0,0.0,0.0,37.81588686089505,1.2443938554688854,9.26387501193753,0.0,0.0,0.0,0.0,0.0,0.0,0.0,0.0,0.0
160760000000,133,160759000000,base_link,-0.003869672402760753,-0.004837077029821446,-0.7069763431636122,0.7072100667611495,0.0,0.0,0.0,0.0,0.0,0.0,0.0,0.0,0.0,-0.022026679066329838,-0.022329950490346112,-0.01566696994705662,0.0,0.0,0.0,0.0,0.0,0.0,0.0,0.0,0.0,-33.6581036476123,0.3783612723012814,8.054058161766102,0.0,0.0,0.0,0.0,0.0,0.0,0.0,0.0,0.0
160761000000,134,160760000000,base_link,-0.003869672402760753,-0.004837077029821446,-0.7069763431636122,0.7072100667611495,0.0,0.0,0.0,0.0,0.0,0.0,0.0,0.0,0.0,-0.01182651651010802,-0.3343796335071099,0.015898466950703925,0.0,0.0,0.0,0.0,0.0,0.0,0.0,0.0,0.0,38.32855982632076,0.6438467651911934,7.007039736576709,0.0,0.0,0.0,0.0,0.0,0.0,0.0,0.0,0.0
160762000000,135,160761000000,base_link,-0.004011558657086698,-0.004961053051334582,-0.7069756740013209,0.7072090862822258,0.0,0.0,0.0,0.0,0.0,0.0,0.0,0.0,0.0,-0.013568137625597596,-0.04160946539512048,-0.015923182429415938,0.0,0.0,0.0,0.0,0.0,0.0,0.0,0.0,0.0,-33.60276790053466,-0.5847292581911309,5.211271067331393,0.0,0.0,0.0,0.0,0.0,0.0,0.0,0.0,0.0
160763000000,136,160762000000,base_link,-0.003980115989118954,-0.0049298133365932575,-0.7069004979052315,0.707284625648342,0.0,0.0,0.0,0.0,0.0,0.0,0.0,0.0,0.0,0.0016536106067594758,0.08879078655248109,0.21307808882639717,0.0,0.0,0.0,0.0,0.0,0.0,0.0,0.0,0.0,-13.621489995074151,-0.13636131398981688,5.670892805441404,0.0,0.0,0.0,0.0,0.0,0.0,0.0,0.0,0.0
160764000000,137,160763000000,base_link,-0.003980115989118954,-0.0049298133365932575,-0.7069004979052315,0.707284625648342,0.0,0.0,0.0,0.0,0.0,0.0,0.0,0.0,0.0,0.0016536106067594758,0.08879078655248109,0.21307808882639717,0.0,0.0,0.0,0.0,0.0,0.0,0.0,0.0,0.0,-13.621489995074151,-0.13636131398981688,5.670892805441404,0.0,0.0,0.0,0.0,0.0,0.0,0.0,0.0,0.0
160765000000,138,160764000000,base_link,-0.003942012821642155,-0.004902766820173243,-0.706887858992479,0.7072976588547782,0.0,0.0,0.0,0.0,0.0,0.0,0.0,0.0,0.0,0.03274620295691766,0.01915859777314676,0.4779826754086432,0.0,0.0,0.0,0.0,0.0,0.0,0.0,0.0,0.0,3.8872706041188145,1.4650426253182882,8.489281027212522,0.0,0.0,0.0,0.0,0.0,0.0,0.0,0.0,0.0
160766000000,139,160765000000,base_link,-0.003942012821642155,-0.004902766820173243,-0.706887858992479,0.7072976588547782,0.0,0.0,0.0,0.0,0.0,0.0,0.0,0.0,0.0,0.03274620295691766,0.01915859777314676,0.4779826754086432,0.0,0.0,0.0,0.0,0.0,0.0,0.0,0.0,0.0,3.8872706041188145,1.4650426253182882,8.489281027212522,0.0,0.0,0.0,0.0,0.0,0.0,0.0,0.0,0.0
160767000000,140,160766000000,base_link,-0.003951676218058474,-0.004891317686917406,-0.7070589969241785,0.7071266040356052,0.0,0.0,0.0,0.0,0.0,0.0,0.0,0.0,0.0,-0.03288300220626697,0.00220598721202442,-0.4837390608521852,0.0,0.0,0.0,0.0,0.0,0.0,0.0,0.0,0.0,1.3706914148176015,-3.743591691399783,7.628513374726959,0.0,0.0,0.0,0.0,0.0,0.0,0.0,0.0,0.0
160768000000,141,160767000000,base_link,-0.003943038815570131,-0.004925082163363822,-0.706887939213113,0.70729741792659,0.0,0.0,0.0,0.0,0.0,0.0,0.0,0.0,0.0,-0.019749387073154528,-0.04185633390242412,-0.4874737886254591,0.0,0.0,0.0,0.0,0.0,0.0,0.0,0.0,0.0,3.714971064685578,4.05838154002198,8.605632468219412,0.0,0.0,0.0,0.0,0.0,0.0,0.0,0.0,0.0
160769000000,142,160768000000,base_link,-0.003960720552233683,-0.004991800298749127,-0.7068890594477102,0.7072957318234121,0.0,0.0,0.0,0.0,0.0,0.0,0.0,0.0,0.0,0.08906606105365397,-0.07751165234144342,0.4831507325083113,0.0,0.0,0.0,0.0,0.0,0.0,0.0,0.0,0.0,4.143716132796748,4.644461159089295,10.17104248082382,0.0,0.0,0.0,0.0,0.0,0.0,0.0,0.0,0.0
160770000000,143,160769000000,base_link,-0.003960720552233683,-0.004991800298749127,-0.7068890594477102,0.7072957318234121,0.0,0.0,0.0,0.0,0.0,0.0,0.0,0.0,0.0,0.08906606105365397,-0.07751165234144342,0.4831507325083113,0.0,0.0,0.0,0.0,0.0,0.0,0.0,0.0,0.0,4.143716132796748,4.644461159089295,10.17104248082382,0.0,0.0,0.0,0.0,0.0,0.0,0.0,0.0,0.0
160771000000,144,160770000000,base_link,-0.0039893763945262105,-0.005089024478770492,-0.706889725743343,0.7072942120110544,0.0,0.0,0.0,0.0,0.0,0.0,0.0,0.0,0.0,0.10559481992097261,-0.10203020596693058,0.48338133866131405,0.0,0.0,0.0,0.0,0.0,0.0,0.0,0.0,0.0,4.74930798867222,5.622816930626101,11.810295403483162,0.0,0.0,0.0,0.0,0.0,0.0,0.0,0.0,0.0
160772000000,145,160771000000,base_link,-0.004019998316122088,-0.005121402435219479,-0.7070614230339379,0.707122164062093,0.0,0.0,0.0,0.0,0.0,0.0,0.0,0.0,0.0,-0.0006623978045360857,-0.08947531084685453,-0.4860655337579358,0.0,0.0,0.0,0.0,0.0,0.0,0.0,0.0,0.0,2.455799012525195,-7.2583727320962454,11.034682569028007,0.0,0.0,0.0,0.0,0.0,0.0,0.0,0.0,0.0
160773000000,146,160772000000,base_link,-0.004019998316122088,-0.005121402435219479,-0.7070614230339379,0.707122164062093,0.0,0.0,0.0,0.0,0.0,0.0,0.0,0.0,0.0,0.11458390133426788,-0.10715322870262783,0.4836553128023652,0.0,0.0,0.0,0.0,0.0,0.0,0.0,0.0,0.0,5.195927907601186,6.2894988869505974,12.387005699905945,0.0,0.0,0.0,0.0,0.0,0.0,0.0,0.0,0.0
160774000000,147,160773000000,base_link,-0.004048552967535062,-0.005230803198842463,-0.7070611040560381,0.70712151929341,0.0,0.0,0.0,0.0,0.0,0.0,0.0,0.0,0.0,-0.0003101906309547209,-0.08798284099576048,-0.4846980270282929,0.0,0.0,0.0,0.0,0.0,0.0,0.0,0.0,0.0,2.749324111943056,-7.175434802479584,11.178550029219684,0.0,0.0,0.0,0.0,0.0,0.0,0.0,0.0,0.0
160775000000,148,160774000000,base_link,-0.004048552967535062,-0.005230803198842463,-0.7070611040560381,0.70712151929341,0.0,0.0,0.0,0.0,0.0,0.0,0.0,0.0,0.0,-0.0003101906309547209,-0.08798284099576048,-0.4846980270282929,0.0,0.0,0.0,0.0,0.0,0.0,0.0,0.0,0.0,2.749324111943056,-7.175434802479584,11.178550029219684,0.0,0.0,0.0,0.0,0.0,0.0,0.0,0.0,0.0
160776000000,149,160775000000,base_link,-0.0040731981930391846,-0.005332790130769333,-0.7070602327325846,0.7071214872241152,0.0,0.0,0.0,0.0,0.0,0.0,0.0,0.0,0.0,-0.006367873192756834,-0.07802920317420081,-0.48350741336603176,0.0,0.0,0.0,0.0,0.0,0.0,0.0,0.0,0.0,2.937196893110712,-7.036608396428321,10.928946226052414,0.0,0.0,0.0,0.0,0.0,0.0,0.0,0.0,0.0
160777000000,150,160776000000,base_link,-0.004066669568074997,-0.0054000560105269746,-0.7068882863512552,0.7072929041161751,0.0,0.0,0.0,0.0,0.0,0.0,0.0,0.0,0.0,0.10758546047868138,-0.08547052116753176,0.48496050627322285,0.0,0.0,0.0,0.0,0.0,0.0,0.0,0.0,0.0,5.616767791495072,7.570972862741533,11.773986622087534,0.0,0.0,0.0,0.0,0.0,0.0,0.0,0.0,0.0
160778000000,151,160777000000,base_link,-0.004066669568074997,-0.0054000560105269746,-0.7068882863512552,0.7072929041161751,0.0,0.0,0.0,0.0,0.0,0.0,0.0,0.0,0.0,0.10758546047868138,-0.08547052116753176,0.48496050627322285,0.0,0.0,0.0,0.0,0.0,0.0,0.0,0.0,0.0,5.616767791495072,7.570972862741533,11.773986622087534,0.0,0.0,0.0,0.0,0.0,0.0,0.0,0.0,0.0
160780000000,152,160779000000,base_link,-0.0040824604333200235,-0.0054681351372652415,-0.7068867126805187,0.7072938628679459,0.0,0.0,0.0,0.0,0.0,0.0,0.0,0.0,0.0,0.09289223600248443,-0.06043480534395143,0.48556096251930725,0.0,0.0,0.0,0.0,0.0,0.0,0.0,0.0,0.0,4.435540996052119,0.6357232167149225,11.004663956381558,0.0,0.0,0.0,0.0,0.0,0.0,0.0,0.0,0.0
160781000000,153,160780000000,base_link,-0.004099787647402153,-0.005467703935870162,-0.7070582876757456,0.7071222481183564,0.0,0.0,0.0,0.0,0.0,0.0,0.0,0.0,0.0,-0.02839809764566184,-0.024362712350957254,-0.48513925319685625,0.0,0.0,0.0,0.0,0.0,0.0,0.0,0.0,0.0,1.9834542057751754,-6.304853717413718,10.334148171629527,0.0,0.0,0.0,0.0,0.0,0.0,0.0,0.0,0.0
160782000000,154,160781000000,base_link,-0.004079827368529275,-0.0055005475126552435,-0.7068868511564536,0.7072934883397541,0.0,0.0,0.0,0.0,0.0,0.0,0.0,0.0,0.0,0.07795218856235413,-0.017755812019808023,0.4841192267064537,0.0,0.0,0.0,0.0,0.0,0.0,0.0,0.0,0.0,4.531692172546851,7.424886998587613,11.293912115862609,0.0,0.0,0.0,0.0,0.0,0.0,0.0,0.0,0.0
160783000000,155,160782000000,base_link,-0.004086324921208779,-0.00548323140034566,-0.7070588148905664,0.7071216786434963,0.0,0.0,0.0,0.0,0.0,0.0,0.0,0.0,0.0,0.06291307920734449,0.01775480536302825,0.4841731200974451,0.0,0.0,0.0,0.0,0.0,0.0,0.0,0.0,0.0,2.1015322372031466,-6.00747895165208,10.470738900147882,0.0,0.0,0.0,0.0,0.0,0.0,0.0,0.0,0.0
160784000000,156,160783000000,base_link,-0.00405913176981551,-0.005498206211678235,-0.7068874729368334,0.7072930041946598,0.0,0.0,0.0,0.0,0.0,0.0,0.0,0.0,0.0,0.06291307920734449,0.01775480536302825,0.4841731200974451,0.0,0.0,0.0,0.0,0.0,0.0,0.0,0.0,0.0,4.5684976316969514,7.105335740119798,11.1564045768597,0.0,0.0,0.0,0.0,0.0,0.0,0.0,0.0,0.0
160785000000,157,160784000000,base_link,-0.004059317467904857,-0.005465253526809165,-0.7070596126748087,0.7071211756620869,0.0,0.0,0.0,0.0,0.0,0.0,0.0,0.0,0.0,-0.05013823656065658,0.045859851378056884,-0.4861637932165489,0.0,0.0,0.0,0.0,0.0,0.0,0.0,0.0,0.0,2.1374919039705422,-5.627944554219305,10.2899938813969,0.0,0.0,0.0,0.0,0.0,0.0,0.0,0.0,0.0
160786000000,158,160785000000,base_link,-0.004029589230495015,-0.005465257995791187,-0.7068883608705662,0.7072925410545461,0.0,0.0,0.0,0.0,0.0,0.0,0.0,0.0,0.0,0.045312375514629015,0.0425157328501318,0.4841976837693489,0.0,0.0,0.0,0.0,0.0,0.0,0.0,0.0,0.0,4.55968933223441,7.091327793794471,10.821961055012991,0.0,0.0,0.0,0.0,0.0,0.0,0.0,0.0,0.0
160787000000,159,160786000000,base_link,-0.0040292717845047095,-0.005420673207159017,-0.7070606201671299,0.7071206832498547,0.0,0.0,0.0,0.0,0.0,0.0,0.0,0.0,0.0,-0.06585179967830368,0.06302755049819642,-0.4862881628557213,0.0,0.0,0.0,0.0,0.0,0.0,0.0,0.0,0.0,2.116751037615742,-5.329596039614487,9.815386773314506,0.0,0.0,0.0,0.0,0.0,0.0,0.0,0.0,0.0
160788000000,160,160787000000,base_link,-0.004002570073381086,-0.0054118613401170955,-0.7068895275513687,0.7072919390377963,0.0,0.0,0.0,0.0,0.0,0.0,0.0,0.0,0.0,-0.08089731146118487,0.0626820769458706,-0.4864857981817845,0.0,0.0,0.0,0.0,0.0,0.0,0.0,0.0,0.0,4.483465988179796,7.027395812424142,10.22099055139054,0.0,0.0,0.0,0.0,0.0,0.0,0.0,0.0,0.0
160789000000,161,160788000000,base_link,-0.00398884661469647,-0.005351579383452615,-0.7068908959723167,0.7072911076015604,0.0,0.0,0.0,0.0,0.0,0.0,0.0,0.0,0.0,0.015038084700672553,0.04197979948645498,0.48371078060267714,0.0,0.0,0.0,0.0,0.0,0.0,0.0,0.0,0.0,4.42129480770522,6.9120906177422015,9.592701577841533,0.0,0.0,0.0,0.0,0.0,0.0,0.0,0.0,0.0
160790000000,162,160789000000,base_link,-0.004003511484522714,-0.005303494032356882,-0.7070633257564997,0.7071190127672995,0.0,0.0,0.0,0.0,0.0,0.0,0.0,0.0,0.0,-0.09194532387783848,0.04682139156656054,-0.4866800936894805,0.0,0.0,0.0,0.0,0.0,0.0,0.0,0.0,0.0,2.0569607459742345,-5.467942795727717,8.656863208573885,0.0,0.0,0.0,0.0,0.0,0.0,0.0,0.0,0.0
160791000000,163,160790000000,base_link,-0.00399444386795411,-0.0052998062765039185,-0.7068922998975334,0.7072900627162757,0.0,0.0,0.0,0.0,0.0,0.0,0.0,0.0,0.0,0.010792484747699244,0.018483040139316693,0.4836909267051534,0.0,0.0,0.0,0.0,0.0,0.0,0.0,0.0,0.0,4.4648825702187915,6.6735271945398855,9.264010996819085,0.0,0.0,0.0,0.0,0.0,0.0,0.0,0.0,0.0
160792000000,164,160791000000,base_link,-0.003921587946348681,-0.005167648607605548,-0.7069262955188819,0.7072574702750039,0.0,0.0,0.0,0.0,0.0,0.0,0.0,0.0,0.0,-0.08440265713405115,0.2898763153918268,-0.0938846747850862,0.0,0.0,0.0,0.0,0.0,0.0,0.0,0.0,0.0,-32.5380379999649,-6.21856519343515,8.889883918618816,0.0,0.0,0.0,0.0,0.0,0.0,0.0,0.0,0.0
160793000000,165,160792000000,base_link,-0.003781719379779048,-0.005034643741497758,-0.706850156493211,0.7073352862868157,0.0,0.0,0.0,0.0,0.0,0.0,0.0,0.0,0.0,0.011194146961673396,0.3860979948439406,0.2173177619834767,0.0,0.0,0.0,0.0,0.0,0.0,0.0,0.0,0.0,-13.597343419313527,5.110953090363269,8.072432791310943,0.0,0.0,0.0,0.0,0.0,0.0,0.0,0.0,0.0
160794000000,166,160793000000,base_link,-0.003682161693234,-0.0048922660043803695,-0.7070083379733881,0.7071787026308941,0.0,0.0,0.0,0.0,0.0,0.0,0.0,0.0,0.0,-0.06321521030691446,0.34178205123407623,-0.4450626759300442,0.0,0.0,0.0,0.0,0.0,0.0,0.0,0.0,0.0,0.8923249924571375,-5.0033056102964055,6.77568299323804,0.0,0.0,0.0,0.0,0.0,0.0,0.0,0.0,0.0
160795000000,167,160794000000,base_link,-0.003583291395031677,-0.004807959445857502,-0.7068404974511333,0.7073475487423276,0.0,0.0,0.0,0.0,0.0,0.0,0.0,0.0,0.0,0.023512737974219544,0.25945991361475274,0.4757911814532379,0.0,0.0,0.0,0.0,0.0,0.0,0.0,0.0,0.0,2.950276685104949,3.781798519329461,7.43566411215517,0.0,0.0,0.0,0.0,0.0,0.0,0.0,0.0,0.0
