%time,field.name0,field.name1,field.pose0.position.x,field.pose0.position.y,field.pose0.position.z,field.pose0.orientation.x,field.pose0.orientation.y,field.pose0.orientation.z,field.pose0.orientation.w,field.pose1.position.x,field.pose1.position.y,field.pose1.position.z,field.pose1.orientation.x,field.pose1.orientation.y,field.pose1.orientation.z,field.pose1.orientation.w,field.twist0.linear.x,field.twist0.linear.y,field.twist0.linear.z,field.twist0.angular.x,field.twist0.angular.y,field.twist0.angular.z,field.twist1.linear.x,field.twist1.linear.y,field.twist1.linear.z,field.twist1.angular.x,field.twist1.angular.y,field.twist1.angular.z
160616000000,hina_ssi_visual_root,khm2,0.0,0.0,0.0,0.0,0.0,0.0,1.0,-0.00015749466470560625,-0.004919468623085286,0.17424713883301063,-0.004055804310136108,-0.005066092317972372,-0.7071121014754101,0.7070716803175283,0.0,0.0,0.0,0.0,0.0,0.0,-0.0017940099285323535,-0.005153803568804585,-0.0006895980250981835,0.016471155822025765,0.06187437154396213,-0.48736791099425264
160617000000,hina_ssi_visual_root,khm2,0.0,0.0,0.0,0.0,0.0,0.0,1.0,-0.0001533210847520307,-0.004925489867818489,0.17424767681937423,-0.004051968534392574,-0.0050835032136247104,-0.7069397994200406,0.7072438472988127,0.0,0.0,0.0,0.0,0.0,0.0,0.004173579953575564,-0.006021244733202716,0.0005379863635949569,-0.01954781887761637,-0.026904075705225888,0.48732262919911457
160618000000,hina_ssi_visual_root,khm2,0.0,0.0,0.0,0.0,0.0,0.0,1.0,-0.00015412237181710477,-0.004930150492376011,0.17424917090102343,-0.0040865534006161545,-0.0050706021597287645,-0.7071121127673002,0.7070714596508662,0.0,0.0,0.0,0.0,0.0,0.0,-0.0008012870650740975,-0.004660624557522057,0.0014940816491997577,-0.030324439448287967,0.06399813786297989,-0.4879266765496472
160619000000,hina_ssi_visual_root,khm2,0.0,0.0,0.0,0.0,0.0,0.0,1.0,-0.00014983167462380258,-0.004935842773880342,0.17425141559367313,-0.0040886942464872095,-0.005102794841398774,-0.7069398529647193,0.7072434434863192,0.0,0.0,0.0,0.0,0.0,0.0,0.004290697193302209,-0.005692281504330625,0.00224469264970871,-0.04889641340533129,-0.039345396950094584,0.4870651047514992
160620000000,hina_ssi_visual_root,khm2,0.0,0.0,0.0,0.0,0.0,0.0,1.0,-0.0001516595388522508,-0.004940430580634936,0.17425368239063826,-0.004118075867240256,-0.005097822226342944,-0.7071120095037811,0.7070711843055302,0.0,0.0,0.0,0.0,0.0,0.0,-0.001827864228448218,-0.004587806754594167,0.002266796965123127,-0.03418091003309719,0.045409980047561374,-0.4874074613288113
160621000000,hina_ssi_visual_root,khm2,0.0,0.0,0.0,0.0,0.0,0.0,1.0,-0.0001489946114901244,-0.004946306053370184,0.17425562938632858,-0.004105536346191804,-0.005129343540456123,-0.7069398319897546,0.7072431748362451,0.0,0.0,0.0,0.0,0.0,0.0,0.002664927362126387,-0.0058754727352487365,0.0019469956902992813,-0.02718445296138768,-0.05913768500940001,0.4871041346147654
160622000000,hina_ssi_visual_root,khm2,0.0,0.0,0.0,0.0,0.0,0.0,1.0,-0.00015273530030301575,-0.004951254628681628,0.17425676632266093,-0.004116223713598325,-0.005116428762527973,-0.7071119531997297,0.7070711170038844,0.0,0.0,0.0,0.0,0.0,0.0,-0.0037406888128913426,-0.004948575311443434,0.0011369363323580524,0.0034957649352968523,0.030200042195572645,-0.486947869229748
160623000000,hina_ssi_visual_root,khm2,0.0,0.0,0.0,0.0,0.0,0.0,1.0,-0.0001516420177384229,-0.004957566618579368,0.17425697563707462,-0.004086521921885357,-0.005135276683313307,-0.7069396782808142,0.707243395546531,0.0,0.0,0.0,0.0,0.0,0.0,0.001093282564592844,-0.006311989897740392,0.00020931441370119,0.0150027877257912,-0.06547748069846315,0.48772078576599
160624000000,hina_ssi_visual_root,khm2,0.0,0.0,0.0,0.0,0.0,0.0,1.0,-0.00015605750860057588,-0.004962972644792135,0.17425551635501016,-0.004082615052767515,-0.005107319316856242,-0.7071119029369312,0.7070714279820948,0.0,0.0,0.0,0.0,0.0,0.0,-0.004415490862152983,-0.005406026212766617,-0.0014592820644748154,0.04541790350028984,0.030847683185378,-0.4869392762223217
160625000000,hina_ssi_visual_root,khm2,0.0,0.0,0.0,0.0,0.0,0.0,1.0,-0.00015487293034355525,-0.004969568282252014,0.17425332776803873,-0.004050203706221442,-0.005112224935526253,-0.7069397611728924,0.7072436886101994,0.0,0.0,0.0,0.0,0.0,0.0,0.0011845782570206196,-0.00659563745987892,-0.002188586971436972,0.038544814381499655,-0.049608987778830674,0.48741926732218166
160626000000,hina_ssi_visual_root,khm2,0.0,0.0,0.0,0.0,0.0,0.0,1.0,-0.00015805854880140619,-0.004975042118492465,0.17425013261756764,-0.004052477648626424,-0.005077146359979481,-0.7071119773996314,0.7070717441870591,0.0,0.0,0.0,0.0,0.0,0.0,-0.003185618457850939,-0.00547383624045049,-0.0031951504711008605,0.04674841452098985,0.049680225690361964,-0.48701379302017955
160627000000,hina_ssi_visual_root,khm2,0.0,0.0,0.0,0.0,0.0,0.0,1.0,-0.00015505610299344912,-0.004981450260508995,0.17424750890628624,-0.0040355005889322094,-0.0050838332348808225,-0.7069397223515163,0.7072440161190463,0.0,0.0,0.0,0.0,0.0,0.0,0.0030024458079570557,-0.0064081420165298065,-0.002623711281397524,0.01419838830046044,-0.030320146916177043,0.4874510489893146
160628000000,hina_ssi_visual_root,khm2,0.0,0.0,0.0,0.0,0.0,0.0,1.0,-0.00015643353650388883,-0.0049864446597298745,0.17424593226228788,-0.004062284417131978,-0.005060358650035646,-0.7071120266925066,0.7070717589625987,0.0,0.0,0.0,0.0,0.0,0.0,-0.0013774335104396905,-0.0049943992208798214,-0.0015766439983510797,-0.004333526234032294,0.06793150367382876,-0.48773508815752503
160629000000,hina_ssi_visual_root,khm2,0.0,0.0,0.0,0.0,0.0,0.0,1.0,-0.00015188231568507717,-0.004992299839294999,0.17424582885732112,-0.00406410708709608,-0.005086138250398435,-0.7069395298644962,0.7072440281446338,0.0,0.0,0.0,0.0,0.0,0.0,0.00455122081881166,-0.005855179565124566,-0.00010340496674629551,-0.03938182782216604,-0.030733441922904548,0.487753508151849
160630000000,hina_ssi_visual_root,khm2,0.0,0.0,0.0,0.0,0.0,0.0,1.0,-0.00015289316722478957,-0.00499685935793637,0.17424690323007086,-0.004101801708164672,-0.005079400040066013,-0.7071117257894642,0.7070716952113311,0.0,0.0,0.0,0.0,0.0,0.0,-0.0010108515397124164,-0.0045595186413702644,0.00107437274974655,-0.043440712549829535,0.05967409163804502,-0.487665229461283
160631000000,hina_ssi_visual_root,khm2,0.0,0.0,0.0,0.0,0.0,0.0,1.0,-0.00014900617847513731,-0.005002550781093856,0.17424897339966922,-0.004101256163729771,-0.0051159166996231475,-0.7069394753084725,0.7072436534496324,0.0,0.0,0.0,0.0,0.0,0.0,0.003886988749652271,-0.005691423157485585,0.0020701695983520486,-0.051210420822132875,-0.04925135197905472,0.48707937751150987
160632000000,hina_ssi_visual_root,khm2,0.0,0.0,0.0,0.0,0.0,0.0,1.0,-0.0001516884253904913,-0.005007239892636379,0.1742513298424201,-0.004125623077143523,-0.005110138076235503,-0.707111604082676,0.7070714568519169,0.0,0.0,0.0,0.0,0.0,0.0,-0.002682246915353987,-0.004689111542523395,0.002356442750860232,-0.025947668312596674,0.03945188129004936,-0.4872358431633399
160633000000,hina_ssi_visual_root,khm2,0.0,0.0,0.0,0.0,0.0,0.0,1.0,-0.0001496848165909206,-0.005013296667663917,0.1742537621809452,-0.004103810403959628,-0.005139690471701384,-0.706939486818649,0.7072434547584082,0.0,0.0,0.0,0.0,0.0,0.0,0.0020036087995707113,-0.006056775027537342,0.0024323385251338366,-0.011287335559031966,-0.0694612533681345,0.4871086307478173
160634000000,hina_ssi_visual_root,khm2,0.0,0.0,0.0,0.0,0.0,0.0,1.0,-0.00015428368280084718,-0.005018499334234616,0.1742553474740047,-0.004107564970403645,-0.005118443946725119,-0.7071115840302331,0.7070715219635372,0.0,0.0,0.0,0.0,0.0,0.0,-0.004598866209926605,-0.005202666570698634,0.0015852930594959826,0.025087124201399455,0.0321815636117591,-0.4867344090515135
160635000000,hina_ssi_visual_root,khm2,0.0,0.0,0.0,0.0,0.0,0.0,1.0,-0.00015325832882597215,-0.00502503601137472,0.17425634063766862,-0.004070977425648515,-0.005131449542799325,-0.7069393183071752,0.7072438727905503,0.0,0.0,0.0,0.0,0.0,0.0,0.0010253539748750354,-0.006536677140104047,0.0009931636639068566,0.0329996271763918,-0.06695520732026038,0.4878323066732015
160636000000,hina_ssi_visual_root,khm2,0.0,0.0,0.0,0.0,0.0,0.0,1.0,-0.00015768657614824373,-0.0050305951296654,0.17425571035812545,-0.004066599013621278,-0.005096223335328289,-0.7071115697225725,0.7070719335715837,0.0,0.0,0.0,0.0,0.0,0.0,-0.004428247322271575,-0.005559118290679676,-0.0006302795431669308,0.05636667159036924,0.04046943868719688,-0.48699059445158155
160637000000,hina_ssi_visual_root,khm2,0.0,0.0,0.0,0.0,0.0,0.0,1.0,-0.00015579192550872105,-0.0050372305283634695,0.17425459393359452,-0.0040364965134623235,-0.005098948131011616,-0.7069393915097565,0.7072442323240745,0.0,0.0,0.0,0.0,0.0,0.0,0.0018946506395226808,-0.006635398698069694,-0.001116424530941013,0.03836222065729928,-0.04326840134111598,0.4874826404944391
160638000000,hina_ssi_visual_root,khm2,0.0,0.0,0.0,0.0,0.0,0.0,1.0,-0.00015826559617315413,-0.005042642465254479,0.17425235358922875,-0.0040465218122582355,-0.005063030180107636,-0.7071116377338245,0.7070722192025414,0.0,0.0,0.0,0.0,0.0,0.0,-0.0024736706644330666,-0.005411936891009768,-0.0022403443657692396,0.03697084872620273,0.06183537182862369,-0.48723821705947495
160639000000,hina_ssi_visual_root,khm2,0.0,0.0,0.0,0.0,0.0,0.0,1.0,-0.00015427835583292448,-0.005048906743201167,0.17425059369828924,-0.004035750662430141,-0.005075167282918583,-0.7069393245899334,0.7072444745220494,0.0,0.0,0.0,0.0,0.0,0.0,0.003987240340229645,-0.0062642779466878145,-0.0017598909394971433,-0.002283395215999777,-0.029257622547869826,0.48749046621871667
160640000000,hina_ssi_visual_root,khm2,0.0,0.0,0.0,0.0,0.0,0.0,1.0,-0.00015520234455921808,-0.005053718292918641,0.1742494034100226,-0.004069982677543712,-0.005056954795701719,-0.7071116822513559,0.7070720835055333,0.0,0.0,0.0,0.0,0.0,0.0,-0.0009239887262936152,-0.004811549717473792,-0.0011902882666545538,-0.022312527326793466,0.07102026776764558,-0.4880324683165055
160641000000,hina_ssi_visual_root,khm2,0.0,0.0,0.0,0.0,0.0,0.0,1.0,-0.00015043078981686266,-0.005059418057319497,0.17424928294497272,-0.004075282436912069,-0.005089935486408812,-0.7069393765413702,0.7072440897774278,0.0,0.0,0.0,0.0,0.0,0.0,0.004771554742355427,-0.005699764400855736,-0.00012046504987847997,-0.05447924809656778,-0.036002190556703666,0.48713527837517057
160642000000,hina_ssi_visual_root,khm2,0.0,0.0,0.0,0.0,0.0,0.0,1.0,-0.00015177233167226598,-0.005063841645480792,0.17425004414795867,-0.00411707668674483,-0.005087454665194977,-0.7071115148038744,0.7070717595239929,0.0,0.0,0.0,0.0,0.0,0.0,-0.0013415418554033201,-0.004423588161295346,0.0007612029859447207,-0.05526213725369784,0.05944377211712051,-0.4875873164626074
160643000000,hina_ssi_visual_root,khm2,0.0,0.0,0.0,0.0,0.0,0.0,1.0,-0.00014808835229302765,-0.005069491408534085,0.17425133053823003,-0.004112371533740208,-0.005129140818033032,-0.7069392713339251,0.7072436970102289,0.0,0.0,0.0,0.0,0.0,0.0,0.00368397937923834,-0.005649763053292093,0.001286390271370617,-0.052636559394033534,-0.06243661302886099,0.4871260789512142
160644000000,hina_ssi_visual_root,khm2,0.0,0.0,0.0,0.0,0.0,0.0,1.0,-0.00015171811555191156,-0.005074183372927215,0.17425282019458982,-0.004135820206812961,-0.005121849200281997,-0.7071113553530286,0.7070715612883814,0.0,0.0,0.0,0.0,0.0,0.0,-0.0036297632588839137,-0.004691964393130004,0.0014896563597964155,-0.022508877013832706,0.04028631475046715,-0.48709020863155467
160645000000,hina_ssi_visual_root,khm2,0.0,0.0,0.0,0.0,0.0,0.0,1.0,-0.00014994963194242983,-0.005080321929951244,0.17425416619530948,-0.004106246250311366,-0.005151369975703419,-0.7069393075153373,0.7072435348724231,0.0,0.0,0.0,0.0,0.0,0.0,0.0017684836094817354,-0.006138557024029752,0.0013460007196536474,-0.00026704636459326726,-0.08038600153883005,0.4870563613846316
160646000000,hina_ssi_visual_root,khm2,0.0,0.0,0.0,0.0,0.0,0.0,1.0,-0.00015517666645998462,-0.005085685559308641,0.17425453061041732,-0.00410470610044452,-0.005123036660303928,-0.7071116462671323,0.7070714430639893,0.0,0.0,0.0,0.0,0.0,0.0,-0.0052270345175547935,-0.0053636293573966435,0.00036441510784453873,0.042600650746102,0.03471117650160432,-0.4873046978220993
160647000000,hina_ssi_visual_root,khm2,0.0,0.0,0.0,0.0,0.0,0.0,1.0,-0.00015413595137198194,-0.005092399865812059,0.17425431677637465,-0.004061312781357963,-0.005129795636497628,-0.7069395094829588,0.7072437492599092,0.0,0.0,0.0,0.0,0.0,0.0,0.0010407150880026748,-0.006714306503418318,-0.0002138340426645468,0.0514564599760129,-0.06774739903594185,0.4876055577810781
160648000000,hina_ssi_visual_root,khm2,0.0,0.0,0.0,0.0,0.0,0.0,1.0,-0.0001585373567153372,-0.005098075249114484,0.17425300072952954,-0.004056435188823755,-0.005087123907359036,-0.7071117426928849,0.7070718844995474,0.0,0.0,0.0,0.0,0.0,0.0,-0.0044014053433552545,-0.005675383302424732,-0.0013160468451236876,0.06760300749965817,0.05030005512566355,-0.48691428027976724
160649000000,hina_ssi_visual_root,khm2,0.0,0.0,0.0,0.0,0.0,0.0,1.0,-0.00015592178433858383,-0.005104769231376642,0.17425167365249064,-0.00402557413367069,-0.005087879947990292,-0.7069395456365671,0.7072442202278456,0.0,0.0,0.0,0.0,0.0,0.0,0.002615572376753349,-0.006693982262158206,-0.001327077038904877,0.04221892160698926,-0.04156318157791884,0.48755276494551847
160650000000,hina_ssi_visual_root,khm2,0.0,0.0,0.0,0.0,0.0,0.0,1.0,-0.00015803985237554516,-0.005110106779848519,0.1742502430364448,-0.004043228553492551,-0.005051698698663676,-0.7071118235701382,0.707072133244152,0.0,0.0,0.0,0.0,0.0,0.0,-0.002118068036961334,-0.005337548471876492,-0.0014306160458622402,0.026551501033549925,0.07300102519817435,-0.48746629629364063
160651000000,hina_ssi_visual_root,khm2,0.0,0.0,0.0,0.0,0.0,0.0,1.0,-0.0001532083408651987,-0.00511623617891758,0.17424973086544357,-0.004036980397726807,-0.0050704104072501355,-0.7069394260036916,0.7072444002529406,0.0,0.0,0.0,0.0,0.0,0.0,0.0048315115103464545,-0.006129399069061291,-0.0005121710012079075,-0.017975518993082067,-0.03216277843545374,0.4876335612044472
160652000000,hina_ssi_visual_root,khm2,0.0,0.0,0.0,0.0,0.0,0.0,1.0,-0.00015406664872043925,-0.005120860484679364,0.17425020744004202,-0.004080992590801587,-0.005056391949217549,-0.7071118066795041,0.7070718996356576,0.0,0.0,0.0,0.0,0.0,0.0,-0.0008583078552405624,-0.004624305761783994,0.00047657459845987585,-0.04207903581192902,0.07891577066850088,-0.4882850293796485
160653000000,hina_ssi_visual_root,khm2,0.0,0.0,0.0,0.0,0.0,0.0,1.0,-0.00014894998302563152,-0.005126441651373998,0.1742514953758052,-0.004084484463413183,-0.005100304641954371,-0.7069394753646538,0.7072438632115342,0.0,0.0,0.0,0.0,0.0,0.0,0.005116665694807741,-0.00558116669463404,0.0012879357631887314,-0.06737956424621595,-0.05401497897467659,0.48721932706372245
160654000000,hina_ssi_visual_root,khm2,0.0,0.0,0.0,0.0,0.0,0.0,1.0,-0.0001514280964635857,-0.005130857394825949,0.1742531102139642,-0.004126910898576348,-0.005098751344754927,-0.7071116219806106,0.7070715136399639,0.0,0.0,0.0,0.0,0.0,0.0,-0.002478113437954189,-0.004415743451951167,0.0016148381589888208,-0.05746741728226329,0.05901863426357001,-0.4876261860586193
160655000000,hina_ssi_visual_root,khm2,0.0,0.0,0.0,0.0,0.0,0.0,1.0,-0.0001481376492402134,-0.005136550113340954,0.174254937221475,-0.004117652618855033,-0.005142896981009508,-0.7069393862922001,0.7072434514764774,0.0,0.0,0.0,0.0,0.0,0.0,0.003290447223372288,-0.005692718515004878,0.0018270075107951287,-0.04967648435285257,-0.07234658106176588,0.4871831791983798
160656000000,hina_ssi_visual_root,khm2,0.0,0.0,0.0,0.0,0.0,0.0,1.0,-0.00015259794558764692,-0.005141404937894226,0.17425612693890422,-0.004133777784193123,-0.005133154928072392,-0.7071114503519713,0.7070713962414594,0.0,0.0,0.0,0.0,0.0,0.0,-0.0044602963474335055,-0.004854824553272331,0.0011897174292135534,-0.008681865499105282,0.033392311507715405,-0.48689370692782463
160657000000,hina_ssi_visual_root,khm2,0.0,0.0,0.0,0.0,0.0,0.0,1.0,-0.0001514965760147189,-0.005147700317541985,0.17425692931370054,-0.004100859986146062,-0.005157788370790926,-0.7069393501621386,0.7072434767170562,0.0,0.0,0.0,0.0,0.0,0.0,0.0011013695729280189,-0.006295379647758598,0.000802374796322565,0.011369139402344053,-0.07819883232987206,0.4872760099035338
160658000000,hina_ssi_visual_root,khm2,0.0,0.0,0.0,0.0,0.0,0.0,1.0,-0.00015683744533528273,-0.005153179734886023,0.17425669698390628,-0.004093035070864911,-0.005130480541995347,-0.7071116984051515,0.707071404606281,0.0,0.0,0.0,0.0,0.0,0.0,-0.005340869320563826,-0.005479417344037703,-0.00023232979427726883,0.050044783826879845,0.024374512152095403,-0.48721670083042556
160659000000,hina_ssi_visual_root,khm2,0.0,0.0,0.0,0.0,0.0,0.0,1.0,-0.0001563765288083466,-0.0051599284947973145,0.17425592922584215,-0.004054412084350412,-0.0051327619984706425,-0.7069395582966859,0.7072437185385276,0.0,0.0,0.0,0.0,0.0,0.0,0.00046091652693614187,-0.006748759911291946,-0.0007677580641279012,0.05103618205747561,-0.05467058056001331,0.48753609109389023
160660000000,hina_ssi_visual_root,khm2,0.0,0.0,0.0,0.0,0.0,0.0,1.0,-0.00016004770310291643,-0.005165632560751271,0.17425382538309775,-0.004049186721486122,-0.005091063095309235,-0.707111760132136,0.7070718802542544,0.0,0.0,0.0,0.0,0.0,0.0,-0.0036711742945698426,-0.005704065953956227,-0.002103842744402158,0.06672275616528726,0.0484341802712509,-0.48682039727213583
160661000000,hina_ssi_visual_root,khm2,0.0,0.0,0.0,0.0,0.0,0.0,1.0,-0.0001572071338082573,-0.0051722819807916345,0.17425196562010017,-0.004027452667392778,-0.005088000685233464,-0.7069395912403739,0.7072441630801432,0.0,0.0,0.0,0.0,0.0,0.0,0.0028405692946591263,-0.0066494200403638985,-0.0018597629975668738,0.03470817566221148,-0.02325762962976941,0.48731450146139627
160662000000,hina_ssi_visual_root,khm2,0.0,0.0,0.0,0.0,0.0,0.0,1.0,-0.00015803261599969126,-0.005177548219601166,0.1742503354861261,-0.004048904510408183,-0.005054735417443872,-0.7071118452764552,0.7070720573547308,0.0,0.0,0.0,0.0,0.0,0.0,-0.0008254821914339605,-0.005266238809531369,-0.001630133974094403,0.017056250607909818,0.07424481142768255,-0.4874742829179567
160663000000,hina_ssi_visual_root,khm2,0.0,0.0,0.0,0.0,0.0,0.0,1.0,-0.00015271521880056842,-0.005183570736123107,0.17425003639016884,-0.0040510204181448605,-0.005073223341471952,-0.706939527029749,0.7072441988178159,0.0,0.0,0.0,0.0,0.0,0.0,0.005317397199122834,-0.006022516521940846,-0.0002990959572491507,-0.029486337099273716,-0.02001656335332886,0.4872577051663588
160664000000,hina_ssi_visual_root,khm2,0.0,0.0,0.0,0.0,0.0,0.0,1.0,-0.00015289649325198003,-0.005188070775855646,0.17425143998764897,-0.00409141456524283,-0.005071562184354465,-0.7071118543656556,0.7070716830699906,0.0,0.0,0.0,0.0,0.0,0.0,-0.00018127445141161071,-0.004500039732538669,0.0014035974801315607,-0.05443759831941518,0.05631550272798917,-0.4880947503129537
160665000000,hina_ssi_visual_root,khm2,0.0,0.0,0.0,0.0,0.0,0.0,1.0,-0.0001489605665122042,-0.00519358765323593,0.17425370501634652,-0.004103212452142305,-0.005111669914288254,-0.7069395738790608,0.7072435742811324,0.0,0.0,0.0,0.0,0.0,0.0,0.003935926739775826,-0.005516877380284654,0.002265028697546856,-0.07374611430948227,-0.03687997425818988,0.4869304754647256
160666000000,hina_ssi_visual_root,khm2,0.0,0.0,0.0,0.0,0.0,0.0,1.0,-0.00015081118765220063,-0.005198055741029938,0.17425599871622868,-0.004135210116766437,-0.00511724085113153,-0.7071116367649478,0.7070713167955255,0.0,0.0,0.0,0.0,0.0,0.0,-0.001850621139996414,-0.004468087794008185,0.0022936998821626586,-0.0527914791890909,0.034187745284857185,-0.4872134279984853
160667000000,hina_ssi_visual_root,khm2,0.0,0.0,0.0,0.0,0.0,0.0,1.0,-0.00014896197651061724,-0.005203905192962411,0.17425806338837269,-0.004124827058477399,-0.005152829512292831,-0.7069394573562539,0.7072432663395251,0.0,0.0,0.0,0.0,0.0,0.0,0.0018492111415833825,-0.005849451932472425,0.002064672143996615,-0.03598726060461075,-0.06182759704912607,0.4870619026159096
160668000000,hina_ssi_visual_root,khm2,0.0,0.0,0.0,0.0,0.0,0.0,1.0,-0.000153149286188211,-0.0052089538523721396,0.17425932870300512,-0.0041304367612885595,-0.005142518660415026,-0.7071115461954988,0.7070712518770645,0.0,0.0,0.0,0.0,0.0,0.0,-0.004187309677593776,-0.005048659409728534,0.0012653146324232735,0.006997876272448287,0.01932360641887654,-0.4867678541236329
160669000000,hina_ssi_visual_root,khm2,0.0,0.0,0.0,0.0,0.0,0.0,1.0,-0.00015290856548223086,-0.005215473130170429,0.17425970621912715,-0.004095631722130802,-0.0051569689459848465,-0.7069393511051089,0.7072435120460099,0.0,0.0,0.0,0.0,0.0,0.0,0.0002407207059801509,-0.006519277798289507,0.000377516122042584,0.028435345074489412,-0.06646267101335986,0.48760006299761094
160670000000,hina_ssi_visual_root,khm2,0.0,0.0,0.0,0.0,0.0,0.0,1.0,-0.0001576336819852724,-0.005221183530931936,0.17425819671478765,-0.00408185368399811,-0.005123109318749808,-0.7071115765841081,0.7070716445185365,0.0,0.0,0.0,0.0,0.0,0.0,-0.004725116503041561,-0.005710400761507288,-0.001509504339492703,0.0677307747173884,0.025230154179869554,-0.4867458039885859
160671000000,hina_ssi_visual_root,khm2,0.0,0.0,0.0,0.0,0.0,0.0,1.0,-0.00015684213459781407,-0.0052280992156904255,0.1742559595055973,-0.00404359086494059,-0.005117686393179401,-0.7069394949347362,0.7072439530744099,0.0,0.0,0.0,0.0,0.0,0.0,0.0007915473874583398,-0.006915684758488855,-0.002237209190358403,0.06142182798068784,-0.04327303676423905,0.48737865167817995
160672000000,hina_ssi_visual_root,khm2,0.0,0.0,0.0,0.0,0.0,0.0,1.0,-0.00015964886099986318,-0.005233885321439377,0.17425248149975825,-0.004039118971935045,-0.005074447047878788,-0.7071116923094594,0.7070721251077158,0.0,0.0,0.0,0.0,0.0,0.0,-0.002806726402049098,-0.005786105748950773,-0.003478005839064364,0.06783354283155144,0.05168750225317941,-0.48681898381295674
160673000000,hina_ssi_visual_root,khm2,0.0,0.0,0.0,0.0,0.0,0.0,1.0,-0.00015630989540398163,-0.005240509216741434,0.17424975489875769,-0.004023041523498477,-0.005072803196420136,-0.7069394930669466,0.7072443954863687,0.0,0.0,0.0,0.0,0.0,0.0,0.003338965595881545,-0.006623895302056907,-0.0027266010005628314,0.024704614408263027,-0.01727304068664003,0.48729327007629925
160674000000,hina_ssi_visual_root,khm2,0.0,0.0,0.0,0.0,0.0,0.0,1.0,-0.00015665909920076326,-0.005245602562434131,0.17424826897331602,-0.0040522282718918135,-0.005048371161170248,-0.7071117487088932,0.7070721803553741,0.0,0.0,0.0,0.0,0.0,0.0,-0.00034920379678162784,-0.005093345692697079,-0.0014859254416646518,-0.006378406716649686,0.07269216230322792,-0.48763774378774205
160675000000,hina_ssi_visual_root,khm2,0.0,0.0,0.0,0.0,0.0,0.0,1.0,-0.00015146503232868144,-0.005251421784501543,0.17424856694021346,-0.004062544427435805,-0.005075892175169666,-0.7069392765741891,0.7072443639140316,0.0,0.0,0.0,0.0,0.0,0.0,0.005194066872081827,-0.005819222067411624,0.00029796689743669634,-0.05385535201328851,-0.021193051868880725,0.48752542918018255
160676000000,hina_ssi_visual_root,khm2,0.0,0.0,0.0,0.0,0.0,0.0,1.0,-0.00015141988893596417,-0.00525600513832186,0.17425130318334056,-0.004111909217680772,-0.005063174934459878,-0.7071114584818714,0.7070720201972424,0.0,0.0,0.0,0.0,0.0,0.0,4.514339271726418e-05,-0.0045833538203179335,0.0027362431271092894,-0.05149766147005365,0.08463562491648591,-0.4878269370163999
160677000000,hina_ssi_visual_root,khm2,0.0,0.0,0.0,0.0,0.0,0.0,1.0,-0.00014573538311422597,-0.005261674559741642,0.17425502990386596,-0.004112367796083532,-0.005107363210210724,-0.7069392106064175,0.7072439153356668,0.0,0.0,0.0,0.0,0.0,0.0,0.005684505821738188,-0.0056694214197820945,0.0037267205254038014,-0.06347117792724714,-0.05868285095071616,0.48704011814568954
160678000000,hina_ssi_visual_root,khm2,0.0,0.0,0.0,0.0,0.0,0.0,1.0,-0.00014832267326791364,-0.005266496294278096,0.17425991912415084,-0.004146302072448778,-0.005089694770585419,-0.7071113705287574,0.7070717169108155,0.0,0.0,0.0,0.0,0.0,0.0,-0.002587290153687663,-0.004821734536453423,0.0048892202848836094,-0.022676316133934088,0.06979580640876774,-0.4874777145449398
160679000000,hina_ssi_visual_root,khm2,0.0,0.0,0.0,0.0,0.0,0.0,1.0,-0.00014452580394824495,-0.0052726787520864194,0.1742642261247625,-0.004116366738826128,-0.005126119783265974,-0.7069392028686139,0.7072437641070637,0.0,0.0,0.0,0.0,0.0,0.0,0.003796869319668681,-0.0061824578083241565,0.004307000611659997,-0.009506068472829409,-0.09066637118356975,0.48738962018956766
160680000000,hina_ssi_visual_root,khm2,0.0,0.0,0.0,0.0,0.0,0.0,1.0,-0.00014981094471777515,-0.005278135157028467,0.1742682508346959,-0.004125566301064576,-0.0050900515702448435,-0.7071114037734162,0.7070718023873507,0.0,0.0,0.0,0.0,0.0,0.0,-0.005285140769530207,-0.005456404942048026,0.0040247099334166665,0.03833313255732074,0.06084442481779472,-0.48710026516802346
160681000000,hina_ssi_visual_root,khm2,0.0,0.0,0.0,0.0,0.0,0.0,1.0,-0.0001473689836316106,-0.005284883709227292,0.17427035562225454,-0.004074717697330982,-0.005110897412568213,-0.706939128650446,0.7072441896447603,0.0,0.0,0.0,0.0,0.0,0.0,0.002441961086164535,-0.006748552198824742,0.002104787558622378,0.042095175038486206,-0.0982138878605514,0.48810541564200083
160682000000,hina_ssi_visual_root,khm2,0.0,0.0,0.0,0.0,0.0,0.0,1.0,-0.0001533056227331615,-0.00529076581567592,0.17427039289652035,-0.004072360102204044,-0.005060197479239262,-0.7071114790753538,0.7070722498051629,0.0,0.0,0.0,0.0,0.0,0.0,-0.005936639101550864,-0.005882106448628259,3.7274265815628524e-05,0.07537884468826221,0.0652190236361016,-0.4872787660134741
160683000000,hina_ssi_visual_root,khm2,0.0,0.0,0.0,0.0,0.0,0.0,1.0,-0.00015051444539983374,-0.0052976446657818374,0.17426822274360362,-0.004024727361871708,-0.005072542206354654,-0.7069392420092808,0.7072446387160324,0.0,0.0,0.0,0.0,0.0,0.0,0.0027911773333277566,-0.006878850105917025,-0.0021701529167435663,0.04956233508547156,-0.081673078834486,0.48794707667038506
160684000000,hina_ssi_visual_root,khm2,0.0,0.0,0.0,0.0,0.0,0.0,1.0,-0.0001551031162336768,-0.005303323791330698,0.1742642633901664,-0.004038516660727629,-0.005023961664179585,-0.7071115529184469,0.7070726284630461,0.0,0.0,0.0,0.0,0.0,0.0,-0.004588670833843065,-0.005679125548860981,-0.003959353437225005,0.04954568945524221,0.08508098419264915,-0.4874644846731765
160685000000,hina_ssi_visual_root,khm2,0.0,0.0,0.0,0.0,0.0,0.0,1.0,-0.0001504138435639341,-0.0053096880969883764,0.1742597485562406,-0.004016610626140282,-0.005050044742780441,-0.7069390854428984,0.7072450023579752,0.0,0.0,0.0,0.0,0.0,0.0,0.004689272669742716,-0.006364305657678121,-0.004514833925810853,-0.0062496479862108115,-0.06474025889540104,0.4881000064173951
160686000000,hina_ssi_visual_root,khm2,0.0,0.0,0.0,0.0,0.0,0.0,1.0,-0.00015325199911849592,-0.0053145966361017385,0.17425570412901092,-0.004062320830845259,-0.005023373057315876,-0.7071115240417788,0.7070725251626648,0.0,0.0,0.0,0.0,0.0,0.0,-0.002838155554561814,-0.004908539113361867,-0.004044427229689989,-0.02659001682914419,0.09922822368372924,-0.48845036788819796
160687000000,hina_ssi_visual_root,khm2,0.0,0.0,0.0,0.0,0.0,0.0,1.0,-0.0001473683082332624,-0.005320216069343778,0.17425249555332428,-0.004063356527048757,-0.005075234040957186,-0.7069390509314651,0.7072445895171505,0.0,0.0,0.0,0.0,0.0,0.0,0.00588369088523352,-0.0056194332420397165,-0.0032085756866518118,-0.0751424576806772,-0.06874428090966613,0.4876503327910066
160688000000,hina_ssi_visual_root,khm2,0.0,0.0,0.0,0.0,0.0,0.0,1.0,-0.00015029462882668745,-0.0053246179306530445,0.17425114926519422,-0.004122183978051845,-0.0050655121593851,-0.7071112537394181,0.7070721483843657,0.0,0.0,0.0,0.0,0.0,0.0,-0.002926320593425051,-0.004401861309266202,-0.0013462881300621704,-0.06911868008482153,0.0937765429749426,-0.4880658984199733
160689000000,hina_ssi_visual_root,khm2,0.0,0.0,0.0,0.0,0.0,0.0,1.0,-0.00014472225273893727,-0.005330293464239405,0.17425201146694197,-0.00411734442499181,-0.005112708279146237,-0.7069389610621335,0.7072440971979402,0.0,0.0,0.0,0.0,0.0,0.0,0.00557237608775018,-0.005675533586360123,0.0008622017477509583,-0.06022988234003207,-0.07042386877948899,0.4872587360392567
160690000000,hina_ssi_visual_root,khm2,0.0,0.0,0.0,0.0,0.0,0.0,1.0,-0.0001481639657519228,-0.0053351648278397055,0.17425457828085927,-0.0041487354674430935,-0.005091188483644603,-0.7071110854935807,0.7070719769344102,0.0,0.0,0.0,0.0,0.0,0.0,-0.003441713012985543,-0.004871363600300672,0.0025668139173091777,-0.013633208426041495,0.07164520820250174,-0.4873232269002544
160691000000,hina_ssi_visual_root,khm2,0.0,0.0,0.0,0.0,0.0,0.0,1.0,-0.00014420614389394428,-0.005341593319988851,0.17425872815488852,-0.004113916200670405,-0.005112893141036587,-0.7069390624802407,0.7072440144368706,0.0,0.0,0.0,0.0,0.0,0.0,0.003957821857978529,-0.006428492149145628,0.004149874029244573,0.018220121449365162,-0.07675658474941356,0.4870992059510894
160692000000,hina_ssi_visual_root,khm2,0.0,0.0,0.0,0.0,0.0,0.0,1.0,-0.00014848643307594406,-0.0053472638719942595,0.17426344101382057,-0.00411292514168985,-0.005070431249184781,-0.7071115655354318,0.7070718552309636,0.0,0.0,0.0,0.0,0.0,0.0,-0.004280289181999774,-0.005670552005408796,0.004712858932049452,0.06178526527108011,0.05548081331934738,-0.48775489165178554
160693000000,hina_ssi_visual_root,khm2,0.0,0.0,0.0,0.0,0.0,0.0,1.0,-0.00014583946980411576,-0.005354275234956962,0.17426813264738408,-0.004063590048367116,-0.0050705716353962055,-0.7069394657395993,0.7072442069886605,0.0,0.0,0.0,0.0,0.0,0.0,0.0026469632718283077,-0.007011362962703089,0.004691633563521239,0.06924087602734186,-0.06680589586088007,0.48761915651459403
160694000000,hina_ssi_visual_root,khm2,0.0,0.0,0.0,0.0,0.0,0.0,1.0,-0.0001497663885387428,-0.005360158445267158,0.17427194253436426,-0.00405750964262061,-0.005023217925621656,-0.7071117953055588,0.7070722826111356,0.0,0.0,0.0,0.0,0.0,0.0,-0.003926918734627058,-0.005883210310195244,0.003809886980190526,0.0759034368327068,0.05524025479194925,-0.4871616344759442
160695000000,hina_ssi_visual_root,khm2,0.0,0.0,0.0,0.0,0.0,0.0,1.0,-0.00014685120460410786,-0.005366977961580536,0.1742746943005376,-0.004022803994815171,-0.005027528505648471,-0.7069395899092584,0.7072446233263805,0.0,0.0,0.0,0.0,0.0,0.0,0.0029151839346349476,-0.006819516313378239,0.0027517661733409866,0.04265117831599944,-0.0520484706960291,0.48763529367693864
160696000000,hina_ssi_visual_root,khm2,0.0,0.0,0.0,0.0,0.0,0.0,1.0,-0.00014971226039846235,-0.005372338431257003,0.17427604744145694,-0.004039415000739571,-0.004998720170459384,-0.7071119428194098,0.7070724123067375,0.0,0.0,0.0,0.0,0.0,0.0,-0.002861055794354481,-0.005360469676467134,0.0013531409193497344,0.01758289258662946,0.061116762047650784,-0.48767573317478086
160697000000,hina_ssi_visual_root,khm2,0.0,0.0,0.0,0.0,0.0,0.0,1.0,-0.00014600896153544763,-0.005378427155374821,0.1742760033860762,-0.004034009018997785,-0.0050261274865337465,-0.7069394614520965,0.7072446978631538,0.0,0.0,0.0,0.0,0.0,0.0,0.0037032988630147264,-0.006088724117818463,-4.405538073610181e-05,-0.03144774733592451,-0.04328732177406225,0.48783946167740766
160698000000,hina_ssi_visual_root,khm2,0.0,0.0,0.0,0.0,0.0,0.0,1.0,-0.0001480502570134652,-0.005383045271511671,0.17427422681160473,-0.004074642830900094,-0.005022507547655443,-0.707111727343469,0.7070722570975825,0.0,0.0,0.0,0.0,0.0,0.0,-0.0020412954780175503,-0.00461811613684938,-0.0017765744714813604,-0.05201753689389613,0.05944839431568962,-0.48791632255227907
160699000000,hina_ssi_visual_root,khm2,0.0,0.0,0.0,0.0,0.0,0.0,1.0,-0.00014442471472729442,-0.005388618335465639,0.1742710027031893,-0.004084446246276021,-0.005067072472721927,-0.7069393580613225,0.7072442195587479,0.0,0.0,0.0,0.0,0.0,0.0,0.0036255422861707813,-0.005573063953968048,-0.0032241084154348582,-0.07721829155084343,-0.04602497372199317,0.48721313246755854
160700000000,hina_ssi_visual_root,khm2,0.0,0.0,0.0,0.0,0.0,0.0,1.0,-0.00014681695389459891,-0.005393081953694498,0.17426644308854364,-0.004123872367955878,-0.005071812159021886,-0.7071114473780375,0.7070718997280637,0.0,0.0,0.0,0.0,0.0,0.0,-0.002392239167304495,-0.00446361822885802,-0.004559614645648106,-0.06213282087954912,0.04588743095453139,-0.48741853684167313
160701000000,hina_ssi_visual_root,khm2,0.0,0.0,0.0,0.0,0.0,0.0,1.0,-0.00014421846625539046,-0.005398876053745697,0.17426141471955847,-0.004120827056881501,-0.0051094844065530404,-0.7069392029147997,0.7072438584644295,0.0,0.0,0.0,0.0,0.0,0.0,0.0025984876392084614,-0.0057941000511988,-0.005028368985169899,-0.04929936004092989,-0.054415812366542186,0.48710803794875696
160702000000,hina_ssi_visual_root,khm2,0.0,0.0,0.0,0.0,0.0,0.0,1.0,-0.00014757174590016695,-0.0054038802045110685,0.17425657029546235,-0.004135821535920941,-0.0050973443319513615,-0.7071113048668239,0.7070717888521095,0.0,0.0,0.0,0.0,0.0,0.0,-0.003353279644776494,-0.0050041507653718394,-0.004844424096121815,-0.003704350956769521,0.0351955788131507,-0.4869749032774311
160703000000,hina_ssi_visual_root,khm2,0.0,0.0,0.0,0.0,0.0,0.0,1.0,-0.00014588226120901078,-0.005410408512361544,0.17425274280212164,-0.004105405156894909,-0.005110688718124972,-0.7069393110417809,0.7072438313715408,0.0,0.0,0.0,0.0,0.0,0.0,0.0016894846911561729,-0.0065283078504753496,-0.003827493340722462,0.023810845950134066,-0.05870981924640955,0.4869508640963081
160704000000,hina_ssi_visual_root,khm2,0.0,0.0,0.0,0.0,0.0,0.0,1.0,-0.00014961110350927856,-0.0054161412321708235,0.17425052545336178,-0.004098364003480772,-0.0050728471250209685,-0.7071117040238818,0.707071783956186,0.0,0.0,0.0,0.0,0.0,0.0,-0.003728842300267772,-0.005732719809279097,-0.0022173487598463482,0.06381249113601174,0.040397083880461135,-0.487340663552124
160705000000,hina_ssi_visual_root,khm2,0.0,0.0,0.0,0.0,0.0,0.0,1.0,-0.00014764664000885535,-0.0054231399252756265,0.17425051300167257,-0.004057327793657106,-0.005068470957299944,-0.7069396326432372,0.7072440911676638,0.0,0.0,0.0,0.0,0.0,0.0,0.001964463500423199,-0.006998693104802934,-1.245168920353118e-05,0.06388654467976335,-0.04868724197073458,0.48739501345512987
160706000000,hina_ssi_visual_root,khm2,0.0,0.0,0.0,0.0,0.0,0.0,1.0,-0.00015052440261609703,-0.0054289391787399706,0.17425282646565285,-0.004055538918596894,-0.005025693709709264,-0.7071118880492137,0.7070721835755471,0.0,0.0,0.0,0.0,0.0,0.0,-0.002877762607241695,-0.0057992534643438514,0.002313463980279028,0.06336338010321614,0.05483824893964585,-0.4870388199134868
160707000000,hina_ssi_visual_root,khm2,0.0,0.0,0.0,0.0,0.0,0.0,1.0,-0.00014724841074618354,-0.005435602613939451,0.17425752435222416,-0.004031958734413815,-0.005032542506920215,-0.7069396890977512,0.7072444363889016,0.0,0.0,0.0,0.0,0.0,0.0,0.0032759918699135117,-0.006663435199479951,0.004697886571324354,0.02332637108684178,-0.03990474744988827,0.48741078068380694
160708000000,hina_ssi_visual_root,khm2,0.0,0.0,0.0,0.0,0.0,0.0,1.0,-0.00014922985158878255,-0.005440790238056772,0.17426369251554105,-0.004055998301577308,-0.005010210195765099,-0.7071119654607751,0.7070722134080587,0.0,0.0,0.0,0.0,0.0,0.0,-0.0019814408425990306,-0.005187624117321872,0.006168163316886929,-0.002083321776465874,0.062455194475420445,-0.4876075805360265
160709000000,hina_ssi_visual_root,khm2,0.0,0.0,0.0,0.0,0.0,0.0,1.0,-0.00014531138852378781,-0.005446767410201045,0.17427044487236976,-0.004055855694662742,-0.005041069819808567,-0.7069394819119428,0.7072444461172739,0.0,0.0,0.0,0.0,0.0,0.0,0.00391846306499475,-0.005977172144272953,0.006752356828716959,-0.04377195988706425,-0.04071661458124029,0.48774404522686865
160710000000,hina_ssi_visual_root,khm2,0.0,0.0,0.0,0.0,0.0,0.0,1.0,-0.0001471779949457544,-0.005451426827721294,0.1742761965959649,-0.004094121953411541,-0.005038486013829393,-0.7071116469468233,0.7070721112986074,0.0,0.0,0.0,0.0,0.0,0.0,-0.00186660642196659,-0.004659417520249246,0.005751723595164255,-0.0501361489400397,0.054624568006438605,-0.48759288399472983
160711000000,hina_ssi_visual_root,khm2,0.0,0.0,0.0,0.0,0.0,0.0,1.0,-0.0001438323875429658,-0.0054571829835746,0.17428000332294794,-0.004097868683181591,-0.005077809114790205,-0.7069393504994022,0.7072440724688562,0.0,0.0,0.0,0.0,0.0,0.0,0.0033456074027886145,-0.005756155853305967,0.003806726983013549,-0.06123822996365475,-0.04716617171765625,0.48712776456946694
160712000000,hina_ssi_visual_root,khm2,0.0,0.0,0.0,0.0,0.0,0.0,1.0,-0.00014642163737042682,-0.005461915204402995,0.17428119304350384,-0.004127513179154665,-0.005075605961991069,-0.7071114709309272,0.7070718277070407,0.0,0.0,0.0,0.0,0.0,0.0,-0.002589249827461025,-0.004732220828394935,0.0011897205558991184,-0.03848048189514223,0.04187015033864813,-0.4873146392914327
160713000000,hina_ssi_visual_root,khm2,0.0,0.0,0.0,0.0,0.0,0.0,1.0,-0.0001440863947272463,-0.005467969487479975,0.17427986651929622,-0.004118534933424639,-0.005103974139845986,-0.7069393016117519,0.7072438129490216,0.0,0.0,0.0,0.0,0.0,0.0,0.002335242643180512,-0.006054283076980409,-0.0013265242076252477,-0.027750384079329476,-0.049646800403286166,0.4870229600073103
160714000000,hina_ssi_visual_root,khm2,0.0,0.0,0.0,0.0,0.0,0.0,1.0,-0.00014716784408467688,-0.005473170444203991,0.17427606051887384,-0.004129064117402902,-0.00508674111892467,-0.7071113997288273,0.707071809838182,0.0,0.0,0.0,0.0,0.0,0.0,-0.003081449357430579,-0.005200956724015234,-0.003806000422387384,0.009811966430781027,0.036089500788273034,-0.486871620621708
160715000000,hina_ssi_visual_root,khm2,0.0,0.0,0.0,0.0,0.0,0.0,1.0,-0.00014536992798427434,-0.005479784242158889,0.17427042270220067,-0.004101065534080338,-0.005096247316103915,-0.7069392021543324,0.7072440695984481,0.0,0.0,0.0,0.0,0.0,0.0,0.001797916100402525,-0.0066137979548984,-0.005637816673183348,0.025820832180205092,-0.04986485321335805,0.48748914285197675
160716000000,hina_ssi_visual_root,khm2,0.0,0.0,0.0,0.0,0.0,0.0,1.0,-0.00014853873902493167,-0.005485507668951503,0.17426348679973883,-0.004093819736092692,-0.005063158600047816,-0.7071114680862363,0.707072115675542,0.0,0.0,0.0,0.0,0.0,0.0,-0.0031688110406573287,-0.005723426792614333,-0.006935902461837428,0.05737794907600008,0.033393332925956906,-0.486987615532689
160717000000,hina_ssi_visual_root,khm2,0.0,0.0,0.0,0.0,0.0,0.0,1.0,-0.0001468612267104541,-0.0054924616047489815,0.1742564949254849,-0.0040578063785217545,-0.005060849607890853,-0.7069394080246836,0.7072443675211211,0.0,0.0,0.0,0.0,0.0,0.0,0.001677512314477569,-0.0069539357974784995,-0.006991874253938525,0.053861514409017805,-0.044512627116440155,0.48726604655228095
160718000000,hina_ssi_visual_root,khm2,0.0,0.0,0.0,0.0,0.0,0.0,1.0,-0.00014961406981155149,-0.005498202267427677,0.17425081731221395,-0.0040571168581228665,-0.005025021880874579,-0.7071116435996007,0.7070724237613624,0.0,0.0,0.0,0.0,0.0,0.0,-0.0027528431010973835,-0.005740662678695822,-0.005677613270948751,0.05197927237842578,0.04656485914305436,-0.48701671954448117
160719000000,hina_ssi_visual_root,khm2,0.0,0.0,0.0,0.0,0.0,0.0,1.0,-0.0001468378602783659,-0.005504727513631725,0.17424791444094856,-0.004040193845669463,-0.0050385788599950675,-0.7069394080021164,0.7072446273888393,0.0,0.0,0.0,0.0,0.0,0.0,0.0027762095331855807,-0.006525246204047978,-0.0029028712653870106,0.00442532060965499,-0.039976237783133646,0.4873805589433233
160720000000,hina_ssi_visual_root,khm2,0.0,0.0,0.0,0.0,0.0,0.0,1.0,-0.0001489821484185553,-0.005509881305685492,0.17424847465893742,-0.004069585410763291,-0.005027575784671643,-0.707111514095097,0.7070724634649925,0.0,0.0,0.0,0.0,0.0,0.0,-0.0021442881401894124,-0.005153792053767255,0.0005602179888584535,-0.025673849676609167,0.05399423772670942,-0.4872462512386103
160721000000,hina_ssi_visual_root,khm2,0.0,0.0,0.0,0.0,0.0,0.0,1.0,-0.0001456212061569972,-0.0055161793251700605,0.17425296147073982,-0.004076239758335239,-0.0050665754967658344,-0.7069392291192191,0.7072443993518028,0.0,0.0,0.0,0.0,0.0,0.0,0.0033609422615581037,-0.006298019484568431,0.004486811802414177,-0.06489744076294868,-0.042609416480685613,0.4870421447768324
160722000000,hina_ssi_visual_root,khm2,0.0,0.0,0.0,0.0,0.0,0.0,1.0,-0.00014787348382297864,-0.00552179962390551,0.17426121097695024,-0.00411663205635899,-0.005069122488213466,-0.7071111458761447,0.7070722627252732,0.0,0.0,0.0,0.0,0.0,0.0,-0.0022522776659814467,-0.005620298735449019,0.008249506210418799,-0.06039687315202622,0.05036127644550744,-0.48694314687309703
160723000000,hina_ssi_visual_root,khm2,0.0,0.0,0.0,0.0,0.0,0.0,1.0,-0.00014480634030773269,-0.005529468451057269,0.17427334801974384,-0.004118428897626877,-0.005106382436802476,-0.7069390443578347,0.7072440533254809,0.0,0.0,0.0,0.0,0.0,0.0,0.0030671435152459584,-0.007668827151758857,0.012137042793596455,-0.055565254777530146,-0.04699120831794382,0.4866150851731459
160724000000,hina_ssi_visual_root,khm2,0.0,0.0,0.0,0.0,0.0,0.0,1.0,-0.00014749984160274522,-0.005537374671130097,0.17428919453794503,-0.004141328578916874,-0.005092941662764984,-0.7071107497916121,0.7070723434500642,0.0,0.0,0.0,0.0,0.0,0.0,-0.0026935012950125396,-0.00790622007282853,0.015846518201177565,-0.013048473916285134,0.04822122824864221,-0.4859967176985511
160725000000,hina_ssi_visual_root,khm2,0.0,0.0,0.0,0.0,0.0,0.0,1.0,-0.00014479423014441997,-0.005547776475577773,0.17430715863639296,-0.004119311186762635,-0.0051176128846579004,-0.7069390842278407,0.7072439271600793,0.0,0.0,0.0,0.0,0.0,0.0,0.002705611458325265,-0.010401804447676199,0.017964098447920067,-0.004082190769772438,-0.06285656993298691,0.48584594104921425
160726000000,hina_ssi_visual_root,khm2,0.0,0.0,0.0,0.0,0.0,0.0,1.0,-0.0001488678047702959,-0.005558527664429204,0.1743268116265015,-0.004127924273703307,-0.005098229815967865,-0.7071110398676395,0.7070720936306563,0.0,0.0,0.0,0.0,0.0,0.0,-0.004073574625875931,-0.01075118885143041,0.019652990108539714,0.015566524491812015,0.03641953936456119,-0.48642870099216035
160727000000,hina_ssi_visual_root,khm2,0.0,0.0,0.0,0.0,0.0,0.0,1.0,-0.00014711900060245371,-0.005571974196374043,0.17434816166472208,-0.004105266632752649,-0.005118029526218013,-0.7069389232848102,0.7072441666811795,0.0,0.0,0.0,0.0,0.0,0.0,0.0017488041678421894,-0.013446531944838951,0.02135003822060963,0.0037056132061382622,-0.056867078623056115,0.4871416782949157
160728000000,hina_ssi_visual_root,khm2,0.0,0.0,0.0,0.0,0.0,0.0,1.0,-0.00015098595000978361,-0.00558587098642183,0.1743706363760886,-0.004119632836885475,-0.005097589045321631,-0.7071105502889418,0.7070726362130586,0.0,0.0,0.0,0.0,0.0,0.0,-0.0038669494073298883,-0.01389679004778718,0.022474711366527865,0.008927942772386758,0.04605993566163668,-0.4856024189314356
160729000000,hina_ssi_visual_root,khm2,0.0,0.0,0.0,0.0,0.0,0.0,1.0,-0.00014837021688046987,-0.005602559015113904,0.17439392919474683,-0.004106165426714401,-0.005120365142140731,-0.7069381765659947,0.7072448909535127,0.0,0.0,0.0,0.0,0.0,0.0,0.002615733129313752,-0.01668802869207382,0.023292818658223344,-0.013503690924234606,-0.048078206065071585,0.48769274963020487
160730000000,hina_ssi_visual_root,khm2,0.0,0.0,0.0,0.0,0.0,0.0,1.0,-0.0001514143111926593,-0.005619863064723197,0.1744173938706499,-0.004132661639725724,-0.005105709695338725,-0.7071097594794928,0.7070732924422561,0.0,0.0,0.0,0.0,0.0,0.0,-0.003044094312189453,-0.01730404960929307,0.023464675903051242,-0.016409722786357276,0.055025960694947015,-0.48571306566391803
160731000000,hina_ssi_visual_root,khm2,0.0,0.0,0.0,0.0,0.0,0.0,1.0,-0.00014786827489447126,-0.0056401314752477965,0.17444079742145105,-0.004130673003353226,-0.005135157744629693,-0.70693754858236,0.707245268700923,0.0,0.0,0.0,0.0,0.0,0.0,0.003546036298188048,-0.0202684105245987,0.023403550801165587,-0.039170862264958715,-0.04127672751133698,0.4870073529473143
160732000000,hina_ssi_visual_root,khm2,0.0,0.0,0.0,0.0,0.0,0.0,1.0,-0.00015022156186728005,-0.005661194097715471,0.1744634965164998,-0.004166062697011461,-0.0051256742369523555,-0.7071092151352487,0.7070734963609043,0.0,0.0,0.0,0.0,0.0,0.0,-0.002353286972808789,-0.021062622467673934,0.02269909504875859,-0.036305893635459864,0.06026858733275174,-0.4861271731017729
160733000000,hina_ssi_visual_root,khm2,0.0,0.0,0.0,0.0,0.0,0.0,1.0,-0.0001461107282718448,-0.00568541999495122,0.1744852510882157,-0.004168041992892996,-0.005158854941369255,-0.7069373000831267,0.7072451253934654,0.0,0.0,0.0,0.0,0.0,0.0,0.004110833595435271,-0.02422589723574911,0.02175457171587082,-0.05005610702556549,-0.04093139109081823,0.48609028492839396
160734000000,hina_ssi_visual_root,khm2,0.0,0.0,0.0,0.0,0.0,0.0,1.0,-0.00014832894951526004,-0.005710588128402146,0.17450553932466337,-0.004204069954369742,-0.005149488519307636,-0.7071089612662281,0.707073352249117,0.0,0.0,0.0,0.0,0.0,0.0,-0.0022182212434152674,-0.02516813345092518,0.020288236447685078,-0.03737902021773113,0.060984446650680854,-0.4861285757267242
160735000000,hina_ssi_visual_root,khm2,0.0,0.0,0.0,0.0,0.0,0.0,1.0,-0.00014412295198428543,-0.005739082395153942,0.1745244557718492,-0.004203236349519923,-0.005181183085573088,-0.7069373354513857,0.7072447185316542,0.0,0.0,0.0,0.0,0.0,0.0,0.004205997530974603,-0.028494266751796008,0.018916447185833407,-0.04397088407067809,-0.04279171536157574,0.48532844069052145
160736000000,hina_ssi_visual_root,khm2,0.0,0.0,0.0,0.0,0.0,0.0,1.0,-0.00014653691591956383,-0.005768745847123043,0.17454183995019162,-0.0042343011223704655,-0.00517012856828659,-0.7071091458395441,0.7070728366545155,0.0,0.0,0.0,0.0,0.0,0.0,-0.0024139639352783963,-0.029663451969101015,0.017384178342429266,-0.027975650066308224,0.056332772831948506,-0.486458260380338
160737000000,hina_ssi_visual_root,khm2,0.0,0.0,0.0,0.0,0.0,0.0,1.0,-0.00014269623407986608,-0.005801975531567463,0.17455784490570603,-0.004227336180605216,-0.005198822688017359,-0.7069377151958558,0.7072440658677437,0.0,0.0,0.0,0.0,0.0,0.0,0.003840681839697762,-0.033229684444419774,0.016004955514402112,-0.031052872487081707,-0.047205282689785126,0.4848984212821443
160738000000,hina_ssi_visual_root,khm2,0.0,0.0,0.0,0.0,0.0,0.0,1.0,-0.00014560300134995607,-0.005836620125026203,0.17457242524353153,-0.00425063476046306,-0.005184501364493676,-0.7071096004958726,0.707072178731636,0.0,0.0,0.0,0.0,0.0,0.0,-0.0029067672700900027,-0.034644593458739756,0.014580337825490354,-0.012373044628542358,0.04995817789240815,-0.48652006246218604
160739000000,hina_ssi_visual_root,khm2,0.0,0.0,0.0,0.0,0.0,0.0,1.0,-0.000142341331384728,-0.005875088799930597,0.17458579399199262,-0.0042351235578449685,-0.005209145673020637,-0.7069383360703633,0.707243322714236,0.0,0.0,0.0,0.0,0.0,0.0,0.003261669965228085,-0.038468674904394484,0.013368748461092159,-0.013238275220304841,-0.05355629454922282,0.48459808531593374
160740000000,hina_ssi_visual_root,khm2,0.0,0.0,0.0,0.0,0.0,0.0,1.0,-0.00014590799064078994,-0.005915270753135274,0.17459806067183664,-0.004250223819283244,-0.0051897231219027165,-0.7071100370868472,0.7070717062805169,0.0,0.0,0.0,0.0,0.0,0.0,-0.003566659256061937,-0.040181953204676824,0.012266679844019803,0.0064371715952257855,0.04558054787826806,-0.48583511420798686
160741000000,hina_ssi_visual_root,khm2,0.0,0.0,0.0,0.0,0.0,0.0,1.0,-0.00014311826801162574,-0.0059595862486849175,0.17460952635280672,-0.004226229472815182,-0.005210147003700964,-0.7069387639660893,0.707242940830618,0.0,0.0,0.0,0.0,0.0,0.0,0.00278972262916419,-0.044315495549643265,0.011465680970071517,0.0047254336829511915,-0.059582368119980224,0.4847907682391557
160742000000,hina_ssi_visual_root,khm2,0.0,0.0,0.0,0.0,0.0,0.0,1.0,-0.0001472927659042617,-0.0060059357681063455,0.17462045632085688,-0.004234451869123586,-0.005185920863938832,-0.7071104078631675,0.7070714580109607,0.0,0.0,0.0,0.0,0.0,0.0,-0.004174497892635961,-0.04634951942142817,0.010929968050161222,0.02296146016901924,0.04265528090499868,-0.4855340389191104
160743000000,hina_ssi_visual_root,khm2,0.0,0.0,0.0,0.0,0.0,0.0,1.0,-0.00014484935721290537,-0.0060567474901420965,0.174631206895909,-0.0042038499439594245,-0.005203376569413915,-0.7069391307533387,0.707242757423248,0.0,0.0,0.0,0.0,0.0,0.0,0.002443408691356343,-0.05081172203575078,0.01075057505210725,0.018263533356988035,-0.0647355240016757,0.4849307496619174
160744000000,hina_ssi_visual_root,khm2,0.0,0.0,0.0,0.0,0.0,0.0,1.0,-0.00014950192737322218,-0.006109884219441801,0.1746419909636288,-0.004209307143183409,-0.0051756862232400025,-0.7071106011797496,0.7070714898118194,0.0,0.0,0.0,0.0,0.0,0.0,-0.004652570160316803,-0.05313672929970416,0.010784067719828103,0.031776133921623366,0.04365939857740767,-0.4849836053631831
160745000000,hina_ssi_visual_root,khm2,0.0,0.0,0.0,0.0,0.0,0.0,1.0,-0.00014707692018031871,-0.006167815120942347,0.17465321903243566,-0.004176829432082869,-0.0051935234718975525,-0.7069393291704655,0.7072427916082666,0.0,0.0,0.0,0.0,0.0,0.0,0.002425007192903471,-0.0579309015005464,0.011228068806848306,0.020371535908572904,-0.06794000796732474,0.4849481104338482
160746000000,hina_ssi_visual_root,khm2,0.0,0.0,0.0,0.0,0.0,0.0,1.0,-0.00015196387910886648,-0.0062284387314769886,0.17466514840344036,-0.004186969725263005,-0.00516575826529748,-0.7071105581131514,0.707071738107932,0.0,0.0,0.0,0.0,0.0,0.0,-0.004886958928547757,-0.060623610534641284,0.011929371004704052,0.025262975770847972,0.050403501153103505,-0.48438704758069007
160747000000,hina_ssi_visual_root,khm2,0.0,0.0,0.0,0.0,0.0,0.0,1.0,-0.0001490479874889831,-0.0062941895000172094,0.17467820130607273,-0.00415996102713275,-0.005188998287681939,-0.7069388720704156,0.707243381147418,0.0,0.0,0.0,0.0,0.0,0.0,0.002915891619883363,-0.06575076854022081,0.013052902632370222,0.004991195245724092,-0.06784997787602107,0.4860035741684631
160748000000,hina_ssi_visual_root,khm2,0.0,0.0,0.0,0.0,0.0,0.0,1.0,-0.00015379274039240413,-0.006362893518558653,0.1746924510688338,-0.004181025600422843,-0.005165669101579593,-0.7071099708703199,0.7070723612074206,0.0,0.0,0.0,0.0,0.0,0.0,-0.00474475290342103,-0.0687040185414438,0.014249762761072092,0.0035418472411408415,0.05958318502408679,-0.48423099396375274
160749000000,hina_ssi_visual_root,khm2,0.0,0.0,0.0,0.0,0.0,0.0,1.0,-0.00015011786204091135,-0.006436945193689346,0.17470811467448663,-0.004163371782041173,-0.005197100946359095,-0.706938183791736,0.7072439895639975,0.0,0.0,0.0,0.0,0.0,0.0,0.0036748783514927857,-0.07405167513069305,0.015663605652844664,-0.019826113497955183,-0.06620591846511553,0.48609727190908325
160750000000,hina_ssi_visual_root,khm2,0.0,0.0,0.0,0.0,0.0,0.0,1.0,-0.00015468629135547527,-0.006479424732752479,0.1747250885016903,-0.004097391246830788,-0.005085456638149516,-0.706970767803935,0.7072126151211293,0.0,0.0,0.0,0.0,0.0,0.0,-0.004568429314563931,-0.042479539063132274,0.01697382720368154,0.25125736309514357,0.06403378204268921,-0.09069309626097442
160751000000,hina_ssi_visual_root,khm2,0.0,0.0,0.0,0.0,0.0,0.0,1.0,-0.0001515968527668507,-0.006490117040235516,0.1747434537069193,-0.003905921597505801,-0.00493454256355859,-0.7069710754206866,0.707214460107173,0.0,0.0,0.0,0.0,0.0,0.0,0.0030894385886245726,-0.010692307483037393,0.01836520522899207,0.48422144359633357,-0.05725397264969261,0.002884314772630118
160752000000,hina_ssi_visual_root,khm2,0.0,0.0,0.0,0.0,0.0,0.0,1.0,-0.00015443226109175775,-0.006539770427549079,0.17476201102465388,-0.003889568591635327,-0.004885250999920198,-0.7069662971965208,0.7072196689905332,0.0,0.0,0.0,0.0,0.0,0.0,-0.002835408324907052,-0.04965338731356276,0.018557317734583995,0.09281911835130846,0.046685942554865835,0.013899849449379092
160753000000,hina_ssi_visual_root,khm2,0.0,0.0,0.0,0.0,0.0,0.0,1.0,-0.00015211460807721398,-0.006556698567119603,0.1747809186960412,-0.0037874507804035685,-0.00480369188521319,-0.7069715397504389,0.7072155412204624,0.0,0.0,0.0,0.0,0.0,0.0,0.0023176530145437796,-0.016928139570523797,0.018907671387309387,0.2597776540869791,-0.029108394737241732,-0.012888380512035903
160754000000,hina_ssi_visual_root,khm2,0.0,0.0,0.0,0.0,0.0,0.0,1.0,-0.00015330164691181242,-0.006612291680252939,0.1747995882900058,-0.0038504790313668865,-0.004845081583577744,-0.7069658938880253,0.7072205623953411,0.0,0.0,0.0,0.0,0.0,0.0,-0.001187038834598453,-0.0555931131333369,0.018669593964591752,-0.147688002285157,0.030666490697050974,0.014793325093498707
160755000000,hina_ssi_visual_root,khm2,0.0,0.0,0.0,0.0,0.0,0.0,1.0,-0.00015169661695709928,-0.0066331796079668335,0.1748170831548472,-0.0038222852371978,-0.004830493347642766,-0.7069717555260845,0.7072149555530836,0.0,0.0,0.0,0.0,0.0,0.0,0.0016050299547131454,-0.0208879277138942,0.01749486484139457,0.06051885465729565,-0.019329372404680918,-0.01605777536260286
160756000000,hina_ssi_visual_root,khm2,0.0,0.0,0.0,0.0,0.0,0.0,1.0,-0.00015246667627747846,-0.006619567039432702,0.1748344264126728,-0.0037371525190175053,-0.004732450597437571,-0.7069759890705901,0.7072118413036177,0.0,0.0,0.0,0.0,0.0,0.0,-0.0007700593203791928,0.013612568534132147,0.01734325782560113,0.25905826877138566,0.01823929381010048,-0.010318453545867048
160757000000,hina_ssi_visual_root,khm2,0.0,0.0,0.0,0.0,0.0,0.0,1.0,-0.0001514750535472029,-0.0066428249250057156,0.17485199941219784,-0.003777404528301338,-0.0047785535179083955,-0.7069705623360668,0.7072167423297696,0.0,0.0,0.0,0.0,0.0,0.0,0.0009916227302755596,-0.02325788557301424,0.01757299952505003,-0.12213544277500979,-0.008207705618382374,0.014569123479013138
160758000000,hina_ssi_visual_root,khm2,0.0,0.0,0.0,0.0,0.0,0.0,1.0,-0.00015174543472317166,-0.006631763407274493,0.17486953220184873,-0.003752433358553618,-0.0047446415089312174,-0.7069762869414379,0.7072113809345398,0.0,0.0,0.0,0.0,0.0,0.0,-0.00027038117596875637,0.01106151773122261,0.01753278965089381,0.08328384918082388,0.012564029474879435,-0.01569531734911375
160759000000,hina_ssi_visual_root,khm2,0.0,0.0,0.0,0.0,0.0,0.0,1.0,-0.00015077154563340533,-0.006658400619399231,0.174886994675674,-0.0038540281753819262,-0.0048369369036782486,-0.7069707930679751,0.707215701364903,0.0,0.0,0.0,0.0,0.0,0.0,0.0009738890897663458,-0.026637212124737616,0.01746247382528944,-0.2742190436259303,0.013187774300777149,0.013608146103512592
160760000000,hina_ssi_visual_root,khm2,0.0,0.0,0.0,0.0,0.0,0.0,1.0,-0.0001494411721860796,-0.006651282985475948,0.17490229666770768,-0.003869672402760753,-0.004837077029821446,-0.7069763431636122,0.7072100667611495,0.0,0.0,0.0,0.0,0.0,0.0,0.0013303734473257343,0.007117633923282483,0.015301992033670027,-0.02231555757909291,0.02182453596437123,-0.015967490309639554
160761000000,hina_ssi_visual_root,khm2,0.0,0.0,0.0,0.0,0.0,0.0,1.0,-0.00014746353330097518,-0.006682401996442319,0.1749152907674503,-0.003992091958853085,-0.004951103987222071,-0.7069700931032764,0.7072148451698708,0.0,0.0,0.0,0.0,0.0,0.0,0.0019776388851044076,-0.031119010966371714,0.012994099742612912,-0.33440489458817263,0.011908034485145299,0.015294843532033182
160762000000,hina_ssi_visual_root,khm2,0.0,0.0,0.0,0.0,0.0,0.0,1.0,-0.0001460884371146378,-0.0066798550203135245,0.1749232685394459,-0.004011558657086698,-0.004961053051334582,-0.7069756740013209,0.7072090862822258,0.0,0.0,0.0,0.0,0.0,0.0,0.0013750961863373806,0.002546976128794551,0.00797777199560573,-0.04159237433460574,0.013350910637475418,-0.01614983870308065
160763000000,hina_ssi_visual_root,khm2,0.0,0.0,0.0,0.0,0.0,0.0,1.0,-0.00014486462209832026,-0.006663616259973393,0.1749269449265783,-0.003980115989118954,-0.0049298133365932575,-0.7069004979052315,0.707284625648342,0.0,0.0,0.0,0.0,0.0,0.0,0.001223815016317559,0.016238760340130998,0.003676387132388874,0.08850467432114487,0.0010802737289446732,0.21320076401020627
160764000000,hina_ssi_visual_root,khm2,0.0,0.0,0.0,0.0,0.0,0.0,1.0,-0.00014482498626858334,-0.006648986853776971,0.17492835022620432,-0.003959193135485156,-0.004898910255330905,-0.7070569191982541,0.707128586949997,0.0,0.0,0.0,0.0,0.0,0.0,3.96358297369199e-05,0.014629406196422036,0.0014052996260268766,0.07358778562597289,0.011350164415275775,-0.441916133726982
160765000000,hina_ssi_visual_root,khm2,0.0,0.0,0.0,0.0,0.0,0.0,1.0,-0.00014332965466662745,-0.006638137370003289,0.17492849474425473,-0.003942012821642155,-0.004902766820173243,-0.706887858992479,0.7072976588547782,0.0,0.0,0.0,0.0,0.0,0.0,0.0014953316019559026,0.010849483773682153,0.0001445180504172621,0.018526116020449665,-0.02675387462831078,0.4783804102229759
160766000000,hina_ssi_visual_root,khm2,0.0,0.0,0.0,0.0,0.0,0.0,1.0,-0.00014558793331117875,-0.006628563460563004,0.17492647934150973,-0.003951676218058474,-0.004891317686917406,-0.7070589969241785,0.7071266040356052,0.0,0.0,0.0,0.0,0.0,0.0,-0.002258278644551292,0.00957390944028461,-0.0020154027450028636,0.0028462095146715226,0.026831226664861752,-0.48410910090070447
160767000000,hina_ssi_visual_root,khm2,0.0,0.0,0.0,0.0,0.0,0.0,1.0,-0.00014379769877976239,-0.006622593922727304,0.17492332109922956,-0.003943038815570131,-0.004925082163363822,-0.706887939213113,0.70729741792659,0.0,0.0,0.0,0.0,0.0,0.0,0.0017902345314163696,0.005969537835700645,-0.0031582422801622436,-0.035854873420427195,-0.05694288772071095,0.48382127702747474
160768000000,hina_ssi_visual_root,khm2,0.0,0.0,0.0,0.0,0.0,0.0,1.0,-0.00014825145312692535,-0.006618001755492114,0.17491876061918274,-0.003963616486592416,-0.004933865216205219,-0.7070602786104988,0.7071249600527613,0.0,0.0,0.0,0.0,0.0,0.0,-0.0044537543471629484,0.004592167235189295,-0.0045604800468279074,-0.041188781439506744,0.013609933877604874,-0.48774064784242765
160769000000,hina_ssi_visual_root,khm2,0.0,0.0,0.0,0.0,0.0,0.0,1.0,-0.00014807327498482574,-0.006617421491237915,0.1749146295743051,-0.003960720552233683,-0.004991800298749127,-0.7068890594477102,0.7072957318234121,0.0,0.0,0.0,0.0,0.0,0.0,0.00017817814209961091,0.0005802642541992134,-0.004131044877658071,-0.07816741562332308,-0.08298746474306398,0.48412641493097774
160770000000,hina_ssi_visual_root,khm2,0.0,0.0,0.0,0.0,0.0,0.0,1.0,-0.00015493436275312262,-0.006618697143574594,0.17491073773465995,-0.003989427547839487,-0.00501658388006894,-0.7070611218037813,0.7071233897896413,0.0,0.0,0.0,0.0,0.0,0.0,-0.0068610877682968715,-0.0012756523366790212,-0.0038918396451438275,-0.07529455362509835,0.00244310389606891,-0.4871416287190197
160771000000,hina_ssi_visual_root,khm2,0.0,0.0,0.0,0.0,0.0,0.0,1.0,-0.00015618838164682184,-0.006624566817648929,0.17490892490242424,-0.0039893763945262105,-0.005089024478770492,-0.706889725743343,0.7072942120110544,0.0,0.0,0.0,0.0,0.0,0.0,-0.0012540188936992387,-0.0058696740743353045,-0.0018128322357010337,-0.10272420150870856,-0.09943979130015056,0.4845383512379404
160772000000,hina_ssi_visual_root,khm2,0.0,0.0,0.0,0.0,0.0,0.0,1.0,-0.00016471777182823112,-0.006632750130641337,0.1749083662635327,-0.004019998316122088,-0.005121402435219479,-0.7070614230339379,0.707122164062093,0.0,0.0,0.0,0.0,0.0,0.0,-0.008529390181409288,-0.00818331299240829,-0.000558638891548292,-0.08871789265146823,-0.0056298817246208215,-0.4861722051749041
160773000000,hina_ssi_visual_root,khm2,0.0,0.0,0.0,0.0,0.0,0.0,1.0,-0.000166975487256173,-0.006645963814235083,0.17491047176683705,-0.004018606232047818,-0.005198824260089332,-0.7068898897008171,0.7072930841377079,0.0,0.0,0.0,0.0,0.0,0.0,-0.002257715427941883,-0.013213683593746302,0.0021055033043413957,-0.10789801344093328,-0.10833212968565221,0.4849287729570228
160774000000,hina_ssi_visual_root,khm2,0.0,0.0,0.0,0.0,0.0,0.0,1.0,-0.00017642711857834617,-0.006661780584963038,0.17491397892805044,-0.004048552967535062,-0.005230803198842463,-0.7070611040560381,0.70712151929341,0.0,0.0,0.0,0.0,0.0,0.0,-0.009451631322173165,-0.015816770727954652,0.0035071612133903748,-0.08717209384324494,-0.006058832628382155,-0.4848067352411662
160775000000,hina_ssi_visual_root,khm2,0.0,0.0,0.0,0.0,0.0,0.0,1.0,-0.00017891931246735487,-0.006682871503800112,0.17491993524072239,-0.004044650190267602,-0.005306468432727851,-0.7068894042283129,0.7072926214710227,0.0,0.0,0.0,0.0,0.0,0.0,-0.0024921938890087115,-0.021090918837074077,0.0059563126719393445,-0.10189123888187372,-0.10934776248890421,0.48543818969373526
160776000000,hina_ssi_visual_root,khm2,0.0,0.0,0.0,0.0,0.0,0.0,1.0,-0.00018846735786684672,-0.006706754679012,0.17492704605533302,-0.0040731981930391846,-0.005332790130769333,-0.7070602327325846,0.7071214872241152,0.0,0.0,0.0,0.0,0.0,0.0,-0.009548045399491858,-0.023883175211888076,0.007110814610633469,-0.07716800884192498,-7.184432114370385e-05,-0.48368752142956567
