%time,field.header.seq,field.header.stamp,field.header.frame_id,field.wrench.force.x,field.wrench.force.y,field.wrench.force.z,field.wrench.torque.x,field.wrench.torque.y,field.wrench.torque.z
160615000000,0,160615000000,BL_wheel_link,-21.713785782139773,20.933764416708538,5.343280433755423,0.0069236479959232195,0.02731036810776694,-0.42275274197164237
160616000000,1,160616000000,BL_wheel_link,22.89599206164082,-20.856597581431664,5.560330487364608,0.003800350654356916,-0.0336391887656821,0.42278204792349683
160617000000,2,160617000000,BL_wheel_link,-21.723230298744156,21.0152842068022,5.383048703719952,0.01074362324071959,0.03144530813012764,-0.4228322193036909
160618000000,3,160618000000,BL_wheel_link,22.362485800778153,-20.847032416193972,6.178316237840785,0.003762543927606488,-0.032122188794293405,0.4230324423213721
160619000000,4,160619000000,BL_wheel_link,-22.244247028536904,20.904757743010645,6.405989115466899,0.005338246450194697,0.035996958573328054,-0.42286657310032355
160620000000,5,160620000000,BL_wheel_link,21.653758976620885,-21.011736194607455,7.226931326368621,-0.004145720969718027,-0.03024080512707882,0.4227417476422201
160621000000,6,160621000000,BL_wheel_link,-22.557835587751292,20.752351681021125,7.168535383671585,-0.0026015773787385127,0.03638726729706689,-0.4226319562784918
160622000000,7,160622000000,BL_wheel_link,21.462549867791925,-21.12031429887537,7.390578230020507,-0.009086909582775147,-0.03166273791946891,0.4225416721673697
160623000000,8,160623000000,BL_wheel_link,-22.38150814805131,20.70807319897266,6.672094810887438,-0.004014308898277744,0.03362370997056028,-0.4227477614862525
160624000000,9,160624000000,BL_wheel_link,22.01803281150099,-21.118685528958263,6.320574080465216,-0.008993321365257509,-0.03380696988646928,0.4227686911260567
160625000000,10,160625000000,BL_wheel_link,-21.92667359022757,20.826667817720697,5.421149577908742,0.0016828566030428409,0.028868076703684912,-0.4227142012449625
160626000000,11,160626000000,BL_wheel_link,22.673422833162245,-20.980416121490766,5.359571331337102,-0.002105521966429311,-0.03469710813949582,0.4226434209509325
160627000000,12,160627000000,BL_wheel_link,-21.5896737864235,20.985495983137593,4.943361414544314,0.009658243358425639,0.028708820103487357,-0.42278208341539303
160628000000,13,160628000000,BL_wheel_link,22.704367669290455,-20.802553799608475,5.5870420211620795,0.006174605532532603,-0.03438156073071424,0.42296075601018707
160629000000,14,160629000000,BL_wheel_link,-21.786122644522553,21.005681197316473,5.744330618580898,0.010447157218610382,0.03452555721536773,-0.42312180253855525
160630000000,15,160630000000,BL_wheel_link,22.02541718785925,-20.888310340315755,6.885018522878812,0.0016764161304061236,-0.03198281519854901,0.42311159492512623
160631000000,16,160631000000,BL_wheel_link,-22.335874294091976,20.8391383007361,7.2720523224940035,0.001985927303738449,0.03774070021456531,-0.42271917635931633
160632000000,17,160632000000,BL_wheel_link,21.381848702041115,-21.07919754484828,8.046630109096274,-0.007414522920179773,-0.031473022561283856,0.42265620724218644
160633000000,18,160633000000,BL_wheel_link,-22.43037392919639,20.697556746142684,7.81672861124567,-0.004985453709946507,0.03774287925945562,-0.42252887890684565
160634000000,19,160634000000,BL_wheel_link,21.337270277535374,-21.168629438604107,7.553373528643014,-0.010848157402500645,-0.0354730484912139,0.42238505460191944
160635000000,20,160635000000,BL_wheel_link,-21.91885060482014,20.73156003796349,6.523937856436639,-0.0029037388897803127,0.03468431865748897,-0.42268719205168015
160636000000,21,160636000000,BL_wheel_link,22.05562432257558,-21.06903673013001,5.852630143673448,-0.006805129060119893,-0.0372365523715912,0.4227741581093725
160637000000,22,160637000000,BL_wheel_link,-21.5104718967675,20.899723856015196,4.93046693221114,0.005137805517885381,0.029873133598428782,-0.4227543443570562
160638000000,23,160638000000,BL_wheel_link,22.687036323075596,-20.909467365243533,4.822327531746509,0.0008662875251467619,-0.036494190114748866,0.42273127094518964
160639000000,24,160639000000,BL_wheel_link,-21.43656391752418,21.03481023088094,4.621106843260877,0.011743968735990087,0.032149326268467386,-0.42283935705711206
160640000000,25,160640000000,BL_wheel_link,22.40615160907425,-20.77622982691655,5.369030603824568,0.006634129284566159,-0.0350164257275351,0.42309483461600644
160641000000,26,160641000000,BL_wheel_link,-21.90028181915097,20.994134832863757,5.811163758953199,0.009556916391352296,0.03712652955870838,-0.4229326917796847
160642000000,27,160642000000,BL_wheel_link,21.66596227437117,-20.90743979205541,7.057017241318422,0.0006572292553060138,-0.03355549281085929,0.4227814869954228
160643000000,28,160643000000,BL_wheel_link,-22.24720739902575,20.783922869063154,7.603518324972912,-0.0012402627196453364,0.04177177409545873,-0.42262395354088783
160644000000,29,160644000000,BL_wheel_link,20.937117169292033,-21.107790369640334,8.363381796242207,-0.008921937709088602,-0.035831065399576895,0.4225351505012477
160645000000,30,160645000000,BL_wheel_link,-21.989584714015255,20.651779596436572,7.952653634511331,-0.007341436830577099,0.041395252688442366,-0.4223699790290922
160646000000,31,160646000000,BL_wheel_link,21.130541578659788,-21.214963148364127,7.651063190513785,-0.012858287551770013,-0.039647242092109077,0.4225375948811125
160647000000,32,160647000000,BL_wheel_link,-21.555975757088458,20.71257122900984,6.408798576972131,-0.003199583338133509,0.03570816348031671,-0.4228174812413561
160648000000,33,160648000000,BL_wheel_link,22.04676840771606,-21.034966434950846,5.785877683405296,-0.004565338933460697,-0.04051969029025405,0.4225794625097097
160649000000,34,160649000000,BL_wheel_link,-21.103261447952164,20.936465614131514,4.770881029196866,0.007429028661475837,0.0323824949844192,-0.42271216711973103
160650000000,35,160650000000,BL_wheel_link,22.489299033015673,-20.824514903461257,4.8685935826878275,0.005291048422363959,-0.03942426222330565,0.4228001381835017
160651000000,36,160651000000,BL_wheel_link,-21.161911141378415,21.065514434298784,4.64237184218546,0.013384034557901322,0.036516347259129056,-0.42292547897495875
160652000000,37,160652000000,BL_wheel_link,21.973599449088216,-20.750229210454844,5.664653084160104,0.007893125035723052,-0.03837619167303994,0.42320330657552657
160653000000,38,160653000000,BL_wheel_link,-21.74358880813615,20.949507581472798,5.985434608738456,0.007427109746713136,0.045176963785712884,-0.4229274002921987
160654000000,39,160654000000,BL_wheel_link,20.80266258575958,-20.974554995662032,7.48186110680726,-0.0026582416534751533,-0.039022629785137784,0.42274042678504203
160655000000,40,160655000000,BL_wheel_link,-21.813655957390132,20.7549285935563,7.552034491011347,-0.0028466872732124068,0.04472296495848776,-0.4226068930901585
160656000000,41,160656000000,BL_wheel_link,20.677171524032634,-21.177415072389042,8.259973931487837,-0.012286140331622127,-0.03676876570705562,0.42246352385814706
160657000000,42,160657000000,BL_wheel_link,-21.90825499163683,20.651979693902593,7.4747543323545935,-0.006667923395353875,0.03857617027206763,-0.42243263488012966
160658000000,43,160658000000,BL_wheel_link,21.462181934281436,-21.18003225711601,7.066736854113705,-0.011548931954717222,-0.03575902115444172,0.422663760528784
160659000000,44,160659000000,BL_wheel_link,-21.82918541180073,20.769554167303998,5.870226470163087,-0.0007653741701452325,0.028441330901888082,-0.42288672943992794
160660000000,45,160660000000,BL_wheel_link,22.808725451054137,-21.02636934931012,5.310632846618787,-0.004419155296127688,-0.035882207241479044,0.42259261427823386
160661000000,46,160661000000,BL_wheel_link,-21.389148418942195,20.98735910342413,4.575936643125414,0.00948695691830421,0.02612472948441412,-0.4226852422888555
160662000000,47,160662000000,BL_wheel_link,23.104651956055566,-20.8119579712682,4.910949137110904,0.005903492264177828,-0.034135658795236314,0.4227938178047135
160663000000,48,160663000000,BL_wheel_link,-21.61619118028757,21.08397184385598,4.9767021070994195,0.014014687821865442,0.03314168520669812,-0.4228267529829176
160664000000,49,160664000000,BL_wheel_link,22.072260412856494,-20.754815336881354,6.033061375352937,0.008158379720354528,-0.027607947255104594,0.4231504826932995
160665000000,50,160665000000,BL_wheel_link,-22.816567577025836,20.910329983376844,6.7356863590526705,0.005567930530086947,0.03286334481150513,-0.4229375324915852
160666000000,51,160666000000,BL_wheel_link,21.83635524198858,-21.048631265121102,7.6221590345310215,-0.006079976142021062,-0.02601296104602589,0.42267853875695943
160667000000,52,160667000000,BL_wheel_link,-23.007671086195803,20.693498328007706,7.940085125822561,-0.0056479628254192836,0.0337608505234409,-0.4225688360064518
160668000000,53,160668000000,BL_wheel_link,21.66805071114615,-21.200556372880115,7.9396422202151875,-0.012898397227904097,-0.029140141607614967,0.42249707501428135
160669000000,54,160669000000,BL_wheel_link,-22.604993765414378,20.64051571730066,7.226441772070036,-0.007102231451796003,0.030566354405063622,-0.42266467372379735
160670000000,55,160670000000,BL_wheel_link,22.320965926399868,-21.179986254130995,6.38901671405457,-0.011740963752239875,-0.03237201399559404,0.422663145565671
160671000000,56,160671000000,BL_wheel_link,-21.96744911277486,20.820239954725803,5.3448460669290805,0.0015019539504093399,0.02515438303874758,-0.42267936779744764
160672000000,57,160672000000,BL_wheel_link,23.11488843329867,-20.97136678899794,4.8939105074392435,-0.0015459964497637954,-0.03334245040509627,0.4225651477250835
160673000000,58,160673000000,BL_wheel_link,-21.600855803972436,21.054234185752094,4.51379449861835,0.012940391137878302,0.025268985639980826,-0.42269876221127495
160674000000,59,160674000000,BL_wheel_link,23.09739293942726,-20.723505855649503,5.018418036740152,0.010065832968754415,-0.03179948901947163,0.4228900087960942
160675000000,60,160675000000,BL_wheel_link,-21.99495985226294,21.0911468895767,5.4534911979010365,0.014307905604743773,0.03303704111285225,-0.42301584412005666
160676000000,61,160676000000,BL_wheel_link,22.258727929701156,-20.92240929646104,6.685529991342779,-0.0003285198501438185,-0.03676604808272212,0.4230003427268213
160677000000,62,160677000000,BL_wheel_link,-21.889328909110873,20.86558728079426,7.3115375894475525,0.0033025562503020927,0.04841321813455214,-0.4225803081489794
160678000000,63,160678000000,BL_wheel_link,20.389385652745503,-21.1709235517717,8.366338188663901,-0.012252119131751735,-0.043814169879326896,0.4225272429386174
160679000000,64,160679000000,BL_wheel_link,-21.438277636637793,20.696817444449493,7.60882966434311,-0.004507432409688335,0.053735525582457096,-0.4224646316346653
160680000000,65,160680000000,BL_wheel_link,19.913816246210136,-21.23580615438427,7.568857888020222,-0.014424562843081346,-0.050940113511536336,0.4223900208009214
160681000000,66,160681000000,BL_wheel_link,-20.7061422205073,20.762270141026278,5.619101119790651,-0.0016016014236686527,0.05326625087774415,-0.42263009766699366
160682000000,67,160682000000,BL_wheel_link,20.361935446543647,-21.119981393307423,5.289773869648247,-0.009897976563079492,-0.05459841175105867,0.42271077866906426
160683000000,68,160683000000,BL_wheel_link,-20.123164084037064,20.95792959572951,3.373451527757315,0.007571008794849045,0.04944827482626175,-0.42273476959889267
160684000000,69,160684000000,BL_wheel_link,20.954589633950203,-20.89677483243429,3.753592340770644,0.0004290225737646349,-0.05559989363094433,0.42269180526947103
160685000000,70,160685000000,BL_wheel_link,-19.815391933964182,21.150411501050534,2.8314494160107397,0.01688139328033479,0.050350480287241144,-0.42288827430030335
160686000000,71,160686000000,BL_wheel_link,20.912672845949423,-20.75285391386419,4.461665527435875,0.006721563483716758,-0.05476176294874496,0.42318882285205983
160687000000,72,160687000000,BL_wheel_link,-20.161858509834907,21.104331920051717,4.552309247254034,0.014645600091149586,0.05602790828522769,-0.4230084562525935
160688000000,73,160688000000,BL_wheel_link,20.124751462763196,-20.933937428388695,6.939958320152755,-0.001464882567539145,-0.054363522243632806,0.4228404308436678
160689000000,74,160689000000,BL_wheel_link,-20.23341215435671,20.75187791147744,7.408240210129011,-0.0031688492173076233,0.05490024501737075,-0.4226471571019953
160690000000,75,160690000000,BL_wheel_link,19.95823626526111,-21.20019174448116,9.02929769822794,-0.014051424121296624,-0.048031111132902454,0.422480888131246
160691000000,76,160691000000,BL_wheel_link,-20.841572823651934,20.570116807611747,8.326849437719066,-0.010298447970861725,0.049983664589450694,-0.42232963785365646
160692000000,77,160692000000,BL_wheel_link,20.421733654077542,-21.22051881787608,8.004399006174744,-0.013102433417692596,-0.04494410580489469,0.42265705902134865
160693000000,78,160693000000,BL_wheel_link,-21.18792740799895,20.721547062902918,5.865971453953606,-0.0027355905794466126,0.0418333344705081,-0.42291250452647533
160694000000,79,160694000000,BL_wheel_link,21.394926630432117,-20.96627023215006,5.003791991169624,-0.0016511190416170576,-0.04173182943371694,0.4226690827930148
160695000000,80,160695000000,BL_wheel_link,-21.217775376067415,21.00873529702483,3.095708634851288,0.009895246400862166,0.03714079545980472,-0.42277757458671733
160696000000,81,160696000000,BL_wheel_link,21.898007013079738,-20.73068863206959,3.1295906743617525,0.008188730415099467,-0.038967763684487206,0.4229342054478251
160697000000,82,160697000000,BL_wheel_link,-21.41629430158118,21.133239803020594,2.1273246192558566,0.01479661426262524,0.036263833865258666,-0.42311526480015166
160698000000,83,160698000000,BL_wheel_link,21.93504711552981,-20.742696674032683,3.1658803360430925,0.006787587784617648,-0.03577242331968254,0.42318494865545647
160699000000,84,160699000000,BL_wheel_link,-21.9203096936461,20.983817072765827,3.6024037193983616,0.007407398177801411,0.036645206457429746,-0.4229212861566115
160700000000,85,160700000000,BL_wheel_link,21.714701281456573,-20.98376024885416,5.305801033382532,-0.004273412129050547,-0.032458163518139786,0.4227719810454506
160701000000,86,160701000000,BL_wheel_link,-22.276153074834248,20.73841392187823,6.255517817315514,-0.004397260186402439,0.03507362750583218,-0.42265981771813116
160702000000,87,160702000000,BL_wheel_link,21.733279271376865,-21.200206033180528,7.622457416999206,-0.013731598983782853,-0.03175090798203866,0.4225618199675433
160703000000,88,160703000000,BL_wheel_link,-22.219241027501607,20.598468974894477,7.73736658228748,-0.00896089843342014,0.033069514500501794,-0.4224259831932832
160704000000,89,160704000000,BL_wheel_link,22.048394868719324,-21.202474958978343,7.957631018779764,-0.01199058931402371,-0.03465816350118829,0.4225988802736852
160705000000,90,160705000000,BL_wheel_link,-21.88688833005504,20.75942827058548,6.890229231446481,-0.0004492676972418036,0.031526939252167506,-0.42282691617423396
160706000000,91,160706000000,BL_wheel_link,22.396414910065094,-20.94441852753543,6.369031370232682,0.0005781148997039808,-0.0359866555013869,0.42261769812813554
160707000000,92,160707000000,BL_wheel_link,-21.602764236876723,21.02790643890653,5.0393548628745615,0.012002200176344882,0.03325593373236124,-0.4226999679489633
160708000000,93,160708000000,BL_wheel_link,22.179506936906353,-20.753148122457606,4.882913233043668,0.008290984929723726,-0.035630096151431874,0.4228652844239046
160709000000,94,160709000000,BL_wheel_link,-21.797730693692632,21.07203658819943,3.991754053052982,0.012522063211129813,0.03590005265837935,-0.42304404624290515
160710000000,95,160710000000,BL_wheel_link,21.885836460969035,-20.845315070660536,4.403821251439473,0.0023787929524762283,-0.03349319421549671,0.4230503408853035
160711000000,96,160711000000,BL_wheel_link,-22.160892377932914,20.898787050900623,4.094086850476636,0.0030338414367703623,0.035510834101231736,-0.4227540302800955
160712000000,97,160712000000,BL_wheel_link,21.757300418292502,-21.029418137853064,4.846143883932872,-0.006653287336519645,-0.031564917328666044,0.4227097503785283
160713000000,98,160713000000,BL_wheel_link,-22.31251290696943,20.76172803825421,4.80475947321967,-0.003743855064137451,0.03233960727327513,-0.4226290078040004
160714000000,99,160714000000,BL_wheel_link,22.035926186363728,-21.139067643504234,5.49544905110854,-0.011241787854162709,-0.03053727382497496,0.42249800871960935
160715000000,100,160715000000,BL_wheel_link,-22.345428413201365,20.699832798805293,5.369824994780339,-0.005386703343570774,0.03059446616318178,-0.42266816193013235
160716000000,101,160716000000,BL_wheel_link,22.327625112568548,-21.121119493379584,5.742817205126653,-0.009373243243937167,-0.029736461966936537,0.42276442100905165
160717000000,102,160717000000,BL_wheel_link,-22.360939270956607,20.805648608042492,5.395119627058505,0.0006672492849944853,0.02805544620347891,-0.4226830341179112
160718000000,103,160718000000,BL_wheel_link,22.629230628024025,-20.928491185910122,5.71720736220335,0.0009989084597299728,-0.03212672806630004,0.42262089809212544
160719000000,104,160719000000,BL_wheel_link,-21.967047873861908,21.07045241923461,5.462774717561878,-0.04771531342517605,0.03066528387846151,-0.42273009148125024
160720000000,105,160720000000,BL_wheel_link,22.366108015813587,-20.823300125606913,6.421553991800063,-0.052301259054213144,-0.032864778458042976,0.4227516786916892
160721000000,106,160721000000,BL_wheel_link,-21.966490832488898,20.836196998188296,6.962634757639252,-0.05029506657787244,0.03352038595947894,-0.4226487625513044
160722000000,107,160722000000,BL_wheel_link,21.935369519102924,-21.298555195951767,8.70232013943382,-0.06303773390203943,-0.03217225083307111,0.422542762223478
160723000000,108,160723000000,BL_wheel_link,-22.03741332429171,20.20236437465763,9.077835235777258,-0.04339055353673001,0.03326004098943999,-0.4223635164649635
160724000000,109,160724000000,BL_wheel_link,21.814052301988127,-21.967444134803333,10.134649532497932,-0.012783193393139708,-0.032306055691381154,0.42203165553148064
160725000000,110,160725000000,BL_wheel_link,-21.93375066427531,19.806579388511324,8.880672405637473,-0.0032000579005906854,0.03694119939279933,-0.4216498528962018
160726000000,111,160726000000,BL_wheel_link,21.15539397370583,-22.03297146338646,8.7452354999396,-0.005678016654850782,-0.03299176613907661,0.42193591668170877
160727000000,112,160727000000,BL_wheel_link,-21.746083178289187,19.86814210972061,7.0208578932129715,0.003252728755764728,0.03085175106205421,-0.4225667740161281
160728000000,113,160728000000,BL_wheel_link,21.944490008536114,-21.868744774120184,7.518199982918356,-0.0012001769913372391,-0.033558400673810655,0.4222118287093202
160729000000,114,160729000000,BL_wheel_link,-21.31616638965426,19.94398678585718,5.863241220529703,0.006533607911824823,0.030554363437867018,-0.4225281995193818
160730000000,115,160730000000,BL_wheel_link,21.96575937389808,-21.925683317770677,6.657591582256875,0.001318180645468665,-0.033063624806749195,0.42258454723598865
160731000000,116,160731000000,BL_wheel_link,-21.253238359815175,19.82292223551051,5.163395169926131,0.006641936054685952,0.03068315161296565,-0.4223496956174548
160732000000,117,160732000000,BL_wheel_link,21.776659649836496,-22.10552234428499,6.536874272649198,-0.00047919257627207566,-0.03204296093750408,0.4225576559113375
160733000000,118,160733000000,BL_wheel_link,-21.333185903357165,19.60271105232459,5.079860899097894,0.0038533408131777576,0.03166858305142322,-0.42219752261488397
160734000000,119,160734000000,BL_wheel_link,21.448413572765457,-22.35857561449939,6.687672702923226,-0.003529838689427959,-0.031621691692221,0.42224545061033053
160735000000,120,160735000000,BL_wheel_link,-21.33553056775684,19.357753032050844,5.237974855567185,0.0016384412836149356,0.03192949818197905,-0.42194240524218435
160736000000,121,160736000000,BL_wheel_link,21.213721983859536,-22.589213573186438,7.001036626678512,-0.004562908125815601,-0.030212850835370293,0.4221361102520215
160737000000,122,160737000000,BL_wheel_link,-21.446461031103016,19.10977867811035,5.5408318048512175,0.0005500035637445148,0.031308911231164915,-0.4219792110313711
160738000000,123,160738000000,BL_wheel_link,21.091528444140234,-22.82927706995968,7.379181240958313,-0.005395724745751073,-0.029052216648096457,0.42204974729342015
160739000000,124,160739000000,BL_wheel_link,-21.498282260275836,18.866920673459884,5.858593155662139,-0.0001383988279707125,0.030743860546855028,-0.42195749500641266
160740000000,125,160740000000,BL_wheel_link,21.0161203002565,-23.05133379928924,7.763262495614544,-0.005701523413125865,-0.02910187921364837,0.4216994756491424
160741000000,126,160741000000,BL_wheel_link,-21.35171337256662,18.667439795984627,6.109206767175303,0.0001194230213762617,0.030686459951245734,-0.4218309588761648
160742000000,127,160742000000,BL_wheel_link,20.932807796672215,-23.271687002624653,8.23659862630701,-0.005248964648485136,-0.02949011416946374,0.4217355554336853
160743000000,128,160743000000,BL_wheel_link,-21.181342058462878,18.463545931828556,6.406327806529439,0.0010387664287720719,0.030799849049705445,-0.4218534602565778
160744000000,129,160744000000,BL_wheel_link,20.872621915221877,-23.378530353603736,8.462136533661809,-0.003776845821596715,-0.03082177411280148,0.42165546311582636
160745000000,130,160745000000,BL_wheel_link,-20.89777824057622,18.385639486185813,6.4208698656344785,0.0031125811984467405,0.03152708225046289,-0.42172632882316874
160746000000,131,160746000000,BL_wheel_link,20.77869238089386,-23.41623528748503,8.65049045394983,-0.0010972773954073581,-0.0333341932561389,0.4215271305959193
160747000000,132,160747000000,BL_wheel_link,-20.442917113361542,18.335578471066622,6.389034860815367,0.00585935914146527,0.03301893764768436,-0.4220462224640042
160748000000,133,160748000000,BL_wheel_link,20.661199297160007,-23.453112059283857,8.837081219204316,0.0008720759273359296,-0.03558878674115628,0.4220522191429229
160749000000,134,160749000000,BL_wheel_link,-20.066137003879934,18.23830909165674,6.387297986601389,0.006819653411779257,0.03480265575917996,-0.42214771312356775
160750000000,135,160750000000,BL_wheel_link,24.217637913241024,29.227084371822404,5.564556831340751,-0.08386381095403632,-0.037682739574627463,0.2514707680981441
160751000000,136,160751000000,BL_wheel_link,-1.12341504889122,22.960334256127016,2.339160679550872,-0.07230859452870303,0.03716369027605938,-0.041317049090623635
160752000000,137,160752000000,BL_wheel_link,-3.1012239884383734,-26.107868408825944,6.537906855815484,0.12141742187186046,-0.03233897739873485,-0.004268734734918815
160753000000,138,160753000000,BL_wheel_link,3.6534064935625756,26.247302347280524,-1.3510525252084837,-0.05178015347531446,0.02368361306731365,0.011150091376934885
160754000000,139,160754000000,BL_wheel_link,-2.656763299652006,-25.801437938496402,5.428306019760672,0.12639739427913138,-0.018747364462995623,-0.011780936708602205
160755000000,140,160755000000,BL_wheel_link,2.3988331656291586,25.847673993331288,-1.0618981267343581,-0.06457764450471502,0.01572401691688713,0.013098223562849032
160756000000,141,160756000000,BL_wheel_link,-2.4649516547325976,25.50505282386597,-0.03361894242281344,-0.061601392290232294,-0.01167175713649373,-0.0020302386537142964
160757000000,142,160757000000,BL_wheel_link,0.5067800663995822,-26.508822683858032,5.572296732869693,0.11825491296361068,0.007993587916803718,-0.011288337478789223
160758000000,143,160758000000,BL_wheel_link,0.03207762754747617,25.57402342037648,0.24905386508687527,-0.06371889051382354,-0.00620256360895552,0.013472888698433196
160759000000,144,160759000000,BL_wheel_link,-0.11153902773455042,-27.17969744639844,7.072484147993934,0.11090112760343575,-0.0004455206158230679,-0.012927177383358638
160760000000,145,160760000000,BL_wheel_link,0.935382184390507,24.98310658373647,0.6442302436998946,-0.0781401816816123,-0.0024259058798585306,0.013090696302702808
160761000000,146,160761000000,BL_wheel_link,-0.4335333050817642,-27.684244957053664,7.358923702108819,0.0968121193019486,0.002798395352239915,-0.013857994173353755
160762000000,147,160762000000,BL_wheel_link,0.4918929043209032,24.673051783174056,0.7910074035199246,-0.09083092126295447,-0.000162439384333768,0.013844781965753589
160763000000,148,160763000000,BL_wheel_link,1.0646912430965958,24.58909782570349,2.4312126841805575,-0.04045551362041188,0.001830374790442467,-0.09964315588710596
160764000000,149,160764000000,BL_wheel_link,8.086218667072112,-25.559342404821287,5.370651291918083,0.004897939671912338,0.002685768527321917,0.28454654376560296
160765000000,150,160765000000,BL_wheel_link,-21.65346106875815,20.100762777374086,4.102422427538449,0.016699628561383423,0.0033237927811973433,-0.40006403021491
160766000000,151,160766000000,BL_wheel_link,22.43438948118233,-22.573171145071665,6.348053384082613,0.005260703664466247,-0.007473707421866225,0.4185416984402375
160767000000,152,160767000000,BL_wheel_link,-22.600242665753946,19.304122670405565,4.678316373121343,0.011598920383343167,0.016512718077108416,-0.4213550013567729
160768000000,153,160768000000,BL_wheel_link,21.20935073606275,-22.74470581431845,7.847388772498155,0.0020712074526168037,-0.012117396197693713,0.4227281572346796
160769000000,154,160769000000,BL_wheel_link,-22.481281791314867,18.98961519357303,6.1002050378965755,0.011039868055423074,0.0199304310421291,-0.4232937803219752
160770000000,155,160770000000,BL_wheel_link,20.717352926719013,-23.06169345723121,9.628167025519922,-0.00044774235016303306,-0.01622281316293525,0.4228420812175961
160771000000,156,160771000000,BL_wheel_link,-21.875644013979056,18.606664597298423,7.478136236648409,0.008046309285879454,0.021066835242486644,-0.42333906903399
160772000000,157,160772000000,BL_wheel_link,20.553437180602895,-23.429292386801244,10.991968089349616,-0.003868408090798848,-0.018323910165465515,0.4227681482362811
160773000000,158,160773000000,BL_wheel_link,-21.426962364938145,18.285123429030588,8.135014225538235,0.005451480634580155,0.02082477209085656,-0.4231484434915671
160774000000,159,160774000000,BL_wheel_link,20.591341015990313,-23.69686359487535,11.500863423672754,-0.005918579557045159,-0.02045425319623665,0.42252643537419515
160775000000,160,160775000000,BL_wheel_link,-20.933194709366703,18.069722617585963,8.19887622675976,0.004033236276138454,0.020509220534515767,-0.42283261415212914
160776000000,161,160776000000,BL_wheel_link,20.686489962562714,-23.906468936401424,11.71182031742337,-0.007126836436775289,-0.0221213462573995,0.4224320967357842
160777000000,162,160777000000,BL_wheel_link,-20.49260655556091,17.85281151647188,8.277117025446158,0.00227898443113723,0.0193069534071853,-0.422679092774444
160778000000,163,160778000000,BL_wheel_link,20.923767353232993,-24.105816545754593,11.814929206959523,-0.008444480648365178,-0.022931281444057303,0.4224626893154083
160779000000,164,160779000000,BL_wheel_link,-20.152762901836017,17.65172417640841,8.34625534381812,0.0006771834256144808,0.018080314456736656,-0.4224385049699388
160780000000,165,160780000000,BL_wheel_link,21.28537438384643,-22.91042289746479,11.406478833171457,-0.011174094473355968,-0.020676577568655097,0.4238661634946715
160781000000,166,160781000000,BL_wheel_link,-20.705541414356773,18.915280033796588,8.07125474690712,-0.002066493108642587,0.01578067981939315,-0.42292479378148257
160782000000,167,160782000000,BL_wheel_link,21.388000426568098,-22.94884212376472,11.261990760808848,-0.01009564587623351,-0.01812882548258519,0.4234916459247208
160783000000,168,160783000000,BL_wheel_link,-20.93731479767646,18.88479742059497,7.809247963035814,-0.0009204656773368836,0.01317900644407741,-0.42317085489396644
160784000000,169,160784000000,BL_wheel_link,21.623170395266705,-22.97873135368557,10.828039334437298,-0.008714694144799055,-0.016964359087165676,0.4236157133030703
160785000000,170,160785000000,BL_wheel_link,-20.954516825788932,18.869144361722196,7.211067996022481,0.0010346150760882457,0.011225576175496514,-0.4231891728117489
160786000000,171,160786000000,BL_wheel_link,21.810654010675655,-22.986727049221898,10.168449471002459,-0.006366906878199487,-0.015801706825825202,0.42368182359795803
160787000000,172,160787000000,BL_wheel_link,-20.991457036776097,18.870873122801893,6.4930334936300005,0.0038298062366122513,0.010329680398362597,-0.42311859658121825
160788000000,173,160788000000,BL_wheel_link,21.8272221833826,-23.005102612823794,9.56905160320687,-0.0037283637480492633,-0.014700177294933576,0.42364959353371395
160789000000,174,160789000000,BL_wheel_link,-21.061194436719134,18.872904920577955,5.886153488301793,0.006434704991436816,0.010247429632024232,-0.4231755636381245
160790000000,175,160790000000,BL_wheel_link,21.715740495395718,-23.011988303125506,9.189962049551607,-0.001518731276143047,-0.013382593485149728,0.42361557164856206
160791000000,176,160791000000,BL_wheel_link,-21.199257935908975,18.820097878759874,5.583057322236869,0.008807108088994358,0.011795170459474988,-0.42346861512635753
160792000000,177,160792000000,BL_wheel_link,25.157308720833452,29.51045940340151,3.649779697422307,-0.08421510888416008,-0.017380182982632806,0.2530774095616824
160793000000,178,160793000000,BL_wheel_link,-0.6039168699647594,23.127476317407567,2.5726966941366998,-0.029848801744398235,0.022932823382883712,-0.13765076454882957
160794000000,179,160794000000,BL_wheel_link,6.094117158944842,-25.250029578509388,5.398138917308832,0.01374548991185384,-0.00866488493529647,0.2892424519703938
160795000000,180,160795000000,BL_wheel_link,-20.481469032824457,20.353058594097817,1.5325161224579633,0.02554643026173734,0.006665915576200209,-0.40160237825432277
160796000000,181,160796000000,BL_wheel_link,21.473660262667387,-21.451091234849056,4.31253811562685,0.014965843060001444,-0.0009997729879525105,0.4199950432156558
160797000000,182,160797000000,BL_wheel_link,-23.12369742840891,20.300537354516575,1.055180508190934,0.02461310987578473,0.003418715506112742,-0.42367970529340443
160798000000,183,160798000000,BL_wheel_link,22.304799413860188,-20.588596563155065,4.302624966322695,0.009356538760760388,0.0013681542580440847,0.4221856762366738
160799000000,184,160799000000,BL_wheel_link,-23.29489042390987,21.167765741890396,1.6430581638030175,0.017294864268530573,-9.812290957660325e-05,-0.42352751673267663
160800000000,185,160800000000,BL_wheel_link,22.780714074289058,-20.757587755600373,5.878852293703643,0.0058073064384209705,0.0060825782576143005,0.4232536090367427
160801000000,186,160801000000,BL_wheel_link,-23.611544943174472,20.9466675794752,2.5751477898104196,0.014450930697904485,-0.005526277139740581,-0.4233414337619412
160802000000,187,160802000000,BL_wheel_link,23.246371986008594,-20.95190665327315,5.978623547862108,0.004675810442393451,0.007053578782611642,0.4230285108309252
160803000000,188,160803000000,BL_wheel_link,-23.472974671075185,20.79247873792876,2.676541558455224,0.014530845657604248,-0.0060243067328201085,-0.4231069352988085
160804000000,189,160804000000,BL_wheel_link,23.188737392961198,-21.091337060731988,6.178191266859712,0.005009990942016269,0.007350965429640858,0.422970510295055
160805000000,190,160805000000,BL_wheel_link,-23.445505147601875,20.664432006395295,3.6088813209371313,0.013584929114799702,-0.003466632133844328,-0.4232874631914484
160806000000,191,160806000000,BL_wheel_link,22.694721078837276,-21.1617000535465,8.395716572743735,0.0012377626884733242,0.008814281411138025,0.42269755091056416
160807000000,192,160807000000,BL_wheel_link,-23.63524501116697,20.485092060933933,6.489290628061357,0.006924214566326838,-0.002448143649084305,-0.42329825648933117
160808000000,193,160808000000,BL_wheel_link,22.381695236819315,-21.4844446758324,11.441737708172846,-0.007332019296776527,0.006162295454002191,0.42282213953352965
160809000000,194,160809000000,BL_wheel_link,-23.205754230672603,20.1145360493263,7.979232067019201,0.0007658976240336976,-0.0033059223315810354,-0.4232168667271402
160810000000,195,160810000000,BL_wheel_link,22.486412497615262,-21.810979385115427,11.960786173185314,-0.009307606484694832,0.004040155521946657,0.4229085932077177
160811000000,196,160811000000,BL_wheel_link,-22.774590513291766,19.78058245778808,8.087913386866829,-0.0012694284476872499,-0.002802521581128123,-0.42313975283963706
160812000000,197,160812000000,BL_wheel_link,22.47040438284205,-22.060933066620798,11.796952845771342,-0.00911319140882377,0.0008689648233606551,0.42306377927532124
160813000000,198,160813000000,BL_wheel_link,-22.249634405919682,19.442946904406245,8.138760555590498,-0.0034486437964887018,-0.0013978430876951746,-0.4230418252445897
160814000000,199,160814000000,BL_wheel_link,22.414231577451897,-22.22386306902004,11.159667187104988,-0.007999316005651087,-0.0038150297351944667,0.4231985832604732
160815000000,200,160815000000,BL_wheel_link,-21.544944430664415,19.162015696415626,8.142751801393258,-0.0035548614875302808,0.0016406280606745445,-0.42299268510781945
160816000000,201,160816000000,BL_wheel_link,22.135364238128172,-22.430946401373674,11.327975486834788,-0.0077189776874479026,-0.006909436844042163,0.4234119964821885
160817000000,202,160817000000,BL_wheel_link,-21.015189011190653,19.110642916777532,6.780092043798876,-0.0013912012308862516,-0.0006531023624177269,-0.4231243974378518
160818000000,203,160818000000,BL_wheel_link,22.505372975110564,-22.625639271204545,11.364888909746048,-0.007202293436492999,-0.004802045282281413,0.4237835439163008
160819000000,204,160819000000,BL_wheel_link,-21.098716159078013,18.942661424404758,6.75142117541445,-7.375559989929596e-05,-0.00112637924678129,-0.42295531259700603
160820000000,205,160820000000,BL_wheel_link,22.45163947720194,-22.779898841917046,11.323834107629004,-0.005944107811222558,-0.004567906893137837,0.4236610622744227
160821000000,206,160821000000,BL_wheel_link,-22.964047412627895,18.522965303469764,5.211018329627184,-0.04080774418672505,0.003971623886713338,-0.3374680795898878
160822000000,207,160822000000,BL_wheel_link,14.564707498178894,27.513575278313326,3.249769751526647,-0.08492334273375901,-0.016358074845937688,0.15402761832326875
160823000000,208,160823000000,BL_wheel_link,-0.768101428746,-27.512161535598832,8.62968699043137,0.10252246685646567,0.02007744876628126,-0.03823870665663345
160824000000,209,160824000000,BL_wheel_link,-0.7914143456028201,25.428270945319746,-0.6373465677616076,-0.07090545366865407,-0.015047433850979062,0.019267253545354655
160825000000,210,160825000000,BL_wheel_link,3.0773171487763604,-3.874751838540115,3.563481063367104,0.050932801443124905,0.003613418197740769,-0.1282542403247897
160826000000,211,160826000000,BL_wheel_link,11.371619909409462,-23.699410838248532,4.773103819165777,0.014679069341304375,0.008941857773518408,0.3165474062059003
160827000000,212,160827000000,BL_wheel_link,-21.546188655818796,20.68122844234436,0.7223033071465735,0.01994557082695856,-0.013581318903396125,-0.4052714400667774
160828000000,213,160828000000,BL_wheel_link,22.935856983548067,-21.62497533274028,5.730322635657512,0.012832903202833252,0.013892269188144409,0.4203724128776535
160829000000,214,160829000000,BL_wheel_link,-23.221584203260132,19.724086778508962,2.3360210184484917,0.01734843076216387,-0.010102780178993673,-0.42269258637480794
160830000000,215,160830000000,BL_wheel_link,22.4760706967053,-22.14812536798044,7.681203207112232,0.00934708470486491,0.010263402016564924,0.42302223488496427
160831000000,216,160831000000,BL_wheel_link,-22.71871187253223,19.422633061049776,2.8671096597963377,0.014479265411495195,-0.009999402898283953,-0.42362397028602566
160832000000,217,160832000000,BL_wheel_link,24.358011597371377,3.3499652095553114,4.476387486055008,-0.03350660081611125,0.0036664601818820566,0.34144202458176154
160833000000,218,160833000000,BL_wheel_link,-13.20219096182157,21.242509129224967,2.209158993643416,-0.028367204560779083,0.004303478476938248,-0.2454458211334985
160834000000,219,160834000000,BL_wheel_link,9.358803289076894,-24.873897140026283,8.877859910161888,0.007831474659877205,0.002721594788215919,0.31108973933639683
160835000000,220,160835000000,BL_wheel_link,-20.646550047262302,19.73926994189347,3.806967064415219,0.014108208212466182,-0.008873547993191734,-0.40466108731558603
160836000000,221,160836000000,BL_wheel_link,22.05062535518093,-22.388070722000037,9.036850027653198,0.007846193556251616,0.010792987033635229,0.4199867912258105
160837000000,222,160837000000,BL_wheel_link,-22.55984668115051,19.255275321428318,4.3084324551699815,0.013766161496965615,-0.007448615461456045,-0.42299742009378277
160838000000,223,160838000000,BL_wheel_link,21.93780738769003,-22.372115712696736,9.897463720581746,0.006923992862263902,0.00952244612974261,0.42308457708557834
160839000000,224,160839000000,BL_wheel_link,-22.43187971827466,19.11700594668761,5.112002475249627,0.011903303911646165,-0.005050041547963669,-0.42380164760265293
160840000000,225,160840000000,BL_wheel_link,21.580914889934206,-22.545265162213234,11.036276105156526,0.0030086282453683894,0.00596551376528413,0.42343866495659266
160841000000,226,160841000000,BL_wheel_link,-21.92462936161786,18.86551337529981,6.04842748040853,0.007024505947164126,-0.0025996407225901794,-0.4239004045682571
160842000000,227,160842000000,BL_wheel_link,25.11050879736814,29.47647355830446,4.1538271752944285,-0.08767089932467641,-0.009488010977563811,0.2534750686864803
160843000000,228,160843000000,BL_wheel_link,1.6041038856237082,23.150237384469435,5.779469914129373,0.0068527191162266275,0.012221284870168386,-0.2253698123163499
160844000000,229,160844000000,BL_wheel_link,18.109198376994005,-23.056587739872956,9.98170272435781,0.005530498502103085,0.0007672796981870601,0.3899199867197456
160845000000,230,160845000000,BL_wheel_link,-20.766420129130548,19.30207341957146,3.8677177879124893,0.01303759439034326,-0.006035114847780071,-0.41798046827643626
160846000000,231,160846000000,BL_wheel_link,22.041594585127562,-22.26158976011544,9.15871430929096,0.008633927499778338,0.00444105968935299,0.42313032798130196
160847000000,232,160847000000,BL_wheel_link,-21.385021919277694,19.14381478219,3.3393026167575153,0.01480063975385026,-0.0067312761879753606,-0.4235270036248194
160848000000,233,160848000000,BL_wheel_link,22.05031045434583,-22.329575503361006,9.103768707515764,0.009018416771984535,0.004228877915844937,0.4241060470980273
160849000000,234,160849000000,BL_wheel_link,-21.260112134213497,19.04662581157091,3.2072003080938067,0.01355264874981231,-0.006409305146543495,-0.423754165122818
160850000000,235,160850000000,BL_wheel_link,21.93979010768771,-22.498880303254996,9.39238936189011,0.005520224208278413,0.0029314998001085,0.42402409590963264
160851000000,236,160851000000,BL_wheel_link,-20.97489436944084,18.78632257548539,3.556365014378293,0.00792770532117885,-0.004519877124081623,-0.42337064376056366
160852000000,237,160852000000,BL_wheel_link,25.417663090685608,29.368992056281233,1.5594176412585066,-0.08644785001118141,-0.010858652977056618,0.2538160243093797
160853000000,238,160853000000,BL_wheel_link,-1.9591242257640629,22.628944659160684,0.13173515403269254,-0.07948513213275928,0.024807822785377943,-0.044307407141571886
160854000000,239,160854000000,BL_wheel_link,-2.240692005206043,-26.381479288061197,9.661394037893412,0.1059966337661854,-0.025048006242087372,-0.0012094809980679668
160855000000,240,160855000000,BL_wheel_link,3.0645094185745996,24.658332443387128,-2.145251522459852,-0.07088666861414278,0.018758555972182518,0.00967644821648354
160856000000,241,160856000000,BL_wheel_link,-2.266654014462071,-26.766832445352595,9.784998014450053,0.1062497271008038,-0.014293326579358124,-0.010911506848640198
160857000000,242,160857000000,BL_wheel_link,1.9920375514038886,24.611022889582195,-1.6718718523030507,-0.07019718194734938,0.011632504396967863,0.011869429904152838
160858000000,243,160858000000,BL_wheel_link,-1.7544213338156898,-27.116397510096,10.512617717323579,0.10471456853172058,-0.009149150211125496,-0.01225170754777932
160859000000,244,160859000000,BL_wheel_link,1.5468098957926444,24.307107806008172,-1.0050790190505505,-0.07402142371512152,0.0069805834023194124,0.012439168128553859
160860000000,245,160860000000,BL_wheel_link,-1.5255611135891718,24.013164720708563,-0.6067938062224911,-0.07216461960213341,-0.005224732979263548,-0.001674763608780712
160861000000,246,160861000000,BL_wheel_link,0.045805573759841706,-27.21560981956821,10.528233274008217,0.10353343240965046,0.00196807231055421,-0.01105310288034059
160862000000,247,160862000000,BL_wheel_link,0.554680083241864,24.32886048366535,-0.7394980378448,-0.07200252392105533,-0.001709220494336742,0.013358494837492619
160863000000,248,160863000000,BL_wheel_link,-0.42804649016642127,-27.429444878671017,11.06203535727353,0.1029022730822028,0.0004231720296217951,-0.013469945970808158
160864000000,249,160864000000,BL_wheel_link,0.7184313274439291,24.27696312784909,-0.7889640328209381,-0.07313012915699688,-0.0007865993691788078,0.01358154825941298
160865000000,250,160865000000,BL_wheel_link,-0.514716540308879,-27.42275264622442,11.179254460156134,0.10340433397896333,-2.4444651810321068e-05,-0.013303344124083244
160866000000,251,160866000000,BL_wheel_link,0.6949498287113737,24.18818470674819,-0.8593931091512274,-0.0753505445934461,0.0011904173609069552,0.013707280923265803
160867000000,252,160867000000,BL_wheel_link,1.0670462075904668,24.2232518570463,0.6958218340402087,-0.02863128840956645,-0.011157808932907567,-0.0942528639892171
160868000000,253,160868000000,BL_wheel_link,8.467401469699183,-25.709767028249725,8.373832002235403,0.009903801215174368,0.020479417504484485,0.27728197216229267
160869000000,254,160869000000,BL_wheel_link,-20.88222022243482,19.632551428573564,2.3834126680291714,0.013959270655521128,-0.032140054202118136,-0.3965787024138572
160870000000,255,160870000000,BL_wheel_link,23.753737506583537,-22.48895502951147,8.26852625366246,0.008550096501203351,0.026652194005507817,0.41737867708441984
160871000000,256,160871000000,BL_wheel_link,-22.652502512246524,19.072630909258184,2.3139122055922337,0.013871145494179301,-0.02721202790257191,-0.42037828253749443
160872000000,257,160872000000,BL_wheel_link,23.318721001567074,-22.311141815345742,9.476324262518842,0.007746279553493179,0.025661633914145707,0.42139354850837685
160873000000,258,160873000000,BL_wheel_link,-22.755099370897426,19.148441191595076,3.8353519425281166,0.010772792935822388,-0.021288532458105674,-0.4221551059731425
160874000000,259,160874000000,BL_wheel_link,22.411463482078446,-22.212952859355408,10.993500994167134,0.0048244493112186235,0.02434412889455751,0.4216633724259947
160875000000,260,160875000000,BL_wheel_link,-22.805221090645198,19.224510337269777,5.1487178929120825,0.008250123544200322,-0.015271032497128075,-0.4232102419051218
160876000000,261,160876000000,BL_wheel_link,21.479172799873893,-22.11689659146678,12.623083423072481,0.0009934868709569782,0.022396009299772836,0.4217618689361142
160877000000,262,160877000000,BL_wheel_link,-22.71769325946309,19.21803085228545,5.919480024569203,0.005091609700728182,-0.012044590707004565,-0.42364107894535574
160878000000,263,160878000000,BL_wheel_link,20.998655690284817,-22.153340663949876,13.070186349130287,-0.0022370885484081014,0.01925530293207301,0.4218073943675244
160879000000,264,160879000000,BL_wheel_link,-22.30059034893497,19.11116044452715,5.889894073261546,0.002174003617468415,-0.010956290865115199,-0.4237479142924016
160880000000,265,160880000000,BL_wheel_link,20.976876528168045,-22.242598990194463,13.224358313622323,-0.006136978353406509,0.015711192006425415,0.42191476652402166
160881000000,266,160881000000,BL_wheel_link,-21.64231098456173,19.036569458368213,5.867257986777356,-0.001585163601763973,-0.012397938017358355,-0.4232363147959045
160882000000,267,160882000000,BL_wheel_link,21.384857849996486,-22.268752477623266,13.306664659674768,-0.008785696896493266,0.014114166998320389,0.4221600994418425
160883000000,268,160883000000,BL_wheel_link,-21.169331342823444,18.98227207220972,5.896770775534062,-0.0032379003317825005,-0.014748571902766664,-0.42276538761707066
160884000000,269,160884000000,BL_wheel_link,21.871894692500252,-22.27924421167787,13.388368043063334,-0.009289595271083763,0.013799396559367108,0.42255754148065594
160885000000,270,160885000000,BL_wheel_link,-22.019785793556164,18.766614953313958,5.212684216436591,-0.0282510479684771,-0.01342123552540804,-0.37107198233767746
160886000000,271,160886000000,BL_wheel_link,17.276382931875894,1.095770012763505,8.31588219066757,-0.047554300731828175,0.004148416817773494,0.28298195609028587
160887000000,272,160887000000,BL_wheel_link,-9.42044889249259,21.404277255342716,4.6448837155196445,0.0035026185676710776,-0.010898067803831884,-0.3176314204749941
160888000000,273,160888000000,BL_wheel_link,20.772799362182624,-22.55304484025036,10.98292594056772,0.0008542670406182807,0.01737291261451373,0.40546205637890037
160889000000,274,160889000000,BL_wheel_link,-21.175259930396297,19.143074347179546,3.0197631549772628,0.008490052671233685,-0.02553110764293775,-0.41880171126158106
160890000000,275,160890000000,BL_wheel_link,23.158297668967474,-22.16689017137673,9.420052344081558,0.005120462068894672,0.018102970532821346,0.42274573136123317
160891000000,276,160891000000,BL_wheel_link,-21.1578592594054,18.961349471136096,1.984584902720472,0.012050951844915218,-0.025686637179244062,-0.4214695016345944
160892000000,277,160892000000,BL_wheel_link,23.1529311769098,-22.3324826411895,9.200349483632007,0.007451894808051194,0.018708408846672915,0.42335079654911273
160893000000,278,160893000000,BL_wheel_link,-21.177249505382054,18.73414890142143,2.175422844369483,0.012979895448607297,-0.024646674944850337,-0.4216378282889338
160894000000,279,160894000000,BL_wheel_link,26.6291337955473,29.34141180762751,-0.8734227646078335,-0.0767236875923863,0.0027241148838187813,0.25419627945664586
160895000000,280,160895000000,BL_wheel_link,-2.562665699771586,22.56042656193925,-1.4001032283368093,-0.07370000130121589,0.016276139537945704,-0.044678871134972306
160896000000,281,160896000000,BL_wheel_link,-1.4300238161230934,-26.590765183484113,11.339369797589844,0.10115704716937071,-0.022305165847366793,-0.0014277035896221443
160897000000,282,160897000000,BL_wheel_link,3.165189531922017,24.083063463873536,-2.3313184947984786,-0.07385216228572167,0.015459914585315109,0.010182345850034616
160898000000,283,160898000000,BL_wheel_link,-1.837806199412976,-26.81472893001985,11.443127550117019,0.10325587350140754,-0.010374869007006833,-0.009722042263017976
160899000000,284,160899000000,BL_wheel_link,1.5329889826693845,24.059969101542684,-1.9204278004763202,-0.072485822156845,0.009297415647917128,0.011617978309400943
160900000000,285,160900000000,BL_wheel_link,-1.6851112595806692,-27.18729886612155,12.101188488376353,0.1006926229727398,-0.004460242597285986,-0.011614000441940643
160901000000,286,160901000000,BL_wheel_link,0.618276067370229,25.41710454254872,-1.936357366160389,-0.08055142647154204,0.007819122571083885,0.010740685297808509
160902000000,287,160902000000,BL_wheel_link,-1.9783774763293156,24.995160383541283,-1.7409286345903592,-0.08220348818373983,0.0016982963922125664,-0.002340881611216852
160903000000,288,160903000000,BL_wheel_link,-1.1496752919378386,-25.97568862124839,11.462274970871668,0.09419391277897396,0.002534832975538762,-0.011637405015458598
160904000000,289,160904000000,BL_wheel_link,-0.08949141776788626,25.37551266640967,-2.118152577780199,-0.08098503773803528,0.005626456026954576,0.01170219057395125
160905000000,290,160905000000,BL_wheel_link,-1.6543916794884586,-25.93348906754456,11.770543970058757,0.09430699179793903,0.0021529341491929688,-0.014060699140454328
160906000000,291,160906000000,BL_wheel_link,-0.05165975866040587,25.40412790556345,-2.104876159099923,-0.07989377229567436,0.0041226828358636855,0.012514831724665089
160907000000,292,160907000000,BL_wheel_link,-1.4678701402606227,-25.695282085864783,12.746449404458678,0.09660207365883629,0.002655137160685137,-0.014389517206560771
160908000000,293,160908000000,BL_wheel_link,-0.0624316245227421,25.42860317270042,-1.3865545542131774,-0.0773417240192234,0.003525790201515669,0.012940590006213417
160909000000,294,160909000000,BL_wheel_link,-1.370212277275295,-25.78735456478105,13.013609226798282,0.09919439348246213,0.00022316813809605002,-0.013713549537763414
160910000000,295,160910000000,BL_wheel_link,0.3057718670741194,25.33800893568783,-1.1880621515871908,-0.07405166783733427,-0.0004189348124539079,0.013840159334273848
160911000000,296,160911000000,BL_wheel_link,-0.8665655858121761,-25.826947084382557,13.11080193771295,0.10481248806689324,0.003973003860291657,-0.01469143247260927
160912000000,297,160912000000,BL_wheel_link,-0.17170759775430228,25.296505054993958,-1.1597638841255637,-0.06821271846875941,0.0026831520564324753,0.013291010046927045
160913000000,298,160913000000,BL_wheel_link,-1.3883363204996277,-25.8714091505662,13.352938050532035,0.10837916724622225,0.002982861995165947,-0.015417281844907156
160914000000,299,160914000000,BL_wheel_link,-0.12493520405108835,25.24139539880012,-1.0340288644747841,-0.06596040157110034,0.001863084749164612,0.014478013411214402
160915000000,300,160915000000,BL_wheel_link,-1.4363886463850575,24.939582071334126,-0.7721413591926994,-0.059828620544531225,-0.0035569755669452607,-0.0016410658085472022
160916000000,301,160916000000,BL_wheel_link,-0.416455015424132,-25.82426074832678,13.63107786160115,0.11455572237429953,0.00397780352434273,-0.013982192272219156
160917000000,302,160917000000,BL_wheel_link,0.028427222468688236,25.1804840188748,-0.812201446293244,-0.061999351175957354,-0.0016615900092642093,0.01646910852771279
160918000000,303,160918000000,BL_wheel_link,-0.8685741526681929,-25.979604547353166,13.793708656631086,0.11485746839237176,0.0026291739769180793,-0.01733787455968004
160919000000,304,160919000000,BL_wheel_link,0.28798225136723266,24.947456233429236,-0.6684064842484452,-0.06950483753778132,-0.00879799190786627,0.01872132615912473
160920000000,305,160920000000,BL_wheel_link,0.26749169051473537,-26.197146693963738,14.139366189847616,0.1068351232839407,-0.001094298099663191,-0.0164975774625254
160921000000,306,160921000000,BL_wheel_link,1.0301311549221093,24.676031786080443,0.39144672075811204,-0.0838547207183127,-0.006168090619785719,0.01806010926730536
160922000000,307,160922000000,BL_wheel_link,4.076069001864343,25.067333870173822,3.533879041594999,0.0060462285956917414,-0.02509694868001404,-0.1846725330748487
160923000000,308,160923000000,BL_wheel_link,20.88309148770479,-22.369969311272975,12.567189760447427,-0.003214715034070318,0.042671200547976865,0.3829471627630839
160924000000,309,160924000000,BL_wheel_link,-22.912479755942268,19.75159712197773,4.760761380946306,0.0020455612199177563,-0.05270627901173295,-0.4132593256497514
160925000000,310,160925000000,BL_wheel_link,24.678861026594262,-21.496294455245575,12.56345890823009,-0.005170853050818391,0.04686096705595152,0.4210842725772586
160926000000,311,160926000000,BL_wheel_link,-23.70917149651341,19.476963758730967,4.738667962166094,0.0010124524903037276,-0.04970834635382451,-0.42104163290461016
160927000000,312,160927000000,BL_wheel_link,24.225271078922212,-21.557626636615524,12.763821607312176,-0.006380391707251467,0.04597823593075384,0.4223761746138764
160928000000,313,160928000000,BL_wheel_link,-23.707920679854293,19.368165133106242,4.7415948412044955,0.00013907289717874624,-0.04758282590244433,-0.4217349763594957
160929000000,314,160929000000,BL_wheel_link,23.767496623877868,-21.847179846711487,13.531571642614011,-0.006705229883986705,0.047952810552629344,0.42249920590076395
160930000000,315,160930000000,BL_wheel_link,-24.09549431053692,19.3014659147858,4.840919276889068,0.001123048450781069,-0.04769784476250457,-0.4224919195946404
160931000000,316,160931000000,BL_wheel_link,23.756989004320786,-21.435161911794484,11.411805773879918,-0.0031702618381120448,0.04344543508058073,0.42250609742739137
160932000000,317,160932000000,BL_wheel_link,-23.31604903488259,19.490611611707195,3.0367715805679976,0.004324292612281302,-0.04515113342300706,-0.4222169379626616
160933000000,318,160933000000,BL_wheel_link,23.490198499619115,-21.424935917946055,11.533771377492748,-0.002171143097671257,0.044927085922270876,0.4228498397178795
160934000000,319,160934000000,BL_wheel_link,-23.573646285966614,19.485684593233383,3.133524657015664,0.005886866707083205,-0.04533122011223716,-0.4223249258102126
160935000000,320,160935000000,BL_wheel_link,23.293487941274222,-21.435278498649037,11.64271948286255,-0.0011428293667840729,0.04716736588060248,0.4223180631306689
160936000000,321,160936000000,BL_wheel_link,-23.91777689799697,19.429287993971062,3.182218661962015,0.005574690303966236,-0.044770774191962015,-0.42277525932350557
160937000000,322,160937000000,BL_wheel_link,23.142741380608634,-21.156248497910614,10.900836263891843,-0.0004676863018703991,0.045296500659061115,0.4219831344923403
160938000000,323,160938000000,BL_wheel_link,-23.61518218936123,19.384331913643894,3.1750827232444405,0.005138223116940332,-0.04244049543005526,-0.42262767868682555
160938000000,324,160939000000,BL_wheel_link,22.97153323785344,-20.79287532835018,10.087105688612501,0.000132524882019538,0.04163629474646677,0.4219819773268049
160940000000,325,160940000000,BL_wheel_link,-23.076020932619116,19.398630722063672,2.8901193458388,0.005066456654606437,-0.03952866604147,-0.4225914822716273
160940000000,326,160941000000,BL_wheel_link,22.65079128639612,-20.798721970419972,10.255481329904057,-0.00016670479545813886,0.040167535874211076,0.4224695375855726
160942000000,327,160942000000,BL_wheel_link,-22.899839300456257,19.361984397290886,2.933695998243688,0.004977697060643818,-0.03863339989552487,-0.4228842774565418
160943000000,328,160943000000,BL_wheel_link,22.343206200261083,-21.18271816038061,11.443821383267299,-0.0010104766360126086,0.04179454458995972,0.42272006936994755
160944000000,329,160944000000,BL_wheel_link,-23.03152876546225,19.236844051552332,3.3871734046655098,0.0041445711920967965,-0.04368330118478607,-0.4236801717933594
160945000000,330,160945000000,BL_wheel_link,26.177205192205204,31.492138793467568,-0.5783065430677277,-0.07143778181083335,0.02068090951705192,0.2885543990376653
160946000000,331,160946000000,BL_wheel_link,-3.667604622415096,23.127075953212138,1.98426762498585,0.008699316396921399,-0.02522633344700377,-0.2665418761604596
160947000000,332,160947000000,BL_wheel_link,21.432636866810654,-21.300876904354006,10.67469584073599,0.006628430998803388,0.037686097193137785,0.39754759353977787
160948000000,333,160948000000,BL_wheel_link,-21.619971449017445,20.162695754149443,1.4962782118155507,0.016181681920818047,-0.04992900495666624,-0.417795049189046
160949000000,334,160949000000,BL_wheel_link,24.665817026693272,-20.661761249175253,10.590095704881678,0.01067186913794407,0.043899900212353925,0.42396103502702776
160950000000,335,160950000000,BL_wheel_link,-22.389700718230852,20.01344753442996,1.4774590587486736,0.016990653364756993,-0.05144154704230241,-0.42215443028430966
160951000000,336,160951000000,BL_wheel_link,24.725095677169175,-20.973182272234943,10.771738249024814,0.005255285013978877,0.042554445022826126,0.42474416733004305
160952000000,337,160952000000,BL_wheel_link,-24.205313112103983,19.128846721737155,1.08945876102749,-0.03795194475414017,-0.03301981380224739,-0.3345745034791673
160953000000,338,160953000000,BL_wheel_link,15.266782488519878,27.555097535356005,-0.18284965264258674,-0.08723775688984643,0.00576997112524582,0.15479520015308845
160954000000,339,160954000000,BL_wheel_link,-1.9579684146134555,-26.79184493481017,15.53081635842455,0.0992768495756379,0.017693958174452386,-0.04556584928372808
160955000000,340,160955000000,BL_wheel_link,-1.0757879116354008,24.466866273510412,0.8793566932112671,-0.08154098505475735,-0.00784221962211256,0.023815016552539515
160956000000,341,160956000000,BL_wheel_link,2.538982151162902,24.698057786517264,1.5127499796174195,0.0033445369521916076,0.00011022686638064436,-0.16033225464947334
160957000000,342,160957000000,BL_wheel_link,13.02572390580279,-22.7008795583656,11.44351550610083,0.020181746592574955,0.05212005592022812,0.34454332189833764
160958000000,343,160958000000,BL_wheel_link,-24.522923429447143,20.014343725897575,1.233932447929419,0.025651725251750777,-0.0492289209762672,-0.4101907806563715
160959000000,344,160959000000,BL_wheel_link,22.66286518657658,-21.073237114289668,9.66741921048168,0.016337240833561827,0.05579532690867476,0.4175812411394245
160960000000,345,160960000000,BL_wheel_link,-24.293990412971166,19.531979908107793,0.11339140111663293,0.018963662522237024,-0.05415112246935242,-0.42153819384874974
160961000000,346,160961000000,BL_wheel_link,24.014930999594096,-21.263188005615135,9.161357029832166,0.004041172278079242,0.047141191180826006,0.42192752458314736
160962000000,347,160962000000,BL_wheel_link,-22.595672353453207,19.035658946279057,0.14601620902530146,0.004328113987242874,-0.05318504007314315,-0.4208877716553421
160963000000,348,160963000000,BL_wheel_link,24.32777784132077,-20.29759999953614,9.415062060869504,-0.01153399920855882,0.04696394580541108,0.4223123259004352
160964000000,349,160964000000,BL_wheel_link,-22.43224927083384,20.272434473804534,0.22196721298585992,-0.006862550859389205,-0.05329437222594225,-0.4203397510779543
160965000000,350,160965000000,BL_wheel_link,24.252919716069012,-20.18729866153241,10.294489425133142,-0.015087417280401482,0.05035904765593428,0.421623135704415
160966000000,351,160966000000,BL_wheel_link,-22.83699585384531,20.529996668705685,0.9505297437873457,-0.008178102123881006,-0.056080224126671796,-0.41996361684442257
160967000000,352,160967000000,BL_wheel_link,24.422050626738105,-19.99351333553665,10.718222919389909,-0.012144523508468518,0.05334800543038948,0.42152439237221523
160968000000,353,160968000000,BL_wheel_link,-23.174241513131978,20.615239028551123,1.4260041233739997,-0.003437193612644793,-0.057097756907786984,-0.4205154248986192
160969000000,354,160969000000,BL_wheel_link,24.394415337155344,-19.99720720019034,11.187991612098338,-0.00852975371236435,0.05517964212673933,0.421459387057642
160970000000,355,160970000000,BL_wheel_link,-23.44195862293296,20.56059006288283,1.7649478640581158,0.0007040536942922765,-0.05491305648637739,-0.4213231786460884
160971000000,356,160971000000,BL_wheel_link,23.92544719452008,-20.01222278164289,11.642815428151433,-0.0038140251056384094,0.05714045984381412,0.4209560953955562
160972000000,357,160972000000,BL_wheel_link,-23.718436099878883,20.6133509385032,2.257733132502497,0.008525205235893493,-0.05805159790570703,-0.42069317953024565
160973000000,358,160973000000,BL_wheel_link,24.133896827934556,-20.079649361781414,11.959133820548198,-0.0003979316287974295,0.061614310754158616,0.4199023496034586
160974000000,359,160974000000,BL_wheel_link,-24.151328081904214,20.52089981403768,2.7109514368820222,0.009957981535732347,-0.06287829879087348,-0.41953113309012585
160975000000,360,160975000000,BL_wheel_link,24.660817664972917,-20.12388766837163,12.33080688901454,0.0031806106609658254,0.06086433504275069,0.41985902077127013
160976000000,361,160976000000,BL_wheel_link,-26.622148180168587,19.70042667665077,0.9720882781351797,-0.049282456720257536,-0.042222852521449625,-0.3000951017303346
160977000000,362,160977000000,BL_wheel_link,11.643676864065862,27.433106609155097,-1.8608998618214532,-0.07729522000123341,0.010573036355160907,0.11387383993313213
160978000000,363,160978000000,BL_wheel_link,-1.981227450337571,-25.359160123333744,13.545552983039352,0.10791867231119881,0.0058562595237044174,-0.03487296227517695
160979000000,364,160979000000,BL_wheel_link,0.0841104620997446,25.301875286309777,-3.5852419393571116,-0.06785166332291676,-0.0014650264729785289,0.020745121689837276
160980000000,365,160980000000,BL_wheel_link,0.9515845763891944,0.30466659899815607,4.860309462138443,0.07258337788825496,-0.007280956028586004,-0.09988363526874154
160981000000,366,160981000000,BL_wheel_link,11.040014605354008,27.41980246872764,-5.682944977807351,-0.06278861615927106,0.016640878520882883,0.11122351887679459
