%time,field.header.seq,field.header.stamp,field.header.frame_id,field.wrench.force.x,field.wrench.force.y,field.wrench.force.z,field.wrench.torque.x,field.wrench.torque.y,field.wrench.torque.z
160616000000,0,160616000000,FR_wheel_link,-27.737330014611917,9.174407028892077,7.839084330309999,0.003800350654357208,-0.03363918876568215,0.42278204792349894
160617000000,1,160617000000,FR_wheel_link,28.865728364538644,-9.165873456403876,8.75466001760925,0.010743623240719914,0.0314453081301276,-0.4228322193036932
160618000000,2,160618000000,FR_wheel_link,-28.243000826894427,9.189429348726199,7.539678800870323,0.0037625439276067186,-0.03212218879429348,0.42303244232137427
160619000000,3,160619000000,FR_wheel_link,28.371623566416726,-9.229864278282783,7.04372802866769,0.005338246450194951,0.03599695857332815,-0.4228665731003258
160620000000,4,160620000000,FR_wheel_link,-28.91195752058942,9.086711317877882,5.19538041192201,-0.0041457209697179495,-0.0302408051270788,0.4227417476422227
160621000000,5,160621000000,FR_wheel_link,27.99625690224409,-9.355484806289674,5.001500566277961,-0.0026015773787384554,0.03638726729706683,-0.42263195627849365
160622000000,6,160622000000,FR_wheel_link,-29.05504077714318,9.007162333963329,3.8471076567661866,-0.009086909582775174,-0.03166273791946888,0.422541672167372
160623000000,7,160623000000,FR_wheel_link,28.16316664768136,-9.38962706745054,4.647524646053362,-0.0040143088982776695,0.03362370997056022,-0.42274776148625476
160624000000,8,160624000000,FR_wheel_link,-28.574581980997024,8.991365827617415,3.7432628990645656,-0.008993321365257493,-0.03380696988646931,0.4227686911260588
160625000000,9,160625000000,FR_wheel_link,28.634110742899765,-9.314505992042864,6.154546233586222,0.0016828566030430282,0.02886807670368492,-0.42271420124496484
160626000000,10,160626000000,FR_wheel_link,-27.92491640990113,9.087083834909736,5.767379659383929,-0.0021055219664291138,-0.03469710813949577,0.4226434209509349
160627000000,11,160627000000,FR_wheel_link,28.98224221551523,-9.206470592195116,8.452052695145241,0.009658243358425946,0.028708820103487374,-0.4227820834153955
160628000000,12,160628000000,FR_wheel_link,-27.971950384980516,9.21369921422161,8.342152843493224,0.006174605532532891,-0.03438156073071428,0.4229607560101894
160629000000,13,160629000000,FR_wheel_link,28.79473250027498,-9.151225358676964,8.68002536045652,0.01044715721861074,0.034525557215367694,-0.4231218025385574
160630000000,14,160630000000,FR_wheel_link,-28.641385804718663,9.161042888100548,7.155759294487979,0.0016764161304063177,-0.03198281519854904,0.4231115949251283
160631000000,15,160631000000,FR_wheel_link,28.243285503360028,-9.284167866877988,6.598748664821618,0.0019859273037386134,0.037740700214565305,-0.4227191763593188
160632000000,16,160632000000,FR_wheel_link,-29.15940098338946,9.033644312843327,4.835875229818031,-0.007414522920179733,-0.03147302256128389,0.4226562072421884
160633000000,17,160633000000,FR_wheel_link,28.09632856166032,-9.402357882527012,4.958024090330517,-0.0049854537099464896,0.037742879259455644,-0.42252887890684787
160634000000,18,160634000000,FR_wheel_link,-29.15677426863263,8.97004754365319,3.735396319034283,-0.01084815740250066,-0.03547304849121398,0.42238505460192216
160635000000,19,160635000000,FR_wheel_link,28.600225762589996,-9.378186341642872,5.326741316576762,-0.0029037388897802004,0.034684318657489055,-0.4226871920516826
160636000000,20,160636000000,FR_wheel_link,-28.54928374538818,9.022588500948881,4.320068546568098,-0.006805129060119867,-0.03723655237159116,0.4227741581093748
160637000000,21,160637000000,FR_wheel_link,29.05175855766424,-9.264715437484861,7.13148437986771,0.005137805517885649,0.029873133598428823,-0.4227543443570585
160638000000,22,160638000000,FR_wheel_link,-27.938533038796276,9.133200107050726,6.292014988220916,0.0008662875251469525,-0.03649419011474884,0.4227312709451915
160639000000,23,160639000000,FR_wheel_link,29.147858346225473,-9.158358925249178,8.599330274706654,0.01174396873599047,0.03214932626846734,-0.4228393570571139
160640000000,24,160640000000,FR_wheel_link,-28.211719949026932,9.23764123354446,7.928982045928452,0.00663412928456641,-0.03501642572753513,0.42309483461600833
160641000000,25,160641000000,FR_wheel_link,28.72437686533916,-9.159488376983088,8.034036699049247,0.009556916391352598,0.037126529558708384,-0.4229326917796868
160642000000,26,160642000000,FR_wheel_link,-28.913317993058303,9.162413017731215,6.774831246397743,0.0006572292553061817,-0.033555492810859344,0.4227814869954254
160643000000,27,160643000000,FR_wheel_link,28.30086917334838,-9.32900979630645,5.682306548935369,-0.001240262719645263,0.041771774095458666,-0.42262395354089
160644000000,28,160644000000,FR_wheel_link,-29.569018711836975,9.011122964799974,4.589717799717267,-0.008921937709088572,-0.035831065399576825,0.42253515050125007
160645000000,29,160645000000,FR_wheel_link,28.483208822950978,-9.44604261776557,4.589955860693079,-0.007341436830577105,0.041395252688442276,-0.42236997902909384
160646000000,30,160646000000,FR_wheel_link,-29.354225016447018,8.92506573510329,3.372467214463536,-0.01285828755177004,-0.0396472420921091,0.4225375948811149
160647000000,31,160647000000,FR_wheel_link,29.032164929304354,-9.389813268121951,5.522842211786072,-0.0031995833381333674,0.03570816348031671,-0.4228174812413587
160648000000,32,160648000000,FR_wheel_link,-28.524810561233053,9.046437836299129,5.2446105993650205,-0.004565338933460573,-0.04051969029025402,0.4225794625097118
160649000000,33,160649000000,FR_wheel_link,29.444994886882576,-9.245245127736117,7.901252812018804,0.007429028661476107,0.03238249498441916,-0.4227121671197332
160650000000,34,160650000000,FR_wheel_link,-28.152986317797385,9.1809066611338,7.619074128642098,0.005291048422364234,-0.039424262223305646,0.42280013818350387
160651000000,35,160651000000,FR_wheel_link,29.439017570820585,-9.125428510571297,9.020039356084794,0.013384034557901731,0.03651634725912908,-0.4229254789749607
160652000000,36,160652000000,FR_wheel_link,-28.65607630031192,9.253058292683242,8.32924697863031,0.007893125035723376,-0.03837619167303994,0.42320330657552846
160653000000,37,160653000000,FR_wheel_link,28.88783227039677,-9.182163315167303,6.962735277858195,0.007427109746713353,0.045176963785712954,-0.4229274002922012
160654000000,38,160654000000,FR_wheel_link,-29.755565542099223,9.111584072779188,5.645139417470657,-0.0026582416534750874,-0.03902262978513788,0.42274042678504453
160655000000,39,160655000000,FR_wheel_link,28.723983386410413,-9.354381503515219,5.447946578423826,-0.002846687273212269,0.04472296495848777,-0.4226068930901606
160656000000,40,160656000000,FR_wheel_link,-29.809937858509684,8.958105668550386,3.2679662430205263,-0.012286140331622205,-0.036768765707055596,0.42246352385814934
160657000000,41,160657000000,FR_wheel_link,28.58427330885455,-9.439135715450325,4.729485375917735,-0.006667923395353821,0.0385761702720677,-0.42243263488013255
160658000000,42,160658000000,FR_wheel_link,-29.050419927395406,8.951666467496793,3.197703148801621,-0.011548931954717264,-0.03575902115444169,0.42266376052878624
160659000000,43,160659000000,FR_wheel_link,28.76785520218594,-9.353693806778345,6.094963325752321,-0.0007653741701450542,0.02844133090188801,-0.4228867294399299
160660000000,44,160660000000,FR_wheel_link,-27.77940597553253,9.0495303222758,5.366470397517885,-0.004419155296127566,-0.03588220724147907,0.42259261427823597
160661000000,45,160661000000,FR_wheel_link,29.150009440218415,-9.21759256262538,8.56779223769944,0.00948695691830456,0.026124729484414116,-0.4226852422888575
160662000000,46,160662000000,FR_wheel_link,-27.540318077720077,9.1929645378187,8.125962125044683,0.005903492264178121,-0.03413565879523625,0.4227938178047152
160663000000,47,160663000000,FR_wheel_link,28.96675104941973,-9.108022621163924,9.2589674727789,0.014014687821865778,0.03314168520669806,-0.42282675298291983
160664000000,48,160664000000,FR_wheel_link,-28.532205224986576,9.27082636767434,7.77945797184122,0.008158379720354762,-0.02760794725510456,0.42315048269330163
160665000000,49,160665000000,FR_wheel_link,27.823370456011684,-9.22064414289778,7.001221549940501,0.005567930530087141,0.032863344811505095,-0.42293753249158705
160666000000,50,160666000000,FR_wheel_link,-28.711008819667313,9.0601839664515,4.847559021883125,-0.006079976142021023,-0.02601296104602597,0.4226785387569617
160667000000,51,160667000000,FR_wheel_link,27.53541104649359,-9.405525929014509,4.538838236676143,-0.005647962825419198,0.03376085052344099,-0.4225688360064543
160668000000,52,160668000000,FR_wheel_link,-28.838265393780723,8.941845964637885,3.3118689444757057,-0.012898397227904113,-0.029140141607614942,0.4224970750142839
160669000000,53,160669000000,FR_wheel_link,27.93756625796496,-9.448468431300597,4.300707759404528,-0.007102231451795943,0.030566354405063608,-0.42266467372379923
160670000000,54,160670000000,FR_wheel_link,-28.252403266964723,8.945587645208736,3.2912268268784315,-0.011740963752239866,-0.03237201399559401,0.4226631455656732
160671000000,55,160671000000,FR_wheel_link,28.57826862440622,-9.328699991148675,6.34602347841037,0.001501953950409513,0.025154383038747518,-0.42267936779744963
160672000000,56,160672000000,FR_wheel_link,-27.476750384640354,9.08835083594692,5.93099024896939,-0.0015459964497635868,-0.03334245040509627,0.4225651477250856
160673000000,57,160673000000,FR_wheel_link,28.944718275436788,-9.171235998564063,9.295669548871741,0.012940391137878695,0.025268985639980857,-0.42269876221127733
160674000000,58,160674000000,FR_wheel_link,-27.567316541190223,9.26330986667583,9.169305512415214,0.010065832968754775,-0.03179948901947153,0.4228900087960962
160675000000,59,160675000000,FR_wheel_link,28.569381697829794,-9.087517536422503,9.363972879712746,0.01430790560474414,0.03303704111285222,-0.4230158441200584
160676000000,60,160676000000,FR_wheel_link,-28.395970268086227,9.126428427352892,7.204155011516847,-0.00032851985014360226,-0.03676604808272221,0.42300034272682385
160677000000,61,160677000000,FR_wheel_link,28.65342773973111,-9.256169820257092,6.476887022170517,0.0033025562503022263,0.0484132181345522,-0.42258030814898173
160678000000,62,160678000000,FR_wheel_link,-30.118733984713362,8.952975280775187,3.7052683202795333,-0.012252119131751763,-0.043814169879326834,0.42252724293861915
160679000000,63,160679000000,FR_wheel_link,29.054930208264636,-9.386752031974728,4.540954230578438,-0.004507432409688307,0.05373552558245706,-0.42246463163466763
160680000000,64,160680000000,FR_wheel_link,-30.575828542089724,8.907701569665743,2.375159122145048,-0.014424562843081412,-0.05094011351153641,0.4223900208009239
160681000000,65,160681000000,FR_wheel_link,29.813505446842452,-9.335894742695263,4.5173565837809315,-0.0016016014236685386,0.053266250877744226,-0.42263009766699594
160682000000,66,160682000000,FR_wheel_link,-30.219073509198214,8.980313087702337,2.3860574754048836,-0.009897976563079551,-0.05459841175105864,0.42271077866906687
160683000000,67,160683000000,FR_wheel_link,30.427722817945956,-9.198408944027399,6.142092873257093,0.007571008794849319,0.04944827482626167,-0.42273476959889483
160684000000,68,160684000000,FR_wheel_link,-29.664165561590888,9.132700841272383,4.743834664165872,0.0004290225737647942,-0.05559989363094432,0.42269180526947325
160685000000,69,160685000000,FR_wheel_link,30.76233770533437,-9.058848393766787,8.626253798823553,0.01688139328033517,0.05035048028724119,-0.42288827430030573
160686000000,70,160686000000,FR_wheel_link,-29.72261839585116,9.239611964745267,7.075371692744593,0.006721563483717016,-0.054761762948744956,0.42318882285206205
160687000000,71,160687000000,FR_wheel_link,30.467008299608338,-9.057758398112842,8.665558676926352,0.01464560009114998,0.056027908285227704,-0.4230084562525957
160688000000,72,160688000000,FR_wheel_link,-30.47282511318391,9.126700684630311,6.11056963162787,-0.0014648825675389861,-0.054363522243632806,0.4228404308436703
160689000000,73,160689000000,FR_wheel_link,30.28485311358693,-9.36347998615375,6.2867490834890125,-0.003168849217307483,0.054900245017370786,-0.4226471571019973
160690000000,74,160690000000,FR_wheel_link,-30.538889484108378,8.924981789613769,3.7064348326983367,-0.014051424121296627,-0.048031111132902364,0.4224808881312483
160691000000,75,160691000000,FR_wheel_link,29.60801409272379,-9.506357320572938,4.750699915484203,-0.01029844797086169,0.049983664589450714,-0.4223296378536589
160692000000,76,160692000000,FR_wheel_link,-30.06736622915086,8.917458127113937,3.2052529611503635,-0.01310243341769265,-0.0449441058048947,0.422657059021351
160693000000,77,160693000000,FR_wheel_link,29.418148482156763,-9.369712347384423,4.981025435569259,-0.0027355905794465055,0.04183333447050806,-0.42291250452647783
160694000000,78,160694000000,FR_wheel_link,-29.178715258224727,9.104412195626917,4.536833031878609,-0.0016511190416169483,-0.041731829433717,0.4226690827930168
160695000000,79,160695000000,FR_wheel_link,29.34533474822166,-9.17060472368181,6.323353062634072,0.009895246400862411,0.03714079545980469,-0.4227775745867192
160696000000,80,160696000000,FR_wheel_link,-28.758557524979803,9.260728042492632,5.878178849860113,0.008188730415099718,-0.038967763684487226,0.4229342054478272
160697000000,81,160697000000,FR_wheel_link,29.224098875144605,-9.05162622460661,6.696482413499168,0.014796614262625544,0.03626383386525865,-0.4231152648001539
160698000000,82,160698000000,FR_wheel_link,-28.711587062481698,9.273011072331776,5.242801824436163,0.0067875877846178805,-0.03577242331968245,0.4231849486554585
160699000000,83,160699000000,FR_wheel_link,28.69880276618807,-9.162430510805049,5.28243255622554,0.007407398177801631,0.036645206457429774,-0.4229212861566139
160700000000,84,160700000000,FR_wheel_link,-28.85863602322669,9.105634892452828,3.5904844955929036,-0.004273412129050481,-0.03245816351813993,0.422771981045453
160701000000,85,160701000000,FR_wheel_link,28.273554550431328,-9.374350062292448,4.125850409759384,-0.004397260186402363,0.03507362750583226,-0.4226598177181329
160702000000,86,160702000000,FR_wheel_link,-28.795575327185073,8.93259233572511,3.102987239458551,-0.013731598983782914,-0.031750907982038716,0.42256181996754566
160703000000,87,160703000000,FR_wheel_link,28.28492080457848,-9.486430255685034,4.475884975382227,-0.008960898433420104,0.03306951450050178,-0.42242598319328545
160704000000,88,160704000000,FR_wheel_link,-28.455343603421827,8.927252017278725,4.615422875703178,-0.011990589314023714,-0.034658163501188353,0.4225988802736871
160705000000,89,160705000000,FR_wheel_link,28.700638969200607,-9.35763459139392,6.747686068322133,-0.0004492676972416331,0.031526939252167596,-0.4228269161742365
160706000000,90,160706000000,FR_wheel_link,-28.18296615862761,9.112226572147213,7.26304181561255,0.0005781148997042197,-0.03598665550138695,0.42261769812813765
160707000000,91,160707000000,FR_wheel_link,28.947495235195003,-9.165129901629994,8.690569959597697,0.012002200176345245,0.033255933732361145,-0.4226999679489659
160708000000,92,160708000000,FR_wheel_link,-28.448628790234626,9.256067573223323,7.682634904965706,0.008290984929724013,-0.03563009615143193,0.4228652844239068
160709000000,93,160709000000,FR_wheel_link,28.780952148305676,-9.094558209700963,7.387159305025345,0.012522063211130122,0.03590005265837931,-0.42304404624290737
160710000000,94,160710000000,FR_wheel_link,-28.76200808643538,9.202046684572311,4.905408983503515,0.002378792952476385,-0.033493194215496624,0.423050340885306
160711000000,95,160711000000,FR_wheel_link,28.415357067926635,-9.2352118880708,4.270719408141472,0.003033841436770479,0.035510834101231695,-0.4227540302800976
160712000000,96,160712000000,FR_wheel_link,-28.801316815653788,9.071253447192948,2.4253841510111083,-0.006653287336519632,-0.03156491732866599,0.42270975037853037
160713000000,97,160713000000,FR_wheel_link,28.23273801710415,-9.355124787565137,3.125866524311525,-0.003743855064137444,0.032339607273275124,-0.4226290078040027
160714000000,98,160714000000,FR_wheel_link,-28.4846702489472,8.985427207312009,2.0259234410817415,-0.011241787854162737,-0.03053727382497497,0.4224980087196114
160715000000,99,160715000000,FR_wheel_link,28.18309175850707,-9.402142078044095,3.3223001970708377,-0.005386703343570734,0.03059446616318173,-0.4226681619301347
160716000000,100,160716000000,FR_wheel_link,-28.2614575162968,8.994005593810725,3.052697704404804,-0.009373243243937132,-0.02973646196693657,0.42276442100905376
160717000000,101,160717000000,FR_wheel_link,28.196620219619085,-9.323700512085736,5.3091609698872135,0.0006672492849946239,0.028055446203478898,-0.42268303411791314
160718000000,102,160718000000,FR_wheel_link,-27.94662530516065,9.128557207148422,6.6666889527408,0.0009989084597301842,-0.03212672806630004,0.4226208980921281
160719000000,103,160719000000,FR_wheel_link,28.594211381767757,-9.119308874657225,8.70706803376001,-0.04771531342517574,0.030665283878461517,-0.42273009148125307
160720000000,104,160720000000,FR_wheel_link,-28.24291448689866,9.177332174184661,8.605932415089546,-0.05230125905421274,-0.03286477845804299,0.42275167869169167
160721000000,105,160721000000,FR_wheel_link,28.574922396874623,-9.315422980184772,8.89207131700581,-0.05029506657787214,0.03352038595947897,-0.42264876255130623
160722000000,106,160722000000,FR_wheel_link,-28.61273619385801,8.857101610478058,6.866412847085992,-0.06303773390203929,-0.032172250833071146,0.42254276222348064
160723000000,107,160723000000,FR_wheel_link,28.428702165457963,-9.689929078994146,6.829054050584605,-0.04339055353672978,0.03326004098944005,-0.4223635164649655
160724000000,108,160724000000,FR_wheel_link,-28.663585390818813,8.506171775534675,5.213944108996114,-0.012783193393139684,-0.03230605569138114,0.42203165553148336
160725000000,109,160725000000,FR_wheel_link,28.42971265121203,-9.904958351383604,6.1948414044487645,-0.003200057900590555,0.03694119939279929,-0.42164985289620394
160726000000,110,160726000000,FR_wheel_link,-29.176851791773753,8.4148706850457,4.912755233139848,-0.005678016654850797,-0.0329917661390766,0.4219359166817115
160727000000,111,160727000000,FR_wheel_link,28.721213233073836,-10.098820743411098,6.871567192802719,0.0032527287557649076,0.03085175106205423,-0.42256677401613046
160728000000,112,160728000000,FR_wheel_link,-28.64230975788313,8.156863817683167,5.794572013410342,-0.001200176991337157,-0.033558400673810634,0.4222118287093222
160729000000,113,160729000000,FR_wheel_link,29.051050955612865,-10.26087556312255,7.0715349417272515,0.00653360791182505,0.03055436343786698,-0.42252819951938436
160730000000,114,160730000000,FR_wheel_link,-28.71787807682912,8.030787049609671,5.404206883669664,0.0013181806454687927,-0.033063624806749244,0.42258454723599087
160731000000,115,160731000000,FR_wheel_link,29.10642960611126,-10.298517841366918,6.342649632664311,0.00664193605468618,0.030683151612965708,-0.4223496956174576
160732000000,116,160732000000,FR_wheel_link,-28.804264419365285,8.032413085763967,4.385838272128238,-0.0004791925762719812,-0.0320429609375041,0.4225576559113397
160733000000,117,160733000000,FR_wheel_link,29.030831416109177,-10.252064421386129,5.162769457224146,0.0038533408131778565,0.0316685830514233,-0.4221975226148863
160734000000,118,160734000000,FR_wheel_link,-28.967595052679563,8.15083868783342,3.238315206763202,-0.003529838689427968,-0.031621691692220955,0.4222454506103329
160735000000,119,160735000000,FR_wheel_link,28.986642934666953,-10.190495884045449,4.540542544530882,0.0016384412836150388,0.03192949818197899,-0.42194240524218624
160736000000,120,160736000000,FR_wheel_link,-29.058991808287203,8.16033662845182,2.7191681088128123,-0.004562908125815677,-0.03021285083537027,0.4221361102520237
160737000000,121,160737000000,FR_wheel_link,28.906134783916674,-10.222714327632694,4.283255784364235,0.0005500035637446312,0.031308911231165006,-0.4219792110313739
160738000000,122,160738000000,FR_wheel_link,-29.080473192586645,8.137617146240666,2.4556587569967863,-0.0053957247457511225,-0.02905221664809645,0.42204974729342226
160739000000,123,160739000000,FR_wheel_link,28.86114149628541,-10.276051704897682,4.190211141401077,-0.00013839882797064764,0.03074386054685496,-0.4219574950064147
160740000000,124,160740000000,FR_wheel_link,-29.092847090849155,8.06588172311799,2.458243130134257,-0.0057015234131259284,-0.029101879213648287,0.4216994756491441
160741000000,125,160741000000,FR_wheel_link,28.926544214616875,-10.386210337870919,4.401355233358265,0.00011942302137635724,0.030686459951245856,-0.42183095887616706
160742000000,126,160742000000,FR_wheel_link,-29.170876864562594,7.921033531799958,2.72264828565826,-0.005248964648485183,-0.029490114169463746,0.4217355554336871
160743000000,127,160743000000,FR_wheel_link,29.063473863133066,-10.55519894801758,4.856427219722063,0.0010387664287721467,0.030799849049705483,-0.42185346025657994
160744000000,128,160744000000,FR_wheel_link,-29.259602202226624,7.730573740283341,3.140233832959727,-0.0037768458215968023,-0.03082177411280146,0.4216554631158282
160745000000,129,160745000000,FR_wheel_link,29.29789728085322,-10.749939747688845,5.428885713526602,0.003112581198446888,0.031527082250462815,-0.42172632882317057
160746000000,130,160746000000,FR_wheel_link,-29.417884023193995,7.347111454538101,3.8421064132335947,-0.0010972773954073742,-0.03333419325613886,0.42152713059592095
160747000000,131,160747000000,FR_wheel_link,29.687111050569374,-11.114992991603005,6.265561728503658,0.0058593591414654225,0.03301893764768437,-0.42204622246400625
160748000000,132,160748000000,FR_wheel_link,-29.704045901389996,7.098883833670617,4.308264412086334,0.0008720759273359378,-0.03558878674115628,0.42205221914292534
160749000000,133,160749000000,FR_wheel_link,30.022796112565885,-11.257354335518666,6.632228803002802,0.006819653411779471,0.03480265575917987,-0.42214771312356963
160750000000,134,160750000000,FR_wheel_link,-33.96758590818613,6.773957149474935,7.014711300113129,-0.08386381095403617,-0.03768273957462736,0.2514707680981467
160751000000,135,160751000000,FR_wheel_link,10.036019094867275,13.086795257226534,10.697976450036055,-0.07230859452870246,0.037163690276059425,-0.04131704909062431
160752000000,136,160752000000,FR_wheel_link,-3.7115703880954234,-18.109389971004994,5.923633258282609,0.12141742187186055,-0.03233897739873487,-0.004268734734918714
160753000000,137,160753000000,FR_wheel_link,2.3022821762495824,10.97347340784682,12.960764231350757,-0.051780153475313624,0.02368361306731371,0.011150091376934828
160754000000,138,160754000000,FR_wheel_link,-1.3670948146071846,-18.20700063500061,6.836622327227436,0.1263973942791316,-0.01874736446299567,-0.01178093670860215
160755000000,139,160755000000,FR_wheel_link,0.8319296622269025,13.769553517371595,10.36284771712005,-0.06457764450471447,0.015724016916887143,0.013098223562848975
160756000000,140,160756000000,FR_wheel_link,-0.23151383620756957,13.88144647770592,10.757970102099392,-0.06160139229023171,-0.011671757136493733,-0.0020302386537143333
160757000000,141,160757000000,FR_wheel_link,1.533448188441001,-15.391921096053832,7.453895002655532,0.11825491296361107,0.007993587916803688,-0.0112883374787893
160758000000,142,160758000000,FR_wheel_link,-1.4673522994110477,13.577914029943862,10.716428775325825,-0.06371889051382294,-0.00620256360895549,0.013472888698433291
160759000000,143,160759000000,FR_wheel_link,1.557965978198849,-15.500242070195927,6.78810965784273,0.110901127603436,-0.00044552061582308646,-0.012927177383358725
160760000000,144,160760000000,FR_wheel_link,-0.5115766196503427,13.77954324848625,7.756569341062391,-0.07814018168161187,-0.0024259058798585154,0.013090696302702822
160761000000,145,160761000000,FR_wheel_link,1.1842387296248649,-15.606572367476693,2.0955916958850507,0.09681211930194847,0.0027983953522398887,-0.013857994173353878
160762000000,146,160762000000,FR_wheel_link,-1.1770541057080623,13.851574598398525,3.524664668904554,-0.09083092126295436,-0.00016243938433375564,0.013844781965753663
160763000000,147,160763000000,FR_wheel_link,-1.235537496370662,-1.959675139714852,2.9871401176435626,-0.04045551362041177,0.0018303747904424694,-0.09964315588710594
160764000000,148,160764000000,FR_wheel_link,-9.505895011180575,11.04232377808626,3.4693436718850545,0.004897939671912371,0.0026857685273219386,0.2845465437656039
160765000000,149,160765000000,FR_wheel_link,23.609828227754587,-11.404413947229704,6.153092128131123,0.01669962856138372,0.0033237927811973385,-0.4000640302149119
160766000000,150,160766000000,FR_wheel_link,-27.102631893314772,7.713732175031421,4.540600766252222,0.0052607036644663156,-0.007473707421866173,0.4185416984402399
160767000000,151,160767000000,FR_wheel_link,27.579579239011714,-10.408709217221952,6.025275055177027,0.011598920383343394,0.016512718077108475,-0.4213550013567746
160768000000,152,160768000000,FR_wheel_link,-28.691107605705483,8.119766521835851,3.606278614256339,0.002071207452616792,-0.012117396197693668,0.4227281572346819
160769000000,153,160769000000,FR_wheel_link,28.14629682792645,-10.563151359309572,7.027995361160852,0.01103986805542334,0.01993043104212905,-0.4232937803219777
160770000000,154,160770000000,FR_wheel_link,-29.13463371275516,7.92597651190099,4.111810727844937,-0.00044774235016306944,-0.01622281316293533,0.4228420812175988
160771000000,155,160771000000,FR_wheel_link,28.667191075333754,-10.803516058329725,7.764771011121143,0.008046309285879684,0.02106683524248663,-0.4233390690339922
160772000000,156,160772000000,FR_wheel_link,-29.26960082622161,7.759349109809442,4.215865918752053,-0.0038684080907989034,-0.018323910165465494,0.4227681482362835
160773000000,157,160773000000,FR_wheel_link,28.986873971063456,-10.987617291612203,7.91826357650314,0.0054514806345803265,0.020824772090856442,-0.42314844349156927
160774000000,158,160774000000,FR_wheel_link,-29.246236593773087,7.629221927852705,4.234077795813701,-0.005918579557045233,-0.02045425319623667,0.422526435374198
160775000000,159,160775000000,FR_wheel_link,29.29340905611285,-11.135429657206593,7.984696389499363,0.004033236276138654,0.020509220534515694,-0.42283261415213125
160776000000,160,160776000000,FR_wheel_link,-29.213858357632773,7.508797351215141,4.26176088736599,-0.007126836436775369,-0.022121346257399442,0.4224320967357862
160777000000,161,160777000000,FR_wheel_link,29.555761274454163,-11.277458461205876,8.045869236450997,0.00227898443113748,0.019306953407185273,-0.42267909277444654
160778000000,162,160778000000,FR_wheel_link,-29.103616835261658,7.397692660658242,4.227672760923546,-0.008444480648365298,-0.02293128144405743,0.4224626893154104
160779000000,163,160779000000,FR_wheel_link,29.719618445261656,-11.393071252997318,8.0162970579342,0.0006771834256146923,0.018080314456736656,-0.4224385049699409
160780000000,164,160780000000,FR_wheel_link,-28.887219913688565,7.988884119925799,4.122230523452518,-0.011174094473356008,-0.02067657756865514,0.4238661634946727
160781000000,165,160781000000,FR_wheel_link,29.571309758574575,-10.56455234953525,7.814256942770784,-0.0020664931086423945,0.01578067981939311,-0.4229247937814851
160782000000,166,160782000000,FR_wheel_link,-28.61519907074219,7.992226188190722,4.137169328461473,-0.010095645876233537,-0.01812882548258526,0.4234916459247228
160783000000,167,160783000000,FR_wheel_link,29.43595453329848,-10.558364728872798,7.836762263993682,-0.0009204656773366991,0.013179006444077407,-0.423170854893969
160784000000,168,160784000000,FR_wheel_link,-28.404798998554877,7.991457009970231,4.225700455836496,-0.008714694144799135,-0.01696435908716576,0.42361571330307246
160785000000,169,160785000000,FR_wheel_link,29.44068904513096,-10.537667542203176,7.951201358007034,0.0010346150760884882,0.011225576175496528,-0.42318917281175145
160786000000,170,160786000000,FR_wheel_link,-28.240989259310915,8.010825347180752,4.326860001247524,-0.006366906878199593,-0.01580170682582513,0.42368182359796014
160787000000,171,160787000000,FR_wheel_link,29.41704892933252,-10.502726590909901,8.071671621314524,0.0038298062366125384,0.010329680398362566,-0.42311859658122053
160788000000,172,160788000000,FR_wheel_link,-28.20412235414169,8.039731229901607,4.375215985881218,-0.0037283637480492707,-0.014700177294933546,0.42364959353371623
160789000000,173,160789000000,FR_wheel_link,29.365482286665337,-10.46845807834491,8.113926905412601,0.006434704991437079,0.01024742963202422,-0.42317556363812675
160790000000,174,160790000000,FR_wheel_link,-28.296567007376883,8.058780586530522,4.3253546992373995,-0.0015187312761430433,-0.013382593485149653,0.4236155716485641
160791000000,175,160791000000,FR_wheel_link,29.241571706909493,-10.51537054900733,8.041779750572367,0.008807108088994675,0.011795170459475025,-0.42346861512635975
160792000000,176,160792000000,FR_wheel_link,-32.654584279456934,7.799468697560079,6.960909065020353,-0.0842151088841598,-0.0173801829826328,0.2530774095616848
160793000000,177,160793000000,FR_wheel_link,6.588408313384822,-1.7276420183293357,8.032329741712546,-0.029848801744397902,0.02293282338288375,-0.13765076454883
160794000000,178,160794000000,FR_wheel_link,-11.957683742196965,11.304496678123787,4.280410183815451,0.013745489911853924,-0.00866488493529647,0.28924245197039494
160795000000,179,160795000000,FR_wheel_link,25.19776680664836,-10.824456056590511,8.124905374698212,0.02554643026173776,0.006665915576200241,-0.4016023782543249
160796000000,180,160796000000,FR_wheel_link,-27.753226718855682,8.517044913558,4.430626035532087,0.014965843060001578,-0.000999772987952547,0.4199950432156576
160797000000,181,160797000000,FR_wheel_link,27.830307818300863,-10.042982521901298,8.01033639917679,0.024613109875785185,0.0034187155061128076,-0.4236797052934065
160798000000,182,160798000000,FR_wheel_link,-27.89822748230395,9.61072631941032,4.197158304134815,0.009356538760760523,0.0013681542580441645,0.4221856762366759
160799000000,183,160799000000,FR_wheel_link,27.218687147108394,-8.682368674433175,7.604776557094009,0.017294864268530958,-9.81229095765982e-05,-0.4235275167326789
160800000000,184,160800000000,FR_wheel_link,-27.725898058148868,9.41286685518842,4.469066056945504,0.0058073064384210615,0.006082578257614238,0.42325360903674475
160801000000,185,160801000000,FR_wheel_link,26.97974971630757,-8.859557189953811,7.626852921902085,0.014450930697904877,-0.005526277139740529,-0.42334143376194394
160802000000,186,160802000000,FR_wheel_link,-27.249755309242833,9.304771993286778,4.571986034024636,0.00467581044239356,0.007053578782611565,0.4230285108309272
160803000000,187,160803000000,FR_wheel_link,27.066615550681338,-8.970701409922377,7.74674672384196,0.014530845657604655,-0.006024306732820091,-0.42310693529881055
160804000000,188,160804000000,FR_wheel_link,-27.268847035582233,9.229462628468406,4.620499952655345,0.00500999094201634,0.007350965429640762,0.42297051029505717
160805000000,189,160805000000,FR_wheel_link,27.088783359186056,-9.07809169441383,7.958928934780338,0.013584929114799986,-0.003466632133844234,-0.4232874631914507
160806000000,190,160806000000,FR_wheel_link,-27.706922174266833,9.095500280508196,4.762482099438998,0.0012377626884733524,0.008814281411138011,0.4226975509105665
160807000000,191,160807000000,FR_wheel_link,26.895547426842004,-9.35281667187692,8.209578387067143,0.006924214566327091,-0.002448143649084279,-0.4232982564893336
160808000000,192,160808000000,FR_wheel_link,-27.925478492879197,8.76967413095508,4.860719656924336,-0.007332019296776569,0.006162295454002177,0.42282213953353176
160809000000,193,160809000000,FR_wheel_link,27.306184563701606,-9.673169554583003,8.16777047367239,0.0007658976240339346,-0.003305922331580996,-0.4232168667271422
160810000000,194,160810000000,FR_wheel_link,-27.79042122658473,8.57330836967401,4.890922885916079,-0.009307606484694888,0.004040155521946626,0.4229085932077197
160811000000,195,160811000000,FR_wheel_link,27.673455651641586,-9.890528779499276,7.889140516640487,-0.0012694284476870246,-0.002802521581128156,-0.4231397528396395
160812000000,196,160812000000,FR_wheel_link,-27.80462993857121,8.412954132647688,4.8565591426709265,-0.009113191408823813,0.0008689648233607158,0.42306377927532335
160813000000,197,160813000000,FR_wheel_link,28.089331504746816,-10.00676643046715,7.585745704458724,-0.003448643796488481,-0.001397843087695135,-0.42304182524459183
160814000000,198,160814000000,FR_wheel_link,-27.87587357838204,8.266269152495722,4.754075815015459,-0.00799931600565112,-0.003815029735194522,0.423198583260475
160815000000,199,160815000000,FR_wheel_link,28.63717363146972,-10.16642381344006,7.81353211112597,-0.0035548614875301207,0.0016406280606746483,-0.42299268510782173
160816000000,200,160816000000,FR_wheel_link,-28.16076795775277,8.104645031814727,4.702408975215594,-0.007718977687447907,-0.00690943684404217,0.4234119964821906
160817000000,201,160817000000,FR_wheel_link,29.060005914253118,-10.284757362383116,7.831915991533935,-0.0013912012308859678,-0.0006531023624177444,-0.42312439743785407
160818000000,202,160818000000,FR_wheel_link,-27.97867622790546,7.943159254716428,4.805229118190575,-0.007202293436493056,-0.004802045282281437,0.42378354391630313
160819000000,203,160819000000,FR_wheel_link,28.944993555131408,-10.413677823169337,7.881514111754173,-7.375559989900703e-05,-0.0011263792467812413,-0.4229553125970084
160820000000,204,160820000000,FR_wheel_link,-28.01833138991249,7.811537424565542,4.822491414849027,-0.005944107811222614,-0.0045679068931379,0.423661062274425
160821000000,205,160821000000,FR_wheel_link,30.98187246423349,3.774027877691263,8.118631390436333,-0.04080774418672467,0.00397162388671352,-0.3374680795898896
160822000000,206,160822000000,FR_wheel_link,-19.992837237573546,9.965950693381782,7.47310418794617,-0.08492334273375879,-0.016358074845937706,0.1540276183232701
160823000000,207,160823000000,FR_wheel_link,6.102668941667679,-15.302314508069871,5.266468508491569,0.1025224668564655,0.020077448766281255,-0.03823870665663393
160824000000,208,160824000000,FR_wheel_link,-3.255087042186691,13.093964953519269,7.339818962619304,-0.07090545366865357,-0.015047433850979038,0.019267253545354874
160825000000,209,160825000000,FR_wheel_link,-0.27410111772857326,-15.997846007117008,6.895523922088404,0.050932801443125245,0.0036134181977407706,-0.12825424032478977
160826000000,210,160826000000,FR_wheel_link,-13.804745490127292,11.049772241047217,4.9264121135570695,0.01467906934130454,0.008941857773518446,0.31654740620590177
160827000000,211,160827000000,FR_wheel_link,24.95487317919888,-10.153910093516032,7.282700208340637,0.019945570826958862,-0.01358131890339614,-0.40527144006677945
160828000000,212,160828000000,FR_wheel_link,-26.873246847610954,8.560099081912876,4.883540085159965,0.012832903202833396,0.013892269188144388,0.420372412877656
160829000000,213,160829000000,FR_wheel_link,27.404507337081686,-9.841501818003087,7.587489905174004,0.017348430762164184,-0.010102780178993681,-0.4226925863748104
160830000000,214,160830000000,FR_wheel_link,-27.739895058301407,8.426983136315377,4.81031253767728,0.009347084704864986,0.010263402016564945,0.42302223488496676
160831000000,215,160831000000,FR_wheel_link,27.924011547667753,-9.888582166233855,7.590193891796485,0.014479265411495518,-0.009999402898284054,-0.4236239702860281
160832000000,216,160832000000,FR_wheel_link,-29.77973437209558,8.325216217407396,5.9355919497601235,-0.033506600816111065,0.0036664601818821017,0.3414420245817636
160833000000,217,160833000000,FR_wheel_link,18.274031220569693,1.2871273992089962,7.837443111008794,-0.028367204560778785,0.004303478476938307,-0.24544582113349972
160834000000,218,160834000000,FR_wheel_link,-14.26414181532389,10.83181526295905,4.623568636097801,0.00783147465987725,0.0027215947882158827,0.31108973933639783
160835000000,219,160835000000,FR_wheel_link,25.448578162212105,-10.534000645857544,7.954883317271646,0.014108208212466515,-0.008873547993191818,-0.4046610873155881
160836000000,220,160836000000,FR_wheel_link,-27.58519961173552,8.195062034326785,4.919216055880784,0.00784619355625168,0.01079298703363517,0.41998679122581317
160837000000,221,160837000000,FR_wheel_link,27.83557190064574,-10.22347472256744,8.108360613983677,0.013766161496965915,-0.0074486154614559754,-0.42299742009378466
160838000000,222,160838000000,FR_wheel_link,-28.366215133424543,8.009761005121755,4.915761705263225,0.0069239928622639,0.009522446129742606,0.42308457708558034
160839000000,223,160839000000,FR_wheel_link,28.06198895149794,-10.345131990620008,8.135101201369734,0.01190330391164645,-0.005050041547963558,-0.42380164760265465
160840000000,224,160840000000,FR_wheel_link,-28.704764605629656,7.821829048886142,4.622846459294417,0.0030086282453683647,0.005965513765284144,0.42343866495659527
160841000000,225,160841000000,FR_wheel_link,28.483207197849374,-10.489615461312004,7.803806650005199,0.0070245059471643915,-0.0025996407225900857,-0.4239004045682594
160842000000,226,160842000000,FR_wheel_link,-32.93638988926335,7.649631124784134,6.761957193591434,-0.08767089932467607,-0.009488010977563851,0.2534750686864826
160843000000,227,160843000000,FR_wheel_link,4.49047008576064,-15.119393269857772,8.397643328796788,0.006852719116226937,0.012221284870168322,-0.22536981231634995
160844000000,228,160844000000,FR_wheel_link,-24.411712876542083,8.36623857837315,4.742918806006129,0.005530498502103076,0.0007672796981870427,0.38991998671974754
160845000000,229,160845000000,FR_wheel_link,28.044943164758703,-10.738946008001992,8.310738417250032,0.013037594390343637,-0.006035114847779967,-0.41798046827643826
160846000000,230,160846000000,FR_wheel_link,-28.425186077916955,7.517013017677179,4.834659025316466,0.00863392749977832,0.004441059689353039,0.42313032798130434
160847000000,231,160847000000,FR_wheel_link,28.766683548251205,-10.683680165769735,8.274435069344385,0.014800639753850629,-0.006731276187975288,-0.42352700362482193
160848000000,232,160848000000,FR_wheel_link,-28.603650382735218,7.404137458915135,4.732838176065731,0.00901841677198457,0.004228877915844913,0.42410604709802907
160849000000,233,160849000000,FR_wheel_link,28.917183041098095,-10.710545790696964,7.89297140749585,0.013552648749812674,-0.006409305146543481,-0.4237541651228202
160850000000,234,160850000000,FR_wheel_link,-28.70653730879318,7.377114365770901,4.00201394607584,0.005520224208278357,0.002931499800108493,0.4240240959096348
160851000000,235,160851000000,FR_wheel_link,29.05242258658005,-10.59592869597754,6.733597486821125,0.007927705321179106,-0.004519877124081588,-0.423370643760566
160852000000,236,160852000000,FR_wheel_link,-32.87109331831953,7.572434315208215,5.223859923028579,-0.08644785001118101,-0.010858652977056545,0.2538160243093822
160853000000,237,160853000000,FR_wheel_link,9.029408107715719,14.284848175709014,7.096134619954202,-0.07948513213275891,0.024807822785377923,-0.044307407141572386
160854000000,238,160854000000,FR_wheel_link,-2.8069026860872746,-16.742663429496886,4.422179194873848,0.10599663376618558,-0.02504800624208738,-0.0012094809980678623
160855000000,239,160855000000,FR_wheel_link,1.5391316907219283,13.68393976113027,8.027952390215182,-0.0708866686141423,0.018758555972182542,0.009676448216483533
160856000000,240,160856000000,FR_wheel_link,-0.7336945164932167,-15.67636296105952,5.060064457952215,0.10624972710080378,-0.014293326579358095,-0.010911506848640225
160857000000,241,160857000000,FR_wheel_link,0.352365257882948,13.645415076543914,7.876702182466744,-0.07019718194734884,0.011632504396967853,0.011869429904152871
160858000000,242,160858000000,FR_wheel_link,-0.07946002610870138,-15.665821056706823,5.325582833225963,0.10471456853172063,-0.00914915021112549,-0.012251707547779314
160859000000,243,160859000000,FR_wheel_link,-0.10581521496733627,13.667022364399527,7.120974953431421,-0.07402142371512103,0.006980583402319396,0.012439168128553914
160860000000,244,160860000000,FR_wheel_link,0.5893227796782261,13.91099210093512,7.3515977585952665,-0.07216461960213298,-0.005224732979263528,-0.0016747636087808184
160861000000,245,160861000000,FR_wheel_link,0.9291886901966386,-15.646540112976062,5.591905704079607,0.10353343240965059,0.0019680723105541553,-0.01105310288034063
160862000000,246,160862000000,FR_wheel_link,-0.9945225775022388,13.667085208368768,7.508932979451454,-0.07200252392105497,-0.0017092204943366836,0.013358494837492624
160863000000,247,160863000000,FR_wheel_link,1.0937114442145686,-15.608033536315109,5.628523226250039,0.10290227308220275,0.00042317202962170123,-0.013469945970808203
160864000000,248,160864000000,FR_wheel_link,-0.9370577531347788,13.631990113668838,7.155037054776634,-0.07313012915699636,-0.0007865993691787795,0.013581548259413118
160865000000,249,160865000000,FR_wheel_link,1.01714808148728,-15.605171607105211,5.622463905836525,0.10340433397896341,-2.4444651810310497e-05,-0.013303344124083275
160866000000,250,160866000000,FR_wheel_link,-0.9154632866950371,13.76574253984033,6.276774880296881,-0.07535054459344571,0.001190417360906951,0.01370728092326582
160867000000,251,160867000000,FR_wheel_link,-0.9841083307517379,-1.1218658901139904,7.336523034518144,-0.028631288409566035,-0.011157808932907564,-0.09425286398921702
160868000000,252,160868000000,FR_wheel_link,-8.030074921705951,11.41315656373402,4.79007645994886,0.009903801215174405,0.0204794175044845,0.27728197216229356
160869000000,253,160869000000,FR_wheel_link,23.723760914729972,-11.019058007504588,6.9775753521698425,0.013959270655521426,-0.032140054202118254,-0.39657870241385923
160870000000,254,160870000000,FR_wheel_link,-26.14241739956625,7.778963233350853,4.173303114719229,0.008550096501203341,0.02665219400550777,0.41737867708442133
160871000000,255,160871000000,FR_wheel_link,27.352992586651677,-10.46548711395224,7.189585930210591,0.013871145494179612,-0.02721202790257188,-0.42037828253749615
160872000000,256,160872000000,FR_wheel_link,-27.436795159356162,7.650042334393396,4.072575766130174,0.007746279553493162,0.02566163391414572,0.42139354850837885
160873000000,257,160873000000,FR_wheel_link,27.4177224167792,-10.520433508221034,7.083686096595684,0.010772792935822619,-0.021288532458105684,-0.4221551059731444
160874000000,258,160874000000,FR_wheel_link,-28.311491823104003,7.5309214368911945,3.607532236060086,0.004824449311218494,0.024344128894557542,0.421663372425997
160875000000,259,160875000000,FR_wheel_link,27.372591556241776,-10.521590827038372,6.908024244734023,0.008250123544200579,-0.01527103249712802,-0.42321024190512385
160876000000,260,160876000000,FR_wheel_link,-29.13936188207442,7.488698812971695,3.113405037644726,0.0009934868709567933,0.022396009299772753,0.4217618689361167
160877000000,261,160877000000,FR_wheel_link,27.43941916865904,-10.513981996383752,6.496046878384799,0.005091609700728358,-0.012044590707004475,-0.4236410789453578
160878000000,262,160878000000,FR_wheel_link,-29.510375082380364,7.501684758935684,2.4430777803938355,-0.002237088548408338,0.019255302932072973,0.42180739436752696
160879000000,263,160879000000,FR_wheel_link,27.738737996072118,-10.50931920883025,6.041535385238601,0.002174003617468522,-0.010956290865115185,-0.4237479142924037
160880000000,264,160880000000,FR_wheel_link,-29.56829037576635,7.468145849317993,1.9208695380302443,-0.006136978353406754,0.0157111920064254,0.42191476652402377
160881000000,265,160881000000,FR_wheel_link,28.13941514346751,-10.584234442100726,5.876114064219561,-0.001585163601763804,-0.012397938017358362,-0.42323631479590634
160882000000,266,160882000000,FR_wheel_link,-29.34576610342436,7.3735948255039805,1.922395856615857,-0.008785696896493502,0.0141141669983204,0.42216009944184507
160883000000,267,160883000000,FR_wheel_link,28.395964088127414,-10.717348672286212,6.1665852844096465,-0.00323790033178234,-0.01474857190276663,-0.42276538761707244
160884000000,268,160884000000,FR_wheel_link,-29.106266536064577,7.193192044648958,2.356667824699389,-0.009289595271083988,0.01379939655936699,0.42255754148065805
160885000000,269,160885000000,FR_wheel_link,29.79066050612754,-13.193035663456412,8.346570217288992,-0.028251047968476762,-0.013421235525408038,-0.3710719823376798
160886000000,270,160886000000,FR_wheel_link,-23.28292048283816,8.547855084172458,3.7651125007187716,-0.047554300731828286,0.004148416817773366,0.2829819560902874
160887000000,271,160887000000,FR_wheel_link,15.3788745905973,-13.172388752435523,7.366461416968439,0.003502618567671344,-0.010898067803831853,-0.3176314204749951
160888000000,272,160888000000,FR_wheel_link,-25.93854863720944,7.753076178946494,3.245572513233694,0.0008542670406181601,0.017372912614513757,0.4054620563789025
160889000000,273,160889000000,FR_wheel_link,28.098543074772593,-10.696840506973532,7.420356823346266,0.008490052671233997,-0.025531107642937853,-0.4188017112615834
160890000000,274,160890000000,FR_wheel_link,-27.712108005983275,7.4382202126604735,3.6584556077083175,0.0051204620688946115,0.0181029705328214,0.42274573136123544
160891000000,275,160891000000,FR_wheel_link,28.734366523415407,-10.57438223108061,7.762675962517434,0.01205095184491561,-0.025686637179244045,-0.4214695016345965
160892000000,276,160892000000,FR_wheel_link,-27.80377510613294,7.425506365547906,3.8500700244438395,0.0074518948080511405,0.018708408846672984,0.4233507965491148
160893000000,277,160893000000,FR_wheel_link,28.770294402082182,-10.58088245013531,7.902553305554786,0.01297989544860768,-0.024646674944850358,-0.4216378282889364
160894000000,278,160894000000,FR_wheel_link,-32.00058913636713,7.493612470082621,6.591519439883583,-0.07672368759238594,0.0027241148838187774,0.25419627945664813
160895000000,279,160895000000,FR_wheel_link,8.54465658397008,14.423660553091002,7.263132252040043,-0.07370000130121551,0.016276139537945686,-0.04467887113497281
160896000000,280,160896000000,FR_wheel_link,-2.107999135368741,-16.43459544578304,5.233542453493983,0.10115704716937067,-0.022305165847366755,-0.0014277035896220474
160897000000,281,160897000000,FR_wheel_link,1.2584625511617107,13.242953830017031,7.566656767381986,-0.07385216228572115,0.015459914585315128,0.01018234585003464
160898000000,282,160898000000,FR_wheel_link,-0.42125207258981845,-16.252697916266182,5.743644157043333,0.1032558735014074,-0.01037486900700685,-0.009722042263018005
160899000000,283,160899000000,FR_wheel_link,0.14352309319961046,13.19056244745396,7.3998779666768515,-0.07248582215684443,0.009297415647917126,0.011617978309400997
160900000000,284,160900000000,FR_wheel_link,0.2088742067190115,-15.968899434253608,5.339071835148902,0.10069262297273977,-0.004460242597286024,-0.011614000441940686
160901000000,285,160901000000,FR_wheel_link,-0.5102752535876681,15.108728498269052,5.672452147430129,-0.08055142647154165,0.007819122571083893,0.010740685297808524
160902000000,286,160902000000,FR_wheel_link,0.3539838119757148,15.194859228470603,4.50300678816777,-0.08220348818373954,0.0016982963922125614,-0.0023408816112169464
160903000000,287,160903000000,FR_wheel_link,0.14773081984438144,-14.544239434730969,3.6888961463415764,0.09419391277897377,0.0025348329755387556,-0.011637405015458638
160904000000,288,160904000000,FR_wheel_link,-1.2926717298566324,14.917551544712124,4.618661206843807,-0.0809850377380349,0.005626456026954562,0.011702190573951353
160905000000,289,160905000000,FR_wheel_link,0.20604965919838675,-14.45307717854451,3.7497856442702355,0.09430699179793887,0.0021529341491929887,-0.014060699140454363
160906000000,290,160906000000,FR_wheel_link,-1.367754541336259,15.001150184269251,5.144393326805221,-0.07989377229567406,0.004122682835863656,0.012514831724665155
160907000000,291,160907000000,FR_wheel_link,0.3964580385935617,-14.142184845163106,5.522502715150513,0.09660207365883623,0.002655137160685153,-0.014389517206560896
160908000000,292,160908000000,FR_wheel_link,-1.4073203098000364,15.189281238011347,6.483393628785406,-0.07734172401922294,0.0035257902015157208,0.012940590006213521
160909000000,293,160909000000,FR_wheel_link,0.5531729564125502,-13.88178622788647,6.760572706027742,0.0991943934824621,0.00022316813809603427,-0.013713549537763521
160910000000,294,160910000000,FR_wheel_link,-0.9530835468855062,15.612351440155859,8.449810252616702,-0.07405166783733365,-0.0004189348124538895,0.013840159334273992
160911000000,295,160911000000,FR_wheel_link,1.1018418730292765,-13.523296774479698,8.582466084019554,0.10481248806689314,0.00397300386029163,-0.014691432472609336
160912000000,296,160912000000,FR_wheel_link,-1.364132719310915,15.878861539459926,9.101496539185634,-0.06821271846875884,0.0026831520564325087,0.013291010046927038
160913000000,297,160913000000,FR_wheel_link,0.6667639684060391,-13.78365961335911,9.075210781940756,0.1083791672462222,0.0029828619951659243,-0.015417281844907238
160914000000,298,160914000000,FR_wheel_link,-1.4458683663648473,16.116687988867167,9.884378079566627,-0.06596040157109974,0.0018630847491646362,0.01447801341121455
160915000000,299,160915000000,FR_wheel_link,1.297904807727771,17.11690319671036,12.961737759067226,-0.05982862054453049,-0.003556975566945262,-0.0016410658085473074
160916000000,300,160916000000,FR_wheel_link,1.0087135474496909,-14.071190054397448,11.561663847297664,0.11455572237429988,0.0039778035243427014,-0.013982192272219217
160917000000,301,160917000000,FR_wheel_link,-1.3957902334537802,16.606218852898426,11.634606169955097,-0.06199935117595679,-0.0016615900092641972,0.016469108527712842
160918000000,302,160918000000,FR_wheel_link,1.428916005712397,-14.227281527989742,11.636424306285027,0.11485746839237199,0.002629173976918061,-0.017337874559680087
160919000000,303,160919000000,FR_wheel_link,-1.259030538700918,16.36891470119642,10.702389849713244,-0.06950483753778085,-0.008797991907866244,0.018721326159124824
160920000000,304,160920000000,FR_wheel_link,2.4983995016998004,-14.45223790656286,11.478820748086015,0.10683512328394107,-0.0010942980996632263,-0.01649757746252558
160921000000,305,160921000000,FR_wheel_link,-0.6040623367590687,15.868066100075252,8.350740423435711,-0.08385472071831238,-0.006168090619785719,0.018060109267305478
160922000000,306,160922000000,FR_wheel_link,-1.698745311694571,-15.101529976127404,11.208895424895774,0.006046228595692283,-0.025096948680014032,-0.18467253307484854
160923000000,307,160923000000,FR_wheel_link,-20.599211769955883,10.625175305145904,6.055032172579614,-0.0032147150340703376,0.04267120054797682,0.3829471627630854
160924000000,308,160924000000,FR_wheel_link,26.550123339878066,-9.992955666657844,9.35801573339721,0.002045561219918087,-0.05270627901173286,-0.4132593256497532
160925000000,309,160925000000,FR_wheel_link,-25.77740001975987,9.69291443585328,5.055923680263891,-0.005170853050818441,0.046860967055951476,0.42108427257726033
160926000000,310,160926000000,FR_wheel_link,27.422241424665007,-10.063815559639773,8.468009777535185,0.0010124524903040429,-0.04970834635382447,-0.4210416329046124
160927000000,311,160927000000,FR_wheel_link,-26.44127963878101,9.40709411450531,4.159753164050799,-0.006380391707251565,0.045978235930753814,0.42237617461387844
160928000000,312,160928000000,FR_wheel_link,27.491015640177178,-10.272040366011849,7.891846152815854,0.00013907289717906716,-0.0475828259024443,-0.421734976359498
160929000000,313,160929000000,FR_wheel_link,-26.770714302835326,9.201715355433706,3.7810785339265696,-0.0067052298839868464,0.04795281055262927,0.4224992059007656
160930000000,314,160930000000,FR_wheel_link,27.343644522065972,-10.405194460193448,7.734247312600484,0.0011230484507813673,-0.04769784476250448,-0.42249191959464233
160931000000,315,160931000000,FR_wheel_link,-26.81931881224884,9.114982734970926,3.3740154862748395,-0.00317026183811215,0.043445435080580824,0.42250609742739353
160932000000,316,160932000000,FR_wheel_link,27.745552194467557,-10.459673993139651,7.495996939326809,0.004324292612281635,-0.04515113342300708,-0.42221693796266313
160933000000,317,160933000000,FR_wheel_link,-27.118184615717936,9.027597855201993,3.1103268418681838,-0.0021711430976713818,0.0449270859222708,0.42284983971788154
160934000000,318,160934000000,FR_wheel_link,27.64638148658201,-10.429744833884998,7.708018838287791,0.005886866707083559,-0.04533122011223705,-0.4223249258102144
160935000000,319,160935000000,FR_wheel_link,-27.178681991695374,8.98462113256729,3.010607833770358,-0.0011428293667842592,0.047167365880602476,0.42231806313067094
160936000000,320,160936000000,FR_wheel_link,27.440318189356017,-10.581600102440824,7.114539854591908,0.005574690303966545,-0.044770774191961994,-0.4227752593235074
160937000000,321,160937000000,FR_wheel_link,-27.338291313243257,8.88376961383085,2.586739318537198,-0.00046768630187054184,0.04529650065906111,0.42198313449234215
160938000000,322,160938000000,FR_wheel_link,27.55282385770484,-10.677668804274496,6.95937855171639,0.0051382231169405865,-0.04244049543005522,-0.4226276786868278
160939000000,323,160939000000,FR_wheel_link,-27.581215622015566,8.799876767917382,2.24901712749287,0.00013252488201945746,0.04163629474646667,0.42198197732680687
160940000000,324,160940000000,FR_wheel_link,27.832378528682458,-10.745613553306931,6.902209506530615,0.005066456654606707,-0.03952866604147007,-0.4225914822716295
160940000000,325,160941000000,FR_wheel_link,-27.897444207885293,8.711416049384452,2.0081167288847195,-0.00016670479545834158,0.040167535874211215,0.4224695375855751
160942000000,326,160942000000,FR_wheel_link,28.009739925151635,-10.763119677786603,6.995327178841111,0.004977697060644162,-0.038633399895524785,-0.4228842774565433
160943000000,327,160943000000,FR_wheel_link,-28.074186392353493,8.55826101881883,2.1407952129372707,-0.0010104766360127392,0.04179454458995963,0.4227200693699492
160944000000,328,160944000000,FR_wheel_link,28.063625288073812,-10.960588802554572,7.280282571086535,0.004144571192097144,-0.04368330118478609,-0.42368017179336126
160945000000,329,160945000000,FR_wheel_link,-30.985762770860067,8.535891875068383,4.991262143565749,-0.07143778181083303,0.02068090951705184,0.28855439903766783
160946000000,330,160946000000,FR_wheel_link,8.904897073451455,-14.695200794319309,9.581065005722142,0.008699316396921938,-0.025226333447003816,-0.2665418761604605
160947000000,331,160947000000,FR_wheel_link,-24.111989080729174,9.109926906339208,4.980065920678152,0.006628430998803387,0.03768609719313778,0.39754759353977986
160948000000,332,160948000000,FR_wheel_link,27.58790319234106,-10.94478071377598,10.282682935021047,0.01618168192081855,-0.049929004956666294,-0.4177950491890482
160949000000,333,160949000000,FR_wheel_link,-27.310991765768478,8.529182389768653,5.696130251656106,0.01067186913794411,0.04389990021235391,0.42396103502702964
160950000000,334,160950000000,FR_wheel_link,28.03276942469788,-10.970318075774227,9.741966960118079,0.01699065336475747,-0.051441547042302437,-0.4221544302843121
160951000000,335,160951000000,FR_wheel_link,-27.41968071391208,8.203514955000687,3.8210628287271367,0.0052552850139788165,0.04255444502282601,0.424744167330045
160952000000,336,160952000000,FR_wheel_link,30.183686658397832,2.993289713300592,5.39447023702795,-0.037951944754139884,-0.033019813802247354,-0.3345745034791696
160953000000,337,160953000000,FR_wheel_link,-19.444186682912395,10.818892918099012,4.4954608870077255,-0.08723775688984618,0.005769971125245833,0.15479520015308992
160954000000,338,160954000000,FR_wheel_link,5.174392186072017,-16.29444742527119,6.228708578783934,0.09927684957563777,0.01769395817445233,-0.045565849283728484
160955000000,339,160955000000,FR_wheel_link,-4.197120074113452,13.871947275425956,4.10664660976067,-0.08154098505475711,-0.007842219622112574,0.02381501655253975
160956000000,340,160956000000,FR_wheel_link,-1.7889824705046997,-0.08445648454151447,6.012830136788144,0.003344536952191888,0.00011022686638065794,-0.16033225464947312
160957000000,341,160957000000,FR_wheel_link,-19.78634990891377,10.063138290613,2.956952949316972,0.02018174659257477,0.05212005592022815,0.3445433218983391
160958000000,342,160958000000,FR_wheel_link,24.11469782830931,-11.404467870459538,7.93912210171815,0.025651725251751165,-0.0492289209762672,-0.41019078065637365
160959000000,343,160959000000,FR_wheel_link,-27.757205182831548,8.348174799527259,3.2231801172709083,0.016337240833561785,0.055795326908674704,0.41758124113942685
160960000000,344,160960000000,FR_wheel_link,26.81695679678837,-11.067401546556109,7.405831080693883,0.01896366252223742,-0.05415112246935238,-0.4215381938487517
160961000000,345,160961000000,FR_wheel_link,-27.41667165012872,8.452597644209824,1.9108222742493084,0.0040411722780790815,0.04714119118082605,0.4219275245831496
160962000000,346,160962000000,FR_wheel_link,27.934626776355245,-10.702936424402926,5.543475535664912,0.004328113987243211,-0.053185040073143175,-0.42088777165534386
160963000000,347,160963000000,FR_wheel_link,-27.313069467061915,9.221010880893534,-0.21481273311258095,-0.011533999208559135,0.04696394580541109,0.42231232590043766
160964000000,348,160964000000,FR_wheel_link,27.87885192375614,-10.219535335938192,4.149786869428345,-0.006862550859389012,-0.053294372225942264,-0.4203397510779565
160965000000,349,160965000000,FR_wheel_link,-27.386738765042264,9.067055382556084,-0.8311785020398694,-0.015087417280401782,0.050359047655934276,0.4216231357044173
160966000000,350,160966000000,FR_wheel_link,27.587583346363154,-10.406589948122754,4.239325840039095,-0.008178102123880825,-0.05608022412667181,-0.41996361684442496
160967000000,351,160967000000,FR_wheel_link,-27.281823065338894,8.882057031072975,0.06157502825938037,-0.012144523508468825,0.053348005430389416,0.42152439237221745
160968000000,352,160968000000,FR_wheel_link,27.481437431118387,-10.52479873728392,5.477294349558389,-0.003437193612644539,-0.05709775690778692,-0.42051542489862126
160969000000,353,160969000000,FR_wheel_link,-27.376599886884435,8.892841807608768,0.9721086748442722,-0.008529753712364592,0.05517964212673921,0.42145938705764413
160970000000,354,160970000000,FR_wheel_link,27.28998977263857,-10.354670820553215,6.172001277310956,0.000704053694292513,-0.054913056486377385,-0.4213231786460904
160971000000,355,160971000000,FR_wheel_link,-27.77709474181537,9.03858345199944,1.6816251122312158,-0.003814025105638637,0.05714045984381415,0.42095609539555834
160972000000,356,160972000000,FR_wheel_link,27.104760849337094,-9.990771434919553,8.535573884424574,0.008525205235893884,-0.058051597905707034,-0.42069317953024743
160973000000,357,160973000000,FR_wheel_link,-27.57208842935517,9.128260075203954,2.476910477375263,-0.000397931628797661,0.06161431075415848,0.4199023496034607
160974000000,358,160974000000,FR_wheel_link,26.766898750613013,-10.049802092939892,9.090842153171799,0.009957981535732805,-0.06287829879087337,-0.41953113309012774
160975000000,359,160975000000,FR_wheel_link,-27.071217951823336,9.239875717582846,4.34881278217242,0.003180610660965758,0.0608643350427508,0.41985902077127246
160976000000,360,160976000000,FR_wheel_link,29.82462070472388,23.620890352006167,3.524301395755283,-0.049282456720257335,-0.04222285252144964,-0.30009510173033693
160977000000,361,160977000000,FR_wheel_link,-13.896645895164426,12.750920664891908,6.914734588740545,-0.07729522000123298,0.010573036355160924,0.11387383993313328
160978000000,362,160978000000,FR_wheel_link,3.596909086513719,-15.467733874265846,8.164855638956151,0.1079186723111988,0.005856259523704379,-0.034872962275177194
160979000000,363,160979000000,FR_wheel_link,-2.567657539082221,14.852452569638658,6.442758886404409,-0.06785166332291626,-0.001465026472978503,0.020745121689837404
160980000000,364,160980000000,FR_wheel_link,-0.6311830771678636,-15.738874841017658,9.540075424614253,0.07258337788825539,-0.007280956028586023,-0.09988363526874157
160981000000,365,160981000000,FR_wheel_link,-13.717285221348819,12.681731005926597,7.009985786679899,-0.06278861615927048,0.016640878520882953,0.11122351887679585
160982000000,366,160982000000,FR_wheel_link,3.1394052196132476,-14.487054800882337,7.699290984901553,0.11309826330754505,-0.0008561999466516214,-0.035228657712563276
160983000000,367,160983000000,FR_wheel_link,-2.0920999497717427,15.770939938256287,5.607804862768074,-0.06855367431477266,0.0009048642341376093,0.01964115275792817
