%time,field.header.seq,field.header.stamp,field.header.frame_id,field.name0,field.name1,field.name2,field.name3,field.position0,field.position1,field.position2,field.position3,field.velocity0,field.velocity1,field.velocity2,field.velocity3,field.effort0,field.effort1,field.effort2,field.effort3
160616000000,1925,160616000000,,BL_TO_BASELINK,BR_TO_BASELINK,FL_TO_BASELINK,FR_TO_BASELINK,0.0,0.0,0.0,0.0,3.469446951953614e-18,6.938893903907228e-18,-6.938893903907228e-18,-2.42861286636753e-17,0.0,0.0,0.0,0.0
160617000000,1926,160617000000,,BL_TO_BASELINK,BR_TO_BASELINK,FL_TO_BASELINK,FR_TO_BASELINK,0.0,0.0,0.0,0.0,0.0,-3.469446951953614e-18,-3.469446951953614e-18,0.0,0.0,0.0,0.0,0.0
160618000000,1927,160618000000,,BL_TO_BASELINK,BR_TO_BASELINK,FL_TO_BASELINK,FR_TO_BASELINK,0.0,0.0,0.0,0.0,0.0,-3.469446951953614e-18,6.938893903907228e-18,0.0,0.0,0.0,0.0,0.0
160619000000,1928,160619000000,,BL_TO_BASELINK,BR_TO_BASELINK,FL_TO_BASELINK,FR_TO_BASELINK,0.0,0.0,0.0,0.0,6.938893903907228e-18,6.938893903907228e-18,-1.3877787807814457e-17,-1.3877787807814457e-17,0.0,0.0,0.0,0.0
160620000000,1929,160620000000,,BL_TO_BASELINK,BR_TO_BASELINK,FL_TO_BASELINK,FR_TO_BASELINK,0.0,0.0,0.0,0.0,-6.938893903907228e-18,6.938893903907228e-18,-6.938893903907228e-18,-2.7755575615628914e-17,0.0,0.0,0.0,0.0
160621000000,1930,160621000000,,BL_TO_BASELINK,BR_TO_BASELINK,FL_TO_BASELINK,FR_TO_BASELINK,0.0,0.0,0.0,0.0,6.938893903907228e-18,6.938893903907228e-18,1.3877787807814457e-17,6.938893903907228e-18,0.0,0.0,0.0,0.0
160622000000,1931,160622000000,,BL_TO_BASELINK,BR_TO_BASELINK,FL_TO_BASELINK,FR_TO_BASELINK,0.0,0.0,0.0,0.0,-5.204170427930421e-18,-2.5587171270657905e-17,-8.673617379884035e-18,-4.7704895589362195e-18,0.0,0.0,0.0,0.0
160623000000,1932,160623000000,,BL_TO_BASELINK,BR_TO_BASELINK,FL_TO_BASELINK,FR_TO_BASELINK,0.0,0.0,0.0,0.0,6.938893903907228e-18,-3.469446951953614e-18,3.469446951953614e-18,1.3877787807814457e-17,0.0,0.0,0.0,0.0
160624000000,1933,160624000000,,BL_TO_BASELINK,BR_TO_BASELINK,FL_TO_BASELINK,FR_TO_BASELINK,0.0,0.0,0.0,0.0,1.3877787807814457e-17,2.0816681711721685e-17,1.3877787807814457e-17,0.0,0.0,0.0,0.0,0.0
160625000000,1934,160625000000,,BL_TO_BASELINK,BR_TO_BASELINK,FL_TO_BASELINK,FR_TO_BASELINK,0.0,0.0,0.0,0.0,-6.938893903907228e-18,0.0,0.0,2.0816681711721685e-17,0.0,0.0,0.0,0.0
160626000000,1935,160626000000,,BL_TO_BASELINK,BR_TO_BASELINK,FL_TO_BASELINK,FR_TO_BASELINK,0.0,0.0,0.0,0.0,0.0,-6.938893903907228e-18,-6.938893903907228e-18,-6.938893903907228e-18,0.0,0.0,0.0,0.0
160627000000,1936,160627000000,,BL_TO_BASELINK,BR_TO_BASELINK,FL_TO_BASELINK,FR_TO_BASELINK,0.0,0.0,0.0,0.0,3.469446951953614e-18,-3.469446951953614e-18,-3.469446951953614e-18,-2.42861286636753e-17,0.0,0.0,0.0,0.0
160628000000,1937,160628000000,,BL_TO_BASELINK,BR_TO_BASELINK,FL_TO_BASELINK,FR_TO_BASELINK,0.0,0.0,0.0,0.0,-8.673617379884035e-19,1.734723475976807e-18,-1.734723475976807e-18,-5.204170427930421e-18,0.0,0.0,0.0,0.0
160629000000,1938,160629000000,,BL_TO_BASELINK,BR_TO_BASELINK,FL_TO_BASELINK,FR_TO_BASELINK,0.0,0.0,0.0,0.0,0.0,0.0,1.3877787807814457e-17,1.3877787807814457e-17,0.0,0.0,0.0,0.0
160630000000,1939,160630000000,,BL_TO_BASELINK,BR_TO_BASELINK,FL_TO_BASELINK,FR_TO_BASELINK,0.0,0.0,0.0,0.0,0.0,1.3877787807814457e-17,1.3877787807814457e-17,6.938893903907228e-18,0.0,0.0,0.0,0.0
160631000000,1940,160631000000,,BL_TO_BASELINK,BR_TO_BASELINK,FL_TO_BASELINK,FR_TO_BASELINK,0.0,0.0,0.0,0.0,0.0,6.938893903907228e-18,1.3877787807814457e-17,6.938893903907228e-18,0.0,0.0,0.0,0.0
160632000000,1941,160632000000,,BL_TO_BASELINK,BR_TO_BASELINK,FL_TO_BASELINK,FR_TO_BASELINK,0.0,0.0,0.0,0.0,1.3877787807814457e-17,-1.734723475976807e-17,-3.469446951953614e-17,-4.163336342344337e-17,0.0,0.0,0.0,0.0
160633000000,1942,160633000000,,BL_TO_BASELINK,BR_TO_BASELINK,FL_TO_BASELINK,FR_TO_BASELINK,0.0,0.0,0.0,0.0,-3.469446951953614e-18,-2.7755575615628914e-17,-3.469446951953614e-17,-2.42861286636753e-17,0.0,0.0,0.0,0.0
160634000000,1943,160634000000,,BL_TO_BASELINK,BR_TO_BASELINK,FL_TO_BASELINK,FR_TO_BASELINK,0.0,0.0,0.0,0.0,1.3877787807814457e-17,1.0408340855860843e-17,-3.469446951953614e-18,6.938893903907228e-18,0.0,0.0,0.0,0.0
160635000000,1944,160635000000,,BL_TO_BASELINK,BR_TO_BASELINK,FL_TO_BASELINK,FR_TO_BASELINK,0.0,0.0,0.0,0.0,0.0,-6.938893903907228e-18,-4.163336342344337e-17,-2.0816681711721685e-17,0.0,0.0,0.0,0.0
160636000000,1945,160636000000,,BL_TO_BASELINK,BR_TO_BASELINK,FL_TO_BASELINK,FR_TO_BASELINK,0.0,0.0,0.0,0.0,6.938893903907228e-18,0.0,0.0,6.938893903907228e-18,0.0,0.0,0.0,0.0
160637000000,1946,160637000000,,BL_TO_BASELINK,BR_TO_BASELINK,FL_TO_BASELINK,FR_TO_BASELINK,0.0,0.0,0.0,0.0,2.7755575615628914e-17,-1.3877787807814457e-17,-1.3877787807814457e-17,0.0,0.0,0.0,0.0,0.0
160638000000,1947,160638000000,,BL_TO_BASELINK,BR_TO_BASELINK,FL_TO_BASELINK,FR_TO_BASELINK,0.0,0.0,0.0,0.0,6.938893903907228e-18,1.3877787807814457e-17,1.3877787807814457e-17,6.938893903907228e-18,0.0,0.0,0.0,0.0
160639000000,1948,160639000000,,BL_TO_BASELINK,BR_TO_BASELINK,FL_TO_BASELINK,FR_TO_BASELINK,0.0,0.0,0.0,0.0,-5.421010862427522e-18,-5.204170427930421e-18,1.5829351718288365e-17,2.2551405187698492e-17,0.0,0.0,0.0,0.0
160640000000,1949,160640000000,,BL_TO_BASELINK,BR_TO_BASELINK,FL_TO_BASELINK,FR_TO_BASELINK,0.0,0.0,0.0,0.0,-3.469446951953614e-18,6.938893903907228e-18,1.3877787807814457e-17,1.3877787807814457e-17,0.0,0.0,0.0,0.0
160641000000,1950,160641000000,,BL_TO_BASELINK,BR_TO_BASELINK,FL_TO_BASELINK,FR_TO_BASELINK,0.0,0.0,0.0,0.0,6.938893903907228e-18,0.0,-6.938893903907228e-18,-1.3877787807814457e-17,0.0,0.0,0.0,0.0
160642000000,1951,160642000000,,BL_TO_BASELINK,BR_TO_BASELINK,FL_TO_BASELINK,FR_TO_BASELINK,0.0,0.0,0.0,0.0,0.0,-1.3877787807814457e-17,-2.7755575615628914e-17,-1.3877787807814457e-17,0.0,0.0,0.0,0.0
160643000000,1952,160643000000,,BL_TO_BASELINK,BR_TO_BASELINK,FL_TO_BASELINK,FR_TO_BASELINK,0.0,0.0,0.0,0.0,-6.938893903907228e-18,-6.938893903907228e-18,0.0,1.3877787807814457e-17,0.0,0.0,0.0,0.0
160644000000,1953,160644000000,,BL_TO_BASELINK,BR_TO_BASELINK,FL_TO_BASELINK,FR_TO_BASELINK,0.0,0.0,0.0,0.0,2.0816681711721685e-17,-1.0408340855860843e-17,-1.0408340855860843e-17,-3.8163916471489756e-17,0.0,0.0,0.0,0.0
160645000000,1954,160645000000,,BL_TO_BASELINK,BR_TO_BASELINK,FL_TO_BASELINK,FR_TO_BASELINK,0.0,0.0,0.0,0.0,-1.0570971181733668e-17,-3.122502256758253e-17,2.4448758989548125e-17,2.4123498337802474e-17,0.0,0.0,0.0,0.0
160646000000,1955,160646000000,,BL_TO_BASELINK,BR_TO_BASELINK,FL_TO_BASELINK,FR_TO_BASELINK,0.0,0.0,0.0,0.0,-6.938893903907228e-18,-1.3877787807814457e-17,-2.7755575615628914e-17,-2.7755575615628914e-17,0.0,0.0,0.0,0.0
160647000000,1956,160647000000,,BL_TO_BASELINK,BR_TO_BASELINK,FL_TO_BASELINK,FR_TO_BASELINK,0.0,0.0,0.0,0.0,0.0,0.0,0.0,0.0,0.0,0.0,0.0,0.0
160648000000,1957,160648000000,,BL_TO_BASELINK,BR_TO_BASELINK,FL_TO_BASELINK,FR_TO_BASELINK,0.0,0.0,0.0,0.0,0.0,-1.3877787807814457e-17,-1.3877787807814457e-17,-1.3877787807814457e-17,0.0,0.0,0.0,0.0
160649000000,1958,160649000000,,BL_TO_BASELINK,BR_TO_BASELINK,FL_TO_BASELINK,FR_TO_BASELINK,0.0,0.0,0.0,0.0,6.938893903907228e-18,0.0,2.0816681711721685e-17,2.0816681711721685e-17,0.0,0.0,0.0,0.0
160650000000,1959,160650000000,,BL_TO_BASELINK,BR_TO_BASELINK,FL_TO_BASELINK,FR_TO_BASELINK,0.0,0.0,0.0,0.0,-3.469446951953614e-18,6.938893903907228e-18,-3.469446951953614e-18,-1.3877787807814457e-17,0.0,0.0,0.0,0.0
160651000000,1960,160651000000,,BL_TO_BASELINK,BR_TO_BASELINK,FL_TO_BASELINK,FR_TO_BASELINK,0.0,0.0,0.0,0.0,-3.469446951953614e-18,0.0,1.0408340855860843e-17,6.938893903907228e-18,0.0,0.0,0.0,0.0
160652000000,1961,160652000000,,BL_TO_BASELINK,BR_TO_BASELINK,FL_TO_BASELINK,FR_TO_BASELINK,0.0,0.0,0.0,0.0,0.0,0.0,1.3877787807814457e-17,1.3877787807814457e-17,0.0,0.0,0.0,0.0
160653000000,1962,160653000000,,BL_TO_BASELINK,BR_TO_BASELINK,FL_TO_BASELINK,FR_TO_BASELINK,0.0,0.0,0.0,0.0,-1.3877787807814457e-17,0.0,0.0,0.0,0.0,0.0,0.0,0.0
160654000000,1963,160654000000,,BL_TO_BASELINK,BR_TO_BASELINK,FL_TO_BASELINK,FR_TO_BASELINK,0.0,0.0,0.0,0.0,6.938893903907228e-18,1.3877787807814457e-17,2.7755575615628914e-17,5.551115123125783e-17,0.0,0.0,0.0,0.0
160655000000,1964,160655000000,,BL_TO_BASELINK,BR_TO_BASELINK,FL_TO_BASELINK,FR_TO_BASELINK,0.0,0.0,0.0,0.0,0.0,6.938893903907228e-18,0.0,-6.938893903907228e-18,0.0,0.0,0.0,0.0
160656000000,1965,160656000000,,BL_TO_BASELINK,BR_TO_BASELINK,FL_TO_BASELINK,FR_TO_BASELINK,0.0,0.0,0.0,0.0,-5.204170427930421e-18,-1.9081958235744878e-17,-1.9081958235744878e-17,-1.214306433183765e-17,0.0,0.0,0.0,0.0
160657000000,1966,160657000000,,BL_TO_BASELINK,BR_TO_BASELINK,FL_TO_BASELINK,FR_TO_BASELINK,0.0,0.0,0.0,0.0,1.5612511283791264e-17,8.673617379884035e-18,5.204170427930421e-18,-2.2551405187698492e-17,0.0,0.0,0.0,0.0
160658000000,1967,160658000000,,BL_TO_BASELINK,BR_TO_BASELINK,FL_TO_BASELINK,FR_TO_BASELINK,0.0,0.0,0.0,0.0,-6.938893903907228e-18,-2.0816681711721685e-17,-2.0816681711721685e-17,-1.3877787807814457e-17,0.0,0.0,0.0,0.0
160659000000,1968,160659000000,,BL_TO_BASELINK,BR_TO_BASELINK,FL_TO_BASELINK,FR_TO_BASELINK,0.0,0.0,0.0,0.0,-6.938893903907228e-18,-6.938893903907228e-18,-6.938893903907228e-18,-6.938893903907228e-18,0.0,0.0,0.0,0.0
160660000000,1969,160660000000,,BL_TO_BASELINK,BR_TO_BASELINK,FL_TO_BASELINK,FR_TO_BASELINK,0.0,0.0,0.0,0.0,1.3877787807814457e-17,1.3877787807814457e-17,0.0,-1.3877787807814457e-17,0.0,0.0,0.0,0.0
160661000000,1970,160661000000,,BL_TO_BASELINK,BR_TO_BASELINK,FL_TO_BASELINK,FR_TO_BASELINK,0.0,0.0,0.0,0.0,1.3877787807814457e-17,1.3877787807814457e-17,-3.469446951953614e-17,-1.3877787807814457e-17,0.0,0.0,0.0,0.0
160662000000,1971,160662000000,,BL_TO_BASELINK,BR_TO_BASELINK,FL_TO_BASELINK,FR_TO_BASELINK,0.0,0.0,0.0,0.0,0.0,-3.469446951953614e-18,0.0,-3.469446951953614e-18,0.0,0.0,0.0,0.0
160663000000,1972,160663000000,,BL_TO_BASELINK,BR_TO_BASELINK,FL_TO_BASELINK,FR_TO_BASELINK,0.0,0.0,0.0,0.0,-3.469446951953614e-18,0.0,3.469446951953614e-18,2.0816681711721685e-17,0.0,0.0,0.0,0.0
160664000000,1973,160664000000,,BL_TO_BASELINK,BR_TO_BASELINK,FL_TO_BASELINK,FR_TO_BASELINK,0.0,0.0,0.0,0.0,0.0,6.938893903907228e-18,6.938893903907228e-18,-6.938893903907228e-18,0.0,0.0,0.0,0.0
160665000000,1974,160665000000,,BL_TO_BASELINK,BR_TO_BASELINK,FL_TO_BASELINK,FR_TO_BASELINK,0.0,0.0,0.0,0.0,-1.3877787807814457e-17,-1.3877787807814457e-17,-1.3877787807814457e-17,-1.3877787807814457e-17,0.0,0.0,0.0,0.0
160666000000,1975,160666000000,,BL_TO_BASELINK,BR_TO_BASELINK,FL_TO_BASELINK,FR_TO_BASELINK,0.0,0.0,0.0,0.0,-2.7755575615628914e-17,-2.0816681711721685e-17,-1.3877787807814457e-17,-1.3877787807814457e-17,0.0,0.0,0.0,0.0
160667000000,1976,160667000000,,BL_TO_BASELINK,BR_TO_BASELINK,FL_TO_BASELINK,FR_TO_BASELINK,0.0,0.0,0.0,0.0,0.0,-1.3877787807814457e-17,0.0,0.0,0.0,0.0,0.0,0.0
160668000000,1977,160668000000,,BL_TO_BASELINK,BR_TO_BASELINK,FL_TO_BASELINK,FR_TO_BASELINK,0.0,0.0,0.0,0.0,6.071532165918825e-18,2.7755575615628914e-17,1.3010426069826053e-17,6.938893903907228e-18,0.0,0.0,0.0,0.0
160669000000,1978,160669000000,,BL_TO_BASELINK,BR_TO_BASELINK,FL_TO_BASELINK,FR_TO_BASELINK,0.0,0.0,0.0,0.0,0.0,-2.7755575615628914e-17,-3.469446951953614e-17,-4.85722573273506e-17,0.0,0.0,0.0,0.0
160670000000,1979,160670000000,,BL_TO_BASELINK,BR_TO_BASELINK,FL_TO_BASELINK,FR_TO_BASELINK,0.0,0.0,0.0,0.0,1.3877787807814457e-17,0.0,-1.3877787807814457e-17,-2.7755575615628914e-17,0.0,0.0,0.0,0.0
160671000000,1980,160671000000,,BL_TO_BASELINK,BR_TO_BASELINK,FL_TO_BASELINK,FR_TO_BASELINK,0.0,0.0,0.0,0.0,0.0,6.938893903907228e-18,-2.0816681711721685e-17,-3.469446951953614e-17,0.0,0.0,0.0,0.0
160672000000,1981,160672000000,,BL_TO_BASELINK,BR_TO_BASELINK,FL_TO_BASELINK,FR_TO_BASELINK,0.0,0.0,0.0,0.0,1.3877787807814457e-17,1.3877787807814457e-17,1.3877787807814457e-17,0.0,0.0,0.0,0.0,0.0
160673000000,1982,160673000000,,BL_TO_BASELINK,BR_TO_BASELINK,FL_TO_BASELINK,FR_TO_BASELINK,0.0,0.0,0.0,0.0,-2.42861286636753e-17,-1.734723475976807e-17,-1.734723475976807e-17,-3.122502256758253e-17,0.0,0.0,0.0,0.0
160674000000,1983,160674000000,,BL_TO_BASELINK,BR_TO_BASELINK,FL_TO_BASELINK,FR_TO_BASELINK,0.0,0.0,0.0,0.0,8.673617379884035e-18,7.806255641895632e-18,-8.673617379884035e-18,-2.688821387764051e-17,0.0,0.0,0.0,0.0
160675000000,1984,160675000000,,BL_TO_BASELINK,BR_TO_BASELINK,FL_TO_BASELINK,FR_TO_BASELINK,0.0,0.0,0.0,0.0,-1.3877787807814457e-17,-1.3877787807814457e-17,-6.938893903907228e-18,-1.3877787807814457e-17,0.0,0.0,0.0,0.0
160676000000,1985,160676000000,,BL_TO_BASELINK,BR_TO_BASELINK,FL_TO_BASELINK,FR_TO_BASELINK,0.0,0.0,0.0,0.0,6.938893903907228e-18,6.938893903907228e-18,-2.0816681711721685e-17,-3.469446951953614e-17,0.0,0.0,0.0,0.0
160677000000,1986,160677000000,,BL_TO_BASELINK,BR_TO_BASELINK,FL_TO_BASELINK,FR_TO_BASELINK,0.0,0.0,0.0,0.0,1.3877787807814457e-17,0.0,1.3877787807814457e-17,2.7755575615628914e-17,0.0,0.0,0.0,0.0
160678000000,1987,160678000000,,BL_TO_BASELINK,BR_TO_BASELINK,FL_TO_BASELINK,FR_TO_BASELINK,0.0,0.0,0.0,0.0,3.469446951953614e-18,-4.5102810375396984e-17,-3.8163916471489756e-17,-3.122502256758253e-17,0.0,0.0,0.0,0.0
160679000000,1988,160679000000,,BL_TO_BASELINK,BR_TO_BASELINK,FL_TO_BASELINK,FR_TO_BASELINK,0.0,0.0,0.0,0.0,8.673617379884035e-18,3.469446951953614e-18,8.673617379884035e-18,8.673617379884035e-18,0.0,0.0,0.0,0.0
160680000000,1989,160680000000,,BL_TO_BASELINK,BR_TO_BASELINK,FL_TO_BASELINK,FR_TO_BASELINK,0.0,0.0,0.0,0.0,0.0,2.0816681711721685e-17,6.938893903907228e-18,1.3877787807814457e-17,0.0,0.0,0.0,0.0
160681000000,1990,160681000000,,BL_TO_BASELINK,BR_TO_BASELINK,FL_TO_BASELINK,FR_TO_BASELINK,0.0,0.0,0.0,0.0,6.938893903907228e-18,6.938893903907228e-18,6.938893903907228e-18,6.938893903907228e-18,0.0,0.0,0.0,0.0
160682000000,1991,160682000000,,BL_TO_BASELINK,BR_TO_BASELINK,FL_TO_BASELINK,FR_TO_BASELINK,0.0,0.0,0.0,0.0,-1.3877787807814457e-17,-1.3877787807814457e-17,1.3877787807814457e-17,-1.3877787807814457e-17,0.0,0.0,0.0,0.0
160683000000,1992,160683000000,,BL_TO_BASELINK,BR_TO_BASELINK,FL_TO_BASELINK,FR_TO_BASELINK,0.0,0.0,0.0,0.0,-2.7755575615628914e-17,-4.163336342344337e-17,-2.0816681711721685e-17,0.0,0.0,0.0,0.0,0.0
160684000000,1993,160684000000,,BL_TO_BASELINK,BR_TO_BASELINK,FL_TO_BASELINK,FR_TO_BASELINK,0.0,0.0,0.0,0.0,-6.938893903907228e-18,6.938893903907228e-18,1.3877787807814457e-17,-1.3877787807814457e-17,0.0,0.0,0.0,0.0
160685000000,1994,160685000000,,BL_TO_BASELINK,BR_TO_BASELINK,FL_TO_BASELINK,FR_TO_BASELINK,0.0,0.0,0.0,0.0,2.168404344971009e-17,1.734723475976807e-18,7.806255641895632e-18,8.673617379884035e-18,0.0,0.0,0.0,0.0
160686000000,1995,160686000000,,BL_TO_BASELINK,BR_TO_BASELINK,FL_TO_BASELINK,FR_TO_BASELINK,0.0,0.0,0.0,0.0,-3.469446951953614e-18,-3.469446951953614e-18,-3.469446951953614e-18,-3.469446951953614e-18,0.0,0.0,0.0,0.0
160687000000,1996,160687000000,,BL_TO_BASELINK,BR_TO_BASELINK,FL_TO_BASELINK,FR_TO_BASELINK,0.0,0.0,0.0,0.0,1.3877787807814457e-17,2.7755575615628914e-17,2.7755575615628914e-17,1.3877787807814457e-17,0.0,0.0,0.0,0.0
160688000000,1997,160688000000,,BL_TO_BASELINK,BR_TO_BASELINK,FL_TO_BASELINK,FR_TO_BASELINK,0.0,0.0,0.0,0.0,1.3877787807814457e-17,-1.3877787807814457e-17,-1.3877787807814457e-17,0.0,0.0,0.0,0.0,0.0
160689000000,1998,160689000000,,BL_TO_BASELINK,BR_TO_BASELINK,FL_TO_BASELINK,FR_TO_BASELINK,0.0,0.0,0.0,0.0,-6.938893903907228e-18,6.938893903907228e-18,6.938893903907228e-18,1.3877787807814457e-17,0.0,0.0,0.0,0.0
160690000000,1999,160690000000,,BL_TO_BASELINK,BR_TO_BASELINK,FL_TO_BASELINK,FR_TO_BASELINK,0.0,0.0,0.0,0.0,2.2551405187698492e-17,2.2551405187698492e-17,2.2551405187698492e-17,8.673617379884035e-18,0.0,0.0,0.0,0.0
160691000000,2000,160691000000,,BL_TO_BASELINK,BR_TO_BASELINK,FL_TO_BASELINK,FR_TO_BASELINK,0.0,0.0,0.0,0.0,-3.469446951953614e-18,3.122502256758253e-17,-3.469446951953614e-18,-3.469446951953614e-18,0.0,0.0,0.0,0.0
160692000000,2001,160692000000,,BL_TO_BASELINK,BR_TO_BASELINK,FL_TO_BASELINK,FR_TO_BASELINK,0.0,0.0,0.0,0.0,2.7755575615628914e-17,1.3877787807814457e-17,-1.3877787807814457e-17,0.0,0.0,0.0,0.0,0.0
160693000000,2002,160693000000,,BL_TO_BASELINK,BR_TO_BASELINK,FL_TO_BASELINK,FR_TO_BASELINK,0.0,0.0,0.0,0.0,-1.3877787807814457e-17,0.0,-1.3877787807814457e-17,-2.7755575615628914e-17,0.0,0.0,0.0,0.0
160694000000,2003,160694000000,,BL_TO_BASELINK,BR_TO_BASELINK,FL_TO_BASELINK,FR_TO_BASELINK,0.0,0.0,0.0,0.0,-1.3877787807814457e-17,-1.3877787807814457e-17,0.0,-1.3877787807814457e-17,0.0,0.0,0.0,0.0
160695000000,2004,160695000000,,BL_TO_BASELINK,BR_TO_BASELINK,FL_TO_BASELINK,FR_TO_BASELINK,0.0,0.0,0.0,0.0,-1.3877787807814457e-17,1.3877787807814457e-17,0.0,1.3877787807814457e-17,0.0,0.0,0.0,0.0
160696000000,2005,160696000000,,BL_TO_BASELINK,BR_TO_BASELINK,FL_TO_BASELINK,FR_TO_BASELINK,0.0,0.0,0.0,0.0,0.0,-3.469446951953614e-18,-3.122502256758253e-17,-3.469446951953614e-17,0.0,0.0,0.0,0.0
160697000000,2006,160697000000,,BL_TO_BASELINK,BR_TO_BASELINK,FL_TO_BASELINK,FR_TO_BASELINK,0.0,0.0,0.0,0.0,0.0,-1.3877787807814457e-17,-6.938893903907228e-18,0.0,0.0,0.0,0.0,0.0
160698000000,2007,160698000000,,BL_TO_BASELINK,BR_TO_BASELINK,FL_TO_BASELINK,FR_TO_BASELINK,0.0,0.0,0.0,0.0,1.3877787807814457e-17,6.938893903907228e-18,6.938893903907228e-18,0.0,0.0,0.0,0.0,0.0
160699000000,2008,160699000000,,BL_TO_BASELINK,BR_TO_BASELINK,FL_TO_BASELINK,FR_TO_BASELINK,0.0,0.0,0.0,0.0,-1.3877787807814457e-17,-1.3877787807814457e-17,0.0,-2.7755575615628914e-17,0.0,0.0,0.0,0.0
160700000000,2009,160700000000,,BL_TO_BASELINK,BR_TO_BASELINK,FL_TO_BASELINK,FR_TO_BASELINK,0.0,0.0,0.0,0.0,0.0,0.0,0.0,-2.7755575615628914e-17,0.0,0.0,0.0,0.0
160701000000,2010,160701000000,,BL_TO_BASELINK,BR_TO_BASELINK,FL_TO_BASELINK,FR_TO_BASELINK,0.0,0.0,0.0,0.0,6.938893903907228e-18,-2.0816681711721685e-17,-2.0816681711721685e-17,-4.163336342344337e-17,0.0,0.0,0.0,0.0
160702000000,2011,160702000000,,BL_TO_BASELINK,BR_TO_BASELINK,FL_TO_BASELINK,FR_TO_BASELINK,0.0,0.0,0.0,0.0,1.3010426069826053e-17,0.0,-8.673617379884035e-19,1.9949319973733282e-17,0.0,0.0,0.0,0.0
160703000000,2012,160703000000,,BL_TO_BASELINK,BR_TO_BASELINK,FL_TO_BASELINK,FR_TO_BASELINK,0.0,0.0,0.0,0.0,-1.0408340855860843e-17,-3.469446951953614e-18,0.0,6.938893903907228e-18,0.0,0.0,0.0,0.0
160704000000,2013,160704000000,,BL_TO_BASELINK,BR_TO_BASELINK,FL_TO_BASELINK,FR_TO_BASELINK,0.0,0.0,0.0,0.0,0.0,2.7755575615628914e-17,1.3877787807814457e-17,1.3877787807814457e-17,0.0,0.0,0.0,0.0
160705000000,2014,160705000000,,BL_TO_BASELINK,BR_TO_BASELINK,FL_TO_BASELINK,FR_TO_BASELINK,0.0,0.0,0.0,0.0,0.0,1.3877787807814457e-17,2.7755575615628914e-17,2.7755575615628914e-17,0.0,0.0,0.0,0.0
160706000000,2015,160706000000,,BL_TO_BASELINK,BR_TO_BASELINK,FL_TO_BASELINK,FR_TO_BASELINK,0.0,0.0,0.0,0.0,0.0,1.3877787807814457e-17,1.3877787807814457e-17,0.0,0.0,0.0,0.0,0.0
160707000000,2016,160707000000,,BL_TO_BASELINK,BR_TO_BASELINK,FL_TO_BASELINK,FR_TO_BASELINK,0.0,0.0,0.0,0.0,0.0,1.0408340855860843e-17,1.3877787807814457e-17,2.0816681711721685e-17,0.0,0.0,0.0,0.0
160708000000,2017,160708000000,,BL_TO_BASELINK,BR_TO_BASELINK,FL_TO_BASELINK,FR_TO_BASELINK,0.0,0.0,0.0,0.0,2.6020852139652106e-18,-1.474514954580286e-17,-1.1275702593849246e-17,9.540979117872439e-18,0.0,0.0,0.0,0.0
160709000000,2018,160709000000,,BL_TO_BASELINK,BR_TO_BASELINK,FL_TO_BASELINK,FR_TO_BASELINK,0.0,0.0,0.0,0.0,1.3877787807814457e-17,-1.3877787807814457e-17,-6.938893903907228e-18,0.0,0.0,0.0,0.0,0.0
160710000000,2019,160710000000,,BL_TO_BASELINK,BR_TO_BASELINK,FL_TO_BASELINK,FR_TO_BASELINK,0.0,0.0,0.0,0.0,0.0,6.938893903907228e-18,1.3877787807814457e-17,0.0,0.0,0.0,0.0,0.0
160711000000,2020,160711000000,,BL_TO_BASELINK,BR_TO_BASELINK,FL_TO_BASELINK,FR_TO_BASELINK,0.0,0.0,0.0,0.0,0.0,-1.3877787807814457e-17,-6.938893903907228e-18,-2.0816681711721685e-17,0.0,0.0,0.0,0.0
160712000000,2021,160712000000,,BL_TO_BASELINK,BR_TO_BASELINK,FL_TO_BASELINK,FR_TO_BASELINK,0.0,0.0,0.0,0.0,6.938893903907228e-18,6.938893903907228e-18,2.0816681711721685e-17,0.0,0.0,0.0,0.0,0.0
160713000000,2022,160713000000,,BL_TO_BASELINK,BR_TO_BASELINK,FL_TO_BASELINK,FR_TO_BASELINK,0.0,0.0,0.0,0.0,-1.734723475976807e-17,6.938893903907228e-18,6.938893903907228e-18,2.0816681711721685e-17,0.0,0.0,0.0,0.0
160714000000,2023,160714000000,,BL_TO_BASELINK,BR_TO_BASELINK,FL_TO_BASELINK,FR_TO_BASELINK,0.0,0.0,0.0,0.0,-6.938893903907228e-18,1.0408340855860843e-17,2.42861286636753e-17,2.42861286636753e-17,0.0,0.0,0.0,0.0
160715000000,2024,160715000000,,BL_TO_BASELINK,BR_TO_BASELINK,FL_TO_BASELINK,FR_TO_BASELINK,0.0,0.0,0.0,0.0,0.0,3.469446951953614e-18,-2.42861286636753e-17,-1.734723475976807e-17,0.0,0.0,0.0,0.0
160716000000,2025,160716000000,,BL_TO_BASELINK,BR_TO_BASELINK,FL_TO_BASELINK,FR_TO_BASELINK,0.0,0.0,0.0,0.0,0.0,0.0,-6.938893903907228e-18,0.0,0.0,0.0,0.0,0.0
160717000000,2026,160717000000,,BL_TO_BASELINK,BR_TO_BASELINK,FL_TO_BASELINK,FR_TO_BASELINK,0.0,0.0,0.0,0.0,0.0,0.0,2.0816681711721685e-17,2.7755575615628914e-17,0.0,0.0,0.0,0.0
160718000000,2027,160718000000,,BL_TO_BASELINK,BR_TO_BASELINK,FL_TO_BASELINK,FR_TO_BASELINK,0.0,0.0,0.0,0.0,1.3877787807814457e-17,1.3877787807814457e-17,1.3877787807814457e-17,-6.938893903907228e-18,0.0,0.0,0.0,0.0
160719000000,2028,160719000000,,BL_TO_BASELINK,BR_TO_BASELINK,FL_TO_BASELINK,FR_TO_BASELINK,0.0001999999933026686,0.0001999999933026686,0.0001999999933026686,0.0001999999933026686,0.1999999760868523,0.19999997608685233,0.19999997608685233,0.19999997608685235,0.0,0.0,0.0,0.0
160720000000,2029,160720000000,,BL_TO_BASELINK,BR_TO_BASELINK,FL_TO_BASELINK,FR_TO_BASELINK,0.0005999999594452632,0.0005999999594452632,0.0005999999594452632,0.0005999999594452632,0.3999999471498181,0.3999999471498181,0.3999999471498181,0.39999994714981807,0.0,0.0,0.0,0.0
160721000000,2030,160721000000,,BL_TO_BASELINK,BR_TO_BASELINK,FL_TO_BASELINK,FR_TO_BASELINK,0.0011999999090992475,0.0011999999090992475,0.0011999999090992475,0.0011999999090992475,0.5999999225070765,0.5999999225070765,0.5999999225070765,0.5999999225070765,0.0,0.0,0.0,0.0
160722000000,2031,160722000000,,BL_TO_BASELINK,BR_TO_BASELINK,FL_TO_BASELINK,FR_TO_BASELINK,0.001999999821912013,0.001999999821912013,0.001999999821912013,0.001999999821912013,0.7999998944280444,0.7999998944280444,0.7999998944280444,0.7999998944280444,0.0,0.0,0.0,0.0
160723000000,2032,160723000000,,BL_TO_BASELINK,BR_TO_BASELINK,FL_TO_BASELINK,FR_TO_BASELINK,0.002933691829699825,0.002933691829699825,0.002933691829699825,0.002933691829699825,0.9336920031241527,0.9336920031241527,0.9336920031241527,0.9336920031241527,0.0,0.0,0.0,0.0
160724000000,2033,160724000000,,BL_TO_BASELINK,BR_TO_BASELINK,FL_TO_BASELINK,FR_TO_BASELINK,0.003867383827352633,0.003867383827352633,0.003867383827352633,0.003867383827352633,0.9336920015282857,0.9336920015282857,0.9336920015282857,0.9336920015282857,0.0,0.0,0.0,0.0
160725000000,2034,160725000000,,BL_TO_BASELINK,BR_TO_BASELINK,FL_TO_BASELINK,FR_TO_BASELINK,0.004801075824453882,0.004801075824453882,0.004801075824453882,0.004801075824453882,0.9336920023160825,0.9336920023160825,0.9336920023160825,0.9336920023160825,0.0,0.0,0.0,0.0
160726000000,2035,160726000000,,BL_TO_BASELINK,BR_TO_BASELINK,FL_TO_BASELINK,FR_TO_BASELINK,0.0057347678168522265,0.0057347678168522265,0.0057347678168522265,0.0057347678168522265,0.9336920020568341,0.9336920020568341,0.9336920020568341,0.9336920020568341,0.0,0.0,0.0,0.0
160727000000,2036,160727000000,,BL_TO_BASELINK,BR_TO_BASELINK,FL_TO_BASELINK,FR_TO_BASELINK,0.006668459812080307,0.006668459812080307,0.006668459812080307,0.006668459812080307,0.9336920019078623,0.9336920019078623,0.9336920019078623,0.9336920019078623,0.0,0.0,0.0,0.0
160728000000,2037,160728000000,,BL_TO_BASELINK,BR_TO_BASELINK,FL_TO_BASELINK,FR_TO_BASELINK,0.007602151806237245,0.007602151806237245,0.007602151806237245,0.007602151806237245,0.9336920021557072,0.9336920021557072,0.9336920021557074,0.9336920021557074,0.0,0.0,0.0,0.0
160729000000,2038,160729000000,,BL_TO_BASELINK,BR_TO_BASELINK,FL_TO_BASELINK,FR_TO_BASELINK,0.008535843805216992,0.008535843805216992,0.008535843805216992,0.008535843805216992,0.9336920019817319,0.9336920019817319,0.9336920019817319,0.9336920019817319,0.0,0.0,0.0,0.0
160730000000,2039,160730000000,,BL_TO_BASELINK,BR_TO_BASELINK,FL_TO_BASELINK,FR_TO_BASELINK,0.009469535804753626,0.009469535804753626,0.009469535804753626,0.009469535804753626,0.9336920017390109,0.933692001739011,0.9336920017390109,0.933692001739011,0.0,0.0,0.0,0.0
160731000000,2040,160731000000,,BL_TO_BASELINK,BR_TO_BASELINK,FL_TO_BASELINK,FR_TO_BASELINK,0.010403227809253401,0.010403227809253401,0.010403227809253401,0.010403227809253401,0.9336920024809578,0.933692002480958,0.933692002480958,0.933692002480958,0.0,0.0,0.0,0.0
160732000000,2041,160732000000,,BL_TO_BASELINK,BR_TO_BASELINK,FL_TO_BASELINK,FR_TO_BASELINK,0.01133691981280105,0.01133691981280105,0.01133691981280105,0.01133691981280105,0.9336920014173088,0.9336920014173088,0.9336920014173088,0.9336920014173088,0.0,0.0,0.0,0.0
160733000000,2042,160733000000,,BL_TO_BASELINK,BR_TO_BASELINK,FL_TO_BASELINK,FR_TO_BASELINK,0.012270611819579003,0.012270611819579003,0.012270611819579003,0.012270611819579003,0.9336920027825387,0.9336920027825387,0.9336920027825387,0.9336920027825387,0.0,0.0,0.0,0.0
160734000000,2043,160734000000,,BL_TO_BASELINK,BR_TO_BASELINK,FL_TO_BASELINK,FR_TO_BASELINK,0.013204303823470376,0.013204303823470376,0.013204303823471264,0.013204303823471264,0.9336920015639782,0.9336920015639784,0.9336920015639784,0.9336920015639782,0.0,0.0,0.0,0.0
160735000000,2044,160735000000,,BL_TO_BASELINK,BR_TO_BASELINK,FL_TO_BASELINK,FR_TO_BASELINK,0.014137995829117678,0.014137995829117678,0.014137995829117678,0.014137995829117678,0.9336920029399739,0.9336920029399739,0.9336920029399739,0.9336920029399739,0.0,0.0,0.0,0.0
160736000000,2045,160736000000,,BL_TO_BASELINK,BR_TO_BASELINK,FL_TO_BASELINK,FR_TO_BASELINK,0.015071687831256675,0.015071687831256675,0.015071687831256675,0.015071687831256675,0.9336920018034697,0.9336920018034698,0.9336920018034698,0.9336920018034698,0.0,0.0,0.0,0.0
160737000000,2046,160737000000,,BL_TO_BASELINK,BR_TO_BASELINK,FL_TO_BASELINK,FR_TO_BASELINK,0.016005379834253652,0.016005379834253652,0.016005379834253652,0.016005379834253652,0.9336920028416572,0.9336920028416572,0.9336920028416572,0.9336920028416572,0.0,0.0,0.0,0.0
160738000000,2047,160738000000,,BL_TO_BASELINK,BR_TO_BASELINK,FL_TO_BASELINK,FR_TO_BASELINK,0.016939071833339092,0.016939071833339092,0.016939071833339092,0.016939071833339092,0.933692002164684,0.933692002164684,0.933692002164684,0.933692002164684,0.0,0.0,0.0,0.0
160739000000,2048,160739000000,,BL_TO_BASELINK,BR_TO_BASELINK,FL_TO_BASELINK,FR_TO_BASELINK,0.01787276383252756,0.01787276383252756,0.01787276383252756,0.01787276383252756,0.9336920026253206,0.9336920026253206,0.9336920026253206,0.9336920026253206,0.0,0.0,0.0,0.0
160740000000,2049,160740000000,,BL_TO_BASELINK,BR_TO_BASELINK,FL_TO_BASELINK,FR_TO_BASELINK,0.018806455827817814,0.018806455827817814,0.018806455827817814,0.018806455827817814,0.9336920027009439,0.9336920027009439,0.9336920027009439,0.9336920027009439,0.0,0.0,0.0,0.0
160741000000,2050,160741000000,,BL_TO_BASELINK,BR_TO_BASELINK,FL_TO_BASELINK,FR_TO_BASELINK,0.01974014782294553,0.01974014782294553,0.01974014782294553,0.01974014782294553,0.9336920022476575,0.9336920022476575,0.9336920022476575,0.9336920022476575,0.0,0.0,0.0,0.0
160742000000,2051,160742000000,,BL_TO_BASELINK,BR_TO_BASELINK,FL_TO_BASELINK,FR_TO_BASELINK,0.02067383981462534,0.02067383981462534,0.02067383981462534,0.02067383981462534,0.9336920029071644,0.9336920029071644,0.9336920029071644,0.9336920029071644,0.0,0.0,0.0,0.0
160743000000,2052,160743000000,,BL_TO_BASELINK,BR_TO_BASELINK,FL_TO_BASELINK,FR_TO_BASELINK,0.021607531806603575,0.021607531806603575,0.021607531806603575,0.021607531806603575,0.9336920019751356,0.9336920019751356,0.9336920019751356,0.9336920019751356,0.0,0.0,0.0,0.0
160744000000,2053,160744000000,,BL_TO_BASELINK,BR_TO_BASELINK,FL_TO_BASELINK,FR_TO_BASELINK,0.02254122379631429,0.02254122379631429,0.02254122379631429,0.02254122379631429,0.9336920030406478,0.9336920030406478,0.9336920030406478,0.9336920030406478,0.0,0.0,0.0,0.0
160745000000,2054,160745000000,,BL_TO_BASELINK,BR_TO_BASELINK,FL_TO_BASELINK,FR_TO_BASELINK,0.023474915787777384,0.023474915787777384,0.023474915787777384,0.023474915787777384,0.9336920018812845,0.9336920018812845,0.9336920018812845,0.9336920018812845,0.0,0.0,0.0,0.0
160746000000,2055,160746000000,,BL_TO_BASELINK,BR_TO_BASELINK,FL_TO_BASELINK,FR_TO_BASELINK,0.024408607778920732,0.024408607778920732,0.024408607778920732,0.024408607778920732,0.9336920029106243,0.9336920029106242,0.9336920029106242,0.9336920029106242,0.0,0.0,0.0,0.0
160747000000,2056,160747000000,,BL_TO_BASELINK,BR_TO_BASELINK,FL_TO_BASELINK,FR_TO_BASELINK,0.02534229977362301,0.02534229977362301,0.02534229977362301,0.02534229977362301,0.9336920014479247,0.9336920014479247,0.9336920014479247,0.9336920014479247,0.0,0.0,0.0,0.0
160748000000,2057,160748000000,,BL_TO_BASELINK,BR_TO_BASELINK,FL_TO_BASELINK,FR_TO_BASELINK,0.026275991769360907,0.026275991769360907,0.026275991769360907,0.026275991769360907,0.9336920023654053,0.9336920023654053,0.9336920023654053,0.9336920023654053,0.0,0.0,0.0,0.0
160749000000,2058,160749000000,,BL_TO_BASELINK,BR_TO_BASELINK,FL_TO_BASELINK,FR_TO_BASELINK,0.027209683769436666,0.027209683769436666,0.027209683769436666,0.027209683769436666,0.9336920015279532,0.9336920015279532,0.9336920015279532,0.9336920015279532,0.0,0.0,0.0,0.0
160750000000,2059,160750000000,,BL_TO_BASELINK,BR_TO_BASELINK,FL_TO_BASELINK,FR_TO_BASELINK,0.028143375753754363,0.028143375753754363,0.028143375753754363,0.028143375753754363,0.9336921176239705,0.9336921176239705,0.9336921176239705,0.9336921176239705,0.0,0.0,0.0,0.0
160751000000,2060,160751000000,,BL_TO_BASELINK,BR_TO_BASELINK,FL_TO_BASELINK,FR_TO_BASELINK,0.02907706765094975,0.02907706765094975,0.02907706765094975,0.02907706765094975,0.9336921245074641,0.9336921245074641,0.9336921245074643,0.9336921245074641,0.0,0.0,0.0,0.0
160752000000,2061,160752000000,,BL_TO_BASELINK,BR_TO_BASELINK,FL_TO_BASELINK,FR_TO_BASELINK,0.030010759686358135,0.030010759686358135,0.030010759686358135,0.030010759686358135,0.9336921249154924,0.9336921249154924,0.9336921249154924,0.9336921249154924,0.0,0.0,0.0,0.0
160753000000,2062,160753000000,,BL_TO_BASELINK,BR_TO_BASELINK,FL_TO_BASELINK,FR_TO_BASELINK,0.030944451671928164,0.030944451671928164,0.030944451671928164,0.030944451671928164,0.9336921254680443,0.9336921254680443,0.9336921254680443,0.9336921254680443,0.0,0.0,0.0,0.0
160754000000,2063,160754000000,,BL_TO_BASELINK,BR_TO_BASELINK,FL_TO_BASELINK,FR_TO_BASELINK,0.03187814375702125,0.03187814375702125,0.03187814375702125,0.03187814375702125,0.9336921255733597,0.9336921255733597,0.9336921255733597,0.9336921255733597,0.0,0.0,0.0,0.0
160755000000,2064,160755000000,,BL_TO_BASELINK,BR_TO_BASELINK,FL_TO_BASELINK,FR_TO_BASELINK,0.03281183580102365,0.03281183580102365,0.03281183580102365,0.03281183580102365,0.9336921256719377,0.9336921256719377,0.9336921256719377,0.9336921256719377,0.0,0.0,0.0,0.0
160756000000,2065,160756000000,,BL_TO_BASELINK,BR_TO_BASELINK,FL_TO_BASELINK,FR_TO_BASELINK,0.033745527787028884,0.033745527787028884,0.033745527787028884,0.033745527787028884,0.9336921258329085,0.9336921258329085,0.9336921258329085,0.9336921258329085,0.0,0.0,0.0,0.0
160757000000,2066,160757000000,,BL_TO_BASELINK,BR_TO_BASELINK,FL_TO_BASELINK,FR_TO_BASELINK,0.03467921986836675,0.03467921986836675,0.03467921986836675,0.03467921986836675,0.9336921259763166,0.9336921259763166,0.9336921259763166,0.9336921259763166,0.0,0.0,0.0,0.0
160758000000,2067,160758000000,,BL_TO_BASELINK,BR_TO_BASELINK,FL_TO_BASELINK,FR_TO_BASELINK,0.03561291190674343,0.03561291190674343,0.03561291190674343,0.03561291190674343,0.9336921258587334,0.9336921258587334,0.9336921258587334,0.9336921258587334,0.0,0.0,0.0,0.0
160759000000,2068,160759000000,,BL_TO_BASELINK,BR_TO_BASELINK,FL_TO_BASELINK,FR_TO_BASELINK,0.03654660400714249,0.03654660400714249,0.03654660400714249,0.03654660400714249,0.9336921259450757,0.9336921259450757,0.9336921259450757,0.9336921259450754,0.0,0.0,0.0,0.0
160760000000,2069,160760000000,,BL_TO_BASELINK,BR_TO_BASELINK,FL_TO_BASELINK,FR_TO_BASELINK,0.0374802960699947,0.0374802960699947,0.0374802960699947,0.0374802960699947,0.9336921257689834,0.9336921257689834,0.9336921257689835,0.9336921257689834,0.0,0.0,0.0,0.0
160761000000,2070,160761000000,,BL_TO_BASELINK,BR_TO_BASELINK,FL_TO_BASELINK,FR_TO_BASELINK,0.03841398817496611,0.03841398817496611,0.03841398817496611,0.03841398817496611,0.9336921259551781,0.9336921259551781,0.9336921259551781,0.9336921259551781,0.0,0.0,0.0,0.0
160762000000,2071,160762000000,,BL_TO_BASELINK,BR_TO_BASELINK,FL_TO_BASELINK,FR_TO_BASELINK,0.03934768024180535,0.03934768024180535,0.03934768024180535,0.03934768024180535,0.9336921259192128,0.9336921259192128,0.9336921259192128,0.9336921259192128,0.0,0.0,0.0,0.0
160763000000,2072,160763000000,,BL_TO_BASELINK,BR_TO_BASELINK,FL_TO_BASELINK,FR_TO_BASELINK,0.040281372268363924,0.040281372268363924,0.040281372268363924,0.040281372268363924,0.9336921048345955,0.9336921048345955,0.9336921048345955,0.9336921048345955,0.0,0.0,0.0,0.0
160764000000,2073,160764000000,,BL_TO_BASELINK,BR_TO_BASELINK,FL_TO_BASELINK,FR_TO_BASELINK,0.04121506425958987,0.04121506425958987,0.04121506425958987,0.04121506425958987,0.9336920261773796,0.9336920261773798,0.9336920261773798,0.9336920261773798,0.0,0.0,0.0,0.0
160765000000,2074,160765000000,,BL_TO_BASELINK,BR_TO_BASELINK,FL_TO_BASELINK,FR_TO_BASELINK,0.04214875625381609,0.04214875625381609,0.04214875625381609,0.04214875625381609,0.9336920066014083,0.9336920066014083,0.9336920066014083,0.9336920066014083,0.0,0.0,0.0,0.0
160766000000,2075,160766000000,,BL_TO_BASELINK,BR_TO_BASELINK,FL_TO_BASELINK,FR_TO_BASELINK,0.043082448250888916,0.043082448250888916,0.043082448250888916,0.043082448250888916,0.933692004636832,0.933692004636832,0.933692004636832,0.9336920046368321,0.0,0.0,0.0,0.0
160767000000,2076,160767000000,,BL_TO_BASELINK,BR_TO_BASELINK,FL_TO_BASELINK,FR_TO_BASELINK,0.04401614025476697,0.04401614025476697,0.04401614025476697,0.04401614025476697,0.9336920026033886,0.9336920026033886,0.9336920026033886,0.9336920026033886,0.0,0.0,0.0,0.0
160768000000,2077,160768000000,,BL_TO_BASELINK,BR_TO_BASELINK,FL_TO_BASELINK,FR_TO_BASELINK,0.04494983226019933,0.04494983226019933,0.04494983226019933,0.04494983226019933,0.9336920029778193,0.9336920029778193,0.9336920029778193,0.9336920029778193,0.0,0.0,0.0,0.0
160769000000,2078,160769000000,,BL_TO_BASELINK,BR_TO_BASELINK,FL_TO_BASELINK,FR_TO_BASELINK,0.04588352427136577,0.04588352427136577,0.04588352427136577,0.04588352427136577,0.9336920009384024,0.9336920009384024,0.9336920009384024,0.9336920009384024,0.0,0.0,0.0,0.0
160770000000,2079,160770000000,,BL_TO_BASELINK,BR_TO_BASELINK,FL_TO_BASELINK,FR_TO_BASELINK,0.04681721628351543,0.04681721628351543,0.04681721628351543,0.04681721628351543,0.9336920034144813,0.9336920034144813,0.9336920034144813,0.9336920034144813,0.0,0.0,0.0,0.0
160771000000,2080,160771000000,,BL_TO_BASELINK,BR_TO_BASELINK,FL_TO_BASELINK,FR_TO_BASELINK,0.04775090829850459,0.04775090829850459,0.04775090829850459,0.04775090829850459,0.9336919999053818,0.9336919999053818,0.9336919999053818,0.9336919999053818,0.0,0.0,0.0,0.0
160772000000,2081,160772000000,,BL_TO_BASELINK,BR_TO_BASELINK,FL_TO_BASELINK,FR_TO_BASELINK,0.04868460031333122,0.04868460031333122,0.04868460031333122,0.04868460031333122,0.9336920039534448,0.9336920039534448,0.9336920039534448,0.9336920039534446,0.0,0.0,0.0,0.0
160773000000,2082,160773000000,,BL_TO_BASELINK,BR_TO_BASELINK,FL_TO_BASELINK,FR_TO_BASELINK,0.04961829232904158,0.04961829232904158,0.04961829232904158,0.04961829232904158,0.9336919995783329,0.9336919995783329,0.9336919995783329,0.9336919995783329,0.0,0.0,0.0,0.0
160774000000,2083,160774000000,,BL_TO_BASELINK,BR_TO_BASELINK,FL_TO_BASELINK,FR_TO_BASELINK,0.05055198434389574,0.05055198434389574,0.05055198434389574,0.05055198434389574,0.9336920045711354,0.9336920045711353,0.9336920045711353,0.9336920045711353,0.0,0.0,0.0,0.0
160775000000,2084,160775000000,,BL_TO_BASELINK,BR_TO_BASELINK,FL_TO_BASELINK,FR_TO_BASELINK,0.05148567635871526,0.05148567635871526,0.05148567635871526,0.05148567635871526,0.9336919998314905,0.9336919998314905,0.9336919998314905,0.9336919998314905,0.0,0.0,0.0,0.0
160776000000,2085,160776000000,,BL_TO_BASELINK,BR_TO_BASELINK,FL_TO_BASELINK,FR_TO_BASELINK,0.05241936837191741,0.05241936837191741,0.05241936837191741,0.05241936837191741,0.9336920048784976,0.9336920048784976,0.9336920048784976,0.9336920048784976,0.0,0.0,0.0,0.0
160777000000,2086,160777000000,,BL_TO_BASELINK,BR_TO_BASELINK,FL_TO_BASELINK,FR_TO_BASELINK,0.05335306038435661,0.05335306038435661,0.05335306038435661,0.05335306038435661,0.9336920005243562,0.9336920005243562,0.9336920005243562,0.9336920005243562,0.0,0.0,0.0,0.0
160778000000,2087,160778000000,,BL_TO_BASELINK,BR_TO_BASELINK,FL_TO_BASELINK,FR_TO_BASELINK,0.05428675239381153,0.05428675239381153,0.05428675239381153,0.05428675239381153,0.9336920048128399,0.9336920048128399,0.9336920048128399,0.9336920048128399,0.0,0.0,0.0,0.0
160779000000,2088,160779000000,,BL_TO_BASELINK,BR_TO_BASELINK,FL_TO_BASELINK,FR_TO_BASELINK,0.055220444402115376,0.055220444402115376,0.055220444402115376,0.055220444402115376,0.9336920014788268,0.9336920014788268,0.9336920014788269,0.9336920014788269,0.0,0.0,0.0,0.0
160780000000,2089,160780000000,,BL_TO_BASELINK,BR_TO_BASELINK,FL_TO_BASELINK,FR_TO_BASELINK,0.05615413640391065,0.05615413640391065,0.05615413640391065,0.05615413640391065,0.9336920029323573,0.9336920029323573,0.9336920029323573,0.9336920029323572,0.0,0.0,0.0,0.0
160781000000,2090,160781000000,,BL_TO_BASELINK,BR_TO_BASELINK,FL_TO_BASELINK,FR_TO_BASELINK,0.0570878284044003,0.0570878284044003,0.0570878284044003,0.0570878284044003,0.9336920029232239,0.9336920029232239,0.9336920029232239,0.933692002923224,0.0,0.0,0.0,0.0
160782000000,2091,160782000000,,BL_TO_BASELINK,BR_TO_BASELINK,FL_TO_BASELINK,FR_TO_BASELINK,0.05802152039742303,0.05802152039742303,0.05802152039742303,0.05802152039742303,0.9336920022654475,0.9336920022654475,0.9336920022654475,0.9336920022654475,0.0,0.0,0.0,0.0
160783000000,2092,160783000000,,BL_TO_BASELINK,BR_TO_BASELINK,FL_TO_BASELINK,FR_TO_BASELINK,0.05895521239037649,0.05895521239037649,0.05895521239037649,0.05895521239037649,0.9336920033545254,0.9336920033545255,0.9336920033545254,0.9336920033545254,0.0,0.0,0.0,0.0
160784000000,2093,160784000000,,BL_TO_BASELINK,BR_TO_BASELINK,FL_TO_BASELINK,FR_TO_BASELINK,0.05988890437589145,0.05988890437589145,0.05988890437589145,0.05988890437589145,0.9336920016314247,0.9336920016314247,0.9336920016314247,0.9336920016314247,0.0,0.0,0.0,0.0
160785000000,2094,160785000000,,BL_TO_BASELINK,BR_TO_BASELINK,FL_TO_BASELINK,FR_TO_BASELINK,0.06082259636328757,0.06082259636328757,0.06082259636328757,0.06082259636328757,0.9336920037475767,0.9336920037475767,0.9336920037475765,0.9336920037475765,0.0,0.0,0.0,0.0
160786000000,2095,160786000000,,BL_TO_BASELINK,BR_TO_BASELINK,FL_TO_BASELINK,FR_TO_BASELINK,0.061756288344257726,0.061756288344257726,0.061756288344257726,0.061756288344257726,0.9336920008635711,0.9336920008635711,0.9336920008635711,0.9336920008635711,0.0,0.0,0.0,0.0
160787000000,2096,160787000000,,BL_TO_BASELINK,BR_TO_BASELINK,FL_TO_BASELINK,FR_TO_BASELINK,0.06268998032987305,0.06268998032987305,0.06268998032987305,0.06268998032987305,0.9336920041175599,0.9336920041175599,0.9336920041175599,0.9336920041175599,0.0,0.0,0.0,0.0
160788000000,2097,160788000000,,BL_TO_BASELINK,BR_TO_BASELINK,FL_TO_BASELINK,FR_TO_BASELINK,0.06362367231057497,0.06362367231057497,0.06362367231057497,0.06362367231057497,0.9336920001170813,0.9336920001170813,0.9336920001170813,0.9336920001170813,0.0,0.0,0.0,0.0
160789000000,2098,160789000000,,BL_TO_BASELINK,BR_TO_BASELINK,FL_TO_BASELINK,FR_TO_BASELINK,0.06455736429837788,0.06455736429837788,0.06455736429837788,0.06455736429837788,0.9336920043220477,0.9336920043220477,0.9336920043220477,0.9336920043220477,0.0,0.0,0.0,0.0
160790000000,2099,160790000000,,BL_TO_BASELINK,BR_TO_BASELINK,FL_TO_BASELINK,FR_TO_BASELINK,0.0654910562827542,0.0654910562827542,0.0654910562827542,0.0654910562827542,0.9336919997058281,0.9336919997058281,0.9336919997058281,0.9336919997058281,0.0,0.0,0.0,0.0
160791000000,2100,160791000000,,BL_TO_BASELINK,BR_TO_BASELINK,FL_TO_BASELINK,FR_TO_BASELINK,0.06642474827598832,0.06642474827598832,0.06642474827598832,0.06642474827598832,0.9336920042885936,0.9336920042885936,0.9336920042885936,0.9336920042885936,0.0,0.0,0.0,0.0
160792000000,2101,160792000000,,BL_TO_BASELINK,BR_TO_BASELINK,FL_TO_BASELINK,FR_TO_BASELINK,0.0673584402468057,0.0673584402468057,0.0673584402468057,0.0673584402468057,0.933692116923878,0.933692116923878,0.933692116923878,0.933692116923878,0.0,0.0,0.0,0.0
160793000000,2102,160793000000,,BL_TO_BASELINK,BR_TO_BASELINK,FL_TO_BASELINK,FR_TO_BASELINK,0.06829213217630148,0.06829213217630148,0.06829213217630148,0.06829213217630148,0.9336921062120562,0.9336921062120562,0.9336921062120562,0.9336921062120562,0.0,0.0,0.0,0.0
160794000000,2103,160794000000,,BL_TO_BASELINK,BR_TO_BASELINK,FL_TO_BASELINK,FR_TO_BASELINK,0.06922582407939704,0.06922582407939704,0.06922582407939704,0.06922582407939704,0.9336920194415481,0.9336920194415481,0.9336920194415481,0.9336920194415481,0.0,0.0,0.0,0.0
160795000000,2104,160795000000,,BL_TO_BASELINK,BR_TO_BASELINK,FL_TO_BASELINK,FR_TO_BASELINK,0.07015951600798953,0.07015951600798953,0.07015951600798953,0.07015951600798953,0.933692011112021,0.933692011112021,0.933692011112021,0.933692011112021,0.0,0.0,0.0,0.0
160796000000,2105,160796000000,,BL_TO_BASELINK,BR_TO_BASELINK,FL_TO_BASELINK,FR_TO_BASELINK,0.07109320794642393,0.07109320794642393,0.07109320794642393,0.07109320794642393,0.9336919994691864,0.9336919994691864,0.9336919994691864,0.9336919994691864,0.0,0.0,0.0,0.0
160797000000,2106,160797000000,,BL_TO_BASELINK,BR_TO_BASELINK,FL_TO_BASELINK,FR_TO_BASELINK,0.07202689991160938,0.07202689991160938,0.07202689991160938,0.07202689991160938,0.9336920054695925,0.9336920054695925,0.9336920054695925,0.9336920054695925,0.0,0.0,0.0,0.0
160798000000,2107,160798000000,,BL_TO_BASELINK,BR_TO_BASELINK,FL_TO_BASELINK,FR_TO_BASELINK,0.07296059188318793,0.07296059188318793,0.07296059188318793,0.07296059188318793,0.9336920019792336,0.9336920019792336,0.9336920019792336,0.9336920019792336,0.0,0.0,0.0,0.0
160799000000,2108,160799000000,,BL_TO_BASELINK,BR_TO_BASELINK,FL_TO_BASELINK,FR_TO_BASELINK,0.07389428386960883,0.07389428386960883,0.07389428386960883,0.07389428386960883,0.9336920033920161,0.9336920033920161,0.9336920033920161,0.9336920033920161,0.0,0.0,0.0,0.0
160800000000,2109,160800000000,,BL_TO_BASELINK,BR_TO_BASELINK,FL_TO_BASELINK,FR_TO_BASELINK,0.07482797585983203,0.07482797585983203,0.07482797585983203,0.07482797585983203,0.9336920023068415,0.9336920023068415,0.9336920023068415,0.9336920023068415,0.0,0.0,0.0,0.0
160801000000,2110,160801000000,,BL_TO_BASELINK,BR_TO_BASELINK,FL_TO_BASELINK,FR_TO_BASELINK,0.07576166786072402,0.07576166786072402,0.07576166786072402,0.07576166786072402,0.9336920030739615,0.9336920030739616,0.9336920030739616,0.9336920030739615,0.0,0.0,0.0,0.0
160802000000,2111,160802000000,,BL_TO_BASELINK,BR_TO_BASELINK,FL_TO_BASELINK,FR_TO_BASELINK,0.07669535986452836,0.07669535986452836,0.07669535986452836,0.07669535986452836,0.9336920027813164,0.9336920027813164,0.9336920027813164,0.9336920027813164,0.0,0.0,0.0,0.0
160803000000,2112,160803000000,,BL_TO_BASELINK,BR_TO_BASELINK,FL_TO_BASELINK,FR_TO_BASELINK,0.0776290518773628,0.0776290518773628,0.0776290518773628,0.0776290518773628,0.9336920028894089,0.9336920028894089,0.9336920028894089,0.9336920028894089,0.0,0.0,0.0,0.0
160804000000,2113,160804000000,,BL_TO_BASELINK,BR_TO_BASELINK,FL_TO_BASELINK,FR_TO_BASELINK,0.07856274389305984,0.07856274389305984,0.07856274389305984,0.07856274389305984,0.9336920029744,0.9336920029744,0.9336920029743999,0.9336920029743999,0.0,0.0,0.0,0.0
160805000000,2114,160805000000,,BL_TO_BASELINK,BR_TO_BASELINK,FL_TO_BASELINK,FR_TO_BASELINK,0.07949643591560829,0.07949643591560829,0.07949643591560829,0.07949643591560829,0.933692002416976,0.933692002416976,0.933692002416976,0.933692002416976,0.0,0.0,0.0,0.0
160806000000,2115,160806000000,,BL_TO_BASELINK,BR_TO_BASELINK,FL_TO_BASELINK,FR_TO_BASELINK,0.08043012793912663,0.08043012793912663,0.08043012793912663,0.08043012793912663,0.9336920031917973,0.9336920031917973,0.9336920031917973,0.9336920031917973,0.0,0.0,0.0,0.0
160807000000,2116,160807000000,,BL_TO_BASELINK,BR_TO_BASELINK,FL_TO_BASELINK,FR_TO_BASELINK,0.08136381996506614,0.08136381996506614,0.08136381996506614,0.08136381996506614,0.9336920015083835,0.9336920015083835,0.9336920015083835,0.9336920015083835,0.0,0.0,0.0,0.0
160808000000,2117,160808000000,,BL_TO_BASELINK,BR_TO_BASELINK,FL_TO_BASELINK,FR_TO_BASELINK,0.0822975119884859,0.0822975119884859,0.0822975119884859,0.0822975119884859,0.9336920033855591,0.9336920033855591,0.9336920033855591,0.9336920033855591,0.0,0.0,0.0,0.0
160809000000,2118,160809000000,,BL_TO_BASELINK,BR_TO_BASELINK,FL_TO_BASELINK,FR_TO_BASELINK,0.08323120401120221,0.08323120401120221,0.08323120401120221,0.08323120401120221,0.9336920011795797,0.9336920011795797,0.9336920011795797,0.9336920011795797,0.0,0.0,0.0,0.0
160810000000,2119,160810000000,,BL_TO_BASELINK,BR_TO_BASELINK,FL_TO_BASELINK,FR_TO_BASELINK,0.08416489603048838,0.08416489603048838,0.08416489603048838,0.08416489603048838,0.9336920037782677,0.9336920037782678,0.9336920037782677,0.9336920037782678,0.0,0.0,0.0,0.0
160811000000,2120,160811000000,,BL_TO_BASELINK,BR_TO_BASELINK,FL_TO_BASELINK,FR_TO_BASELINK,0.08509858804783565,0.08509858804783565,0.08509858804783565,0.08509858804783565,0.9336920011843128,0.9336920011843128,0.9336920011843128,0.9336920011843128,0.0,0.0,0.0,0.0
160812000000,2121,160812000000,,BL_TO_BASELINK,BR_TO_BASELINK,FL_TO_BASELINK,FR_TO_BASELINK,0.08603228006156804,0.08603228006156804,0.08603228006156804,0.08603228006156804,0.9336920041643738,0.9336920041643738,0.9336920041643738,0.9336920041643738,0.0,0.0,0.0,0.0
160813000000,2122,160813000000,,BL_TO_BASELINK,BR_TO_BASELINK,FL_TO_BASELINK,FR_TO_BASELINK,0.0869659720719973,0.0869659720719973,0.0869659720719973,0.0869659720719973,0.9336920015248904,0.9336920015248904,0.9336920015248904,0.9336920015248904,0.0,0.0,0.0,0.0
160814000000,2123,160814000000,,BL_TO_BASELINK,BR_TO_BASELINK,FL_TO_BASELINK,FR_TO_BASELINK,0.08789966407888627,0.08789966407888627,0.08789966407888627,0.08789966407888627,0.9336920043646421,0.9336920043646421,0.9336920043646421,0.9336920043646421,0.0,0.0,0.0,0.0
160815000000,2124,160815000000,,BL_TO_BASELINK,BR_TO_BASELINK,FL_TO_BASELINK,FR_TO_BASELINK,0.08883335608235043,0.08883335608235043,0.08883335608235043,0.08883335608235043,0.9336920019857164,0.9336920019857164,0.9336920019857164,0.9336920019857164,0.0,0.0,0.0,0.0
160816000000,2125,160816000000,,BL_TO_BASELINK,BR_TO_BASELINK,FL_TO_BASELINK,FR_TO_BASELINK,0.08976704808158598,0.08976704808158598,0.08976704808158598,0.08976704808158598,0.933692003965015,0.933692003965015,0.933692003965015,0.933692003965015,0.0,0.0,0.0,0.0
160817000000,2126,160817000000,,BL_TO_BASELINK,BR_TO_BASELINK,FL_TO_BASELINK,FR_TO_BASELINK,0.09070074007915174,0.09070074007915174,0.09070074007915174,0.09070074007915174,0.9336920024704402,0.9336920024704402,0.9336920024704402,0.9336920024704402,0.0,0.0,0.0,0.0
160818000000,2127,160818000000,,BL_TO_BASELINK,BR_TO_BASELINK,FL_TO_BASELINK,FR_TO_BASELINK,0.09163443207187161,0.09163443207187161,0.09163443207187161,0.09163443207187161,0.9336920031105576,0.9336920031105576,0.9336920031105576,0.9336920031105576,0.0,0.0,0.0,0.0
160819000000,2128,160819000000,,BL_TO_BASELINK,BR_TO_BASELINK,FL_TO_BASELINK,FR_TO_BASELINK,0.09256812406456749,0.09256812406456749,0.09256812406456749,0.09256812406456749,0.933692003105286,0.933692003105286,0.933692003105286,0.933692003105286,0.0,0.0,0.0,0.0
160820000000,2129,160820000000,,BL_TO_BASELINK,BR_TO_BASELINK,FL_TO_BASELINK,FR_TO_BASELINK,0.09350181605235619,0.09350181605235619,0.09350181605235619,0.09350181605235619,0.9336920021877809,0.9336920021877809,0.9336920021877809,0.9336920021877809,0.0,0.0,0.0,0.0
160821000000,2130,160821000000,,BL_TO_BASELINK,BR_TO_BASELINK,FL_TO_BASELINK,FR_TO_BASELINK,0.0944355080438859,0.0944355080438859,0.0944355080438859,0.0944355080438859,0.9336920797926821,0.9336920797926821,0.9336920797926821,0.9336920797926821,0.0,0.0,0.0,0.0
160822000000,2131,160822000000,,BL_TO_BASELINK,BR_TO_BASELINK,FL_TO_BASELINK,FR_TO_BASELINK,0.09536919995782167,0.09536919995782167,0.09536919995782167,0.09536919995782167,0.9336921219545395,0.9336921219545395,0.9336921219545395,0.9336921219545395,0.0,0.0,0.0,0.0
160823000000,2132,160823000000,,BL_TO_BASELINK,BR_TO_BASELINK,FL_TO_BASELINK,FR_TO_BASELINK,0.0963028919885156,0.0963028919885156,0.0963028919885156,0.0963028919885156,0.9336921257820683,0.9336921257820683,0.9336921257820683,0.9336921257820683,0.0,0.0,0.0,0.0
160824000000,2133,160824000000,,BL_TO_BASELINK,BR_TO_BASELINK,FL_TO_BASELINK,FR_TO_BASELINK,0.09723658394490631,0.09723658394490631,0.09723658394490631,0.09723658394490631,0.9336921251411401,0.9336921251411401,0.9336921251411401,0.9336921251411401,0.0,0.0,0.0,0.0
160825000000,2134,160825000000,,BL_TO_BASELINK,BR_TO_BASELINK,FL_TO_BASELINK,FR_TO_BASELINK,0.09817027593975158,0.09817027593975158,0.09817027593975158,0.09817027593975158,0.9336920906642592,0.9336920906642592,0.9336920906642592,0.9336920906642592,0.0,0.0,0.0,0.0
160826000000,2135,160826000000,,BL_TO_BASELINK,BR_TO_BASELINK,FL_TO_BASELINK,FR_TO_BASELINK,0.0991039679118968,0.0991039679118968,0.0991039679118968,0.0991039679118968,0.9336920181030545,0.9336920181030545,0.9336920181030542,0.9336920181030542,0.0,0.0,0.0,0.0
160827000000,2136,160827000000,,BL_TO_BASELINK,BR_TO_BASELINK,FL_TO_BASELINK,FR_TO_BASELINK,0.10003765989594537,0.10003765989594537,0.10003765989594537,0.10003765989594537,0.9336920079337573,0.9336920079337573,0.9336920079337573,0.9336920079337573,0.0,0.0,0.0,0.0
160828000000,2137,160828000000,,BL_TO_BASELINK,BR_TO_BASELINK,FL_TO_BASELINK,FR_TO_BASELINK,0.1009713518864066,0.1009713518864066,0.1009713518864066,0.1009713518864066,0.9336920011371855,0.9336920011371855,0.9336920011371855,0.9336920011371855,0.0,0.0,0.0,0.0
160829000000,2138,160829000000,,BL_TO_BASELINK,BR_TO_BASELINK,FL_TO_BASELINK,FR_TO_BASELINK,0.10190504389083088,0.10190504389083088,0.10190504389083088,0.10190504389083088,0.9336920048289198,0.9336920048289198,0.9336920048289198,0.9336920048289198,0.0,0.0,0.0,0.0
160830000000,2139,160830000000,,BL_TO_BASELINK,BR_TO_BASELINK,FL_TO_BASELINK,FR_TO_BASELINK,0.10283873589936832,0.10283873589936832,0.10283873589936832,0.10283873589936832,0.933692001310911,0.933692001310911,0.9336920013109109,0.9336920013109109,0.0,0.0,0.0,0.0
160831000000,2140,160831000000,,BL_TO_BASELINK,BR_TO_BASELINK,FL_TO_BASELINK,FR_TO_BASELINK,0.10377242791743235,0.10377242791743235,0.10377242791743235,0.10377242791743235,0.9336920037168441,0.9336920037168441,0.933692003716844,0.933692003716844,0.0,0.0,0.0,0.0
160832000000,2141,160832000000,,BL_TO_BASELINK,BR_TO_BASELINK,FL_TO_BASELINK,FR_TO_BASELINK,0.10470611995092671,0.10470611995092671,0.10470611995092671,0.10470611995092671,0.9336920762596761,0.9336920762596761,0.9336920762596761,0.9336920762596761,0.0,0.0,0.0,0.0
160833000000,2142,160833000000,,BL_TO_BASELINK,BR_TO_BASELINK,FL_TO_BASELINK,FR_TO_BASELINK,0.10563981197025463,0.10563981197025463,0.10563981197025463,0.10563981197025463,0.9336920913869547,0.9336920913869547,0.9336920913869547,0.9336920913869547,0.0,0.0,0.0,0.0
160834000000,2143,160834000000,,BL_TO_BASELINK,BR_TO_BASELINK,FL_TO_BASELINK,FR_TO_BASELINK,0.1065735039615312,0.1065735039615312,0.1065735039615312,0.1065735039615312,0.9336920224313513,0.9336920224313513,0.9336920224313513,0.9336920224313513,0.0,0.0,0.0,0.0
160835000000,2144,160835000000,,BL_TO_BASELINK,BR_TO_BASELINK,FL_TO_BASELINK,FR_TO_BASELINK,0.10750719595496783,0.10750719595496783,0.10750719595496872,0.10750719595496872,0.9336920052638105,0.9336920052638105,0.9336920052638105,0.9336920052638105,0.0,0.0,0.0,0.0
160836000000,2145,160836000000,,BL_TO_BASELINK,BR_TO_BASELINK,FL_TO_BASELINK,FR_TO_BASELINK,0.10844088795345552,0.10844088795345552,0.10844088795345552,0.10844088795345552,0.9336920040895593,0.9336920040895593,0.9336920040895593,0.9336920040895593,0.0,0.0,0.0,0.0
160837000000,2146,160837000000,,BL_TO_BASELINK,BR_TO_BASELINK,FL_TO_BASELINK,FR_TO_BASELINK,0.10937457996004163,0.10937457996004163,0.10937457996004163,0.10937457996004163,0.9336920021691784,0.9336920021691784,0.9336920021691784,0.9336920021691784,0.0,0.0,0.0,0.0
160838000000,2147,160838000000,,BL_TO_BASELINK,BR_TO_BASELINK,FL_TO_BASELINK,FR_TO_BASELINK,0.11030827197154291,0.11030827197154291,0.11030827197154291,0.11030827197154291,0.9336920034890674,0.9336920034890674,0.9336920034890674,0.9336920034890674,0.0,0.0,0.0,0.0
160839000000,2148,160839000000,,BL_TO_BASELINK,BR_TO_BASELINK,FL_TO_BASELINK,FR_TO_BASELINK,0.11124196398885466,0.11124196398885466,0.11124196398885466,0.11124196398885466,0.9336920017053693,0.9336920017053693,0.9336920017053693,0.9336920017053693,0.0,0.0,0.0,0.0
160840000000,2149,160840000000,,BL_TO_BASELINK,BR_TO_BASELINK,FL_TO_BASELINK,FR_TO_BASELINK,0.11217565600870039,0.11217565600870039,0.11217565600870039,0.11217565600870039,0.9336920035577304,0.9336920035577304,0.9336920035577304,0.9336920035577304,0.0,0.0,0.0,0.0
160841000000,2150,160841000000,,BL_TO_BASELINK,BR_TO_BASELINK,FL_TO_BASELINK,FR_TO_BASELINK,0.11310934803101791,0.11310934803101791,0.11310934803101791,0.11310934803101791,0.9336920014345832,0.9336920014345832,0.9336920014345832,0.9336920014345832,0.0,0.0,0.0,0.0
160842000000,2151,160842000000,,BL_TO_BASELINK,BR_TO_BASELINK,FL_TO_BASELINK,FR_TO_BASELINK,0.11404304005092403,0.11404304005092403,0.11404304005092403,0.11404304005092403,0.9336921194373908,0.9336921194373908,0.9336921194373908,0.9336921194373908,0.0,0.0,0.0,0.0
160843000000,2152,160843000000,,BL_TO_BASELINK,BR_TO_BASELINK,FL_TO_BASELINK,FR_TO_BASELINK,0.11497673204072623,0.11497673204072623,0.11497673204072623,0.11497673204072623,0.9336920463479819,0.9336920463479819,0.9336920463479819,0.9336920463479819,0.0,0.0,0.0,0.0
160844000000,2153,160844000000,,BL_TO_BASELINK,BR_TO_BASELINK,FL_TO_BASELINK,FR_TO_BASELINK,0.11591042401088725,0.11591042401088725,0.11591042401088725,0.11591042401088725,0.9336919984952434,0.9336919984952434,0.9336919984952434,0.9336919984952434,0.0,0.0,0.0,0.0
160845000000,2154,160845000000,,BL_TO_BASELINK,BR_TO_BASELINK,FL_TO_BASELINK,FR_TO_BASELINK,0.1168441159987772,0.1168441159987772,0.1168441159987772,0.1168441159987772,0.9336920116800856,0.9336920116800856,0.9336920116800856,0.9336920116800856,0.0,0.0,0.0,0.0
160846000000,2155,160846000000,,BL_TO_BASELINK,BR_TO_BASELINK,FL_TO_BASELINK,FR_TO_BASELINK,0.11777780798520787,0.11777780798520787,0.11777780798520787,0.11777780798520787,0.9336919961911045,0.9336919961911045,0.9336919961911045,0.9336919961911045,0.0,0.0,0.0,0.0
160847000000,2156,160847000000,,BL_TO_BASELINK,BR_TO_BASELINK,FL_TO_BASELINK,FR_TO_BASELINK,0.11871149998831054,0.11871149998831054,0.11871149998831054,0.11871149998831054,0.9336920079003236,0.9336920079003237,0.9336920079003237,0.9336920079003237,0.0,0.0,0.0,0.0
160848000000,2157,160848000000,,BL_TO_BASELINK,BR_TO_BASELINK,FL_TO_BASELINK,FR_TO_BASELINK,0.119645191992241,0.119645191992241,0.119645191992241,0.119645191992241,0.9336919982182194,0.9336919982182194,0.9336919982182194,0.9336919982182194,0.0,0.0,0.0,0.0
160849000000,2158,160849000000,,BL_TO_BASELINK,BR_TO_BASELINK,FL_TO_BASELINK,FR_TO_BASELINK,0.12057888400839456,0.12057888400839456,0.12057888400839456,0.12057888400839456,0.9336920060577586,0.9336920060577586,0.9336920060577586,0.9336920060577586,0.0,0.0,0.0,0.0
160850000000,2159,160850000000,,BL_TO_BASELINK,BR_TO_BASELINK,FL_TO_BASELINK,FR_TO_BASELINK,0.12151257602426657,0.12151257602426657,0.12151257602426657,0.12151257602426657,0.9336919996860275,0.9336919996860275,0.9336919996860275,0.9336919996860275,0.0,0.0,0.0,0.0
160851000000,2160,160851000000,,BL_TO_BASELINK,BR_TO_BASELINK,FL_TO_BASELINK,FR_TO_BASELINK,0.12244626804718184,0.12244626804718184,0.12244626804718184,0.12244626804718184,0.9336920052849903,0.9336920052849903,0.9336920052849903,0.9336920052849903,0.0,0.0,0.0,0.0
160852000000,2161,160852000000,,BL_TO_BASELINK,BR_TO_BASELINK,FL_TO_BASELINK,FR_TO_BASELINK,0.12337996006477425,0.12337996006477425,0.12337996006477425,0.12337996006477425,0.9336921177138622,0.933692117713862,0.933692117713862,0.933692117713862,0.0,0.0,0.0,0.0
160853000000,2162,160853000000,,BL_TO_BASELINK,BR_TO_BASELINK,FL_TO_BASELINK,FR_TO_BASELINK,0.12431365199790534,0.12431365199790534,0.12431365199790534,0.12431365199790534,0.9336921255899843,0.9336921255899843,0.9336921255899843,0.9336921255899843,0.0,0.0,0.0,0.0
160854000000,2163,160854000000,,BL_TO_BASELINK,BR_TO_BASELINK,FL_TO_BASELINK,FR_TO_BASELINK,0.1252473440419113,0.1252473440419113,0.12524734404191218,0.12524734404191218,0.933692125027213,0.933692125027213,0.933692125027213,0.9336921250272129,0.0,0.0,0.0,0.0
160855000000,2164,160855000000,,BL_TO_BASELINK,BR_TO_BASELINK,FL_TO_BASELINK,FR_TO_BASELINK,0.12618103601797692,0.12618103601797692,0.12618103601797692,0.12618103601797692,0.933692125750552,0.933692125750552,0.933692125750552,0.933692125750552,0.0,0.0,0.0,0.0
160856000000,2165,160856000000,,BL_TO_BASELINK,BR_TO_BASELINK,FL_TO_BASELINK,FR_TO_BASELINK,0.12711472808725066,0.12711472808725066,0.12711472808725066,0.12711472808725066,0.9336921256352916,0.9336921256352916,0.9336921256352916,0.9336921256352916,0.0,0.0,0.0,0.0
160857000000,2166,160857000000,,BL_TO_BASELINK,BR_TO_BASELINK,FL_TO_BASELINK,FR_TO_BASELINK,0.12804842010115003,0.12804842010115003,0.12804842010115003,0.12804842010115003,0.9336921258501121,0.9336921258501121,0.9336921258501121,0.9336921258501121,0.0,0.0,0.0,0.0
160858000000,2167,160858000000,,BL_TO_BASELINK,BR_TO_BASELINK,FL_TO_BASELINK,FR_TO_BASELINK,0.12898211218904,0.12898211218904,0.12898211218904,0.12898211218904,0.9336921258400284,0.9336921258400284,0.9336921258400284,0.9336921258400284,0.0,0.0,0.0,0.0
160859000000,2168,160859000000,,BL_TO_BASELINK,BR_TO_BASELINK,FL_TO_BASELINK,FR_TO_BASELINK,0.12991580423017002,0.12991580423017002,0.12991580423017002,0.12991580423017002,0.9336921259144034,0.9336921259144034,0.9336921259144034,0.9336921259144034,0.0,0.0,0.0,0.0
160860000000,2169,160860000000,,BL_TO_BASELINK,BR_TO_BASELINK,FL_TO_BASELINK,FR_TO_BASELINK,0.13084949620008857,0.13084949620008857,0.13084949620008857,0.13084949620008857,0.9336921258874622,0.9336921258874622,0.9336921258874622,0.9336921258874622,0.0,0.0,0.0,0.0
160861000000,2170,160861000000,,BL_TO_BASELINK,BR_TO_BASELINK,FL_TO_BASELINK,FR_TO_BASELINK,0.13178318826434143,0.13178318826434143,0.13178318826434143,0.13178318826434143,0.9336921260056646,0.9336921260056648,0.9336921260056646,0.9336921260056646,0.0,0.0,0.0,0.0
160862000000,2171,160862000000,,BL_TO_BASELINK,BR_TO_BASELINK,FL_TO_BASELINK,FR_TO_BASELINK,0.13271688026845663,0.13271688026845663,0.13271688026845663,0.13271688026845663,0.9336921258462102,0.9336921258462102,0.9336921258462102,0.9336921258462102,0.0,0.0,0.0,0.0
160863000000,2172,160863000000,,BL_TO_BASELINK,BR_TO_BASELINK,FL_TO_BASELINK,FR_TO_BASELINK,0.13365057235075284,0.13365057235075284,0.13365057235075284,0.13365057235075284,0.9336921259656411,0.9336921259656411,0.9336921259656413,0.9336921259656413,0.0,0.0,0.0,0.0
160864000000,2173,160864000000,,BL_TO_BASELINK,BR_TO_BASELINK,FL_TO_BASELINK,FR_TO_BASELINK,0.13458426438275772,0.13458426438275772,0.13458426438275772,0.13458426438275772,0.9336921258610763,0.9336921258610763,0.9336921258610765,0.9336921258610765,0.0,0.0,0.0,0.0
160865000000,2174,160865000000,,BL_TO_BASELINK,BR_TO_BASELINK,FL_TO_BASELINK,FR_TO_BASELINK,0.13551795647825493,0.13551795647825493,0.13551795647825493,0.13551795647825493,0.9336921259552848,0.9336921259552848,0.9336921259552848,0.9336921259552848,0.0,0.0,0.0,0.0
