%time,field.header.seq,field.header.stamp,field.header.frame_id,field.wrench.force.x,field.wrench.force.y,field.wrench.force.z,field.wrench.torque.x,field.wrench.torque.y,field.wrench.torque.z
160616000000,0,160616000000,FL_wheel_link,-27.713795338645948,-8.256052706022967,6.111451702231524,0.003800350654356928,-0.03363918876568238,0.4227820479234981
160617000000,1,160617000000,FL_wheel_link,28.838787428125602,8.332369870824401,5.868450469903829,0.010743623240719601,0.03144530813012741,-0.4228322193036917
160618000000,2,160618000000,FL_wheel_link,-28.355939783427875,-8.234651724156953,6.7480837654652275,0.0037625439276065082,-0.03212218879429362,0.4230324423213734
160619000000,3,160619000000,FL_wheel_link,28.35767043938694,8.240198529330517,5.473186226098153,0.0053382464501946945,0.035996958573327846,-0.4228665731003246
160620000000,4,160620000000,FL_wheel_link,-28.9057487524894,-8.386415972874245,5.732326607160693,-0.004145720969718069,-0.030240805127078964,0.4227417476422214
160621000000,5,160621000000,FL_wheel_link,27.994195067323734,8.119968511528198,3.994777057307587,-0.0026015773787386007,0.03638726729706678,-0.42263195627849304
160622000000,6,160622000000,FL_wheel_link,-29.045145953183518,-8.477806551411232,4.687470023955798,-0.009086909582775232,-0.03166273791946908,0.42254167216737065
160623000000,7,160623000000,FL_wheel_link,28.23542608913466,8.089676177259875,3.2281218607730033,-0.004014308898277855,0.03362370997056023,-0.42274776148625376
160624000000,8,160624000000,FL_wheel_link,-28.5685625161937,-8.465800181540835,3.8299079002529264,-0.008993321365257585,-0.033806969886469376,0.4227686911260581
160625000000,9,160625000000,FL_wheel_link,28.615492781291678,8.187636806373048,3.5966963390785343,0.0016828566030427788,0.028868076703684756,-0.4227142012449642
160626000000,10,160626000000,FL_wheel_link,-27.902510318933995,-8.353048992676086,4.554236538126139,-0.0021055219664293245,-0.034697108139495995,0.42264342095093416
160627000000,11,160627000000,FL_wheel_link,28.95086359061518,8.307892654702103,5.088248963322696,0.009658243358425635,0.02870882010348731,-0.4227820834153945
160628000000,12,160628000000,FL_wheel_link,-27.935741482258695,-8.215025787051173,6.731313910644397,0.006174605532532627,-0.03438156073071451,0.42296075601018823
160629000000,13,160629000000,FL_wheel_link,28.937716486111587,8.329634091181084,6.146884866194104,0.010447157218610396,0.03452555721536757,-0.4231218025385566
160630000000,14,160630000000,FL_wheel_link,-28.634700359627132,-8.28139799061548,6.777187754080112,0.0016764161304061327,-0.03198281519854926,0.42311159492512734
160631000000,15,160631000000,FL_wheel_link,28.23319050092092,8.189162183739631,5.226588176325591,0.0019859273037383844,0.0377407002145652,-0.4227191763593176
160632000000,16,160632000000,FL_wheel_link,-29.152372210004202,-8.445117738938558,5.442578647642116,-0.0074145229201798305,-0.03147302256128401,0.42265620724218766
160633000000,17,160633000000,FL_wheel_link,28.09335946710741,8.078864505664324,3.7906799833682276,-0.004985453709946633,0.03774287925945556,-0.4225288789068471
160634000000,18,160634000000,FL_wheel_link,-29.136768778675602,-8.513882247941488,4.233420331730692,-0.010848157402500742,-0.035473048491213986,0.4223850546019207
160635000000,19,160635000000,FL_wheel_link,28.690707180462397,8.095273705007287,3.246931052479803,-0.002903738889780409,0.03468431865748888,-0.42268719205168137
160636000000,20,160636000000,FL_wheel_link,-28.541137973072086,-8.423822690181597,3.9426143201406485,-0.006805129060119967,-0.0372365523715913,0.4227741581093737
160637000000,21,160637000000,FL_wheel_link,29.02769211032065,8.246400537632553,3.900485176301143,0.005137805517885364,0.029873133598428765,-0.4227543443570573
160638000000,22,160638000000,FL_wheel_link,-27.912745257545637,-8.296400745014157,4.765563581170502,0.0008662875251467451,-0.03649419011474899,0.42273127094519064
160639000000,23,160639000000,FL_wheel_link,29.11787232741521,8.344545286330481,5.454901562315578,0.011743968735990115,0.032149326268467296,-0.422839357057113
160640000000,24,160640000000,FL_wheel_link,-28.330028439158152,-8.190179997841922,6.7563193532942964,0.0066341292845661995,-0.035016425727535265,0.423094834616008
160641000000,25,160641000000,FL_wheel_link,28.70798667937371,8.311858331175207,6.076923265691004,0.009556916391352314,0.03712652955870827,-0.42293269177968557
160642000000,26,160642000000,FL_wheel_link,-28.913613687352115,-8.297119801764254,6.5360506991030665,0.0006572292553059999,-0.033555492810859476,0.42278148699542395
160643000000,27,160643000000,FL_wheel_link,28.30184359145767,8.143161610473866,4.678921003447799,-0.001240262719645425,0.04177177409545863,-0.4226239535408892
160644000000,28,160644000000,FL_wheel_link,-29.568588760644285,-8.469351266099029,5.159393950225462,-0.00892193770908868,-0.03583106539957699,0.42253515050124885
160645000000,29,160645000000,FL_wheel_link,28.48362152044374,8.043087559515998,3.2226526627274703,-0.007341436830577261,0.041395252688442345,-0.42236997902909357
160646000000,30,160646000000,FL_wheel_link,-29.42798361018225,-8.546917897913447,3.84977459194019,-0.012858287551770105,-0.039647242092109264,0.4225375948811139
160647000000,31,160647000000,FL_wheel_link,29.015172092566235,8.099409412848662,2.975241939504243,-0.003199583338133608,0.03570816348031679,-0.4228174812413574
160648000000,32,160648000000,FL_wheel_link,-28.51579240522628,-8.392938955100092,4.2512226413856995,-0.00456533893346074,-0.040519690290254144,0.422579462509711
160649000000,33,160649000000,FL_wheel_link,29.417680567962403,8.272173811011632,4.321452463077252,0.007429028661475805,0.03238249498441908,-0.42271216711973225
160650000000,34,160650000000,FL_wheel_link,-28.13742660843519,-8.233869590590986,5.872607790328679,0.005291048422364,-0.03942426222330581,0.422800138183503
160651000000,35,160651000000,FL_wheel_link,29.413099371865897,8.366697852205622,6.012382563592257,0.01338403455790137,0.036516347259128897,-0.4229254789749597
160652000000,36,160652000000,FL_wheel_link,-28.8104512101395,-8.148885235218987,7.205525748219233,0.007893125035723092,-0.03837619167304012,0.42320330657552746
160653000000,37,160653000000,FL_wheel_link,28.87636592620919,8.267488543719933,6.236202714728026,0.007427109746713148,0.04517696378571267,-0.42292740029220016
160654000000,38,160654000000,FL_wheel_link,-29.754200152920205,-8.354473070038262,6.070223713107953,-0.0026582416534751915,-0.039022629785138076,0.4227404267850434
160655000000,39,160655000000,FL_wheel_link,28.722368299781824,8.120256733239566,4.0924185697117395,-0.0028466872732124953,0.044722964958487675,-0.4226068930901594
160656000000,40,160656000000,FL_wheel_link,-29.80801992810868,-8.53184961360521,4.543451780324504,-0.012286140331622222,-0.03676876570705583,0.42246352385814834
160657000000,41,160657000000,FL_wheel_link,28.579981075595683,8.05470014837392,2.9918693472202307,-0.006667923395353999,0.038576170272067556,-0.42243263488013083
160658000000,42,160658000000,FL_wheel_link,-29.122239547829682,-8.534557336378676,4.346251494579663,-0.0115489319547173,-0.03575902115444185,0.4226637605287851
160659000000,43,160659000000,FL_wheel_link,28.750897771785347,8.144957358194416,3.163694266323876,-0.0007653741701453033,0.028441330901888006,-0.422886729439929
160660000000,44,160660000000,FL_wheel_link,-27.77040325510575,-8.386674715476612,3.908633685006431,-0.004419155296127725,-0.035882207241479155,0.4225926142782353
160661000000,45,160661000000,FL_wheel_link,29.11803351834771,8.314084674980116,4.548253417611783,0.009486956918304212,0.026124729484414057,-0.4226852422888566
160662000000,46,160662000000,FL_wheel_link,-27.525793801759413,-8.22232152572366,5.926048610829462,0.005903492264177833,-0.03413565879523639,0.4227938178047142
160663000000,47,160663000000,FL_wheel_link,28.941170018478264,8.386232806592014,6.435718681443562,0.014014687821865483,0.03314168520669786,-0.4228267529829185
160664000000,48,160664000000,FL_wheel_link,-28.688802202052607,-8.150834975907152,8.648377066676536,0.008158379720354606,-0.027607947255104855,0.4231504826933008
160665000000,49,160665000000,FL_wheel_link,27.811218355496674,8.243836490825009,5.712760190754976,0.005567930530086922,0.032863344811505046,-0.42293753249158644
160666000000,50,160666000000,FL_wheel_link,-28.707062632961012,-8.422000959115001,5.5291435898923185,-0.0060799761420211205,-0.02601296104602613,0.4226785387569608
160667000000,51,160667000000,FL_wheel_link,27.532985562012925,8.072513230331003,3.6774401360415427,-0.005647962825419394,0.033760850523440925,-0.4225688360064533
160668000000,52,160668000000,FL_wheel_link,-28.827888960358994,-8.546399073956902,4.123843674544647,-0.01289839722790421,-0.029140141607615057,0.4224970750142824
160669000000,53,160669000000,FL_wheel_link,27.974514497844574,8.039351587249502,2.7164214996064495,-0.007102231451796114,0.030566354405063553,-0.4226646737237985
160670000000,54,160670000000,FL_wheel_link,-28.247913732858745,-8.514528043990135,3.2299958894823217,-0.011740963752239953,-0.0323720139955941,0.4226631455656725
160671000000,55,160671000000,FL_wheel_link,28.558439822863278,8.186839020734494,3.3473303503773524,0.0015019539504092805,0.025154383038747462,-0.4226793677974488
160672000000,56,160672000000,FL_wheel_link,-27.458327413148215,-8.343904041215842,4.280588797243163,-0.0015459964497638228,-0.03334245040509629,0.4225651477250848
160673000000,57,160673000000,FL_wheel_link,28.910426655755508,8.361566799232959,5.3949318360338925,0.012940391137878328,0.025268985639980698,-0.4226987622112763
160674000000,58,160674000000,FL_wheel_link,-27.537134820743685,-8.160343254914288,7.247541813242647,0.010065832968754483,-0.0317994890194717,0.42289000879609556
160675000000,59,160675000000,FL_wheel_link,28.696854648633394,8.400623669528741,6.944741055627353,0.014307905604743838,0.03303704111285205,-0.4230158441200571
160676000000,60,160676000000,FL_wheel_link,-28.39202496818452,-8.327498115903186,7.59014892470542,-0.00032851985014378224,-0.0367660480827223,0.4230003427268233
160677000000,61,160677000000,FL_wheel_link,28.651419248909054,8.207963122585534,5.7241862443889975,0.0033025562503020377,0.04841321813455189,-0.42258030814898057
160678000000,62,160678000000,FL_wheel_link,-30.115702891012944,-8.54373621365184,6.173035631576196,-0.012252119131751773,-0.04381416987932707,0.4225272429386181
160679000000,63,160679000000,FL_wheel_link,29.075927778616105,8.08399678520163,3.589116126830657,-0.004507432409688459,0.05373552558245707,-0.4224646316346668
160680000000,64,160680000000,FL_wheel_link,-30.56601331880229,-8.590729002487922,5.1960106776666075,-0.014424562843081412,-0.0509401135115365,0.42239002080092247
160681000000,65,160681000000,FL_wheel_link,29.8889291190613,8.111610432400395,2.9264944089192735,-0.0016016014236687251,0.05326625087774413,-0.42263009766699466
160682000000,66,160682000000,FL_wheel_link,-30.212875997405536,-8.486364235401185,4.477405629365616,-0.009897976563079506,-0.054598411751058847,0.42271077866906553
160683000000,67,160683000000,FL_wheel_link,30.417158687954384,8.282478770486696,3.6459239366292686,0.007571008794849054,0.049448274826261594,-0.4227347695988938
160684000000,68,160684000000,FL_wheel_link,-29.641169489177614,-8.310121253060782,5.436750728777624,0.00042902257376468587,-0.05559989363094449,0.4226918052694726
160685000000,69,160685000000,FL_wheel_link,30.748651706289746,8.420235533663627,5.748275289370708,0.0168813932803349,0.05035048028724098,-0.42288827430030473
160686000000,70,160686000000,FL_wheel_link,-29.852402697202198,-8.186064257212358,7.535182094063494,0.006721563483716849,-0.05476176294874516,0.42318882285206105
160687000000,71,160687000000,FL_wheel_link,30.45478268474522,8.394803359369103,6.668869323580147,0.014645600091149638,0.05602790828522753,-0.4230084562525944
160688000000,72,160688000000,FL_wheel_link,-30.463817315223107,-8.338440915374692,7.7167101275466425,-0.0014648825675391104,-0.054363522243632945,0.422840430843669
160689000000,73,160689000000,FL_wheel_link,30.293520272325278,8.097693120073277,5.441745965655429,-0.003168849217307703,0.05490024501737056,-0.42264715710199635
160690000000,74,160690000000,FL_wheel_link,-30.533970735981576,-8.573555609897896,6.2751704567214315,-0.014051424121296684,-0.04803111113290255,0.4224808881312471
160691000000,75,160691000000,FL_wheel_link,29.64481140543666,7.968297112294616,4.153938315927749,-0.010298447970861832,0.04998366458945065,-0.42232963785365785
160692000000,76,160692000000,FL_wheel_link,-30.15540102272559,-8.585213612437283,5.696793102817073,-0.013102433417692665,-0.04494410580489485,0.42265705902134953
160693000000,77,160693000000,FL_wheel_link,29.412630374988996,8.08290811996106,4.286184301298899,-0.0027355905794466673,0.041833334470507966,-0.42291250452647694
160694000000,78,160694000000,FL_wheel_link,-29.170690366032165,-8.36469763455912,6.058374356668996,-0.0016511190416170355,-0.04173182943371708,0.42266908279301574
160695000000,79,160695000000,FL_wheel_link,29.344942309117005,8.293469457626992,5.439958208404964,0.009895246400862236,0.03714079545980451,-0.42277757458671833
160696000000,80,160696000000,FL_wheel_link,-28.74748983623575,-8.195290496146992,7.001842582867851,0.00818873041509961,-0.03896776368448741,0.4229342054478264
160697000000,81,160697000000,FL_wheel_link,29.232020075194626,8.395100417072584,6.147922514819069,0.01479661426262533,0.03626383386525853,-0.42311526480015277
160698000000,82,160698000000,FL_wheel_link,-28.815582417571193,-8.158274587358374,6.8974581220136955,0.00678758778461775,-0.03577242331968275,0.4231849486554577
160699000000,83,160699000000,FL_wheel_link,28.693434497071312,8.283906264889922,5.364538144146172,0.007407398177801454,0.03664520645742956,-0.4229212861566129
160700000000,84,160700000000,FL_wheel_link,-28.85689552073114,-8.383660140592882,5.7795040138459886,-0.004273412129050523,-0.032458163518139994,0.422771981045452
160701000000,85,160701000000,FL_wheel_link,28.28489071763704,8.093054526134367,4.202019140393408,-0.00439726018640248,0.035073627505832046,-0.422659817718132
160702000000,86,160702000000,FL_wheel_link,-28.792533337705407,-8.566374785212506,5.227690400437938,-0.013731598983782905,-0.03175090798203883,0.42256181996754494
160703000000,87,160703000000,FL_wheel_link,28.284018640532516,7.993935017646877,4.172338126223921,-0.008960898433420246,0.03306951450050168,-0.42242598319328445
160704000000,88,160704000000,FL_wheel_link,-28.531920093466496,-8.572604728670557,5.797804809166183,-0.011990589314023787,-0.0346581635011885,0.42259888027368636
160705000000,89,160705000000,FL_wheel_link,28.690622328337447,8.114448364052459,5.708624794477418,-0.0004492676972418426,0.03152693925216738,-0.4228269161742354
160706000000,90,160706000000,FL_wheel_link,-28.17462878882374,-8.348391916387364,7.613629212479493,0.0005781148997040178,-0.0359866555013871,0.42261769812813704
160707000000,91,160707000000,FL_wheel_link,28.941200180259848,8.311713880434121,7.588139307792037,0.01200220017634498,0.03325593373236098,-0.42269996794896486
160708000000,92,160708000000,FL_wheel_link,-28.438124704931308,-8.204585408702814,8.48784617984357,0.008290984929723846,-0.035630096151432186,0.4228652844239061
160709000000,93,160709000000,FL_wheel_link,28.90243531094781,8.358539643439686,7.048878607207346,0.012522063211129905,0.035900052658379124,-0.4230440462429063
160710000000,94,160710000000,FL_wheel_link,-28.7589073266778,-8.268164312553266,6.773097472371514,0.0023787929524762812,-0.03349319421549688,0.4230503408853049
160711000000,95,160711000000,FL_wheel_link,28.416928772898878,8.219752379485042,4.540442944004019,0.0030338414367703775,0.03551083410123165,-0.4227540302800965
160712000000,96,160712000000,FL_wheel_link,-28.80706615930578,-8.419329570707092,4.7940490521004735,-0.006653287336519645,-0.03156491732866618,0.4227097503785293
160713000000,97,160713000000,FL_wheel_link,28.23667235602693,8.114116981636101,3.0630032418007698,-0.0037438550641375086,0.0323396072732749,-0.42262900780400187
160714000000,98,160714000000,FL_wheel_link,-28.48598283238908,-8.511576908573396,3.997599685137671,-0.011241787854162761,-0.030537273824975075,0.4224980087196107
160715000000,99,160715000000,FL_wheel_link,28.240223748383862,8.06441786371769,3.1350944347760885,-0.005386703343570812,0.03059446616318169,-0.42266816193013396
160716000000,100,160716000000,FL_wheel_link,-28.258481994974808,-8.488819135601977,4.834613593204332,-0.0093732432439372,-0.029736461966936665,0.4227644210090527
160717000000,101,160717000000,FL_wheel_link,28.189621424271742,8.147992869562533,4.91080200911765,0.0006672492849944697,0.028055446203478784,-0.42268303411791247
160718000000,102,160718000000,FL_wheel_link,-27.937054868698407,-8.338630575038815,7.185315150326277,0.0009989084597300164,-0.032126728066300236,0.42262089809212694
160719000000,103,160719000000,FL_wheel_link,28.588803018460613,8.35480622712703,7.835945000021487,-0.04771531342517602,0.030665283878461236,-0.4227300914812516
160720000000,104,160720000000,FL_wheel_link,-28.23595343342967,-8.269922337481253,9.262087040943397,-0.05230125905421301,-0.03286477845804325,0.4227516786916907
160721000000,105,160721000000,FL_wheel_link,28.565739808358636,8.167868528488468,7.980192166525104,-0.0502950665778724,0.033520385959478684,-0.4226487625513056
160722000000,106,160722000000,FL_wheel_link,-28.603150561089688,-8.580952736314165,7.936962861711166,-0.06303773390203939,-0.03217225083307128,0.42254276222347936
160723000000,107,160723000000,FL_wheel_link,28.419694096918505,7.797664487206371,5.939139813900219,-0.043390553536730006,0.033260040989439785,-0.42236351646496473
160724000000,108,160724000000,FL_wheel_link,-28.638858675126915,-8.90253170791691,6.529841872907895,-0.012783193393139792,-0.032306055691381376,0.4220316555314823
160725000000,109,160725000000,FL_wheel_link,28.39966098932665,7.673583850835458,4.4362789169862475,-0.0032000579005907934,0.03694119939279923,-0.421649852896203
160726000000,110,160726000000,FL_wheel_link,-29.1568544254377,-9.014271374464922,6.32592732274892,-0.0056780166548508456,-0.032991766139076645,0.42193591668171065
160727000000,111,160727000000,FL_wheel_link,28.685499381061113,7.476966205716654,4.840750500403996,0.0032527287557646703,0.030851751062054088,-0.42256677401612924
160728000000,112,160728000000,FL_wheel_link,-28.57925343306709,-9.087594262591525,5.912486201599207,-0.0012001769913372864,-0.03355840067381079,0.4222118287093215
160729000000,113,160729000000,FL_wheel_link,29.000850417719697,7.3988277414258325,4.441969520182701,0.006533607911824805,0.03055436343786684,-0.422528199519383
160730000000,114,160730000000,FL_wheel_link,-28.650183163757905,-9.152675790047368,5.759314774988564,0.001318180645468636,-0.03306362480674942,0.42258454723598987
160731000000,115,160731000000,FL_wheel_link,29.069839560035195,7.288533433001296,4.070820452420194,0.006641936054685922,0.030683151612965524,-0.4223496956174561
160732000000,116,160732000000,FL_wheel_link,-28.74776259400325,-9.221751312529078,5.167784979728798,-0.0004791925762720754,-0.03204296093750433,0.42255765591133937
160733000000,117,160733000000,FL_wheel_link,29.018821718034847,7.232596674343012,3.3561668342986803,0.0038533408131777094,0.03166858305142318,-0.4221975226148854
160734000000,118,160734000000,FL_wheel_link,-28.923173059984247,-9.191306822075507,4.524994170593617,-0.0035298386894280164,-0.0316216916922212,0.42224545061033186
160735000000,119,160735000000,FL_wheel_link,28.984318482833938,7.2707749595619715,2.779491518334288,0.001638441283614911,0.03192949818197895,-0.42194240524218546
160736000000,120,160736000000,FL_wheel_link,-29.038920389014187,-9.289008440666404,4.51452298970318,-0.004562908125815678,-0.030212850835370474,0.42213611025202274
160737000000,121,160737000000,FL_wheel_link,28.905516797456265,7.215385439030617,2.5516740860435823,0.000550003563744461,0.03130891123116485,-0.42197921103137265
160738000000,122,160738000000,FL_wheel_link,-29.07247453454695,-9.369026637392354,4.48335968589652,-0.005395724745751157,-0.029052216648096534,0.4220497472934213
160739000000,123,160739000000,FL_wheel_link,28.86179542306742,7.148649808434364,2.450815062285591,-0.00013839882797080685,0.03074386054685491,-0.42195749500641394
160740000000,124,160740000000,FL_wheel_link,-29.083682611108824,-9.450129849098076,4.528425073052915,-0.005701523413125956,-0.02910187921364849,0.42169947564914284
160741000000,125,160741000000,FL_wheel_link,28.92478357181682,7.053107025889952,2.532336791507666,0.00011942302137616531,0.030686459951245693,-0.42183095887616595
160742000000,126,160742000000,FL_wheel_link,-29.156673932046758,-9.561691517136579,4.77321084737661,-0.005248964648485239,-0.029490114169463927,0.42173555543368596
160743000000,127,160743000000,FL_wheel_link,29.056050474555434,6.915203830300441,2.771537261189789,0.0010387664287719726,0.030799849049705376,-0.42185346025657905
160744000000,128,160744000000,FL_wheel_link,-29.23651514885019,-9.701210642946283,5.165883567322612,-0.0037768458215967997,-0.03082177411280166,0.4216554631158272
160745000000,129,160745000000,FL_wheel_link,29.303275062093288,6.628326471472001,3.2043469230226735,0.00311258119844666,0.031527082250462815,-0.42172632882316957
160746000000,130,160746000000,FL_wheel_link,-29.371229644579138,-9.949399742876807,5.651844233312482,-0.0010972773954074264,-0.033334193256139,0.42152713059592045
160747000000,131,160747000000,FL_wheel_link,29.66691972358724,6.4242428649539365,3.6170468083924288,0.005859359141465167,0.03301893764768427,-0.42204622246400536
160748000000,132,160748000000,FL_wheel_link,-29.642191454987085,-10.085268059035583,6.073119182235759,0.0008720759273358556,-0.03558878674115636,0.42205221914292435
160749000000,133,160749000000,FL_wheel_link,29.995427252405282,6.313311898913306,3.670138850778061,0.006819653411779166,0.03480265575917985,-0.4221477131235688
160750000000,134,160750000000,FL_wheel_link,-33.90648198371437,17.59108717740189,8.337788585114353,-0.08386381095403625,-0.03768273957462765,0.25147076809814595
160751000000,135,160751000000,FL_wheel_link,10.036149121416507,10.171629147665055,7.963186958029447,-0.0723085945287029,0.037163690276059126,-0.041317049090623684
160752000000,136,160752000000,FL_wheel_link,-3.684704815055393,-16.77815042487853,6.981407220032491,0.12141742187186054,-0.032338977398735064,-0.004268734734919252
160753000000,137,160753000000,FL_wheel_link,2.3010720249075898,10.553682971406372,10.713757927610107,-0.05178015347531402,0.023683613067313383,0.011150091376935196
160754000000,138,160754000000,FL_wheel_link,-1.3532363843424975,-17.298724140118477,7.229907604551671,0.12639739427913127,-0.018747364462995852,-0.011780936708602693
160755000000,139,160755000000,FL_wheel_link,0.8406071625118245,13.154752103565572,9.588212587925268,-0.0645776445047147,0.01572401691688687,0.013098223562849409
160756000000,140,160756000000,FL_wheel_link,-0.22519365031004906,12.714426581616586,10.956445294846954,-0.06160139229023193,-0.011671757136494036,-0.0020302386537139946
160757000000,141,160757000000,FL_wheel_link,1.534683838236664,-14.611777050869335,6.360761660798474,0.11825491296361065,0.007993587916803532,-0.011288337478789658
160758000000,142,160758000000,FL_wheel_link,-1.4621151931718612,13.1578796490068,10.363317025399198,-0.06371889051382325,-0.0062025636089558115,0.013472888698433605
160759000000,143,160759000000,FL_wheel_link,1.560025174898035,-15.147900213957618,4.141135174207759,0.11090112760343569,-0.00044552061582317645,-0.012927177383359117
160760000000,144,160760000000,FL_wheel_link,-0.5090160217563646,13.000383740598947,6.605061522303537,-0.07814018168161214,-0.0024259058798586862,0.0130906963027032
160761000000,145,160761000000,FL_wheel_link,1.1866801334025854,-15.073399547976562,2.1803694483173275,0.09681211930194851,0.0027983953522398427,-0.013857994173354213
160762000000,146,160762000000,FL_wheel_link,-1.1737105336325744,13.23185598438724,4.119627018516333,-0.09083092126295433,-0.00016243938433387425,0.013844781965753986
160763000000,147,160763000000,FL_wheel_link,-1.2260198757972494,12.72415338393244,3.2194734642014753,-0.04045551362041181,0.001830374790442368,-0.09964315588710561
160764000000,148,160764000000,FL_wheel_link,-9.511589761928459,-12.994143762977002,5.145560077876669,0.004897939671912314,0.002685768527321766,0.28454654376560307
160765000000,149,160765000000,FL_wheel_link,23.576293731851816,7.2016982348225,5.055838985117984,0.016699628561383514,0.003323792781197203,-0.40006403021491105
160766000000,150,160766000000,FL_wheel_link,-26.95111799532924,-9.178127869148833,4.544056668770089,0.0052607036644661785,-0.007473707421866256,0.41854169844023825
160767000000,151,160767000000,FL_wheel_link,27.548666296225512,7.166917418615019,4.073731232600369,0.011598920383343127,0.016512718077108437,-0.4213550013567741
160768000000,152,160768000000,FL_wheel_link,-28.68171179075559,-9.28273936802463,5.399825741507388,0.0020712074526167364,-0.012117396197693834,0.4227281572346808
160769000000,153,160769000000,FL_wheel_link,28.11391051827822,6.941674496480186,4.396703747915892,0.011039868055423044,0.019930431042128906,-0.4232937803219763
160770000000,154,160770000000,FL_wheel_link,-29.108116659022716,-9.419297777631005,5.717931515274189,-0.00044774235016313893,-0.016222813162935442,0.42284208121759753
160771000000,155,160771000000,FL_wheel_link,28.62771030133816,6.770924180140207,4.292450532124377,0.00804630928587937,0.02106683524248666,-0.4233390690339909
160772000000,156,160772000000,FL_wheel_link,-29.210131517859928,-9.489925117955556,5.501827163863296,-0.003868408090799006,-0.018323910165465567,0.42276814823628245
160773000000,157,160773000000,FL_wheel_link,28.94011164862487,6.68784768088562,3.780881394011664,0.005451480634580033,0.020824772090856418,-0.42314844349156816
160774000000,158,160774000000,FL_wheel_link,-29.13190177160125,-9.454706916001378,4.8804357907101155,-0.005918579557045348,-0.02045425319623687,0.42252643537419654
160775000000,159,160775000000,FL_wheel_link,29.2300564783759,6.721828836398911,2.907453715278116,0.004033236276138258,0.020509220534515798,-0.42283261415213036
160776000000,160,160776000000,FL_wheel_link,-29.043139702277163,-9.367338140458843,4.102556226828354,-0.007126836436775505,-0.02212134625739955,0.42243209673578486
160777000000,161,160777000000,FL_wheel_link,29.456279122148807,6.861453850863948,1.8006541767196758,0.0022789844311370553,0.019306953407185308,-0.4226790927744455
160778000000,162,160778000000,FL_wheel_link,-28.88517230536628,-9.24487077434039,3.2808693189048976,-0.008444480648365423,-0.022931281444057428,0.4224626893154092
160779000000,163,160779000000,FL_wheel_link,29.584348420946412,6.995061084536984,0.8742142365734319,0.0006771834256142726,0.018080314456736694,-0.42243850496993973
160780000000,164,160780000000,FL_wheel_link,-28.804371292233064,-9.26317592565473,3.2274017830128847,-0.01117409447335616,-0.020676577568655208,0.4238661634946722
160781000000,165,160781000000,FL_wheel_link,29.518876422942064,6.864739740638817,1.1720066728460192,-0.002066493108642779,0.015780679819393125,-0.42292479378148384
160782000000,166,160782000000,FL_wheel_link,-28.581417152118146,-9.425771311452763,3.5746155537006046,-0.010095645876233716,-0.018128825482585355,0.42349164592472155
160783000000,167,160783000000,FL_wheel_link,29.38503884032623,6.838398415674468,1.274158101905166,-0.0009204656773370742,0.013179006444077362,-0.42317085489396783
160784000000,168,160784000000,FL_wheel_link,-28.377603430012957,-9.43906625850642,3.6227025663705,-0.008714694144799254,-0.016964359087165804,0.4236157133030714
160785000000,169,160785000000,FL_wheel_link,29.387183364745933,6.846487939191965,1.3075143342826134,0.001034615076088094,0.011225576175496485,-0.42318917281175017
160786000000,170,160786000000,FL_wheel_link,-28.21744695933809,-9.419983520836073,3.619007518677654,-0.006366906878199719,-0.01580170682582528,0.42368182359795903
160787000000,171,160787000000,FL_wheel_link,29.36079560677827,6.870202799740677,1.302301460143873,0.0038298062366121173,0.010329680398362564,-0.4231185965812195
160788000000,172,160788000000,FL_wheel_link,-28.18269226462983,-9.397078867737376,3.6191326707665166,-0.0037283637480494238,-0.014700177294933687,0.42364959353371495
160789000000,173,160789000000,FL_wheel_link,29.30702752206011,6.889035048594982,1.2819075340124177,0.006434704991436691,0.010247429632024265,-0.4231755636381258
160790000000,174,160790000000,FL_wheel_link,-28.276664348313613,-9.380944755377241,3.625449353244934,-0.0015187312761431994,-0.013382593485149804,0.42361557164856367
160791000000,175,160791000000,FL_wheel_link,29.174035631008625,6.907019932283796,1.578513815163408,0.008807108088994273,0.01179517045947503,-0.42346861512635847
160792000000,176,160792000000,FL_wheel_link,-32.63753776502467,18.39614816966953,5.096143677874423,-0.08421510888416009,-0.017380182982632903,0.25307740956168406
160793000000,177,160793000000,FL_wheel_link,6.580817993360193,11.665725094294963,3.475965268315976,-0.02984880174439825,0.022932823382883664,-0.13765076454882957
160794000000,178,160794000000,FL_wheel_link,-11.92968247222586,-12.176609299251734,6.466473880882217,0.013745489911853896,-0.008664884935296645,0.28924245197039394
160795000000,179,160795000000,FL_wheel_link,25.160796629756412,7.711598615503171,5.02384807338144,0.02554643026173746,0.006665915576200146,-0.401602378254324
160796000000,180,160796000000,FL_wheel_link,-27.74501033069393,-8.953688593854503,6.3026288410904066,0.014965843060001495,-0.0009997729879526874,0.41999504321565684
160797000000,181,160797000000,FL_wheel_link,27.798639907774398,7.4198249015283855,5.074469010207064,0.02461310987578484,0.003418715506112692,-0.4236797052934054
160798000000,182,160798000000,FL_wheel_link,-27.894322486842352,-7.804102538576064,6.01527214072598,0.00935653876076043,0.001368154258043984,0.4221856762366752
160799000000,183,160799000000,FL_wheel_link,27.197663155249607,8.725361897060099,4.844136934734868,0.017294864268530663,-9.812290957665013e-05,-0.423527516732678
160800000000,184,160800000000,FL_wheel_link,-27.719045190106204,-7.943935821832624,6.0492123842496675,0.005807306438420968,0.006082578257614089,0.42325360903674375
160801000000,185,160801000000,FL_wheel_link,26.958545302688147,8.557732093378664,5.138359444680857,0.014450930697904561,-0.005526277139740728,-0.42334143376194244
160802000000,186,160802000000,FL_wheel_link,-27.240057653617043,-8.054192251466146,6.147662991507615,0.00467581044239349,0.007053578782611583,0.42302851083092674
160803000000,187,160803000000,FL_wheel_link,27.04415420757348,8.457832893886138,5.214361655944879,0.014530845657604305,-0.0060243067328201744,-0.42310693529880966
160804000000,188,160804000000,FL_wheel_link,-27.256296022442164,-8.12458935062051,6.229275102742107,0.0050099909420162425,0.0073509654296405194,0.42297051029505645
160805000000,189,160805000000,FL_wheel_link,27.06460973822572,8.341953720122477,5.187767306723114,0.013584929114799705,-0.0034666321338444684,-0.42328746319144944
160806000000,190,160806000000,FL_wheel_link,-27.69095957814895,-8.275184878777715,6.14958778861302,0.0012377626884732703,0.008814281411137869,0.42269755091056543
160807000000,191,160807000000,FL_wheel_link,26.87024312374694,8.058384147531857,5.062592873717297,0.0069242145663267925,-0.002448143649084402,-0.42329825648933284
160808000000,192,160808000000,FL_wheel_link,-27.899779406656478,-8.585848884637226,5.965129268096459,-0.007332019296776664,0.006162295454001969,0.42282213953353076
160809000000,193,160809000000,FL_wheel_link,27.279613245649262,7.744922096836192,4.577054514558577,0.0007658976240336027,-0.0033059223315811343,-0.42321686672714104
160810000000,194,160810000000,FL_wheel_link,-27.750184887619813,-8.742819591926462,5.44711784940124,-0.009307606484695013,0.004040155521946471,0.4229085932077189
160811000000,195,160811000000,FL_wheel_link,27.64442730285581,7.562140190389648,3.4339587925306128,-0.0012694284476873889,-0.002802521581128215,-0.4231397528396387
160812000000,196,160812000000,FL_wheel_link,-27.748971202270347,-8.831672066858793,4.956988519456838,-0.009113191408823952,0.0008689648233604973,0.42306377927532257
160813000000,197,160813000000,FL_wheel_link,28.056569180299082,7.510770148895724,2.3289479504978208,-0.003448643796488868,-0.0013978430876950964,-0.42304182524459105
160814000000,198,160814000000,FL_wheel_link,-27.808586712415643,-8.885992974792485,4.663647912342947,-0.007999316005651267,-0.0038150297351945703,0.42319858326047444
160815000000,199,160815000000,FL_wheel_link,28.59294306481817,7.440951163055228,1.7899038908910192,-0.0035548614875304846,0.0016406280606745722,-0.4229926851078208
160816000000,200,160816000000,FL_wheel_link,-28.087195973390223,-8.940147814703572,4.529588103796043,-0.0077189776874480726,-0.006909436844042226,0.42341199648218975
160817000000,201,160817000000,FL_wheel_link,29.00114750923048,7.408217200397277,1.5888910050494145,-0.0013912012308864026,-0.0006531023624177407,-0.4231243974378531
160818000000,202,160818000000,FL_wheel_link,-27.911944650232765,-8.982310183395404,4.3969162573865415,-0.007202293436493187,-0.004802045282281627,0.42378354391630185
160819000000,203,160819000000,FL_wheel_link,28.87035112245588,7.3586545344098155,1.5715363629812318,-7.375559989943639e-05,-0.0011263792467811095,-0.4229553125970072
160820000000,204,160820000000,FL_wheel_link,-27.96162314950132,-9.0389789000568,4.508497133346385,-0.0059441078112227545,-0.0045679068931379655,0.4236610622744235
160821000000,205,160821000000,FL_wheel_link,30.88443222734827,7.259665421627311,3.0917032957890576,-0.04080774418672506,0.003971623886713326,-0.3374680795898888
160822000000,206,160822000000,FL_wheel_link,-19.959795721387646,16.357979334584943,5.759792956726285,-0.08492334273375898,-0.016358074845937876,0.15402761832327008
160823000000,207,160823000000,FL_wheel_link,6.099386783645544,-15.699832280700095,2.884727214655233,0.10252246685646545,0.020077448766281165,-0.038238706656634175
160824000000,208,160824000000,FL_wheel_link,-3.240636731863932,13.013388222211598,7.471772443076895,-0.07090545366865386,-0.015047433850979243,0.019267253545355117
160825000000,209,160825000000,FL_wheel_link,-0.26643316660077665,15.153469048222671,2.638118070749755,0.05093280144312492,0.0036134181977407064,-0.12825424032478924
160826000000,210,160826000000,FL_wheel_link,-13.785304336930675,-11.121425295500389,6.801592744250211,0.014679069341304423,0.008941857773518224,0.3165474062059006
160827000000,211,160827000000,FL_wheel_link,24.92140124396229,8.07247042443335,4.395523146066139,0.019945570826958567,-0.013581318903396295,-0.40527144006677884
160828000000,212,160828000000,FL_wheel_link,-26.86012257122258,-8.786052324964853,6.7825006132376355,0.01283290320283331,0.013892269188144242,0.42037241287765487
160829000000,213,160829000000,FL_wheel_link,27.35668254021739,7.598820819933123,4.33852367126556,0.017348430762163927,-0.010102780178993784,-0.42269258637480894
160830000000,214,160830000000,FL_wheel_link,-27.719907971216276,-8.791524675453923,7.014120227620683,0.009347084704864898,0.01026340201656465,0.42302223488496526
160831000000,215,160831000000,FL_wheel_link,27.875758971804572,7.510506163937909,4.384798594879892,0.014479265411495204,-0.009999402898283985,-0.4236239702860271
160832000000,216,160832000000,FL_wheel_link,-29.762285629923937,4.138143669304601,7.059726816473959,-0.033506600816111204,0.0036664601818818883,0.3414420245817634
160833000000,217,160833000000,FL_wheel_link,18.25487149722472,9.667012435167365,5.313605596500538,-0.028367204560779045,0.004303478476938151,-0.24544582113349905
160834000000,218,160834000000,FL_wheel_link,-14.234200855812507,-11.539057087828555,7.460978938978753,0.00783147465987717,0.002721594788215612,0.31108973933639716
160835000000,219,160835000000,FL_wheel_link,25.409638572571584,7.730915168418824,4.428625812954676,0.014108208212466205,-0.008873547993191835,-0.40466108731558686
160836000000,220,160836000000,FL_wheel_link,-27.56351160013106,-9.133405620140897,7.301981996797885,0.00784619355625158,0.010792987033635045,0.41998679122581195
160837000000,221,160837000000,FL_wheel_link,27.79021662565218,7.190428219669277,4.424255783327559,0.013766161496965608,-0.0074486154614561975,-0.4229974200937836
160838000000,222,160838000000,FL_wheel_link,-28.338664131780753,-9.169844572955197,7.30923763239514,0.006923992862263829,0.009522446129742318,0.4230845770855792
160839000000,223,160839000000,FL_wheel_link,28.016828696177882,7.0288698332210835,4.291010435494634,0.01190330391164614,-0.00505004154796369,-0.42380164760265393
160840000000,224,160840000000,FL_wheel_link,-28.65842543465944,-9.282136029906729,6.987423574633379,0.003008628245368266,0.005965513765284005,0.42343866495659427
160841000000,225,160841000000,FL_wheel_link,28.43942413280452,6.863799942625799,3.620492351367585,0.007024505947164056,-0.0025996407225902175,-0.4239004045682581
160842000000,226,160842000000,FL_wheel_link,-32.85376313337367,18.48468937932466,5.877202740826549,-0.08767089932467632,-0.009488010977564137,0.25347506868648184
160843000000,227,160843000000,FL_wheel_link,4.504518510979021,11.434018665109047,2.9000367479810922,0.006852719116226552,0.012221284870168284,-0.22536981231634962
160844000000,228,160844000000,FL_wheel_link,-24.37335393161103,-10.25785060285662,7.273440667665631,0.005530498502103013,0.0007672796981868519,0.3899199867197464
160845000000,229,160845000000,FL_wheel_link,28.006330909628332,6.918588375670439,3.927121946566032,0.013037594390343275,-0.006035114847779967,-0.41798046827643714
160846000000,230,160846000000,FL_wheel_link,-28.39163052383108,-9.564862541361178,7.49230948493765,0.008633927499778288,0.004441059689352747,0.4231303279813032
160847000000,231,160847000000,FL_wheel_link,28.7234980563286,6.709570428981519,3.9801511508858956,0.014800639753850252,-0.0067312761879754265,-0.42352700362482065
160848000000,232,160848000000,FL_wheel_link,-28.56380438606156,-9.593720001204254,7.313361264856276,0.009018416771984523,0.004228877915844614,0.42410604709802824
160849000000,233,160849000000,FL_wheel_link,28.874649902451687,6.657186109623021,3.520710978117082,0.013552648749812306,-0.006409305146543641,-0.4237541651228193
160850000000,234,160850000000,FL_wheel_link,-28.647650093239108,-9.523668012146722,6.439088610447954,0.005520224208278337,0.002931499800108264,0.4240240959096339
160851000000,235,160851000000,FL_wheel_link,29.01689710466124,6.74392377538661,2.359425876108058,0.007927705321178804,-0.0045198771240816575,-0.42337064376056477
160852000000,236,160852000000,FL_wheel_link,-32.80731316951401,18.449467362205606,4.643913845089878,-0.08644785001118133,-0.010858652977056805,0.25381602430938177
160853000000,237,160853000000,FL_wheel_link,9.024982536674331,11.22178178196054,4.990577107959897,-0.07948513213275912,0.024807822785377756,-0.04430740714157179
160854000000,238,160854000000,FL_wheel_link,-2.7884306036657502,-15.420396978650025,5.050112954537955,0.10599663376618539,-0.025048006242087473,-0.0012094809980683682
160855000000,239,160855000000,FL_wheel_link,1.5400170074613755,13.079130405290357,6.446065092462207,-0.07088666861414253,0.018758555972182372,0.009676448216483937
160856000000,240,160856000000,FL_wheel_link,-0.7256897915758473,-14.884826124788233,5.308936538225361,0.10624972710080362,-0.014293326579358242,-0.010911506848640671
160857000000,241,160857000000,FL_wheel_link,0.35232388123342867,13.161285812621589,6.955547290405201,-0.07019718194734911,0.011632504396967648,0.011869429904153236
160858000000,242,160858000000,FL_wheel_link,-0.07659293145127138,-14.852347303062533,5.012657320771168,0.10471456853172048,-0.009149150211125634,-0.012251707547779773
160859000000,243,160859000000,FL_wheel_link,-0.10726465186436025,13.205935759413645,6.485129145192788,-0.07402142371512128,0.006980583402319231,0.012439168128554274
160860000000,244,160860000000,FL_wheel_link,0.5885626024000926,12.892555159190481,7.289996314287818,-0.07216461960213313,-0.005224732979263753,-0.0016747636087804333
160861000000,245,160861000000,FL_wheel_link,0.9257671332569902,-14.829841421577497,4.715118776737361,0.1035334324096503,0.0019680723105540603,-0.011053102880341033
160862000000,246,160862000000,FL_wheel_link,-0.995710069457778,13.27116349622208,7.217197402727436,-0.07200252392105516,-0.001709220494336896,0.01335849483749296
160863000000,247,160863000000,FL_wheel_link,1.0886091767091988,-14.905764601188704,4.855201079610966,0.1029022730822026,0.00042317202962158023,-0.01346994597080858
160864000000,248,160864000000,FL_wheel_link,-0.939093006836452,13.21542356692746,6.981604566914143,-0.0731301291569966,-0.0007865993691790076,0.013581548259413427
160865000000,249,160865000000,FL_wheel_link,1.0179542768324392,-15.0825074485458,5.374963665712752,0.10340433397896323,-2.444465181048147e-05,-0.01330334412408367
160866000000,250,160866000000,FL_wheel_link,-0.9097860370145316,13.120941592018553,6.65923778167566,-0.07535054459344587,0.001190417360906758,0.013707280923266181
160867000000,251,160867000000,FL_wheel_link,-0.9807415321196528,12.44514237014194,4.663105921358189,-0.028631288409566316,-0.011157808932907699,-0.09425286398921681
160868000000,252,160868000000,FL_wheel_link,-8.023188427043946,-12.745274088788982,6.876445681941391,0.009903801215174337,0.020479417504484322,0.2772819721622931
160869000000,253,160869000000,FL_wheel_link,23.681917917957385,7.440799265254889,3.6318833841584848,0.013959270655521138,-0.03214005420211818,-0.39657870241385806
160870000000,254,160870000000,FL_wheel_link,-26.1433785292146,-9.57096177012485,6.583359067597263,0.008550096501203294,0.026652194005507616,0.41737867708442045
160871000000,255,160871000000,FL_wheel_link,27.30414241462112,6.878999441249059,3.4924815735267214,0.013871145494179345,-0.027212027902571885,-0.42037828253749565
160872000000,256,160872000000,FL_wheel_link,-27.432133839593412,-9.442939641813194,7.177309324467284,0.007746279553493125,0.025661633914145464,0.4213935485083778
160873000000,257,160873000000,FL_wheel_link,27.372060286417643,6.7774495021472925,3.376744439364836,0.010772792935822404,-0.021288532458105674,-0.4221551059731435
160874000000,258,160874000000,FL_wheel_link,-28.300420315165628,-9.506293242597955,7.200346834039224,0.004824449311218518,0.02434412889455726,0.42166337242599566
160875000000,259,160875000000,FL_wheel_link,27.34465240528999,6.733573917123844,3.507665105472815,0.008250123544200285,-0.015271032497128068,-0.4232102419051232
160876000000,260,160876000000,FL_wheel_link,-29.12301798867212,-9.557337589971757,6.902849194776814,0.0009934868709567896,0.02239600929977264,0.4217618689361156
160877000000,261,160877000000,FL_wheel_link,27.431465549251516,6.609639787282287,2.9626281755318047,0.005091609700728014,-0.012044590707004586,-0.423641078945357
160878000000,262,160878000000,FL_wheel_link,-29.47633451874572,-9.528921270595342,6.139320457555674,-0.002237088548408257,0.019255302932072817,0.4218073943675258
160879000000,263,160879000000,FL_wheel_link,27.71674174115269,6.655279974100536,1.9271669710037997,0.0021740036174683034,-0.010956290865115154,-0.423747914292403
160880000000,264,160880000000,FL_wheel_link,-29.471758467748636,-9.373280673112074,5.1184737428141345,-0.006136978353406729,0.015711192006425272,0.421914766524023
160881000000,265,160881000000,FL_wheel_link,28.093077905028984,6.7612161511496796,0.8794055876458752,-0.0015851636017641163,-0.012397938017358341,-0.4232363147959054
160882000000,266,160882000000,FL_wheel_link,-29.194389001684485,-9.248125648175158,4.486238894788657,-0.008785696896493516,0.01411416699832033,0.4221600994418443
160883000000,267,160883000000,FL_wheel_link,28.326932349001492,6.895445529907766,0.40185259752177893,-0.003237900331782663,-0.014748571902766664,-0.4227653876170716
160884000000,268,160884000000,FL_wheel_link,-28.919257554194434,-9.18620512514519,4.3537538159381635,-0.009289595271084012,0.01379939655936689,0.42255754148065716
160885000000,269,160885000000,FL_wheel_link,29.695108836150823,6.970178692761081,1.1847095181468115,-0.02825104796847718,-0.013421235525407927,-0.37107198233767846
160886000000,270,160886000000,FL_wheel_link,-23.165651731485028,2.4052502094054398,4.381742012897261,-0.047554300731828314,0.004148416817773296,0.282981956090287
160887000000,271,160887000000,FL_wheel_link,15.379378330770129,8.867119714275125,1.6755421927494314,0.003502618567670996,-0.010898067803831856,-0.31763142047499454
160888000000,272,160888000000,FL_wheel_link,-25.91764911964598,-10.151353404575293,6.256955909992372,0.0008542670406180727,0.01737291261451354,0.4054620563789013
160889000000,273,160889000000,FL_wheel_link,28.06889451266515,6.5275276746565165,2.2148465758794633,0.008490052671233659,-0.02553110764293779,-0.41880171126158267
160890000000,274,160890000000,FL_wheel_link,-27.6964424674226,-9.695229681817908,6.305617686606353,0.005120462068894588,0.018102970532821214,0.42274573136123444
160891000000,275,160891000000,FL_wheel_link,28.700184374059123,6.535414837205235,2.4531199093098977,0.012050951844915243,-0.025686637179244142,-0.42146950163459534
160892000000,276,160892000000,FL_wheel_link,-27.791384601453082,-9.631901867165768,6.625590833976997,0.007451894808051121,0.01870840884667266,0.423350796549114
160893000000,277,160893000000,FL_wheel_link,28.731474609765783,6.548572302929938,2.664659435096411,0.012979895448607327,-0.02464667494485035,-0.4216378282889353
160894000000,278,160894000000,FL_wheel_link,-31.99955601094261,18.110199908369832,5.363928044177702,-0.07672368759238611,0.0027241148838186738,0.25419627945664763
160895000000,279,160895000000,FL_wheel_link,8.541139593166985,11.232027493817073,5.404419702548254,-0.07370000130121578,0.016276139537945575,-0.044678871134972285
160896000000,280,160896000000,FL_wheel_link,-2.111641237864462,-14.344811642451754,3.084346385994883,0.10115704716937039,-0.022305165847366856,-0.0014277035896225257
160897000000,281,160897000000,FL_wheel_link,1.1522744519726345,13.528337213879446,3.330703590656601,-0.07385216228572147,0.015459914585315027,0.010182345850035081
160898000000,282,160898000000,FL_wheel_link,-0.4623141904627702,-14.543227667179437,2.788947788327824,0.1032558735014072,-0.010374869007006939,-0.009722042263018456
160899000000,283,160899000000,FL_wheel_link,0.046467542565492514,13.552236931860966,3.5536402906948035,-0.0724858221568448,0.00929741564791705,0.011617978309401412
160900000000,284,160900000000,FL_wheel_link,0.17173008397783981,-14.63211143265087,2.761215868248665,0.10069262297273958,-0.0044602425972861065,-0.011614000441941106
160901000000,285,160901000000,FL_wheel_link,-0.512399049144735,14.21841726662011,3.5724275299766104,-0.08055142647154187,0.007819122571083794,0.010740685297808927
160902000000,286,160902000000,FL_wheel_link,0.35401703301616816,13.839190704965873,3.670683418029698,-0.08220348818373972,0.001698296392212455,-0.0023408816112165352
160903000000,287,160903000000,FL_wheel_link,0.14800778674338202,-13.951891101156068,2.6467969579033688,0.0941939127789736,0.0025348329755386883,-0.011637405015459028
160904000000,288,160904000000,FL_wheel_link,-1.2915449956635414,14.266795810793143,3.9175654640583715,-0.0809850377380352,0.005626456026954467,0.011702190573951677
160905000000,289,160905000000,FL_wheel_link,0.20709471574672156,-13.860842979751046,2.9987139553784816,0.09430699179793875,0.0021529341491928877,-0.014060699140454765
160906000000,290,160906000000,FL_wheel_link,-1.3649943991907028,14.419103278504293,4.183361368977231,-0.07989377229567422,0.004122682835863565,0.012514831724665557
160907000000,291,160907000000,FL_wheel_link,0.3982450048934596,-13.678289637139061,3.9360791704622122,0.09660207365883604,0.0026551371606850383,-0.01438951720656121
160908000000,292,160908000000,FL_wheel_link,-1.401677112941164,14.609526019452652,5.397737634499609,-0.07734172401922329,0.0035257902015155395,0.012940590006213892
160909000000,293,160909000000,FL_wheel_link,0.5542494214792484,-13.51412573053914,5.036939370510012,0.09919439348246203,0.00022316813809591376,-0.013713549537763879
160910000000,294,160910000000,FL_wheel_link,-0.9531890593091105,14.661617609058956,5.655167722331422,-0.074051667837334,-0.0004189348124540478,0.013840159334274321
160911000000,295,160911000000,FL_wheel_link,1.1029974425671913,-13.184909703071025,6.705184198054854,0.10481248806689285,0.003973003860291457,-0.014691432472609673
160912000000,296,160912000000,FL_wheel_link,-1.3596353231483693,15.188038813137863,8.321977921621839,-0.06821271846875909,0.002683152056432257,0.013291010046927466
160913000000,297,160913000000,FL_wheel_link,0.6770123846432964,-12.92441882352278,8.13802119838674,0.10837916724622199,0.0029828619951656954,-0.015417281844907593
160914000000,298,160914000000,FL_wheel_link,-1.4196044243385872,15.313033004492556,8.813407295979479,-0.06596040157110011,0.0018630847491643927,0.014478013411214897
160915000000,299,160915000000,FL_wheel_link,1.3284141213468679,15.090558046540998,9.248563901638981,-0.05982862054453097,-0.0035569755669455044,-0.0016410658085468496
160916000000,300,160916000000,FL_wheel_link,1.0289081178594721,-12.87933189253698,8.906477815043132,0.1145557223742993,0.003977803524342456,-0.013982192272219566
160917000000,301,160917000000,FL_wheel_link,-1.356305849651273,15.451656888731423,9.468503813464954,-0.06199935117595713,-0.0016615900092644819,0.01646910852771323
160918000000,302,160918000000,FL_wheel_link,1.4498647434358798,-13.063988214517751,9.408245781702092,0.11485746839237171,0.0026291739769177948,-0.017337874559680458
160919000000,303,160919000000,FL_wheel_link,-1.1773585924735845,15.13045268455638,7.429093896178877,-0.06950483753778126,-0.008797991907866457,0.0187213261591252
160920000000,304,160920000000,FL_wheel_link,2.5190471819410853,-13.646028354799833,6.461948278730174,0.1068351232839406,-0.0010942980996633941,-0.016497577462525868
160921000000,305,160921000000,FL_wheel_link,-0.5245545965360784,14.412964544961289,3.001886313728912,-0.08385472071831261,-0.006168090619785801,0.018060109267305807
160922000000,306,160922000000,FL_wheel_link,-1.6625177074832682,13.545091822007656,-0.7882598670932834,0.006046228595691666,-0.025096948680013994,-0.18467253307484813
160923000000,307,160923000000,FL_wheel_link,-20.56246204472697,-9.36943892321327,3.0090221472527925,-0.003214715034070585,0.04267120054797672,0.3829471627630845
160924000000,308,160924000000,FL_wheel_link,26.486280017557906,7.959418720920612,-0.8218783466622066,0.0020455612199175494,-0.05270627901173298,-0.41325932564975243
160925000000,309,160925000000,FL_wheel_link,-25.767483206691363,-8.584952379946275,3.08561058154972,-0.0051708530508186214,0.04686096705595146,0.4210842725772599
160926000000,310,160926000000,FL_wheel_link,27.35514188070001,7.718870534748008,-0.5484468519624649,0.0010124524903035888,-0.0497083463538243,-0.42104163290461133
160927000000,311,160927000000,FL_wheel_link,-26.438642278027263,-8.614956207661441,3.2607862435890866,-0.006380391707251718,0.04597823593075372,0.4223761746138777
160928000000,312,160928000000,FL_wheel_link,27.421021540052376,7.583654684817871,-0.40114337031546926,0.00013907289717856125,-0.04758282590244425,-0.421734976359497
160929000000,313,160929000000,FL_wheel_link,-26.770558773302845,-8.718803996675883,3.681584620140196,-0.006705229883986963,0.04795281055262909,0.4224992059007644
160930000000,314,160930000000,FL_wheel_link,27.283492138761442,7.493109633673077,0.23509911587237095,0.0011230484507809423,-0.047697844762504465,-0.4224919195946417
160931000000,315,160931000000,FL_wheel_link,-26.81687042058152,-8.776228320927876,4.5918683088817,-0.003170261838112244,0.04344543508058056,0.4225060974273928
160932000000,316,160932000000,FL_wheel_link,27.69694856388949,7.409412539637842,0.9963564073455223,0.004324292612281246,-0.04515113342300693,-0.4222169379626621
160933000000,317,160933000000,FL_wheel_link,-27.11732066080894,-8.870084716139358,5.36737796423617,-0.0021711430976714295,0.04492708592227065,0.42284983971788054
160934000000,318,160934000000,FL_wheel_link,27.61030088261021,7.321409937401508,1.4872829062050452,0.005886866707083159,-0.04533122011223707,-0.4223249258102135
160935000000,319,160935000000,FL_wheel_link,-27.1764121024102,-8.964899073729125,5.854153389541272,-0.00114282936678423,0.04716736588060237,0.42231806313067044
160935000000,320,160936000000,FL_wheel_link,27.41532070605237,7.217910079963847,1.8869195087624364,0.005574690303966195,-0.04477077419196209,-0.4227752593235066
160937000000,321,160937000000,FL_wheel_link,-27.33231134769573,-9.02517283260041,6.17199829211375,-0.00046768630187049473,0.04529650065906101,0.42198313449234126
160938000000,322,160938000000,FL_wheel_link,27.529749586377992,7.176346353546128,1.83612717832966,0.005138223116940281,-0.042440495430055195,-0.42262767868682705
160938000000,323,160939000000,FL_wheel_link,-27.57274881160239,-9.054264126541057,6.358822833401969,0.0001325248820195102,0.04163629474646655,0.4219819773268059
160940000000,324,160940000000,FL_wheel_link,27.809649211198582,7.138240057624517,1.7567397434100216,0.005066456654606376,-0.03952866604146995,-0.4225914822716287
160940000000,325,160941000000,FL_wheel_link,-27.88686736766425,-9.071585560962335,6.473486641427444,-0.00016670479545824256,0.040167535874210826,0.4224695375855742
160942000000,326,160942000000,FL_wheel_link,27.98724713142216,7.093688506512395,1.7272177348852331,0.00497769706064381,-0.03863339989552474,-0.42288427745654256
160943000000,327,160943000000,FL_wheel_link,-28.038405499164313,-9.08739208404997,6.4646831443728585,-0.001010476636012711,0.0417945445899594,0.4227200693699486
160944000000,328,160944000000,FL_wheel_link,27.989558560951625,7.045202607673382,1.8600951386077547,0.004144571192096761,-0.04368330118478607,-0.4236801717933606
160945000000,329,160945000000,FL_wheel_link,-30.904501711745084,1.3794225760608245,6.6931817764423185,-0.07143778181083311,0.02068090951705168,0.2885543990376671
160946000000,330,160946000000,FL_wheel_link,8.851769595355927,10.951913981722083,2.3536727603452325,0.008699316396921458,-0.025226333447003854,-0.2665418761604597
160947000000,331,160947000000,FL_wheel_link,-24.03176280219838,-9.204317329555492,8.84680462425967,0.006628430998803348,0.03768609719313764,0.3975475935397791
160948000000,332,160948000000,FL_wheel_link,27.42139679712689,7.825768539544282,5.5590900142257125,0.016181681920818185,-0.04992900495666637,-0.41779504918904714
160949000000,333,160949000000,FL_wheel_link,-27.264425648366128,-8.657635116962606,11.360316142193751,0.01067186913794413,0.04389990021235347,0.42396103502702887
160950000000,334,160950000000,FL_wheel_link,27.99487778582786,7.307852602984018,8.213931271712513,0.016990653364757163,-0.05144154704230266,-0.4221544302843115
160951000000,335,160951000000,FL_wheel_link,-27.329055579886862,-8.977284023942131,12.681060061879197,0.005255285013978921,0.042554445022825634,0.42474416733004394
160952000000,336,160952000000,FL_wheel_link,30.260349712207603,7.116113910161214,9.46523682974277,-0.03795194475413993,-0.03301981380224752,-0.33457450347916873
160953000000,337,160953000000,FL_wheel_link,-19.388092378527386,16.845964849527096,10.190058997231775,-0.08723775688984614,0.005769971125245582,0.15479520015308992
160954000000,338,160954000000,FL_wheel_link,5.189006734244512,-15.017731273581788,11.396101044044212,0.09927684957563751,0.017693958174452056,-0.0455658492837287
160955000000,339,160955000000,FL_wheel_link,-4.166187678592529,14.183693899362845,11.25929150224267,-0.08154098505475699,-0.00784221962211289,0.023815016552540008
160956000000,340,160956000000,FL_wheel_link,-1.765595820327668,13.425876521798449,8.646525562271565,0.003344536952191796,0.00011022686638041169,-0.16033225464947276
160957000000,341,160957000000,FL_wheel_link,-19.746031235703843,-10.388755466960657,15.418125623510976,0.020181746592575083,0.05212005592022765,0.3445433218983381
160958000000,342,160958000000,FL_wheel_link,24.08602019268035,7.265859047407575,8.512008656492029,0.02565172525175099,-0.04922892097626744,-0.41019078065637266
160959000000,343,160959000000,FL_wheel_link,-27.75286497352723,-9.246457163609382,11.316923829200809,0.016337240833561896,0.055795326908674496,0.4175812411394255
160960000000,344,160960000000,FL_wheel_link,26.776778480171096,6.896654717413962,4.952441472576909,0.01896366252223717,-0.05415112246935246,-0.4215381938487512
160961000000,345,160961000000,FL_wheel_link,-27.366157689199316,-9.141111570550834,6.067915080081027,0.0040411722780791595,0.04714119118082577,0.4219275245831482
160962000000,346,160962000000,FL_wheel_link,27.88697535162607,7.16546926694929,-0.11466859141608575,0.004328113987242861,-0.053185040073143175,-0.4208877716553438
160963000000,347,160963000000,FL_wheel_link,-27.259369644206817,-8.458123030951565,3.0501551074159883,-0.011533999208558994,0.04696394580541101,0.42231232590043655
160964000000,348,160964000000,FL_wheel_link,27.827873780672,7.607725360635525,-1.6129034221997105,-0.00686255085938926,-0.05329437222594211,-0.4203397510779556
160965000000,349,160965000000,FL_wheel_link,-27.355154281986984,-8.519673454921433,3.2295230593728848,-0.015087417280401682,0.05035904765593413,0.4216231357044157
160966000000,350,160966000000,FL_wheel_link,27.557431651699424,7.428316579801701,-0.752910021137454,-0.008178102123881054,-0.05608022412667184,-0.4199636168444241
160967000000,351,160967000000,FL_wheel_link,-27.273863603450657,-8.810414468126053,4.414797537837282,-0.01214452350846868,0.05334800543038933,0.42152439237221634
160968000000,352,160968000000,FL_wheel_link,27.462505789902696,7.262649676610987,0.8025416437560429,-0.003437193612644808,-0.057097756907786866,-0.42051542489862037
160969000000,353,160969000000,FL_wheel_link,-27.36938334217961,-8.672523676380687,6.079502199937823,-0.008529753712364493,0.05517964212673905,0.42145938705764346
160970000000,354,160970000000,FL_wheel_link,27.27607461363718,7.583875513306771,2.5834345772198755,0.000704053694292295,-0.05491305648637741,-0.4213231786460898
160971000000,355,160971000000,FL_wheel_link,-27.761797747544737,-8.356166310759203,8.100276443305322,-0.0038140251056385096,0.05714045984381384,0.42095609539555734
160972000000,356,160972000000,FL_wheel_link,27.089353979133964,7.868579298206191,4.56333104126354,0.008525205235893542,-0.05805159790570707,-0.4206931795302466
160973000000,357,160973000000,FL_wheel_link,-27.548957460736105,-8.306187684744065,9.202178574327117,-0.0003979316287974976,0.06161431075415807,0.41990234960345946
160974000000,358,160974000000,FL_wheel_link,26.7497353752332,7.75896571815808,4.7677849362471125,0.009957981535732394,-0.06287829879087353,-0.4195311330901271
160975000000,359,160975000000,FL_wheel_link,-27.06177661248618,-8.400947268494871,9.189976779025267,0.0031806106609657335,0.06086433504275041,0.4198590207712717
160976000000,360,160976000000,FL_wheel_link,29.793720960787528,7.879877290793445,6.72876029598378,-0.049282456720257384,-0.04222285252144987,-0.30009510173033593
160977000000,361,160977000000,FL_wheel_link,-13.880285917702473,16.113360168563432,6.682840010750559,-0.07729522000123326,0.01057303635516081,0.1138738399331335
160978000000,362,160978000000,FL_wheel_link,3.615612572032351,-15.096085753217999,8.234212755600382,0.10791867231119853,0.0058562595237041624,-0.03487296227517751
160979000000,363,160979000000,FL_wheel_link,-2.5507315975685856,13.930978720255222,8.037452379049185,-0.06785166332291634,-0.0014650264729787468,0.020745121689837703
160980000000,364,160980000000,FL_wheel_link,-0.6140772304819108,-2.1486746671275108,7.042644440198108,0.07258337788825495,-0.007280956028586218,-0.09988363526874149
160981000000,365,160981000000,FL_wheel_link,-13.7005855780878,15.970088178603874,7.533730696175881,-0.06278861615927064,0.01664087852088266,0.11122351887679571
160982000000,366,160982000000,FL_wheel_link,3.1441177523532104,-13.655781180899677,8.759065757284942,0.11309826330754476,-0.0008561999466518145,-0.03522865771256366
160983000000,367,160983000000,FL_wheel_link,-2.083135029466591,15.132195812522031,6.686229912153799,-0.06855367431477281,0.0009048642341374316,0.019641152757928527
