%time,field.header.seq,field.header.stamp,field.header.frame_id,field.wrench.force.x,field.wrench.force.y,field.wrench.force.z,field.wrench.torque.x,field.wrench.torque.y,field.wrench.torque.z
503635000000,0,503629000000,BL_wheel_link,0.03318512109610054,-0.17775947723723518,-0.027232268674026484,-0.036185688746802676,-0.00046806983353059675,0.0046265192585941296
503635000000,1,503630000000,BL_wheel_link,1.0209285294136503,-1.7012507016278833,15.427041605096766,-0.2131744292560643,-0.10341612733291315,0.0021309155853244527
503635000000,2,503631000000,BL_wheel_link,-0.22204120500161645,-0.6489517459329317,0.5959234488229714,-0.07104369801083053,0.02974801275978301,0.002978666157360149
503635000000,3,503632000000,BL_wheel_link,-0.9311687066334158,-3.307490234002259,5.824223512211313,-0.3812423474085288,0.09985594188238694,-0.0015710158693829808
503635000000,4,503633000000,BL_wheel_link,0.1137778470379934,-0.13123399162913832,-0.628610931876461,-0.02864402626550756,-0.00867391332227846,-0.001979435651147864
503636000000,5,503634000000,BL_wheel_link,-0.01742528552360794,0.04242600552030171,-0.01671963444286255,0.0008658969548444359,0.00021761133627293266,-0.00029369785327665505
503636000000,6,503635000000,BL_wheel_link,-0.17481630341018584,-4.361736049808034,22.317663988264737,-0.47895194220574633,0.016284319538843323,0.0030142958483347013
503636000000,7,503636000000,BL_wheel_link,-0.038047944571776016,-0.2619772124743996,0.11239692058490879,-0.027949429431031753,0.004661614883087098,2.3527171911526864e-05
503637000000,8,503637000000,BL_wheel_link,0.7391551632127746,-0.6625148401099392,0.29138291380152004,-0.12370091251290535,-0.10615419846747808,-0.011122462826736085
503638000000,9,503638000000,BL_wheel_link,-2.244615423438585,-5.518508434881005,5.400415012139925,-0.621691893754886,0.24979746358675153,0.01019570206279271
503639000000,10,503639000000,BL_wheel_link,-0.003135612810174812,0.0034493452828524285,-0.7007449524055938,-0.02078794056490149,-0.001312677759758945,-0.004349675935170221
503640000000,11,503640000000,BL_wheel_link,0.07725014946438634,0.04309394006075776,0.004706405869572645,0.0022660613243673036,0.010445351953869992,0.011361642450724307
503641000000,12,503641000000,BL_wheel_link,0.8125604448372479,-4.415704352202919,6.440536268528513,-0.5346581351673569,-0.09348733775173501,-0.005213726881342251
503642000000,13,503642000000,BL_wheel_link,-0.5045240183744912,-1.8424363898399119,1.4007775371155167,-0.2100477602833793,0.060672475864328154,0.0033396529959768134
503643000000,14,503643000000,BL_wheel_link,0.1340595547171397,0.32783278487454875,-0.7656449923298168,-0.0032064655868003934,-0.005722367324540294,0.001047493122908247
503644000000,15,503644000000,BL_wheel_link,0.09800180510399764,0.11589647288739305,-0.05920260716033045,0.0001865533476871008,0.0064536810824344405,0.005688591884914497
503645000000,16,503645000000,BL_wheel_link,0.8562961005761351,-2.5980135870786683,5.254337066705194,-0.3533975915216262,-0.11595251932555557,-0.010841929777676201
503646000000,17,503646000000,BL_wheel_link,-0.6491706211947699,-2.895622459848537,3.34286736828319,-0.32956698837380605,0.06709562015854152,-0.0001474790726068223
503646000000,18,503647000000,BL_wheel_link,0.13634085663617238,-0.10138614433223267,-0.5436475385374502,-0.025577331440707958,-0.008308889586640106,-0.00011301307839930086
503646000000,19,503648000000,BL_wheel_link,0.1324778895712908,-3.7248917904492984,6.384702190234281,-0.4317586852412354,-0.02655304940584058,-0.0011306091373533972
503649000000,20,503649000000,BL_wheel_link,0.05207238999202714,0.16514364949461136,-0.7921161592731625,-0.021135644642251452,-0.0046269355328474055,0.0002550102403959644
503650000000,21,503650000000,BL_wheel_link,0.07089187413899106,0.023629657114852088,0.059861166316224054,-0.0024184150853516517,0.007596449610117442,0.006348529812936809
503651000000,22,503651000000,BL_wheel_link,1.284856201899149,-2.769710798684393,9.330413072906822,-0.33741283173135816,-0.143818080718963,-0.004650862688492158
503652000000,23,503652000000,BL_wheel_link,-0.27161243803815993,-3.1223512194230563,3.0531414503256964,-0.35744179746026594,0.020060670733750563,-0.001954025583745536
503653000000,24,503653000000,BL_wheel_link,0.16083926902760629,-0.08655773444890075,-0.5435705753411681,-0.02417163473680213,-0.007089652682822608,0.001074366488647757
503654000000,25,503654000000,BL_wheel_link,0.10180817601729131,-4.135975001305545,6.9746816344950595,-0.47959320466240757,-0.027083440569776046,-0.003145601569642241
503655000000,26,503655000000,BL_wheel_link,0.037360726068100036,0.14772647290678628,-0.7052614589894061,-0.018947318469631498,-0.0030857834854997254,0.00011955742606634687
503656000000,27,503656000000,BL_wheel_link,0.06991417913380268,0.02168817439984392,0.06178948164402573,-0.002551933658912254,0.007565862586467258,0.006229529701443736
503656000000,28,503657000000,BL_wheel_link,1.279725481770662,-2.7578181963479684,11.170625998961711,-0.3339121481514238,-0.14323703163937984,-0.00453958234888048
503658000000,29,503658000000,BL_wheel_link,-0.4792201710008379,-2.6233049152905363,2.477514932022389,-0.2984033459689467,0.04666816795792089,-0.0005435026588503748
503659000000,30,503659000000,BL_wheel_link,0.19519390017454394,-0.05258107020920062,-0.5498590417344894,-0.02054490492018148,-0.006955304186347818,0.002260963300025561
503659000000,31,503660000000,BL_wheel_link,1.8769815432971488,-1.8348703080312696,2.577312388566849,-0.2405526021250347,-0.22542063770784168,-0.01061900687696006
503661000000,32,503661000000,BL_wheel_link,0.0017619144966547623,-0.17006352242809825,0.023807005558517478,-0.03732322105339478,0.00018557292995971877,0.003323813705350247
503662000000,33,503662000000,BL_wheel_link,0.9271305288048202,-1.7484737425184183,15.776502197163236,-0.21860815272396472,-0.09340625889202386,0.0017393094385570879
503663000000,34,503663000000,BL_wheel_link,-0.24605689005412912,-0.687733567073981,0.6265274876707135,-0.0749887038406948,0.03193305552430603,0.0026020698996318302
503664000000,35,503664000000,BL_wheel_link,-0.9327088905361651,-3.2071731962344385,5.811370077908796,-0.36990264996726646,0.10064151973417422,-0.0009614908500741315
503664000000,36,503665000000,BL_wheel_link,0.15140226354112093,-0.09288295529298196,-0.6466160889118422,-0.02662048610232074,-0.006505501658921043,-0.00022984255324062786
503666000000,37,503666000000,BL_wheel_link,0.04955088350052317,0.01808450459810279,0.05918965263735719,-0.0005145606152507165,0.00896517609077307,0.008108607627347272
503667000000,38,503667000000,BL_wheel_link,1.684706299835129,-3.2799381392385394,13.522183804055384,-0.4053606733127765,-0.19484344383970864,-0.008222156431982104
503668000000,39,503668000000,BL_wheel_link,-0.06868026644814301,-1.0297315520105563,0.8453030025484871,-0.11749642581283365,0.010581257649741091,0.0018313511881009256
503669000000,40,503669000000,BL_wheel_link,0.5576267737360836,-0.1630471252444097,-0.34366971643246713,-0.039818745445599664,-0.04371750374873206,0.002518616403486648
503670000000,41,503670000000,BL_wheel_link,1.8778145941212827,-1.9058800482610008,1.9161860504365176,-0.24739157764090175,-0.22791980122226652,-0.011519101424901687
503671000000,42,503671000000,BL_wheel_link,0.006601311840679565,0.019424638840552615,-0.09412187698591122,-0.028238913111885356,-0.002143357629280142,0.0017680242003965448
503671000000,43,503672000000,BL_wheel_link,0.9430949147447834,-2.103617416125146,14.132558606336348,-0.26086539292846644,-0.09750973777658821,0.0008678650531024137
503673000000,44,503673000000,BL_wheel_link,-0.31702285737174307,-0.8974430052253223,0.7892853941501642,-0.09873158856086686,0.03977886428053592,0.0022876908732949027
503674000000,45,503674000000,BL_wheel_link,0.04891936332054768,0.4924267174046284,-0.8147780968176892,-0.0024312982368795907,-0.005457626465311071,-0.0028811893401127307
503675000000,46,503675000000,BL_wheel_link,0.06867643295603504,0.016320786209724353,0.057702391349739666,-0.002651234779931225,0.007759330574438338,0.006065262168014826
503676000000,47,503676000000,BL_wheel_link,1.6445986500713567,-3.1229304224657497,6.35942376501033,-0.37912725318213575,-0.18163071012514792,-0.0051316096276391235
503677000000,48,503677000000,BL_wheel_link,0.17331471770548523,-3.0996775967080747,3.2619349378446403,-0.3577313686840806,-0.029074717044511422,-0.00234973664243069
503677000000,49,503678000000,BL_wheel_link,0.200056057420022,-0.11984192533518251,-0.5394750884830826,-0.02543703867942236,-0.009194062945853508,0.0015713922784886562
503679000000,50,503679000000,BL_wheel_link,1.967750823880464,-2.08959579573349,2.372167722843651,-0.27069719161729505,-0.2379989357313063,-0.01153252988293238
503680000000,51,503680000000,BL_wheel_link,0.028659124869443747,-0.17917921373624734,-0.024904650637848545,-0.03661272793818014,-0.00024468928115987595,0.00459611467265672
503681000000,52,503681000000,BL_wheel_link,0.9875611265330242,-1.7442968090035063,15.382526426818488,-0.2181232829685953,-0.09990657662609687,0.002172170638703612
503682000000,53,503682000000,BL_wheel_link,-0.23511060649078333,-0.6613817979496368,0.6054028327618737,-0.07233090544221173,0.031186499499663387,0.0030708864344975587
503683000000,54,503683000000,BL_wheel_link,-0.9747916637040607,-3.3393365689740593,5.803143869908055,-0.3846251539766632,0.10451840649151353,-0.0015559613608211835
503684000000,55,503684000000,BL_wheel_link,0.10880894511016118,-0.1381589484761085,-0.6284650697809309,-0.029157951657355203,-0.00879425795327481,-0.0021818454569921156
503685000000,56,503685000000,BL_wheel_link,-0.017386070928957928,0.043334932397965105,-0.016869299152856856,0.0008790939483124265,0.00017588862490252406,-0.00029597836699025884
503686000000,57,503686000000,BL_wheel_link,-0.19738998513140713,-4.416681491036863,22.445360588949953,-0.48576041304018946,0.018438330454250224,0.0030591593540363338
503687000000,58,503687000000,BL_wheel_link,-0.03527433601890266,-0.26394506891322156,0.0782260252750532,-0.027933522524629054,0.0045871562631207285,-0.00013087176364222743
503688000000,59,503688000000,BL_wheel_link,0.6768445958459554,-0.37351554067182535,0.0408354864777942,-0.09314930286904026,-0.0993278749877259,-0.011114716037771422
503689000000,60,503689000000,BL_wheel_link,-2.2780113638642887,-5.570950658977229,5.490688736458191,-0.6275306010734635,0.25356642961146497,0.010451710182518843
503690000000,61,503690000000,BL_wheel_link,-0.0011040648316371915,-0.0625046639623169,-0.7084828697204697,-0.026931127930953747,-0.001312136964144629,-0.004423898893843382
503691000000,62,503691000000,BL_wheel_link,0.07606129457094324,0.043311642087789926,0.008079455854363217,0.0022687280252382015,0.010493789506760092,0.01144621108892745
503692000000,63,503692000000,BL_wheel_link,0.8152842936732918,-4.443803134469477,6.153459103384954,-0.5379666916405663,-0.09376356417657422,-0.005219457251000731
503693000000,64,503693000000,BL_wheel_link,-0.5135466485084894,-1.9499442934798363,1.495278322821814,-0.22225228457007878,0.060965487272548635,0.003258830491236639
503694000000,65,503694000000,BL_wheel_link,0.14506721189922733,0.3016786293142997,-0.7535301925148098,-0.003730986438972679,-0.005721262918360259,0.0014655409009926381
503695000000,66,503695000000,BL_wheel_link,0.09907266489461837,0.12263199830058194,-0.06692741097835572,0.00048590710659492196,0.006439156771429193,0.0057731184823636515
503696000000,67,503696000000,BL_wheel_link,0.8808968473788035,-2.657614240113758,5.591971861404307,-0.3609078421173289,-0.11968616057668416,-0.011313198224448949
503697000000,68,503697000000,BL_wheel_link,-0.6974751114301052,-2.8386982901203797,3.221517765412381,-0.32264053056122394,0.07288539553986062,0.00011488904988112697
503698000000,69,503698000000,BL_wheel_link,0.13529666592221068,-0.10414140171746984,-0.5519049852568244,-0.026150058809749792,-0.008598593882997689,-0.0002648562319677323
503699000000,70,503699000000,BL_wheel_link,0.049276560088064615,0.021612399056183562,0.057543796810336674,-0.00010796543495269258,0.009134618802871218,0.008494403087509228
503700000000,71,503700000000,BL_wheel_link,1.9350860083561963,-3.090071200661352,15.374386364578214,-0.38265767825636865,-0.22274045270737117,-0.008289304273613005
503701000000,72,503701000000,BL_wheel_link,0.1218179044211962,-0.4889944993003129,0.3721327897123007,-0.05612673719408025,-0.008547590035760704,0.002324926212775885
503702000000,73,503702000000,BL_wheel_link,0.6014489120268406,-0.2093792642254098,-0.3263687033461031,-0.0425688753354103,-0.04680626511875471,0.002431525440488292
503703000000,74,503703000000,BL_wheel_link,0.7485293632954779,-4.370855276167643,4.819277623670492,-0.5189110006855906,-0.10508003189251156,-0.006834119201677785
503704000000,75,503704000000,BL_wheel_link,0.10936449246219991,0.01404440368953648,-0.6661126066194115,-0.026267372329519763,-0.006431006269784484,0.0009304389605215018
503705000000,76,503705000000,BL_wheel_link,0.0913237624668945,0.10961315523857763,-0.05454508177906392,0.00033197542486699313,0.00658045218008202,0.0057281419236029155
503706000000,77,503706000000,BL_wheel_link,1.2991157126842525,-2.6568060362902854,11.00889570344329,-0.331733931156282,-0.15364258100790018,-0.006908884039835028
503707000000,78,503707000000,BL_wheel_link,-0.1631210864599133,-2.2513474822173007,2.0657727122486524,-0.2608397373093016,0.012824320509867704,-0.001490188755564125
503708000000,79,503708000000,BL_wheel_link,0.2089463282710973,0.09966069692883187,-0.5861635632418771,-0.0089423495082926,-0.009307941384846153,0.0015546734932119265
503709000000,80,503709000000,BL_wheel_link,2.025832274952484,-2.148979510285538,2.272961678634945,-0.27685648827848486,-0.24497122972792548,-0.011738362842049058
503710000000,81,503710000000,BL_wheel_link,0.03951574443013971,-0.18450803997814857,-0.04636218000067267,-0.037093998642257986,-0.001313246821957128,0.004390866625288545
503711000000,82,503711000000,BL_wheel_link,1.0876861706220176,-1.8006769078507785,15.165074152692153,-0.22558194702851933,-0.11183761219885016,0.0015995802803848436
503711000000,83,503712000000,BL_wheel_link,-0.19131073548621097,-0.6484472681475981,0.590955465872199,-0.0710466646946738,0.02641647677818665,0.002947163289533603
503713000000,84,503713000000,BL_wheel_link,-0.8746140644500627,-3.3392317590278617,5.78234834064728,-0.3852804370247632,0.09319039714167213,-0.0018112526802095338
503714000000,85,503714000000,BL_wheel_link,0.1168517811722509,-0.12953324591029286,-0.6359280930415028,-0.02865123292068749,-0.008972073000240112,-0.001997707347800019
503715000000,86,503715000000,BL_wheel_link,-0.01743753216682436,0.041497288481537525,-0.016640052643058317,0.0008704656907984296,0.00019574888621340527,-0.00028739162051305827
503716000000,87,503716000000,BL_wheel_link,-0.20010888324335863,-4.395033070035086,21.827510186415267,-0.48170029366364187,0.0171723027096663,0.003513894591647297
503717000000,88,503717000000,BL_wheel_link,-0.059241402684082345,0.06854024628777439,-0.3217341342836636,-0.027971634004036502,-0.0024450669588400274,-0.007690241773628801
503718000000,89,503718000000,BL_wheel_link,-0.011534741901354291,0.04196686171144337,-0.022893950382162288,0.0006911955080666193,-0.00012149167663513111,-0.0003545349424343235
503719000000,90,503719000000,BL_wheel_link,0.05451645073604735,0.22624344219383213,-0.49633854909200725,-0.016833446764038085,0.0003761437554200657,0.004270265083501534
503720000000,91,503720000000,BL_wheel_link,-0.021357835740332787,-3.3823039616035935,10.085954301707787,-0.40123055033518573,0.006985764393002775,0.004140326781174208
503721000000,92,503721000000,BL_wheel_link,0.02039102149366215,0.19707327485227263,-0.7711416256133876,-0.02218555214357998,-0.0029901840159566907,-0.002479354886650225
503722000000,93,503722000000,BL_wheel_link,0.07232719535976141,0.02072336082377902,0.05837785327142811,-0.002475262752019767,0.007958752158483486,0.006679856387500507
503723000000,94,503723000000,BL_wheel_link,0.21264132821696125,0.21740766008410184,-0.7712060463084223,-0.010229937628292097,-0.013012476793091756,2.939015947431376e-05
503724000000,95,503724000000,BL_wheel_link,0.04801374530384646,0.025711924414618,0.04789232245890604,-0.00028233433726332184,0.009223680535561553,0.008232512175359273
503725000000,96,503725000000,BL_wheel_link,1.9273645531166808,-3.6806616389929543,11.540983092745009,-0.45880018967504566,-0.22617391396149894,-0.010948332240657485
503726000000,97,503726000000,BL_wheel_link,0.1740554201449761,-2.2498163556660464,1.9773185814016494,-0.25956884075889086,-0.025594524625597512,-0.0015741326146489036
503727000000,98,503727000000,BL_wheel_link,0.20627503855086227,0.17233973078042492,-0.6687679720981607,-0.008072034988160023,-0.012097335219647384,0.000365326334908018
503728000000,99,503728000000,BL_wheel_link,0.03894968526157747,0.0147519539390175,0.06808015547354365,-0.001022085107445985,0.009126126356582838,0.0074611033618709206
503729000000,100,503729000000,BL_wheel_link,2.0438676756815344,-3.604330915197772,11.261812946941074,-0.4472645077326197,-0.23865992814817924,-0.010559068039627806
503730000000,101,503730000000,BL_wheel_link,0.20781445241362773,-1.8287894584545736,1.601681356009126,-0.21172232593108514,-0.026283936507439584,-0.0006565621571783219
503731000000,102,503731000000,BL_wheel_link,0.21090391516945606,0.16078916761241122,-0.651612809643632,-0.008050193707707744,-0.012098407469608198,0.0006604585807320432
503732000000,103,503732000000,BL_wheel_link,0.03987576234733982,0.01800743687326478,0.0635193562200472,-0.0008944856405779565,0.009262898754447156,0.00747178173629761
503733000000,104,503733000000,BL_wheel_link,2.1040954482241245,-3.4821611869167777,12.07192023876231,-0.4327673140336473,-0.24493813174534285,-0.010374264274507147
503734000000,105,503734000000,BL_wheel_link,0.21881654041921983,0.029036500306219237,-0.34809849284067584,-0.07098935895670622,-0.00019256975931183917,0.010281887408798962
503735000000,106,503735000000,BL_wheel_link,0.15970483659764734,0.7792514487603313,-1.7248841300568252,-0.06979891410227655,-0.025069748125542253,-0.008454241336999384
503736000000,107,503736000000,BL_wheel_link,-0.050807949036295055,0.1964566141526154,-0.20580116751903754,-0.05510228844802232,0.000988879720935129,-0.0010483747883705853
503737000000,108,503737000000,BL_wheel_link,-0.3273548143573922,2.043167105169356,-2.1984039096651404,-0.0430139920262862,0.010721397503630143,-0.002170456414142896
503738000000,109,503738000000,BL_wheel_link,0.32226900866665903,0.5264028458210247,-0.7192833184723666,-0.02161781924301998,0.011951485406361432,0.017481086736106436
503739000000,110,503739000000,BL_wheel_link,0.002878500979831139,0.8225417043791313,-1.7479216834797053,-0.01724002255799434,-0.03752186452672722,-0.023687784591167122
503740000000,111,503740000000,BL_wheel_link,0.19189794498943225,0.2489047239087528,-0.2780459901945987,0.016477416809097766,0.024991246142473375,0.029058061330793097
503741000000,112,503741000000,BL_wheel_link,-0.4057773009837491,1.4484179222925964,-1.8368744125796013,0.011485095388374094,-0.020465623927565253,-0.023883576922159394
503742000000,113,503742000000,BL_wheel_link,-0.02240223343280849,-0.22252227370920338,0.5567737101900363,-0.01175894046214549,0.026358760997327035,0.01857349509825225
503743000000,114,503743000000,BL_wheel_link,-0.11752452193053048,1.4851794999229617,-2.0689645997928845,0.014307280463632135,-0.016711624739795386,-0.012924868112050753
503744000000,115,503744000000,BL_wheel_link,0.07496119128930072,0.05315886254427415,-0.01091134773314815,0.0007297836290535769,0.009528231698833248,0.008834639242821333
503745000000,116,503745000000,BL_wheel_link,0.18554600870441157,0.38134260181993046,-1.1080404686983285,-0.009480437405765775,-0.012739569857545036,0.0029599625158714883
503746000000,117,503746000000,BL_wheel_link,-0.03732735780580566,0.10746004683581506,-0.07167606648429828,0.0021998141372966953,2.3967154369709462e-05,-0.0015857316513139346
503748000000,118,503747000000,BL_wheel_link,0.03059066527289486,-0.14877619733108263,0.36060037780955806,-0.011356947542257653,0.013568204568350374,0.00786723266216268
503748000000,119,503748000000,BL_wheel_link,-0.07740271356039885,1.3655866555767568,-1.7728756854293377,0.011378963411672416,-0.011222362426740505,-0.01183970363321494
503749000000,120,503749000000,BL_wheel_link,0.07268878101746018,0.044785983620644634,0.025223157941686045,-0.002273829289748357,0.00795852534252382,0.00581287687731601
503750000000,121,503750000000,BL_wheel_link,-0.1034372530747493,0.8542696324634862,-1.1964569067089812,0.0006262094131332741,-0.008160110362547313,-0.007382623644535904
503751000000,122,503751000000,BL_wheel_link,0.04895187626853995,0.010516274036917093,0.06775964179066483,-0.002896201027437578,0.0075026201850464085,0.005234967678086058
503752000000,123,503752000000,BL_wheel_link,-0.08942915177591682,0.7229123598768524,-1.0526314446081901,-0.0005584844444235016,-0.007254160776478962,-0.005670848530102877
503753000000,124,503753000000,BL_wheel_link,0.04172851769133262,0.00022192648491559282,0.08190613780505643,-0.003168910816689278,0.007332643145863115,0.0049708248536873365
503754000000,125,503754000000,BL_wheel_link,-0.0610766071638707,0.6811736557868839,-1.07020645967334,-0.0014463807122863182,-0.008389152256932538,-0.0048085334273190285
503755000000,126,503755000000,BL_wheel_link,0.038545059058794226,-0.004023515772002809,0.08641515706957763,-0.003084151502775821,0.007399150460632052,0.005083454345810097
503756000000,127,503756000000,BL_wheel_link,-0.08693808857809412,0.6799751413580049,-0.9916073393735223,-0.0009166729690807253,-0.006739468184772926,-0.005377716291696712
503756000000,128,503757000000,BL_wheel_link,0.040971296101239,-0.001735151458196995,0.0855828602884855,-0.0032392143969193934,0.007342795120471582,0.004931288459112965
503756000000,130,503759000000,BL_wheel_link,0.06364285402861945,0.08121547542918414,-0.03004432795823745,-0.0001116627396517641,0.006536229323517936,0.0049942950243019
503760000000,131,503760000000,BL_wheel_link,-0.08222141572457045,0.6280140831638356,-0.8331514998305605,-0.00047778370624774113,-0.004119351331718204,-0.0052198825212664895
503761000000,132,503761000000,BL_wheel_link,0.05308306896230026,0.019085788670883484,0.06768342426431716,-0.0034407397862233824,0.007305660263845275,0.004565397756399356
503762000000,133,503762000000,BL_wheel_link,0.16381095269561424,0.3027497971503845,-0.8853454305575843,-0.008611025233493433,-0.01296000236482792,-0.0006016074524825199
503765000000,134,503763000000,BL_wheel_link,0.028148057732853855,0.01935265470144343,0.06700889473754579,-0.0009061231789321842,0.00917231528473245,0.0068610900456379156
503765000000,136,503765000000,BL_wheel_link,0.05872496259156607,0.024211385972677683,0.06013801027817569,-0.0031283338930367366,0.007789680551287514,0.005141242347641085
503766000000,137,503766000000,BL_wheel_link,0.24510350392692654,0.16551784589924942,-0.8641643138680086,-0.013955182724834132,-0.01491994864183797,0.001058081752328638
503767000000,138,503767000000,BL_wheel_link,-0.051565437576242185,0.12181954982213719,-0.0682664753810435,0.003441119262181708,0.0011572998918362677,-0.0007032161872651034
503768000000,139,503768000000,BL_wheel_link,0.01069127258190792,-0.19461259244681625,0.45045672156536093,-0.01210445485937046,0.016295193320454187,0.009867787336987469
503769000000,140,503769000000,BL_wheel_link,-0.1098574070554656,1.3872434113805476,-1.8490861828558212,0.012488676386554712,-0.011669817918684426,-0.012157161068795188
503770000000,141,503770000000,BL_wheel_link,0.05782851133078082,0.0274466281916875,0.051375352305492755,-0.0024082220680303953,0.008196503568440778,0.005770444871235229
503771000000,142,503771000000,BL_wheel_link,-0.1268602936740681,0.8604901129852994,-1.2490348912379416,0.0006444779192888743,-0.008903196440460916,-0.007679127144630444
503772000000,143,503772000000,BL_wheel_link,0.03235619184026232,-0.007370469108296796,0.09736252459105219,-0.0030719984140170735,0.007763051153509759,0.005185116120760887
503773000000,144,503773000000,BL_wheel_link,-0.11756505783093443,0.7403471274895459,-1.1030053087158922,-0.0004164812184914244,-0.007840515359442106,-0.006204296517563542
503774000000,145,503774000000,BL_wheel_link,0.02675223119191847,-0.015379631722986797,0.10926967993885103,-0.0033490635476679863,0.0075757614662599875,0.0049016203058149296
503775000000,146,503775000000,BL_wheel_link,-0.08792666200912211,0.6981279512251788,-1.114114341346765,-0.0012637143586537647,-0.008828216160541526,-0.005317812772535147
503776000000,147,503776000000,BL_wheel_link,0.026633212371316967,-0.01747994125153253,0.11018856184786135,-0.003271430886925424,0.0075976023781642735,0.0049929644720218685
503777000000,148,503777000000,BL_wheel_link,-0.11139346040021517,0.6963268393826079,-1.0303121760033502,-0.0007251221156116794,-0.0070788000169823145,-0.005895580892074233
503777000000,149,503778000000,BL_wheel_link,0.03120795308414641,-0.011565466593365503,0.10483895773127576,-0.003401731203588578,0.00749864426056318,0.004796097859356866
503779000000,150,503779000000,BL_wheel_link,0.023912578894112038,0.4262984701844061,-0.9231332494611404,-0.006834175905578395,-0.009241431845271889,-0.0011532068039482243
503780000000,151,503780000000,BL_wheel_link,0.06936159756507536,0.1023493891370041,-0.061746896081266524,0.0007471742678780459,0.0063822932818477,0.004852992396402373
503781000000,152,503781000000,BL_wheel_link,-0.09086725852821109,0.6083631989129463,-0.7997918086803114,-0.0005709424286891732,-0.0036865635667396616,-0.005530389621988166
503782000000,153,503782000000,BL_wheel_link,0.05476592431233959,0.028870311737834664,0.06235383059796826,-0.0034557962441459983,0.007283190727858867,0.004215969022446264
503783000000,154,503783000000,BL_wheel_link,-0.4093964656558516,-0.25381651730868354,1.0901456426711524,-0.04407779444703599,0.028049416870013298,-0.005559783013881046
503784000000,155,503784000000,BL_wheel_link,0.08425822782393386,0.3115152949924852,-0.4809095152122049,0.006666742531101569,-0.007521442367987234,-0.005221966223178893
503785000000,156,503785000000,BL_wheel_link,-0.002070642562956821,-0.004966657147773102,0.005988469316143515,-0.00020094296835846995,5.049508853009913e-05,-3.7098255463910845e-05
503786000000,157,503786000000,BL_wheel_link,0.2769723062747936,1.048648591941923,-1.8500130832901394,0.005382928107611793,-0.00786145758809154,0.0007797069772617644
503787000000,158,503787000000,BL_wheel_link,-0.006137081538654353,0.10300146967356971,-0.11683279192801775,0.0031107968123688097,-8.562909769080319e-05,-0.00045705247193813793
503788000000,159,503788000000,BL_wheel_link,-0.15887731768078367,0.4288808647359277,-0.23422931080231882,-0.012781388905338224,0.01449979210894805,-0.00222037890674407
503789000000,160,503789000000,BL_wheel_link,0.005922632826978504,0.13934011147625208,-0.1721807555823523,0.004360577426609082,-0.0007403728090901352,-0.0008209223397327976
503789000000,161,503790000000,BL_wheel_link,0.29170392704946363,0.7328463426120619,-1.6254931206014174,-0.00039975439863677506,-0.014230286420417779,0.000810049279340032
503791000000,162,503791000000,BL_wheel_link,-0.005820946598468893,0.09988673811579707,-0.11843182987358164,0.0034027394195419412,6.719592273533945e-05,-0.0001292970047656537
503792000000,163,503792000000,BL_wheel_link,-0.2129961861588478,0.49652841613925625,-0.31129414518928267,-0.012084971526665593,0.014938868693430503,-0.002514644808557835
503793000000,164,503793000000,BL_wheel_link,0.0010417227902669926,0.11682087421599921,-0.14355295775053661,0.003700371344261126,-0.0003784136770046821,-0.0005346316887112075
503794000000,165,503794000000,BL_wheel_link,-0.04467521111407155,0.5787839238966618,-1.1558078609989708,-0.006991965146399647,-0.02300424305390209,-0.01508755564571048
503795000000,166,503795000000,BL_wheel_link,-0.02926707470493587,-0.09969660066153371,0.39014851853576454,-0.005188297861286967,0.029995369888238227,0.018768751779896724
503796000000,167,503796000000,BL_wheel_link,-0.2196370695412651,1.291438689674461,-1.8105662594221144,0.012966965111906563,-0.022966408009412298,-0.022930098370823215
503797000000,168,503797000000,BL_wheel_link,0.035712653509031134,-0.05898566750663413,0.28520997565723294,-0.0069902046579372375,0.02333423276236168,0.013381030999222573
503798000000,169,503798000000,BL_wheel_link,-0.04777888553606942,0.513885143409485,-1.12405696132678,-0.006214799535004626,-0.020664543712418146,-0.011049707483938262
503799000000,170,503799000000,BL_wheel_link,-0.033520355670477744,0.09090684612854713,-0.06824432511650019,0.002192950319115384,0.00034004689585099613,-0.0009754388748240566
503800000000,171,503800000000,BL_wheel_link,0.05423908456474308,0.627631900691143,-0.9646990630516072,0.0014833717044622774,0.010583994927836057,0.00902145402773634
503801000000,172,503801000000,BL_wheel_link,0.004681963900869529,0.08076664501050466,-0.10761099416207469,0.0030154754917527385,-5.156130132311695e-05,8.245215328652009e-05
503802000000,173,503802000000,BL_wheel_link,0.3223965631014077,0.3493482383421729,-1.2600440706913323,-0.008544110802826695,-0.010548056031934476,0.008144049595865035
503803000000,174,503803000000,BL_wheel_link,-0.005581662810508679,0.07569522350043674,-0.09279047057522499,0.0027901890010570436,0.0002037001774536707,7.339985407067625e-05
503804000000,175,503804000000,BL_wheel_link,-0.25485642616760124,0.5126409610103537,-0.32203518145778676,-0.008821179474478379,0.011776308405343917,-0.005228441849739523
503805000000,176,503805000000,BL_wheel_link,0.02478984200782636,0.029716838757995405,-0.06880053426773348,0.0019031794671339217,-0.00015531773856385437,0.000811287194316915
503806000000,177,503806000000,BL_wheel_link,0.2620785045465087,0.4610514971306617,-1.3458287683382704,-0.005500062278287232,-0.012339392412790152,0.004685275354335178
503806000000,178,503807000000,BL_wheel_link,-0.024549094387926844,0.06167019611067943,-0.05479438222442184,0.0016106672754249768,0.00018131496575351375,-0.0007128673840207609
503808000000,179,503808000000,BL_wheel_link,-0.20494396853168556,0.49441019132041975,-0.31179600431760834,-0.008506766467677174,0.01407643245809988,-0.0027335662601575363
503809000000,180,503809000000,BL_wheel_link,0.02463045329698612,0.02894562313311421,-0.06648529435461825,0.0016730374868828184,-0.00013339096597317975,0.0007488204313472618
503810000000,181,503810000000,BL_wheel_link,0.18694225452710853,0.5254546978823472,-1.3770913250401922,-0.005853063475762833,-0.01579577340675508,-0.00045834892933385436
503811000000,182,503811000000,BL_wheel_link,-0.028928863557362287,0.06476211555728806,-0.055568776906569514,0.0017926086295784983,0.00040143987350619323,-0.0006089649723691134
503812000000,183,503812000000,BL_wheel_link,-0.20703414032765438,0.4739653059723832,-0.27193151445344355,-0.008539309038540784,0.017257035383922575,-0.00026594783222493447
503813000000,184,503813000000,BL_wheel_link,0.027128613062794092,0.031962011621846205,-0.07386511656168966,0.0018585598150155749,-0.00013825169246663648,0.0008334755292921918
503814000000,185,503814000000,BL_wheel_link,-0.04964789677304571,0.586204344219575,-1.254087252011768,-0.00887801419452813,-0.02552338917855959,-0.01560866053515574
503815000000,186,503815000000,BL_wheel_link,6.9138833722593365,7.949022245044831,76.24816203986111,0.7646613399183569,-0.6981608901559261,0.01206489009486769
503816000000,187,503816000000,BL_wheel_link,0.17605312606839224,0.20434434798334478,0.2565216964162578,0.013225285314944126,-0.020527927715638557,0.001055821808194017
503817000000,188,503817000000,BL_wheel_link,-0.014049242748117481,-0.018999370639206398,-0.010805745946545,-4.2446982645682834e-05,0.0016805650528156477,-7.788514128497371e-06
503818000000,189,503818000000,BL_wheel_link,2.2062352009540094,1.3649711182621338,23.61133292759458,0.12107920647283067,-0.25138668950550186,0.0053867227148522625
503819000000,190,503819000000,BL_wheel_link,0.01743638120175766,0.01871021278448204,0.05340600048615477,0.002652782582818813,-0.0018102688128413622,0.00023521521741963404
503821000000,191,503820000000,BL_wheel_link,-1.1028860895623804,-1.6287818467052386,12.408600198097622,-0.19644858268596646,0.11814169747472608,-0.00010219332958067914
503821000000,192,503821000000,BL_wheel_link,-0.05278732474781831,-0.06541178493598433,-0.03727549489538579,-0.005330684738606355,0.006216150793748484,-0.00020557990368508846
503822000000,193,503822000000,BL_wheel_link,-1.1655868269040943,-0.6044277223734165,20.500472841330865,-0.09420774782472577,0.13135908555008205,-0.00029822970733368653
503823000000,194,503823000000,BL_wheel_link,-0.43515068563129156,-0.45871693376714257,0.19093396798078724,-0.049734596732434154,0.049186906200096706,-0.000572281307587113
503824000000,195,503824000000,BL_wheel_link,0.062371874083893386,-0.014524586913034642,0.12279340119257505,-0.006250838416151848,0.008717137606749437,0.0034439707992637665
503825000000,196,503825000000,BL_wheel_link,1.5256059458198776,1.4885947314817232,11.231900637925916,0.1180600861986535,-0.15177768760782565,0.0007907722655193876
503826000000,197,503826000000,BL_wheel_link,-0.2152045433659403,-0.5103914437273522,1.460659133619452,-0.0367168497853294,0.019700373724666483,0.001562797366489589
503827000000,198,503827000000,BL_wheel_link,1.2037243918559652,0.957558311755661,13.70805652987482,0.046103499731079675,-0.11257392972136385,-4.2592248908066184e-05
503828000000,199,503828000000,BL_wheel_link,-0.15665308672224115,-0.4478909370108686,1.27974592963949,-0.03814116965756613,0.017180568111731555,0.0005516745413071404
503829000000,200,503829000000,BL_wheel_link,1.215872078882459,0.5710942832218314,12.51825130288725,0.006232388514781147,-0.11784020158013174,-0.0008478027228181802
503830000000,201,503830000000,BL_wheel_link,-0.12721292197983994,-0.4219000556244436,1.178091958736478,-0.037937914964335795,0.016655222115967025,0.00014746943841562271
503831000000,202,503831000000,BL_wheel_link,1.1714492554797835,0.41205559735326136,11.892741890110996,-0.009258248624457753,-0.11446731516057373,-0.0011088587796310046
503832000000,203,503832000000,BL_wheel_link,-0.11262105778870739,-0.4046759285086318,1.117674811905501,-0.037424675467114386,0.016986039794900737,0.00013033421371049674
503833000000,204,503833000000,BL_wheel_link,1.1013486718495775,0.3511712910222078,11.524636580155747,-0.014293138075596817,-0.10720824630846063,-0.0011317576645500649
503834000000,205,503834000000,BL_wheel_link,-0.1050981563171858,-0.39226490232762795,1.081069578267073,-0.03690898822976203,0.017491872506280724,0.0002520383420428025
503835000000,206,503835000000,BL_wheel_link,1.0438427887979655,0.33775558242353154,11.310480510055946,-0.014501432754598226,-0.10094812888783047,-0.0010722458697305596
503836000000,207,503836000000,BL_wheel_link,0.382689613360994,-0.39046632309579754,-0.4219861668137346,-0.05094897458807615,-0.019010638160542347,0.005702315951116348
503837000000,208,503837000000,BL_wheel_link,-0.015608705022968045,0.0758344026199784,-0.10881380926865658,0.0030948884436591507,0.0014377686851817738,0.0001249247995830629
503838000000,209,503838000000,BL_wheel_link,-0.2028339678523272,0.5428588248763326,-0.8718911921595401,0.0024312955089797793,-0.009769733101426353,-0.009417274642144651
503839000000,210,503839000000,BL_wheel_link,-0.06399989018843902,-0.15747319040492347,0.5263964661140429,-0.010311217453311693,0.028109529805870344,0.013461309465247599
503840000000,211,503840000000,BL_wheel_link,-0.034366642315371565,0.5518344092700368,-1.2327537845765932,-0.006436014809945972,-0.02307900279470645,-0.012949185490644805
503841000000,212,503841000000,BL_wheel_link,-0.04100087445776215,0.06172280882738492,-0.05315621546790229,0.0017774826148898738,0.0008618060274659184,-0.0008123868460867747
503842000000,213,503842000000,BL_wheel_link,0.15106235818972313,-3.866511065408841,10.729957405505012,-0.5197657823830206,-0.04478632631693116,0.0010383891162837958
503843000000,214,503843000000,BL_wheel_link,-0.060530774270850504,-0.2339400818203996,-0.3110572674681453,-0.023234231957340805,0.0058688762386474025,-0.0003312281878487958
503844000000,215,503844000000,BL_wheel_link,0.02181098555629882,0.11148991765891099,-0.6922541121965953,-0.017406816118763185,-0.019809046508492457,-0.006325601812096647
503845000000,216,503845000000,BL_wheel_link,0.12760529658758657,0.11354267953332886,-0.14111142868303378,0.008603570736471972,0.019673812171485193,0.017111581636919056
503846000000,217,503846000000,BL_wheel_link,-0.007760564591637875,0.31793890855362,-0.8728598565865664,-0.009613405194529766,-0.0190043701555537,-0.008477058159019432
503847000000,218,503847000000,BL_wheel_link,-0.1258437342092509,-0.1851224171146656,0.6275946847251453,-0.013618876204994336,0.022463085472227418,0.007797836829113723
503848000000,219,503848000000,BL_wheel_link,0.5834004271304234,-2.2717727704077317,17.015565834713513,-0.3201338142595642,-0.05393034656156723,-0.0015796543056774345
503849000000,220,503849000000,BL_wheel_link,-0.09536878565215458,0.08234211156366657,-0.8152542459638679,-0.027566883962332516,-0.014637425903091129,-0.006325708566693588
503850000000,221,503850000000,BL_wheel_link,-0.04517587558228099,-0.11070813371891161,0.39183098030486274,-0.009638171492067266,0.015413444900623003,0.005730952387396653
503851000000,222,503851000000,BL_wheel_link,-0.17071395411339013,0.638282244360915,-1.1097582602536347,0.0020799683708547694,-0.015071873282419641,-0.01076941952266628
503852000000,223,503852000000,BL_wheel_link,-0.02283154688508848,-0.09310064242410501,0.3561137762404649,-0.008596645726069767,0.01698482675169039,0.007250252057520688
503853000000,224,503853000000,BL_wheel_link,0.05595200880361834,0.19059972972428044,-0.7228814943085097,-0.010822633604649677,-0.017751200940960443,-0.005620193105249989
503854000000,225,503854000000,BL_wheel_link,-0.14214108547089874,0.629545001287655,-2.9302166593760925,0.042030334538431885,0.010028232874434799,0.0014574252777522327
503855000000,226,503855000000,BL_wheel_link,0.010433314913579116,0.006424696872198356,-0.01756671774949318,0.00043060142503185706,-4.067483077765458e-05,0.0003668049581744652
503856000000,227,503856000000,BL_wheel_link,0.05011422137726111,-0.03030479236447682,-0.46309780333980166,-0.017585247669566706,-0.01623270689168284,-0.0033904180570902692
503857000000,228,503857000000,BL_wheel_link,0.12412370638608047,0.2507450240559607,-0.6821977556114487,0.01658749371206515,0.02750365723921541,0.011122291259201533
503858000000,229,503858000000,BL_wheel_link,0.10967542985481707,0.07480240775756929,-0.6950420066892198,-0.017256602682038057,-0.021263749391834154,-0.005982100024881655
503859000000,230,503859000000,BL_wheel_link,-0.04791177207275853,0.46853729638297026,-1.0289962006295845,0.03211706653198931,0.010948455065983275,0.003956978197183965
503860000000,231,503860000000,BL_wheel_link,0.007446134497686684,-0.08379539870396453,-0.15157330240444297,-0.03408608625363847,-0.00134975509598214,-0.00013330094031757537
503861000000,232,503861000000,BL_wheel_link,0.1017780033508573,0.2676067606964554,-0.6295376697691273,0.018434419230665456,0.003072821473805461,0.005450105419492031
503862000000,233,503862000000,BL_wheel_link,0.05505982993341456,0.18841955591393886,-0.6113786378998388,-0.017086349101397703,-0.006156601846313243,-0.0009562734745885452
503863000000,234,503863000000,BL_wheel_link,-0.04237162298407372,0.3755029649315944,-0.7583421599014022,0.023886478165746558,0.0076900255435930435,0.0028581342771689276
503864000000,235,503864000000,BL_wheel_link,0.030504958833693023,0.08658392799187588,-0.4196962972268852,-0.02760167022462298,-0.0054943293428379916,-0.002834493320672157
503865000000,236,503865000000,BL_wheel_link,-0.02539638545183051,0.38364018011701484,-0.7986654055486495,0.024814355033700372,0.007614727440661282,0.0032593406202938305
503866000000,237,503866000000,BL_wheel_link,0.13970338429628326,0.0741470854569163,-0.62617326705385,-0.02261390881070974,-0.011008802334743675,-0.0005806204021259914
503867000000,238,503867000000,BL_wheel_link,-0.14033356295685712,0.40896148959419076,-0.7458856138302183,0.024555996734085428,0.009778347426326918,0.0006508170918436058
503868000000,239,503868000000,BL_wheel_link,0.07715819171204412,0.059733194479534776,-0.47679064746882716,-0.025516038451561904,-0.008008646751322526,-0.0018471878195221506
503869000000,240,503869000000,BL_wheel_link,-0.09263805859095396,0.38413330004449914,-0.7371123347039661,0.023724519370147613,0.008574703339034363,0.0015845571251047296
503870000000,241,503870000000,BL_wheel_link,0.11639182112314081,0.061230186390402924,-0.5582177254765471,-0.023466944457453273,-0.009794260656356291,-0.0008977300163799037
503871000000,242,503871000000,BL_wheel_link,-0.13672036074731742,0.40337624749590506,-0.7531640334934869,0.024629201032106834,0.009800179411705166,0.000635589407487808
503872000000,243,503872000000,BL_wheel_link,0.10432454115284873,0.04231949654388924,-0.5036720900092013,-0.02500180311259631,-0.009139581186666128,-0.0011946480418002664
503873000000,244,503873000000,BL_wheel_link,-0.11935207299205275,0.3951642514794557,-0.7599285147116017,0.024579342940753274,0.009485403054988864,0.0009681730708151755
503874000000,245,503874000000,BL_wheel_link,0.12281182527067824,0.036471962856233234,-0.5324524734023208,-0.024373541852317798,-0.009947734200136813,-0.0007325208124070045
503875000000,246,503875000000,BL_wheel_link,-0.13393768497755237,0.3990429210407957,-0.7628502632348069,0.024791474654609885,0.00987594692317232,0.0006267256335217614
503876000000,247,503876000000,BL_wheel_link,0.11657749392232178,0.029641088074815608,-0.5091187280255431,-0.024916253536080946,-0.009614988732579408,-0.0008337854812768652
503877000000,248,503877000000,BL_wheel_link,-0.12577250721569727,0.39376033801233085,-0.7642847930335634,0.02470933638477735,0.009710800408558262,0.000768530830869721
503878000000,249,503878000000,BL_wheel_link,0.039393461764474724,0.19851551834955133,-0.7279745976523408,-0.022873284016813697,-0.01138299784898068,-0.0037676856160043302
503879000000,250,503879000000,BL_wheel_link,-0.10426062036113343,0.3511145320533264,-0.7121206540365422,0.022890868871081712,0.00901581125455243,0.001129010854328501
503880000000,251,503880000000,BL_wheel_link,0.013425973154678968,0.1706785861877703,-0.6349348755940214,-0.02220911885623264,-0.00920626146254231,-0.003017905948731925
503881000000,252,503881000000,BL_wheel_link,-0.04742801472687251,0.28934005680188163,-0.6156983098762496,0.019488788682372495,0.0068422987181232485,0.0021347707426274355
503882000000,253,503882000000,BL_wheel_link,0.10661925156320712,-0.04271143500631172,-0.38512677202590995,-0.02369049854350417,-0.006532296386837591,0.0017782367432291543
503883000000,254,503883000000,BL_wheel_link,-0.12269874623713632,0.39731451919285843,-0.8349824302945794,0.026470409736661774,0.01056153833187819,0.0007594098892258383
503884000000,255,503884000000,BL_wheel_link,0.18609642141139926,-0.08649485081706244,-0.47491026651440493,-0.026385614574260648,-0.011285188817405055,0.001645295234468748
503885000000,256,503885000000,BL_wheel_link,-0.17125286548584473,0.4293759435124177,-0.8710679532824982,0.027984780130600552,0.011976402829820423,-0.000285694136796169
503886000000,257,503886000000,BL_wheel_link,0.16622619389496002,-0.03658046636980106,-0.5133837735881313,-0.026303092089094343,-0.011787126569380852,5.1492620666887014e-05
503887000000,258,503887000000,BL_wheel_link,-0.1428041233529756,0.39271080181878737,-0.7861389410005146,0.025300893136751518,0.010399006439561017,0.00019907593673235786
503888000000,259,503888000000,BL_wheel_link,0.13012832308596028,0.008489475590035891,-0.5135217090508059,-0.025015692179021567,-0.010312153743596428,-0.0004802707429179551
503889000000,260,503889000000,BL_wheel_link,-0.12604716587553938,0.37703841721244946,-0.7514696405083577,0.024184359040747297,0.009622197459411144,0.0005438568522683667
503890000000,261,503890000000,BL_wheel_link,0.11320691081757434,0.027144467180851617,-0.5074498437811347,-0.024546359763837164,-0.00949325350209025,-0.0006862382645068986
503891000000,262,503891000000,BL_wheel_link,-0.12364645562650976,0.37902473968274986,-0.7622327290991744,0.024461992827546755,0.009662062640778327,0.0006133403393113685
503892000000,263,503892000000,BL_wheel_link,0.11638399336496272,0.026789352237323982,-0.5119811643669444,-0.024615876925112225,-0.009639446359455229,-0.0006673521563199409
503893000000,264,503893000000,BL_wheel_link,-0.12666113814764496,0.3820797198620134,-0.7735566664100346,0.024796933783173686,0.009849598042342943,0.0005472984516920148
503894000000,265,503894000000,BL_wheel_link,0.12061904906537178,0.021425802004004096,-0.5118312345715119,-0.02479818735714613,-0.009817669276955472,-0.0005894422495036581
503895000000,266,503895000000,BL_wheel_link,-0.12747648386660265,0.3812788987897129,-0.7751728979829979,0.024835143326753142,0.009887128595993708,0.000512092307802331
503896000000,267,503896000000,BL_wheel_link,0.12228884710348857,0.018709043398123418,-0.5113033072662421,-0.024830323548031247,-0.009874494698796948,-0.0005131092988278612
503897000000,268,503897000000,BL_wheel_link,-0.12825850282820045,0.38001883932148717,-0.7749734263864405,0.02482325926562482,0.009903567165786852,0.00047537614297827897
503898000000,269,503898000000,BL_wheel_link,0.12255315490140231,0.017301642423697028,-0.5100012398186937,-0.02485262832591348,-0.009878217242368939,-0.00046879684779032194
503899000000,270,503899000000,BL_wheel_link,-0.12895319927238524,0.3790792805091247,-0.7761896995954773,0.024848440886117665,0.009932774138439213,0.0004408722347639632
503900000000,271,503900000000,BL_wheel_link,0.12345739654570945,0.015651583998214064,-0.5096499005506538,-0.024875619109590633,-0.009917861859126385,-0.0004188300656854868
503901000000,272,503901000000,BL_wheel_link,-0.13007862286807959,0.3783917857457627,-0.7779921926822022,0.024893195204915744,0.009978882088438154,0.0003959722664588932
503902000000,273,503902000000,BL_wheel_link,0.12434783704175012,0.013828483358890697,-0.509004109692291,-0.024914007160404553,-0.00996094067725603,-0.0003734306341312047
503903000000,274,503903000000,BL_wheel_link,-0.130936778363527,0.377477418684497,-0.7795358299647808,0.024927105190928913,0.01001658697540786,0.00035562062421059474
503904000000,275,503904000000,BL_wheel_link,0.12514101435957795,0.012192307160022967,-0.5084906833103502,-0.024942982980270728,-0.010001693119636645,-0.00032923337451450704
503905000000,276,503905000000,BL_wheel_link,-0.1317155183524597,0.37645527723025174,-0.7808835779807135,0.02495442988862573,0.010050597296376529,0.00031625419716960895
503906000000,277,503906000000,BL_wheel_link,0.12570934041495044,0.010748020193605545,-0.5078077216243567,-0.024970958018404717,-0.010033851750430466,-0.00029032123973939073
503907000000,278,503907000000,BL_wheel_link,-0.1323352872711927,0.37535218810154036,-0.7822240037949023,0.024979603064299805,0.010080968275781706,0.0002799700510757691
503908000000,279,503908000000,BL_wheel_link,0.12622936684738714,0.009420563408181606,-0.507198484337402,-0.024995669532881865,-0.010065119312021635,-0.00025322038814979894
503909000000,280,503909000000,BL_wheel_link,-0.13291869596504785,0.3742294476689335,-0.7836029081233005,0.025005272670222536,0.010111040046987776,0.0002441655433745235
503910000000,281,503910000000,BL_wheel_link,0.12669092273589969,0.008148676101042779,-0.5065376607420238,-0.025021087470174584,-0.010094508565306682,-0.00021817668858668988
503911000000,282,503911000000,BL_wheel_link,-0.13342516799497522,0.37306216129447706,-0.7849767652735883,0.025029853724669107,0.010139398041392581,0.00020976048452053418
503912000000,283,503912000000,BL_wheel_link,0.12712475859660405,0.006929588919119406,-0.5058915723223405,-0.025045178082752556,-0.010123096736864637,-0.00018399218631524276
503913000000,284,503913000000,BL_wheel_link,-0.13389187079232925,0.37186421063854064,-0.7863286743782751,0.025053360876888094,0.010166692996076945,0.0001759968664009474
503914000000,285,503914000000,BL_wheel_link,0.12751495560226372,0.005756797388237339,-0.5052156202631746,-0.02506893338663376,-0.010149984610694524,-0.0001509252238590551
503916000000,286,503915000000,BL_wheel_link,-0.13430315970839968,0.37064042038218936,-0.787688605321428,0.025076533910733525,0.010192875040159505,0.00014335899550940853
503916000000,287,503916000000,BL_wheel_link,0.12787321164154558,0.004622134371330938,-0.5045205728811756,-0.025092465797955005,-0.01017597662774532,-0.00011900212782463586
503917000000,288,503917000000,BL_wheel_link,-0.13469917836180592,0.36940724481139386,-0.7890621822514674,0.025099940108138413,0.010218932758619417,0.00011092855355919863
503918000000,289,503918000000,BL_wheel_link,0.12823024665394694,0.0034957575712385447,-0.5038280515218895,-0.025115911834577453,-0.010202073911654787,-8.720167750376302e-05
503919000000,290,503919000000,BL_wheel_link,-0.13509034294774008,0.36816743480990677,-0.7904428159036017,0.02512353209047171,0.010245044951867444,7.849198270554062e-05
503920000000,291,503920000000,BL_wheel_link,0.12860037128113957,0.0023437572612625968,-0.5031237528789589,-0.02513949425898959,-0.010228032099684663,-5.423520044196958e-05
503921000000,292,503921000000,BL_wheel_link,-0.13548639514868843,0.36692244385301587,-0.7918178028992058,0.025147019342363963,0.010271234690721283,4.575411245330216e-05
503922000000,293,503922000000,BL_wheel_link,0.1289705722629518,0.0012004699996386176,-0.5024334295188462,-0.025162788980171266,-0.010254311037981812,-2.1275170472477567e-05
503923000000,294,503923000000,BL_wheel_link,-0.13589210205522678,0.3656776329750711,-0.7932001744355024,0.025170813077147476,0.010297748012131694,1.2619740054582891e-05
503924000000,295,503924000000,BL_wheel_link,0.17862204179076963,0.0007101813863443496,-0.5637289359794112,-0.02424439512470031,-0.009526930563112407,0.002064305965216692
503925000000,296,503925000000,BL_wheel_link,-0.13977522776525997,0.3335688883831213,-0.6751377061529404,0.021755367905625815,0.009041486633808863,-0.00044646427881509117
503926000000,297,503926000000,BL_wheel_link,0.03216735447549332,0.08333502782451463,-0.41177437364426817,-0.025044206307325075,-0.007336451952349861,-0.0036013841681128015
503927000000,298,503927000000,BL_wheel_link,-0.07541473753211142,0.3437751752936188,-0.8037853267154368,0.024807214553714325,0.00897869789368323,0.0013809187089196457
503928000000,299,503928000000,BL_wheel_link,0.11777996956392883,0.02924963392163965,-0.515487399705046,-0.024520707199475418,-0.009794444444149869,-0.0005762320455747144
503929000000,300,503929000000,BL_wheel_link,-0.12095978874647575,0.3632131602492787,-0.8267286247205459,0.02588998199080727,0.010319373816505259,0.0003195642409537509
503930000000,301,503930000000,BL_wheel_link,0.12425722394664244,0.00042919990737458336,-0.48561658180341727,-0.025687437445288962,-0.00999953754126938,-0.0003197187796544587
503931000000,302,503931000000,BL_wheel_link,-0.1320463964160389,0.4880424057915187,-1.4800470626684428,0.021280034359967368,-0.00021858684827498996,-0.004413024828294516
503932000000,303,503932000000,BL_wheel_link,-0.026934736059321205,-0.06695278541916244,0.34586224233157115,-0.010101989887467726,0.011293097699922913,0.0016299788106994453
503933000000,304,503933000000,BL_wheel_link,0.03442977028843209,0.149730690476492,-0.62187033970585,-0.008566988316948887,-0.01546892662714607,-0.004866235343598697
503934000000,305,503934000000,BL_wheel_link,0.027381201880077033,0.3750688201809167,-1.5459665091076045,0.016531930866281134,0.007457396250916685,0.004518876105507757
503935000000,306,503935000000,BL_wheel_link,-0.0616528411335899,0.17130868899926616,-0.5225875130087546,-0.001515007537547638,-0.006933865150072127,-0.0028571229322655223
503936000000,307,503936000000,BL_wheel_link,-0.2090436379347198,0.16237674910649708,0.08596177935446583,-0.011835070857169096,0.0109988169592154,-0.003627503666661787
503937000000,308,503937000000,BL_wheel_link,0.1454347083732204,0.1255555019946279,-0.5154188018531012,0.014266507969482268,0.002118473353279881,0.0057060887531498825
503938000000,309,503938000000,BL_wheel_link,0.11832299420475556,0.03033162198376267,-0.5237315528251549,-0.025752707624748673,-0.007717364951043169,0.0009393479669356157
503939000000,310,503939000000,BL_wheel_link,-0.1145774407088925,0.4806948287132264,-1.8855666082545162,0.02693051549248901,0.0019593948211509282,-0.0033335010047616754
503940000000,311,503940000000,BL_wheel_link,-0.029924899182294084,0.09716092561717207,-0.3378637293685147,-0.004260736705345832,-0.0072181236086979374,-0.0024147217431470594
503941000000,312,503941000000,BL_wheel_link,-0.1658057111469103,0.19368818655978068,-0.11040732244043441,-0.009250949165569069,0.00921108529965871,-0.0024991167142110983
503942000000,313,503942000000,BL_wheel_link,0.19577265322323806,0.2110927200242663,-1.2773023303850652,0.010723995522545332,-0.008231680939733386,0.0054783587265538215
503943000000,314,503943000000,BL_wheel_link,-0.2004751274371085,0.17419563717246017,0.07482436114023208,-0.011262277562850444,0.010350670523054663,-0.0034674454042233132
503944000000,315,503944000000,BL_wheel_link,-0.04355270124813976,0.23672198560357277,-0.5695370921526902,-0.001256651958016033,-0.009715256563934854,-0.00472886105343466
503945000000,316,503945000000,BL_wheel_link,0.10054830334582954,0.16823609261094294,-1.4002357368983787,0.010490581419043092,0.007261753546336022,0.005295801898537681
503946000000,317,503946000000,BL_wheel_link,0.02363136175681806,0.11113938943594924,-0.5765830241116666,-0.000968783610192521,-0.007230884644758486,6.0607263495898506e-05
503947000000,318,503947000000,BL_wheel_link,-0.1956202444077029,0.23688897639530898,-0.09471871191802911,-0.007676141678454234,0.008161804751266221,-0.003579310615201065
503948000000,319,503948000000,BL_wheel_link,-0.043126783463635944,0.19353088061026857,-0.5166221844863983,-0.0022628298304771467,-0.009019111527576359,-0.0036782803273395746
503949000000,320,503949000000,BL_wheel_link,0.13951759031751482,0.1404452418552164,-1.5319091654459163,0.012242090704511013,0.008289296190907501,0.006496528539529781
503950000000,321,503950000000,BL_wheel_link,0.02916740237174833,0.07980341332589093,-0.4366065182419383,-0.002789688007638005,-0.007385004176763994,-0.0003669946481343431
503951000000,322,503951000000,BL_wheel_link,-0.1268774126046848,0.1908569723500479,-0.17026926731482162,-0.007410582438006446,0.007487675547357673,-0.001986523367854249
503952000000,323,503952000000,BL_wheel_link,0.2409277892460934,0.16749676279357278,-0.9887764383092688,0.004576246938546972,-0.003979465693054704,0.006977648045275396
503953000000,324,503953000000,BL_wheel_link,-0.05128422842653542,0.2466797630911849,-0.41238232100801075,-0.0022595992859824783,0.0011976789735637712,-0.001155535222428263
503954000000,325,503954000000,BL_wheel_link,0.06501615678152269,0.15080061368942835,-1.2853804770285628,0.009180687927582334,-0.00483869287701085,0.0024632510304859034
503955000000,326,503955000000,BL_wheel_link,-0.15659945494723138,0.09457869886424151,0.18968421320939022,-0.012692175279459676,0.009335731060889191,-0.0034983108750609076
503956000000,327,503956000000,BL_wheel_link,0.012946036507109578,0.009442056463318726,-0.033827982876841974,0.0007288768115921579,-0.00013071811883601112,0.0002932330090717268
503957000000,328,503957000000,BL_wheel_link,0.29733036360040455,0.013364795032844767,-2.4599097540511092,0.008168378147965906,-0.008540907980647551,0.006556132163663802
503958000000,329,503958000000,BL_wheel_link,-0.10266396803406211,0.1611311409740383,-0.23600104311588016,0.0031426650446895613,-0.0004231074301223035,-0.0017129246587520458
503959000000,330,503959000000,BL_wheel_link,-0.03082091642007581,-0.09980262537891284,0.4343618704220059,-0.011805671951225071,0.012875815846304272,0.0021411902862107967
503960000000,331,503960000000,BL_wheel_link,2.7453033436457863,-0.08884965590061467,8.63110583044972,-0.3267301404996711,-0.3130245222357175,0.07071252718257616
503961000000,332,503961000000,BL_wheel_link,-0.03580175803768783,-0.3441262278413473,0.8605479476299869,-0.034924492553577144,0.011317688234824841,0.005001114256459311
503962000000,333,503962000000,BL_wheel_link,2.038593010123096,2.5627836081969173,11.618283662288786,-0.11737946440845552,-0.20686441847968137,0.04946013087897165
503963000000,334,503963000000,BL_wheel_link,-0.12170779384586547,0.012573542335742205,0.41893141062661865,-0.03684087988358234,-0.0015886670702132295,-0.0039029194078218994
503964000000,335,503964000000,BL_wheel_link,1.520169634630494,1.4124812634548256,7.807864081044285,-0.11966752759279692,-0.15895316429565676,0.03701461251424593
503965000000,336,503965000000,BL_wheel_link,-0.16858721265359777,0.06497974939323095,0.38700515165833344,-0.028148126543152057,0.006818981108867262,-0.0032040976201175037
503966000000,337,503966000000,BL_wheel_link,0.8131932912881876,1.8223812788367655,7.522369390092468,-0.058209489266981565,-0.0765002573989951,0.01837061137763998
503967000000,338,503967000000,BL_wheel_link,-0.10193047670920866,-0.006075612675167458,0.27813544044372707,-0.027470274232265564,0.007474905980942663,-0.000799669374653497
503968000000,339,503968000000,BL_wheel_link,0.43179383844087404,-0.3746996662499684,4.56969614235,-0.21239801442069647,-0.053138952148567564,0.00966861436823866
503969000000,340,503969000000,BL_wheel_link,-0.10771948951143212,-0.08427753297733151,0.3870098762976374,-0.02356805566932788,0.01743361163793406,4.039786178077539e-05
503970000000,341,503970000000,BL_wheel_link,1.1502951030867954,0.28228171359665377,7.983620946240645,-0.2348674112908965,-0.11915946381805428,0.02765970457834193
503971000000,342,503971000000,BL_wheel_link,-0.08557987619640187,-0.1982648189800575,0.6854454858242669,-0.028185810357439355,0.018018943657220066,0.0028265178128227854
503972000000,343,503972000000,BL_wheel_link,0.9131924790615886,2.0873851190421724,9.43436071454469,-0.09120751512689804,-0.08392464601609916,0.020128525407424252
503973000000,344,503973000000,BL_wheel_link,-0.032801099169201625,-0.09525846395441062,0.20885229494719762,-0.03573692805267542,0.002079714538709098,0.0004139690450662742
503973000000,345,503974000000,BL_wheel_link,0.32716974306563573,-1.5421789344131822,2.6185674158810084,-0.29383413923472457,-0.05588398555771372,0.007261969829853367
503975000000,346,503975000000,BL_wheel_link,-0.14692120278889226,-0.031233704212338703,0.19174649307255343,-0.024601113168542223,0.01700368709536454,-0.001333561182310141
503976000000,347,503976000000,BL_wheel_link,-0.5307281899776211,0.10530463000635559,8.881482530339643,-0.2771296730678549,0.06825470323535882,-0.015174949233689162
503977000000,348,503977000000,BL_wheel_link,0.030270657102561212,-0.03222786129760326,-0.4100659085111139,-0.013523392852515742,0.006024647374436146,0.0011871730569787014
503978000000,349,503978000000,BL_wheel_link,0.041001662072456396,0.1875257916535764,-0.43481808133830396,-0.00328720602931175,5.1816889011038715e-05,0.0010578302633387703
503979000000,350,503979000000,BL_wheel_link,0.016065291484753844,0.23390845937745453,-0.5062876966813441,-0.0025731055968389845,-0.00011227841297403209,0.0004172475975880999
503980000000,351,503980000000,BL_wheel_link,0.011622984119667681,0.2347309376241917,-0.5032729501100737,-0.0024937508782527794,9.251134979566052e-05,0.0003644040734746081
503981000000,352,503981000000,BL_wheel_link,-0.041303280452009594,0.999613723962913,9.616515005328559,-0.20365686997254703,-0.0019392150900066907,-0.0004406282311352327
503982000000,353,503982000000,BL_wheel_link,-0.3353953796280652,-0.8586940806543738,1.3515476125911177,-0.1459243955093897,0.03677488879698443,-0.00923764832663671
503983000000,354,503983000000,BL_wheel_link,0.005350748889749823,0.009751571427338516,-0.4160312951548447,-0.01602510362510988,0.0017695618341950336,0.0003055894048726056
503984000000,355,503984000000,BL_wheel_link,-0.14465383831512157,0.6201153847488934,8.178169584106522,-0.19895188382613987,0.009327167440357373,-0.003244658666323624
