%time,field.header.seq,field.header.stamp,field.header.frame_id,field.wrench.force.x,field.wrench.force.y,field.wrench.force.z,field.wrench.torque.x,field.wrench.torque.y,field.wrench.torque.z
503635000000,0,503629000000,BR_wheel_link,-0.007291231246247269,0.07878966558488679,-0.2788506174907319,-0.030056913077530986,0.0036917697009018393,0.004201846217394522
503635000000,1,503630000000,BR_wheel_link,0.04453367293536192,0.7712362254138411,-1.9247526926389793,0.02704860014393383,3.1448105003452007e-05,0.0032188826746298977
503635000000,2,503631000000,BR_wheel_link,-0.0010763671575113425,0.10233389281317062,-0.31179969018952225,-0.003693255924193996,0.0059247936239306305,0.002032139556108556
503635000000,3,503632000000,BR_wheel_link,-0.0145921531955552,0.241459979122556,-0.9172566640079647,0.004680674997420338,0.00376996545840488,-0.0025037151458574404
503635000000,4,503633000000,BR_wheel_link,0.17087870724133486,-0.062173641164018696,0.4215051500559892,-0.016249782436184978,-0.01515303151675892,-0.0009418418111895683
503636000000,5,503634000000,BR_wheel_link,-0.016621029557437026,0.01676118179817759,-0.03710901229783063,0.000788090948467847,0.00024967989908518574,-0.0002769281824736148
503636000000,6,503635000000,BR_wheel_link,-0.1499150251769219,0.46200963130529193,-2.439978325369866,0.005994565795561936,0.013406813223775843,0.0020363378691679265
503636000000,7,503636000000,BR_wheel_link,0.017869885707610708,0.0812573569506069,-0.10543131625900182,0.0032180083256279418,-0.0008403378256585897,6.307040154368055e-05
503637000000,8,503637000000,BR_wheel_link,-0.14992768296854847,0.009222027789312429,-0.03183850530396634,-0.001423752425502303,-0.013223835901057402,-0.009588057055269293
503638000000,9,503638000000,BR_wheel_link,-0.02245780577374623,0.7687551506366646,-1.7078742370106905,0.008176473678094572,0.016574992166445944,0.006968226487673225
503639000000,10,503639000000,BR_wheel_link,0.12512721577982988,-0.09552589272005348,0.42440379748571755,-0.014025187974690798,-0.015389243968533663,-0.003132757170931355
503640000000,11,503640000000,BR_wheel_link,0.07320107477124263,0.5243210856780512,-0.7365067866664246,0.002232057465086799,0.011390335432082354,0.010621135191709352
503641000000,12,503641000000,BR_wheel_link,0.009871175677201693,0.5192064340736436,-1.1072182155144117,0.00562461968452542,-0.008260428375659053,-0.003677823231399066
503642000000,13,503642000000,BR_wheel_link,-0.0142018280861603,0.29878181272965987,-0.682798077986906,0.0013641610527884702,0.007824872981092669,0.0018519544124817057
503643000000,14,503643000000,BR_wheel_link,0.1674627560543212,0.30875218459772663,-0.1739804701351634,-0.007939991378436942,-0.008403990066049985,0.001959784409875506
503644000000,15,503644000000,BR_wheel_link,0.091335713631062,0.3431950582331507,-0.5261891903223646,0.0004340597320744684,0.006860211615408842,0.00505597923933818
503645000000,16,503645000000,BR_wheel_link,-0.2063487504301768,0.3590153011153883,-1.1118199646687423,0.0061235066584068186,-0.0036764572854971244,-0.009430453019352069
503646000000,17,503646000000,BR_wheel_link,-0.08671085883013126,0.22592927886921907,-0.7805930024632631,0.002926676842031438,0.0065943877494779105,-0.001636630063371788
503646000000,18,503647000000,BR_wheel_link,0.17383609405319192,0.05064495575295506,0.23343468538857207,-0.012682610075602025,-0.011736619097155317,0.0009879417181029124
503646000000,19,503648000000,BR_wheel_link,-0.2050656002805524,0.4185226859151412,-1.3223383468735217,0.01086543239691655,0.009449936479204878,-0.0014072195146240028
503649000000,20,503649000000,BR_wheel_link,0.07802169552955439,0.3297441585810163,-0.25485495254331336,-0.005808210600054372,-0.007809970714222663,0.000698109135767649
503650000000,21,503650000000,BR_wheel_link,0.07019018887984738,0.280095575590468,-0.463957549136985,-0.00247115220894313,0.008002818700543878,0.005832571467495413
503651000000,22,503651000000,BR_wheel_link,-0.011662717205097484,0.3681821183127605,-1.0734533429929067,0.0058856597748969085,-0.0066365196866843895,-0.002718249993598337
503652000000,23,503652000000,BR_wheel_link,-0.16597392018360257,0.19290318248349358,-0.8031836294336612,0.0030776494855477054,0.007761918328572209,-0.0031557024816534357
503653000000,24,503653000000,BR_wheel_link,0.1957677052260421,0.11003960594291895,0.15225466285735945,-0.011431513141524704,-0.01043061824657673,0.0020028771079097806
503654000000,25,503654000000,BR_wheel_link,-0.23511384899117665,0.3715860198795604,-1.3409323077228004,0.011033036770828538,0.008861047786029442,-0.003367363445664959
503655000000,26,503655000000,BR_wheel_link,0.07349833616292231,0.2750947588955096,-0.19931440719821703,-0.006545957017415288,-0.007326894367363214,0.0005540329051845305
503656000000,27,503656000000,BR_wheel_link,0.06963762938130308,0.2728819576752432,-0.4553870898092222,-0.002596316212731669,0.007916862964121071,0.005716620180940903
503656000000,28,503657000000,BR_wheel_link,-0.01147647158096824,0.37619944720936305,-1.1922471202493359,0.0075336175781980375,-0.006709500487885968,-0.0026601192206320264
503658000000,29,503658000000,BR_wheel_link,-0.11104297310219358,0.16868198299543133,-0.6681609594491957,0.001299270907454136,0.006918019236002599,-0.0018262184947244184
503659000000,30,503659000000,BR_wheel_link,0.22193372509477927,0.1598017966017605,0.10013543611190752,-0.011164025980248366,-0.00973881161071829,0.0030813049407301136
503659000000,31,503660000000,BR_wheel_link,-0.2531055281061171,0.20068766106432007,-0.65940102311669,0.01755137063277579,-0.000562581862351105,-0.008393313157899892
503661000000,32,503661000000,BR_wheel_link,-0.03935745780589181,0.032765026341873574,-0.28208554487856696,-0.030431980934398337,0.004400156484298043,0.002855290379812727
503662000000,33,503662000000,BR_wheel_link,0.05191456585428783,0.75276147482406,-1.9165729567936487,0.027005599510117023,-0.0006551864137266314,0.0027642230309697733
503663000000,34,503663000000,BR_wheel_link,0.0008624390867688,0.09903871777519047,-0.307368164789005,-0.0038060915604211775,0.005873376713375033,0.0020530729755923256
503664000000,35,503664000000,BR_wheel_link,-0.014762728526601734,0.23744332901221088,-0.9088875011307875,0.004554687685688807,0.0037551138078724734,-0.002431339007259974
503664000000,36,503665000000,BR_wheel_link,0.20801860973577171,0.059836730660897564,0.24980195984464426,-0.013293125656644398,-0.01282403224725184,0.0006894798827529968
503666000000,37,503666000000,BR_wheel_link,0.04958590010448849,0.35632880909110476,-0.5525907048083532,-0.0005648065411170055,0.00939022186306665,0.007515140574010825
503667000000,38,503667000000,BR_wheel_link,-0.10301563736984587,0.4408625178958554,-1.5503431114469404,0.012532337240541586,-0.006032080290922003,-0.005893485975611084
503668000000,39,503668000000,BR_wheel_link,-0.040908840933077506,0.1423304140191357,-0.4396480444064691,-0.0021317975752510377,0.006856993926685905,0.0009474545292344357
503669000000,40,503669000000,BR_wheel_link,0.2324317225307433,0.2071406705026233,0.017895284069899438,-0.0100462313309451,-0.00997930218104781,0.002928659458155892
503670000000,41,503670000000,BR_wheel_link,-0.280676395657139,0.1670115509648653,-0.609730355908917,0.015562394977917934,0.0005798526880642831,-0.00853245985963824
503671000000,42,503671000000,BR_wheel_link,-0.05375532882127299,0.07877634104378434,-0.36658155374392276,-0.027564055441561357,0.0038474914529289285,0.0012403534217449077
503671000000,43,503672000000,BR_wheel_link,0.01656339904738821,0.7482597564227579,-1.8745378231036232,0.026341941252764383,0.0006637730845009855,0.0018531533150987502
503673000000,44,503673000000,BR_wheel_link,0.00465074389427338,0.11302377187780914,-0.34681846784024184,-0.0034075119129258428,0.005834056185803194,0.0017049602959129282
503674000000,45,503674000000,BR_wheel_link,0.06644182521001053,0.29945289966335165,-0.31342667128644974,-0.0042166710421866396,-0.007829455645621545,-0.0027303341915260186
503675000000,46,503675000000,BR_wheel_link,0.07047108941643399,0.27080815518434426,-0.45717725010246507,-0.0027126977343892413,0.00791049094324927,0.005569267494440458
503676000000,47,503676000000,BR_wheel_link,0.014950033762900536,0.36321719069168384,-0.8265200609353552,0.0018788412878327334,-0.009112885203697449,-0.002606114539190797
503677000000,48,503677000000,BR_wheel_link,-0.1983035323521518,0.24478233712199635,-0.9126730443798519,0.004951765024617589,0.00867372616803681,-0.003246490916398086
503677000000,49,503678000000,BR_wheel_link,0.2161282626391572,0.10608219292565466,0.17930765365643053,-0.012502226412522337,-0.01080242071293529,0.002467469841447114
503679000000,50,503679000000,BR_wheel_link,-0.2862174632275915,0.19994434681607662,-0.6854832968629267,0.017997234533300075,-3.3157348550465204e-05,-0.009180360086804559
503680000000,51,503680000000,BR_wheel_link,-0.011194727256529903,0.07938993081359687,-0.28814719191682303,-0.030060662078738996,0.0038365456361919847,0.004154592157968641
503681000000,52,503681000000,BR_wheel_link,0.04420489761432664,0.7735574776205764,-1.9265600162031316,0.027155047601900573,4.8735733358595476e-05,0.003221171232613511
503682000000,53,503682000000,BR_wheel_link,-0.0018253918702513389,0.10245436535016093,-0.314645222587037,-0.0037097838883739026,0.005973568385159596,0.0020464815955713008
503683000000,54,503683000000,BR_wheel_link,-0.012858647444691482,0.24223746523080195,-0.9157758297580592,0.004701048287640323,0.0037458388516326963,-0.0024732079860194296
503684000000,55,503684000000,BR_wheel_link,0.16737215046610235,-0.0751269068552318,0.44010692825626435,-0.016561628052391128,-0.015436738359371364,-0.0011044202997380808
503685000000,56,503685000000,BR_wheel_link,-0.017091070991595046,0.01700205111113979,-0.0377875913957854,0.0008012130734992453,0.00025726860948525323,-0.0002823425134222266
503686000000,57,503686000000,BR_wheel_link,-0.1514531504279643,0.4767946765794682,-2.470102080742161,0.00653832639592447,0.013278306150048097,0.002065882090041567
503687000000,58,503687000000,BR_wheel_link,0.0200287378915911,0.06768855727255953,-0.0871218982697716,0.00297356122011539,-0.0007880409063298463,-0.00011264056833410922
503688000000,59,503688000000,BR_wheel_link,-0.15113578291546576,0.0010611975030948295,-0.01690128701367733,-0.0017142515503545336,-0.012877991021275733,-0.009661280977557534
503689000000,60,503689000000,BR_wheel_link,-0.020974761593622077,0.7831297380637527,-1.732221585529354,0.008529823513096935,0.01669898745060959,0.007167858711105817
503690000000,61,503690000000,BR_wheel_link,0.12809165487951968,-0.0936546330113935,0.42328602583271974,-0.013965340658517391,-0.01548780000176155,-0.0031751215316027223
503691000000,62,503691000000,BR_wheel_link,0.07180419962434278,0.5254133917240973,-0.7391565314276556,0.0022339531132635395,0.011467646846386008,0.010687246655819858
503692000000,63,503692000000,BR_wheel_link,0.011415439050963871,0.5149451730615282,-1.081801656272587,0.005270447665362723,-0.008400709787641146,-0.003657540756600303
503693000000,64,503693000000,BR_wheel_link,-0.02219715575125311,0.3045097121836148,-0.7053701701091122,0.0016799926178765433,0.00797618451467115,0.0017346410850733473
503694000000,65,503694000000,BR_wheel_link,0.18104380849713003,0.3020680348969012,-0.14688260362451155,-0.00848385028294027,-0.008626916820875312,0.0024141845863776476
503695000000,66,503695000000,BR_wheel_link,0.09200066941480661,0.3514689183484179,-0.5350230703543946,0.00073429667726703,0.006866632229724856,0.005126017230972507
503696000000,67,503696000000,BR_wheel_link,-0.22013719242475047,0.3552530357738488,-1.1500260501808293,0.006723880028771613,-0.0034022005515314587,-0.009890396633136792
503697000000,68,503697000000,BR_wheel_link,-0.07915165872743386,0.22244094018639077,-0.7608771173040761,0.002613828006900502,0.0065390393406068404,-0.0014142323027422608
503698000000,69,503698000000,BR_wheel_link,0.17238419376686537,0.045214317990769075,0.24291833249498468,-0.012873616796263336,-0.0120072384472085,0.0008606021832336204
503699000000,70,503699000000,BR_wheel_link,0.04941381193786776,0.37339109032975004,-0.5694164150061408,-0.0001498785341402754,0.009555184883218912,0.007868729520372722
503700000000,71,503700000000,BR_wheel_link,-0.11334208637845992,0.4469761170919716,-1.6561368882972194,0.014039527411255465,-0.006467521340544025,-0.005681839493975184
503701000000,72,503701000000,BR_wheel_link,-0.030204770775487312,0.11476635631615822,-0.3493753107496579,-0.0034198845179890065,0.0067813121708315965,0.0016318458233665035
503702000000,73,503702000000,BR_wheel_link,0.26362735197626835,0.19836702464963576,0.05540662605194151,-0.011794536690665741,-0.010388840811014311,0.0035167347892767777
503703000000,74,503703000000,BR_wheel_link,-0.35221333820145445,0.37192426504940646,-1.3465544903183868,0.013127063783594245,0.010583481966060708,-0.006415957230276862
503704000000,75,503704000000,BR_wheel_link,0.12100112913290847,0.23268108863033163,-0.11483522867455992,-0.010051635051588154,-0.007692744713399272,0.0014510462308317765
503705000000,76,503705000000,BR_wheel_link,0.0866111634476491,0.33796034500160865,-0.5146902318639288,0.0006274157980013851,0.006736333467180687,0.005080186954353398
503706000000,77,503706000000,BR_wheel_link,-0.11209302190116621,0.3554428802188103,-1.2965087986933277,0.007982888686589565,-0.004282617090081883,-0.004961984094067468
503707000000,78,503707000000,BR_wheel_link,-0.11211883750305528,0.16221396892768875,-0.6381141262941701,0.0018427818220562511,0.006334034753176137,-0.0025010418007199893
503708000000,79,503708000000,BR_wheel_link,0.2231937688024963,0.1404653792961355,0.12940305905903646,-0.011409496818470609,-0.010702326943876697,0.002369795481391507
503709000000,80,503709000000,BR_wheel_link,-0.2987468738886407,0.19562320198850858,-0.6860882728981404,0.017716924913549176,0.00025122587713571204,-0.009325142396044648
503710000000,81,503710000000,BR_wheel_link,-0.0032889331120735258,0.06271272184605162,-0.2537674667268111,-0.031096186802622286,0.003091080768970649,0.003998735622711825
503711000000,82,503711000000,BR_wheel_link,0.029122980503830054,0.7670734457649451,-1.926380958041179,0.02717487933791285,0.00029147662824230425,0.002755980837107032
503711000000,83,503712000000,BR_wheel_link,-0.0033737768103271892,0.10244936407766024,-0.3177651114459581,-0.0037145192893440248,0.006037723118293737,0.0019795055338854162
503713000000,84,503713000000,BR_wheel_link,-0.022174661932878075,0.2415511866174523,-0.9256963724488476,0.004828512062255995,0.003914712141800945,-0.0026708816881628387
503714000000,85,503714000000,BR_wheel_link,0.17169610707395394,-0.06004303146512376,0.4190995995270634,-0.01623869764156967,-0.015218686524934596,-0.0009356307166150536
503715000000,86,503715000000,BR_wheel_link,-0.016894041016607415,0.016790229268824494,-0.037363016840452,0.0007918407931224115,0.0002627831080916462,-0.0002717399345585804
503716000000,87,503716000000,BR_wheel_link,-0.17108190788670838,0.46239289400341643,-2.4332945735432467,0.005121179983051158,0.01455814061852204,0.0026670123709977137
503717000000,88,503717000000,BR_wheel_link,0.002061520285492075,0.07321167557722115,-0.06549655770748455,0.004585451015697109,-0.009716515933074652,-0.007368017639708164
503718000000,89,503718000000,BR_wheel_link,-0.012631467889130006,0.007355184546454943,-0.021614041106019714,0.00060218244205283,0.00014784676852636346,-0.000308806849815472
503719000000,90,503719000000,BR_wheel_link,0.051953739290992104,0.38677113562797544,-0.5532213938081791,-0.0166672783986762,0.0007022831321344958,0.00419281117484728
503720000000,91,503720000000,BR_wheel_link,-0.007938062595416656,0.8321668849144218,-1.845629597566648,0.023238367381665993,0.006216076758154141,0.0038031531387799867
503721000000,92,503721000000,BR_wheel_link,0.04881305338778072,0.2609115776572158,-0.26894286227305875,-0.004331863531067454,-0.006617409771307392,-0.002150285628897217
503722000000,93,503722000000,BR_wheel_link,0.07140838967982327,0.2923886527945634,-0.4849163474373304,-0.0025261772677027017,0.0084272161764576,0.006136535969031258
503723000000,94,503723000000,BR_wheel_link,0.20972755390310055,0.21022079830969423,0.04649069024992694,-0.010155981845970297,-0.012817463703691806,0.0008964810527030971
503724000000,95,503724000000,BR_wheel_link,0.04806959956598715,0.3691068946768601,-0.5750755850383259,-0.0003644652913491128,0.009669474297048468,0.007612450970989662
503725000000,96,503725000000,BR_wheel_link,-0.15995295866677672,0.41890681417825415,-1.4857367352136412,0.012027330862775394,-0.0056996202925683435,-0.008245987779666255
503726000000,97,503726000000,BR_wheel_link,-0.15709063316374994,0.1627696209453796,-0.6821076499596883,0.0010923659561238126,0.00821686110453869,-0.002359212080082028
503727000000,98,503727000000,BR_wheel_link,0.20170873622410407,0.15420363659398412,0.10131766840413448,-0.010554771415646267,-0.0115806950148143,0.0012083974162796325
503728000000,99,503728000000,BR_wheel_link,0.043106054528038645,0.325663763274135,-0.5251153611962869,-0.0010962217620083198,0.009135504235644814,0.006883869684104789
503729000000,100,503729000000,BR_wheel_link,-0.16105227642767542,0.39776686978226394,-1.4233696497665806,0.010836069935430808,-0.005786759013124649,-0.007754330797000355
503730000000,101,503730000000,BR_wheel_link,-0.12502645616551977,0.16259959118294606,-0.6151765144173112,0.0004141503044330125,0.007811760003760189,-0.001360446953224142
503731000000,102,503731000000,BR_wheel_link,0.2033081949633667,0.15536669624326088,0.09891290354568953,-0.010611917653726714,-0.011285535662627778,0.001464701410652102
503732000000,103,503732000000,BR_wheel_link,0.04588505781585439,0.33039576881633265,-0.5295898986829961,-0.0009707330628756974,0.009104431289909875,0.0069040731854867424
503733000000,104,503733000000,BR_wheel_link,-0.1608961737921643,0.4058575120962493,-1.4779919615205523,0.011570746002903722,-0.005741392559957679,-0.007521902496854103
503734000000,105,503734000000,BR_wheel_link,0.11601295509882475,0.6279675230972874,-0.9009084117068404,-0.0547143102908188,0.010153472611323038,0.009253032520609007
503735000000,106,503735000000,BR_wheel_link,0.1620411929320903,0.37438360830485734,-0.09850178220266066,-0.06959151916712082,-0.025922374365561815,-0.006727262030469779
503736000000,107,503736000000,BR_wheel_link,-0.04273734758640217,0.12510096599333187,-0.24373307771256073,-0.05537125311409001,0.0005512137268737748,-0.0009487213764211664
503737000000,108,503737000000,BR_wheel_link,-0.32548552956821775,1.7965651829694544,-2.9813952398733314,-0.042608749763172304,0.010175879155132215,-0.002988864258069153
503738000000,109,503738000000,BR_wheel_link,0.32776298662272774,1.247043559612383,-1.5305548530559316,-0.021939104855350746,0.012360581111547022,0.016752880942453037
503739000000,110,503739000000,BR_wheel_link,-0.004846417655232221,-0.24197784486670634,0.6872106832588294,-0.016697537800719545,-0.03858397562197669,-0.021312504034012525
503740000000,111,503740000000,BR_wheel_link,0.20408247577587402,1.4913840603724429,-1.944875269814165,0.01592475437089914,0.025859521813352708,0.027615337764731296
503741000000,112,503741000000,BR_wheel_link,-0.40791520700761735,0.31327966179409616,-0.5262511408274908,0.011666069035525724,-0.021468218496460228,-0.022511247170465133
503742000000,113,503742000000,BR_wheel_link,-0.01723374902113317,0.577855618487186,-1.1697824901881844,-0.011925226705944097,0.026896315681042247,0.01682700673469318
503743000000,114,503743000000,BR_wheel_link,-0.11903351950262009,0.8342915802527553,-1.0296443157168176,0.014460647519851521,-0.017276004143444292,-0.011805562065207886
503744000000,115,503744000000,BR_wheel_link,0.0779261174228364,0.4257835214199166,-0.6394985379262856,0.0005369395210553614,0.009798170070720248,0.008237376802743597
503745000000,116,503745000000,BR_wheel_link,0.19241246295393802,0.5012478813588375,-0.29353698570392045,-0.009971944907278187,-0.012610700143001165,0.004093543233720741
503746000000,117,503746000000,BR_wheel_link,-0.04498045812090465,0.0278667786205642,-0.08602560171339399,0.002642419121480827,-0.0001539927189620452,-0.0018782528744144284
503748000000,118,503747000000,BR_wheel_link,0.031830346294458085,0.19135545472005175,-0.5292623018094491,-0.011232521965672437,0.013754929832004721,0.006905030488853434
503748000000,119,503748000000,BR_wheel_link,-0.0792982958966259,0.7614031949946106,-1.086631738178269,0.011463681535228074,-0.011663671970487207,-0.011093891272948702
503749000000,120,503749000000,BR_wheel_link,0.07552864272351681,0.2866041869107995,-0.4977414442210263,-0.002430063836542771,0.008161899659299959,0.005332646554840559
503750000000,121,503750000000,BR_wheel_link,-0.10477583264570808,0.4777712093563851,-0.6955400339054832,0.0007328860356077575,-0.008451567602636153,-0.0068474869750929195
503751000000,122,503751000000,BR_wheel_link,0.05100591176407283,0.2296885262745993,-0.42479400128533273,-0.0030112868033868594,0.007685675151530267,0.004761112785891321
503752000000,123,503752000000,BR_wheel_link,-0.09070536566797774,0.43015845429659827,-0.60811933990422,-0.0004585697702712611,-0.007478680782474097,-0.005198960948402397
503753000000,124,503753000000,BR_wheel_link,0.043506673443197294,0.20863166185308768,-0.399353189937222,-0.00327138457664045,0.007509346196072286,0.004500898855911453
503754000000,125,503754000000,BR_wheel_link,-0.06233519856793984,0.43136005433465674,-0.552508082303548,-0.0013468030846063355,-0.008577567628808267,-0.004255987709700026
503755000000,126,503755000000,BR_wheel_link,0.04016445467389424,0.20941804388749774,-0.39941624885555527,-0.00318490998766459,0.007583983090391439,0.0046042366369366
503756000000,127,503756000000,BR_wheel_link,-0.0882633620277016,0.40225055812471355,-0.5792863873071076,-0.0008188366414540187,-0.00694699316492919,-0.004943089303474757
503756000000,128,503757000000,BR_wheel_link,0.04260691572636077,0.20508329094590835,-0.39668192843295746,-0.003336112192306474,0.00752283839982503,0.0044569003811188385
503756000000,130,503759000000,BR_wheel_link,0.05876023584227283,0.2867377012164171,-0.4759999541265954,0.0001756935474896146,0.006660484655919627,0.004344944065767489
503760000000,131,503760000000,BR_wheel_link,-0.08363045659692356,0.35648892201247223,-0.5877859546254656,-0.0003743766253140376,-0.004318236233161519,-0.00497290260244096
503761000000,132,503761000000,BR_wheel_link,0.05520172169376001,0.20878610993012897,-0.412154122069427,-0.0035408985512985257,0.007474708437078107,0.004110076776334607
503762000000,133,503762000000,BR_wheel_link,0.16149590045776296,0.2716092948642099,-0.06453539023074474,-0.008483544567927711,-0.01297700042493818,0.00024321577418444048
503765000000,134,503763000000,BR_wheel_link,0.031049993738212628,0.3081807751750526,-0.5369319051263504,-0.0010415058137526866,0.00942240098514991,0.006291204748449816
503765000000,136,503765000000,BR_wheel_link,0.06120542085416681,0.23864007165830306,-0.45203132272964974,-0.003251184509737729,0.007982474794388779,0.004662632970487944
503766000000,137,503766000000,BR_wheel_link,0.25520588608497835,0.20870464650749532,0.12328438889554111,-0.014766171774423895,-0.01477523531604828,0.002448855048003239
503767000000,138,503767000000,BR_wheel_link,-0.06406492305847519,0.09052422338064628,-0.18454093807521343,0.0042025317190370805,0.0010380133112539436,-0.0012004753919402417
503768000000,139,503768000000,BR_wheel_link,0.011621946769318721,0.23174347423726963,-0.6178072072898086,-0.012038530223357234,0.0166093829685019,0.008717911320964295
503769000000,140,503769000000,BR_wheel_link,-0.1116784218521234,0.7670730410229702,-1.1359142322428593,0.012629500417200961,-0.012110716146503477,-0.011383044208680977
503770000000,141,503770000000,BR_wheel_link,0.06063261357875282,0.2677365007588662,-0.48633290408477775,-0.002566286113975829,0.008425998172703742,0.005276354890416451
503771000000,142,503771000000,BR_wheel_link,-0.1283242316133953,0.4698428124106393,-0.7000854807197625,0.0007583226328410058,-0.00918543059348646,-0.007092008199371763
503772000000,143,503772000000,BR_wheel_link,0.03444239505976988,0.20980877056666858,-0.4109575144543027,-0.003194704650982058,0.007963679729120255,0.004696634495388731
503773000000,144,503773000000,BR_wheel_link,-0.11894771543077828,0.4220529576090593,-0.6204980978199572,-0.00030843731893463993,-0.00807243624507093,-0.005692317851697114
503774000000,145,503774000000,BR_wheel_link,0.028609217394647724,0.1900899654969167,-0.3866043109911543,-0.0034591901362678143,0.00776293758784314,0.004418399410398961
503775000000,146,503775000000,BR_wheel_link,-0.0892746722528832,0.4237025661772611,-0.5678836833846865,-0.0011566440214300054,-0.009028045859311629,-0.004735905237453309
503776000000,147,503776000000,BR_wheel_link,0.028349017407571488,0.19199265511565056,-0.3873836485480756,-0.003378990615911179,0.007787923263169502,0.004503150436488494
503777000000,148,503777000000,BR_wheel_link,-0.11278002619644943,0.39349863825580644,-0.5957795465821004,-0.00062117538525571,-0.0073010709918268244,-0.005438311842257484
503777000000,149,503778000000,BR_wheel_link,0.03293014369560193,0.18911664410443493,-0.38649274978299464,-0.003504068684903775,0.007679840427228948,0.004313310550304152
503779000000,150,503779000000,BR_wheel_link,0.02839390460362287,0.35771603346589,-0.3372965891338063,-0.007104258533392259,-0.009240706224659062,-0.00034352245968680747
503780000000,151,503780000000,BR_wheel_link,0.0640107630305902,0.29794245900554556,-0.4975190342326349,0.0010227048058108886,0.0065068984988024565,0.004201426952441033
503781000000,152,503781000000,BR_wheel_link,-0.09217046081507815,0.32234711086206647,-0.5803987872007965,-0.0004744668888168294,-0.003894515994135723,-0.005310715552671743
503782000000,153,503782000000,BR_wheel_link,0.056846549578016534,0.20199809933871243,-0.4158408739804318,-0.0035483729432461736,0.007440446926095933,0.0037595831216129163
503783000000,154,503783000000,BR_wheel_link,-0.3997425540385119,-0.5025375747295213,-0.734797042595025,-0.042630667978611904,0.027344777304712582,-0.007464451661492204
503784000000,155,503784000000,BR_wheel_link,0.07250705188913685,0.014650758665931001,0.04802636074396674,0.005170520497234761,-0.007121557690026823,-0.004770213704337931
503785000000,156,503785000000,BR_wheel_link,-0.0016266913445049881,-0.0038097781958012877,0.0014622461176334246,-0.00019991035558582476,2.6800008847073736e-05,-3.790925232803742e-05
503786000000,157,503786000000,BR_wheel_link,0.27630740587721925,1.0233612422536285,-1.4041208680005768,0.005679616037274652,-0.007913714799929344,0.0012763803204560533
503787000000,158,503787000000,BR_wheel_link,-0.004624482973616825,0.07100142349621665,-0.10567537855296523,0.0028141039402254184,-2.8247121718668255e-05,-0.0003759157541361175
503788000000,159,503788000000,BR_wheel_link,-0.15824415043275056,0.2729369536010825,-1.1968776300807442,-0.012425078280455462,0.01427502841904064,-0.003280477941492713
503789000000,160,503789000000,BR_wheel_link,0.0055219395450915205,0.09052398395791866,-0.12049966229822676,0.004004266782199449,-0.0006470201292240923,-0.0007249771230922642
503789000000,161,503790000000,BR_wheel_link,0.29036244036660364,0.7389338027396829,-0.7502090855016659,-0.00015171765968657012,-0.014251775369232562,0.001744105868863644
503791000000,162,503791000000,BR_wheel_link,-0.0039033340177334445,0.08470556186311791,-0.1198028913559247,0.0031547016680579104,0.00011915523391153068,-5.2642622492096e-05
503792000000,163,503792000000,BR_wheel_link,-0.21454404371830277,0.3196353951408394,-1.3049194988664783,-0.011769767463376879,0.014743329033276215,-0.003650107602781242
503793000000,164,503793000000,BR_wheel_link,0.00294772460872603,0.082678971937716,-0.1144737411409506,0.0033851728464535467,-0.00031690789033548,-0.00041657640641635835
503794000000,165,503794000000,BR_wheel_link,-0.04702905319832565,-0.09936995597624468,0.3321016747104657,-0.006778973022167215,-0.023567629096352096,-0.013534893567400437
503795000000,166,503795000000,BR_wheel_link,-0.026146889920273975,0.691996522252023,-1.5871784100221988,-0.00529168368176393,0.03064178217421361,0.016733024567178227
503796000000,167,503796000000,BR_wheel_link,-0.22239966559095953,0.21162285095766423,-0.3357630744121013,0.013057438316440956,-0.023773440783492503,-0.021374047587595386
503797000000,168,503797000000,BR_wheel_link,0.03695561012181854,0.4832238989499841,-1.2318215828760046,-0.007508644377900204,0.023907451232055645,0.011786295721450653
503798000000,169,503798000000,BR_wheel_link,-0.04178345623483684,0.029899640923804635,0.20606123454950143,-0.006429035926396603,-0.02103454803191605,-0.00936176249814483
503799000000,170,503799000000,BR_wheel_link,-0.039405613670404585,0.04321960850264823,-0.10772312838011762,0.0027255352699960544,0.00017426248044701345,-0.0012432781756617493
503800000000,171,503800000000,BR_wheel_link,0.05057963947103977,0.9507317540090174,-1.6965611996638819,0.0014367058827864316,0.010936461909602221,0.008160487309039998
503801000000,172,503801000000,BR_wheel_link,0.00922920298380829,0.09030891477692564,-0.11283325953714349,0.0030621395366154493,-9.35726284440881e-05,0.00021382908752263157
503802000000,173,503802000000,BR_wheel_link,0.32094503809461483,0.6974538631938243,-0.6172716695010553,-0.008393433928638927,-0.01026803183464578,0.008825449640782738
503803000000,174,503803000000,BR_wheel_link,-0.004037877062234362,0.07170553012698705,-0.10394922216794658,0.0026395138396502218,0.0002451145522232776,0.00011910481017076799
503804000000,175,503804000000,BR_wheel_link,-0.25456092914020767,0.2214832112298491,-1.1040349061803205,-0.00856142756811045,0.011498320254132274,-0.006072327621698928
503805000000,176,503805000000,BR_wheel_link,0.02418506845212727,0.05724010581142262,-0.05299116090535995,0.0016434298996334685,-3.583384734863384e-05,0.0008352353672313199
503806000000,177,503806000000,BR_wheel_link,0.26098832617035395,0.6532236845586019,-0.586882928296365,-0.005307345549375336,-0.012201159138162273,0.005502501868415389
503806000000,178,503807000000,BR_wheel_link,-0.023341696030799795,0.021808037493983513,-0.06067188725057196,0.0014179519652317489,0.0002068609964714029,-0.0006715714404940062
503808000000,179,503808000000,BR_wheel_link,-0.20538743469682325,0.30916698542796,-1.245712430350848,-0.008329067167038856,0.013909233552747724,-0.003755649199811938
503809000000,180,503809000000,BR_wheel_link,0.024992929242664864,0.05731765407347395,-0.05483197207924331,0.0014953408621209627,-5.2778296930685404e-05,0.0007861816462877292
503810000000,181,503810000000,BR_wheel_link,0.18555345267776335,0.4907036543776299,-0.3875507062293363,-0.005668268344804807,-0.015832801507270653,0.0006092816504580647
503811000000,182,503811000000,BR_wheel_link,-0.02736533152384427,0.028262663646984622,-0.07472657373980002,0.0016078159795798563,0.0004206890356949608,-0.0005841141367827856
503812000000,183,503812000000,BR_wheel_link,-0.2075430799899452,0.3945061713538196,-1.4169540581784577,-0.008347441751150708,0.017170131925590318,-0.0015181621097852145
503813000000,184,503813000000,BR_wheel_link,0.027534370395699774,0.0638390965761631,-0.061887099182093654,0.0016666950140507572,-5.049534774647301e-05,0.0008732685165502357
503814000000,185,503814000000,BR_wheel_link,-0.05156690031263198,-0.11281758506325568,0.39881080655342505,-0.00870051153712453,-0.02609328138474231,-0.01385753326557262
503815000000,186,503815000000,BR_wheel_link,-0.12489871504566054,0.9367117808412437,-6.480050757955635,0.07185674644076348,-0.006765781160794564,0.01104392163969193
503816000000,187,503816000000,BR_wheel_link,-0.011811332824950529,-0.002036107065463733,-0.03433986037730936,0.00020890210854614046,0.0002724857601424887,0.0003657988092226589
503817000000,188,503817000000,BR_wheel_link,0.0022099431956462924,-0.0014917993196292012,0.004234392456896122,-4.2501559576185605e-05,-4.771396758519723e-05,2.5559775320553975e-05
503818000000,189,503818000000,BR_wheel_link,-0.2694138205247185,0.12597060377587782,-2.1951321422952135,0.011600563475563064,0.009434926406799455,0.0023239690867644406
503819000000,190,503819000000,BR_wheel_link,0.0008932059507121503,0.0037875261974412624,-0.010199809508922424,0.00016563091523567764,9.619725380523e-06,0.00012517767155964359
503821000000,191,503820000000,BR_wheel_link,-0.041752639688598936,0.12438723366051188,-1.3538773856942954,0.004248056054300807,0.006165563767666177,0.00040881973614926876
503821000000,192,503821000000,BR_wheel_link,0.007385038203696417,0.010370655758435127,-0.006845764109461678,0.000271149708153718,-0.00011042197287251995,4.6863916512925545e-05
503822000000,193,503822000000,BR_wheel_link,0.04502594685283548,0.06381240025240698,-1.8241017915378057,0.00402797160760331,0.003984238692287355,0.0005844016564120278
503823000000,194,503823000000,BR_wheel_link,0.042685089883498145,0.06592174243494602,-0.06093039149900829,0.0027944075185327225,-0.0013855132117853108,0.0001149619123810264
503824000000,195,503824000000,BR_wheel_link,0.06249756701931583,0.12185012090910709,-0.45084703051495684,-0.006189343412813929,0.008833686121966092,0.0028288870255649546
503825000000,196,503825000000,BR_wheel_link,0.24445111522346896,0.48276182362822917,-0.9995566661057602,0.03278628792508056,-0.016612229716109306,0.0008072543579175937
503826000000,197,503826000000,BR_wheel_link,-0.30385790922301004,-0.5130157811056668,-0.40618987721785826,-0.04020408639318223,0.02891516659524812,-0.0007384559375574556
503827000000,198,503827000000,BR_wheel_link,0.34690747980915004,0.680378430789973,-1.313924419207221,0.04415530406276782,-0.022105357639000872,0.0007862469161620733
503828000000,199,503828000000,BR_wheel_link,-0.24022455060144565,-0.4710331434941892,-0.3847191800442349,-0.03726189746190486,0.025783296373743242,-0.0015196625834644458
503829000000,200,503829000000,BR_wheel_link,0.29068317414945666,0.6312016625034832,-1.2531600106980432,0.041725453853749817,-0.020168742544568505,-0.00021088582698409108
503830000000,201,503830000000,BR_wheel_link,-0.20229975235594005,-0.43884635338765454,-0.39005910933508703,-0.03567298391820226,0.024318295791738012,-0.001813754253209589
503831000000,202,503831000000,BR_wheel_link,0.2694209424348736,0.6060937153567787,-1.2143155541536186,0.04032472780066585,-0.01924681168785994,-0.0005119779649584357
503832000000,203,503832000000,BR_wheel_link,-0.1785245498780484,-0.409422210160293,-0.4080669990817223,-0.03460421688858575,0.02367915403603314,-0.001765669169246811
503833000000,204,503833000000,BR_wheel_link,0.263653606876095,0.591999382838714,-1.1859285781219988,0.03940191271233254,-0.018780786194335118,-0.0005071509981092986
503834000000,205,503834000000,BR_wheel_link,-0.16359048714275914,-0.38528854825223646,-0.42720849581350306,-0.03385242299625252,0.02341779561710845,-0.0016045414587388888
503835000000,206,503835000000,BR_wheel_link,0.2630844170014819,0.5832206606888979,-1.1667028129114594,0.038799740965345886,-0.018535158294951393,-0.00041306988484333474
503836000000,207,503836000000,BR_wheel_link,0.32805415132910876,-0.08285736169203203,0.4487524677157093,-0.04773348196377357,-0.013371352493542852,0.0064130963313853585
503837000000,208,503837000000,BR_wheel_link,-0.0028820124835683344,0.0794425571562536,-0.11785700269787322,0.0029027082067693537,0.00029282623425625604,0.0001902077736441436
503838000000,209,503838000000,BR_wheel_link,-0.19483958872723564,0.10563840823909292,-0.18448169481972992,0.0025425613052382405,-0.01108354022154268,-0.00866992152245004
503839000000,210,503839000000,BR_wheel_link,-0.054710916778143784,0.4101549366546805,-1.2640820906694983,-0.010331362486411514,0.027782229621218495,0.011605670325868938
503840000000,211,503840000000,BR_wheel_link,-0.030609028406226247,-0.029722397830092034,0.3038079322048892,-0.006355216802522495,-0.02413824472620213,-0.01132469543203931
503841000000,212,503841000000,BR_wheel_link,-0.03418885058692817,0.02365020872810794,-0.07269045214319311,0.0016057951202113722,0.0003784150765410222,-0.0007443842393179707
503842000000,213,503842000000,BR_wheel_link,-0.3840213141075029,0.9952016009629321,-3.070615245820129,0.019122281110124387,0.012290839732729913,-0.00024717735986153413
503843000000,214,503843000000,BR_wheel_link,-0.018006659668145544,0.030444593171982205,-0.039214864788690754,0.0009990857425934546,0.0005293112416676155,-0.00047229013517023004
503844000000,215,503844000000,BR_wheel_link,0.021541410569551403,-0.15753272771290852,0.590583660291069,-0.017297563213797204,-0.020119903957652303,-0.004949838875923905
503845000000,216,503845000000,BR_wheel_link,0.13047097989424722,0.8292537811215449,-1.4617839224874971,0.008587350311421046,0.02019093893376984,0.01578116323796081
503846000000,217,503846000000,BR_wheel_link,-0.009102651211176488,-0.0641339856222677,0.35885599259451617,-0.009575400293586113,-0.019336430779515065,-0.007179356985513488
503847000000,218,503847000000,BR_wheel_link,-0.12807515616936743,0.10908317327435352,-0.8151558363406805,-0.014483357597569071,0.022946564564749153,0.006230463848652923
503848000000,219,503848000000,BR_wheel_link,0.13432043472144156,0.759674906190735,-2.4346419280704827,0.039912352066794346,-0.005910892976409333,-0.0014239181341397763
503849000000,220,503849000000,BR_wheel_link,-0.1097973224084196,0.0051453379503459615,0.15594506474704226,-0.007796997248069048,-0.014111002957583725,-0.005600195586033607
503850000000,221,503850000000,BR_wheel_link,-0.04183569804857357,0.12048405402142637,-0.6116429685435512,-0.009515826450874405,0.015445966768997595,0.004699982782597071
503851000000,222,503851000000,BR_wheel_link,-0.17217075072391988,0.12152665636065896,-0.13476369555578344,0.001982834809328051,-0.015475873547744516,-0.009730052379275102
503852000000,223,503852000000,BR_wheel_link,-0.019416664340097867,0.20486019878715103,-0.7543482197725064,-0.008493773904081282,0.017107883030994364,0.006111504974555001
503853000000,224,503853000000,BR_wheel_link,0.039607397213855956,-0.05445109667928986,0.3982954541847544,-0.010309130951381576,-0.017922284439593178,-0.0047632248534526305
503854000000,225,503854000000,BR_wheel_link,-1.8448877154744672,3.6330151615753596,29.20500393114153,-0.5074673956022429,0.18559615868788482,-0.0441879510011032
503855000000,226,503855000000,BR_wheel_link,-0.1042577697544242,-0.11239450671596944,-0.04993351538308139,-0.01269807623207044,0.011779817194506124,-0.002892373207054937
503856000000,227,503856000000,BR_wheel_link,0.054504840187146436,-0.1592339878466136,0.5919450642277828,-0.0175066170635549,-0.016961504194463205,-0.002128794584781814
503857000000,228,503857000000,BR_wheel_link,-3.5644555266390094,-1.3171831371164764,9.018601992498905,-0.48738321223335734,0.4043288509955283,-0.0882775211695215
503858000000,229,503858000000,BR_wheel_link,-0.030546190122808015,-0.3476046425891076,0.6719225703358154,-0.032922821522203854,-0.007259708810755928,-0.008461643061871336
503858000000,230,503859000000,BR_wheel_link,-1.3451192995403036,0.026787552207606646,7.440184933647843,-0.26657714002217525,0.14357154902711533,-0.031064346302093385
503860000000,231,503860000000,BR_wheel_link,-0.04037150549775167,-0.16054781308365124,-0.06458579482397314,-0.04044123522386171,0.003400351649392199,-0.0014092758096301357
503861000000,232,503861000000,BR_wheel_link,-0.5270777252072868,-1.7177393454480046,2.1740789583348366,-0.2859261854249899,0.06754784763961348,-0.011370708235166966
503862000000,233,503862000000,BR_wheel_link,0.04190827241647688,0.1393882596969138,-0.22384629203732118,-0.017060053842028883,-0.004972220494542781,-0.0009074875778134592
503863000000,234,503863000000,BR_wheel_link,-0.4657148881206773,-0.44106483791908985,4.688573438565064,-0.22436980403740012,0.051126067162793,-0.008856863729744233
503864000000,235,503864000000,BR_wheel_link,0.024184956335238032,-0.1249185254990671,-0.07171978135394803,-0.034560150381923636,-0.005104492107591294,-0.0026384852602241438
503865000000,236,503865000000,BR_wheel_link,-0.5860241054117579,-0.5104442232208357,4.816372094702519,-0.2375667967015857,0.0650962639118073,-0.01207899477515149
503866000000,237,503866000000,BR_wheel_link,0.1273218074503235,-0.026865788329484407,0.07504836736638462,-0.02983139959066135,-0.009893337426645736,-0.0001681058663426378
503867000000,238,503867000000,BR_wheel_link,-0.2033662215673993,0.31276800925952036,5.5458406798999835,-0.16538756586733316,0.016381736706294392,-0.0016890604666629679
503868000000,239,503868000000,BR_wheel_link,0.0797929538430268,-0.06814345621781413,0.03447527474646818,-0.029822730403952093,-0.008481149103128811,-0.0012197880142325152
503869000000,240,503869000000,BR_wheel_link,-0.28973169888110173,-0.06934602118995364,4.997332811845838,-0.1906680384387948,0.028895706638313617,-0.004217261654381226
503870000000,241,503870000000,BR_wheel_link,0.11532654640284701,-0.035770130508727044,0.06599342898748742,-0.02903021854277029,-0.009846855987855353,-0.0002499795607304829
503871000000,242,503871000000,BR_wheel_link,-0.2889931927552001,0.4237377000922063,5.666272095191567,-0.15671479054088067,0.025504617614394487,-0.004064632282174489
503872000000,243,503872000000,BR_wheel_link,0.10043837746594977,-0.04827107708815076,0.08134539105885927,-0.028918069073707052,-0.008910457567846617,-0.000672091646899796
503873000000,244,503873000000,BR_wheel_link,-0.37906740087253177,0.3679865104484179,5.601142760995598,-0.161118598504714,0.03616369273834059,-0.006549566198010529
503874000000,245,503874000000,BR_wheel_link,0.11416990986880887,-0.033602987095281533,0.10460607593765853,-0.028454735614547182,-0.00920978113937903,-0.00028789118672138984
503875000000,246,503875000000,BR_wheel_link,-0.38005598549237873,0.5451373347122956,5.813180259678184,-0.147805179473302,0.035150274955354575,-0.006557961421334904
503876000000,247,503876000000,BR_wheel_link,0.10693824164081889,-0.03824486714133157,0.10754118458588788,-0.028401988006063323,-0.008777248297189419,-0.00044066441643948696
503877000000,248,503877000000,BR_wheel_link,-0.4152969785418583,0.5153648896456613,5.763574089006042,-0.14950303134862467,0.039418742953955296,-0.0075517835094089485
503878000000,249,503878000000,BR_wheel_link,0.02732772601898149,-0.012135194873509976,0.0006822914658579733,-0.02642551263345652,-0.010472033138815985,-0.0033181740182909258
503879000000,250,503879000000,BR_wheel_link,-0.4895228315027603,0.49210561054922297,5.4312956363627,-0.14017463696779012,0.048570215832671994,-0.009668141392363487
503880000000,251,503880000000,BR_wheel_link,-0.0029858001995696124,-0.003821753431371855,-0.046206037704427445,-0.02544299019769638,-0.007795370879498352,-0.002842545552501273
503881000000,252,503881000000,BR_wheel_link,-0.3800027347620178,-0.15426019006479152,4.086407176369981,-0.167191346685482,0.04103788820762966,-0.0071258998184715195
503882000000,253,503882000000,BR_wheel_link,0.09815745006318402,-0.020784980022800888,0.02847938846319256,-0.029426644749782273,-0.005723450603372994,0.0019854356780304653
503883000000,254,503883000000,BR_wheel_link,-0.8831081780959523,1.1575710212358712,6.763673026059118,-0.11175382230248712,0.08828006983584157,-0.020055200061937825
503884000000,255,503884000000,BR_wheel_link,0.1458898381964625,-0.007197465057642252,0.2547853084415849,-0.027794712230190734,-0.007229715737709004,0.0012937493962352576
503885000000,256,503885000000,BR_wheel_link,-0.8723404068809943,1.649412495291534,7.536093691031363,-0.08146809162237328,0.08363238300071055,-0.01962665191013646
503886000000,257,503886000000,BR_wheel_link,0.12590057782238628,-0.014220596506504188,0.2509097149774704,-0.026186498474945342,-0.00775609535076415,-0.0002670586018999506
503887000000,258,503887000000,BR_wheel_link,-0.5794843778566295,1.0000676288418489,6.328604925841759,-0.11279836258176722,0.05509065745967605,-0.012051145748959761
503888000000,259,503888000000,BR_wheel_link,0.1087265461078622,-0.024377693738705852,0.15104651515855827,-0.026938907769343164,-0.008249033898340218,-0.00036949206074418433
503889000000,260,503889000000,BR_wheel_link,-0.4234395238741933,0.6148220385151524,5.717004037959565,-0.13523030534614325,0.04011941644788068,-0.00797592299377695
503890000000,261,503890000000,BR_wheel_link,0.10173122375842428,-0.03398962702011086,0.10185573707846662,-0.027826728040306996,-0.008462741667445043,-0.00035350789743243726
503891000000,262,503891000000,BR_wheel_link,-0.4366979727603517,0.5978849631982704,5.7574030476716125,-0.13862215144930556,0.041761544629179734,-0.00832344493550885
503892000000,263,503892000000,BR_wheel_link,0.1040337082237672,-0.03480697902796959,0.10683621817876231,-0.028071383701338493,-0.008518897378637934,-0.00034871556887004773
503893000000,264,503893000000,BR_wheel_link,-0.4651887781793493,0.6701864614380848,5.894334574916408,-0.13507748098544042,0.04454568387125414,-0.009075539640649739
503894000000,265,503894000000,BR_wheel_link,0.10637704148637414,-0.03344716834422955,0.11897973230746008,-0.028071919555663946,-0.00849914681787235,-0.0003113503255730925
503895000000,266,503895000000,BR_wheel_link,-0.46557209569217894,0.6875309006649637,5.914687911271941,-0.13366293159275838,0.04453769150852278,-0.009102139327819543
503896000000,267,503896000000,BR_wheel_link,0.10788231730212498,-0.032047937028238827,0.1232372620543196,-0.028085207334290367,-0.008536049564341364,-0.00023565037069304485
503897000000,268,503897000000,BR_wheel_link,-0.4580514375519232,0.6945159459135732,5.9141343895898,-0.13267355449532087,0.0437057362684441,-0.008920866801958034
503898000000,269,503898000000,BR_wheel_link,0.10848017297872134,-0.03141028553018048,0.12476673715227618,-0.02812066491438448,-0.008572473903507889,-0.00018170835220171402
503899000000,270,503899000000,BR_wheel_link,-0.4571855248983137,0.7090024445244936,5.928537591854241,-0.13136621049561484,0.043574523834268984,-0.008916294637214554
503900000000,271,503900000000,BR_wheel_link,0.10933933908516404,-0.030415383320564288,0.1277223656371682,-0.028133188221147364,-0.008605611511446443,-0.0001302305970778319
503901000000,272,503901000000,BR_wheel_link,-0.45937249793388635,0.732744781956421,5.955670914677809,-0.12944147454881139,0.04372723145179824,-0.008992461487909848
503902000000,273,503902000000,BR_wheel_link,0.10999082039956759,-0.029420218359655977,0.13124762922737357,-0.028129005551861132,-0.008622345622112984,-8.851007324343517e-05
503903000000,274,503903000000,BR_wheel_link,-0.4621189467508811,0.7547386829846796,5.978724851066186,-0.127575747079416,0.043956038342770294,-0.009085324277011343
503904000000,275,503904000000,BR_wheel_link,0.11053397887408793,-0.028373494474647022,0.1344817116833747,-0.02811888438738613,-0.00863566058500918,-4.846029955110111e-05
503905000000,276,503905000000,BR_wheel_link,-0.46472222155386755,0.7759357739994436,5.999507791804325,-0.12572016044793388,0.04417467159699616,-0.009175245014254891
503906000000,277,503906000000,BR_wheel_link,0.11087170507575617,-0.027433230984452932,0.13732729994901316,-0.028109279664021117,-0.008642594788184695,-1.3741632521650782e-05
503907000000,278,503907000000,BR_wheel_link,-0.4679314617383512,0.7962971434812522,6.01897255934924,-0.1239170213622474,0.044467827335009216,-0.00928203327213383
503908000000,279,503908000000,BR_wheel_link,0.11113803089057309,-0.02650169240261422,0.14004034473604748,-0.028098724660434067,-0.008646334433053559,1.8465469500388715e-05
503909000000,280,503909000000,BR_wheel_link,-0.47164474099176545,0.8170479157984392,6.038827273450395,-0.12208397226166823,0.044815823354282996,-0.009402586847606639
503910000000,281,503910000000,BR_wheel_link,0.11132129595916744,-0.02559990697993271,0.1426873778824131,-0.02808735319614561,-0.008645741489120706,4.780577027458906e-05
503911000000,282,503911000000,BR_wheel_link,-0.4757138243752238,0.8375273320252777,6.058127250616991,-0.12026407810005979,0.04520630254562492,-0.009533052275159314
503912000000,283,503912000000,BR_wheel_link,0.11146216617306912,-0.02469952072621911,0.14526740762004922,-0.028075323477108345,-0.008642868118649073,7.582917368500119e-05
503913000000,284,503913000000,BR_wheel_link,-0.47991626226935025,0.8578370259055031,6.07697133958502,-0.11844815229677663,0.04561339937610606,-0.009667375883582697
503914000000,285,503914000000,BR_wheel_link,0.11155579380073376,-0.02381562060074309,0.14776658299398004,-0.028063368915656153,-0.008637964622740562,0.0001025246656462058
503916000000,286,503915000000,BR_wheel_link,-0.4843271326724081,0.8778440410841657,6.095418320668442,-0.1166541015669336,0.04604634391611729,-0.009807481829856591
503916000000,287,503916000000,BR_wheel_link,0.11161804066817803,-0.0229478701724576,0.15022634022508796,-0.028050990027285953,-0.008632259634600882,0.00012803933332958782
503917000000,288,503917000000,BR_wheel_link,-0.48890597202656205,0.8979714710218583,6.113961139619851,-0.11485007356426105,0.04649785884755618,-0.0099522148139746
503918000000,289,503918000000,BR_wheel_link,0.11167056329037364,-0.022074671106153528,0.15269004277211423,-0.028038237203328036,-0.008625781731879454,0.00015320949584411063
503919000000,290,503919000000,BR_wheel_link,-0.4935941874511691,0.9182581102550487,6.132623140495633,-0.11303217482577119,0.046961071831598936,-0.010099978694835515
503920000000,291,503920000000,BR_wheel_link,0.11173044233982536,-0.021169025514199684,0.15515459774622578,-0.028025204263169966,-0.008618532206233575,0.00017938183145450675
503921000000,292,503921000000,BR_wheel_link,-0.4983202761389799,0.9387306883982294,6.15135730148743,-0.11119526198508986,0.04742771416430493,-0.01024892328849144
503922000000,293,503922000000,BR_wheel_link,0.1117880598080071,-0.020249039523891045,0.15762460077125928,-0.028011334292368288,-0.00861135703816997,0.00020551258292293598
503923000000,294,503923000000,BR_wheel_link,-0.50312225350772,0.959485485935085,6.170341889271654,-0.10933454095393529,0.04790142114922169,-0.01040003982284389
503924000000,295,503924000000,BR_wheel_link,0.1612744064381933,0.07106590629017909,0.04434947432058062,-0.027046536239940976,-0.007780912664241222,0.0022330679344361817
503925000000,296,503925000000,BR_wheel_link,-0.11902537316750172,0.572163878805698,5.100050422717097,-0.11412634392648648,0.007040808980218381,-0.0005207319809926413
503926000000,297,503926000000,BR_wheel_link,0.03608017513824351,-0.11870054495087756,0.06099683421640489,-0.028681052287439515,-0.00799321077365008,-0.002986304621123038
503927000000,298,503927000000,BR_wheel_link,-0.6082182719193029,0.4017377233441004,5.5880943223834745,-0.15386141244536486,0.063528408789071,-0.013319562452965063
503928000000,299,503928000000,BR_wheel_link,0.09659395932423459,-0.042232200782810383,0.11503120926042068,-0.02934353520885742,-0.007763550985597084,-0.0004932598240637719
503929000000,300,503929000000,BR_wheel_link,-0.6498666781882709,0.9991327833599067,6.353476701643238,-0.11147660449724925,0.06443076747260612,-0.014367953988374815
503930000000,301,503930000000,BR_wheel_link,0.09870394212682032,-0.033936757873917076,0.1598242394280111,-0.028571843398715567,-0.007505156846386758,-0.000344287798614559
503931000000,302,503931000000,BR_wheel_link,0.35367871833156883,0.625185616588227,9.685293544216547,-0.23221818899555938,-0.049799441216601376,0.008429077135291257
503932000000,303,503932000000,BR_wheel_link,0.02161698405371411,-0.1169592398095256,-0.3979954489674896,-0.018753494462007966,0.006370786097670536,0.002187446391409291
503933000000,304,503933000000,BR_wheel_link,0.03247557582270458,-0.044090790846842975,0.3708210175305321,-0.008309164480196836,-0.015632135483152163,-0.003839982833945523
503934000000,305,503934000000,BR_wheel_link,-0.040696163102629135,0.04028819318278687,10.419032310518674,-0.35984062647122317,0.014735520073587999,0.0021767990883419623
503935000000,306,503935000000,BR_wheel_link,0.9600075763103464,-0.9875676718157651,1.2716938222150604,-0.14026116310925602,-0.11127111797047375,0.02463496754460855
503936000000,307,503936000000,BR_wheel_link,-0.5155453323074557,-0.30157949879808954,-0.1847919091676817,-0.0522691970084581,0.042306002650406384,-0.012586998848199006
503937000000,308,503937000000,BR_wheel_link,-0.757210966902139,-1.2976131299711033,1.966012123111847,-0.22406943446172542,0.0942990501428213,-0.01809889140572699
503938000000,309,503938000000,BR_wheel_link,0.09796707061001027,0.07804502882369443,-0.026538579063006038,-0.02577035557253445,-0.005705801264848816,0.0008831830124771877
503939000000,310,503939000000,BR_wheel_link,-0.1700085057722056,1.8435535087184336,14.734041137190621,-0.2516917712922466,0.007634085478812308,-0.0049570602673745315
503940000000,311,503940000000,BR_wheel_link,-0.012004987902001073,-0.11089067614464104,0.12013276045567763,-0.01315315808977419,-0.00917600773947225,-0.0014158928392081671
503941000000,312,503941000000,BR_wheel_link,-0.732953328531596,-0.6568652788447118,0.41581911570954394,-0.1123625663861758,0.06674393243232296,-0.01803207944547399
503942000000,313,503942000000,BR_wheel_link,0.30892146741055293,-3.0273232216805526,5.467402825197501,-0.5064113970580423,-0.019154051751407802,0.00876062031216875
503943000000,314,503943000000,BR_wheel_link,-0.14451624560158471,-0.18256295087427715,-0.6337975825052521,-0.025181606592339197,0.0043358001867548936,-0.002577819250597467
503944000000,315,503944000000,BR_wheel_link,-0.045430853631083394,0.027192926404017305,0.0639331706244571,-0.0012807842544275702,-0.009717766866636501,-0.004098570852482802
503945000000,316,503945000000,BR_wheel_link,-1.4394777651311004,-0.190411835334505,12.535725789121681,-0.4239408188831799,0.16459099147799136,-0.035926697929271265
503946000000,317,503946000000,BR_wheel_link,0.4711427689542653,-1.2069921954251936,1.70611996702806,-0.18147989118287156,-0.05289185985271892,0.01232539045685703
503947000000,318,503947000000,BR_wheel_link,-0.18727438721517836,0.0685200578295646,-0.6508474740413956,-0.005125171573233996,0.007256834923417934,-0.003925389140049643
503948000000,319,503948000000,BR_wheel_link,-0.04353437986096992,0.032003622179920393,0.07193706604308728,-0.0023374646905912674,-0.009154193296745291,-0.0030522831842569632
503949000000,320,503949000000,BR_wheel_link,-2.056843166562575,0.3389569104194978,14.335697384196305,-0.4229439982182427,0.23258213423326754,-0.05214686468556327
503950000000,321,503950000000,BR_wheel_link,-0.08415099782021379,-0.5418944949426051,0.7159445553781603,-0.08097530768596733,0.00416586638186766,-0.0029410471488755248
503951000000,322,503951000000,BR_wheel_link,-0.969622731232492,-0.572053585325513,0.39246901904522363,-0.10243169123932157,0.09326629890235745,-0.02465425196951824
503952000000,323,503952000000,BR_wheel_link,-0.47249928518055806,-1.6694870589218052,2.764608863194445,-0.3068991942589009,0.06917892881836163,-0.011866165209805758
503953000000,324,503953000000,BR_wheel_link,-0.0551319778089492,0.21615620750502584,-0.5617961581879553,0.004217941964405975,0.001756882474782073,-0.001389766257185631
503954000000,325,503954000000,BR_wheel_link,0.4531625332385174,-0.8261871299981494,9.05856809183783,-0.3630199398901637,-0.04436658754565534,0.013000097627906333
503955000000,326,503955000000,BR_wheel_link,-0.11556445161036584,-0.1724314080550376,-0.433639279397831,-0.019686007399714173,0.004922205176770669,-0.002967243958931415
503956000000,327,503956000000,BR_wheel_link,0.013567603230627692,0.025208611335754985,-0.019537517930245156,0.0006530584724569526,-0.00016472528548720832,0.000328474350380859
503957000000,328,503957000000,BR_wheel_link,0.14987299182157465,1.8757504058589467,21.663763760474588,-0.44755569068573386,0.006659385032259241,0.0031362175757314627
503958000000,329,503958000000,BR_wheel_link,0.004659553186358079,-0.09159921936040918,-0.2354862427573229,-0.010774977644443847,-0.01132727965729625,0.0012839066847283205
503959000000,330,503959000000,BR_wheel_link,-0.033545578615831746,-0.011142843413410198,-0.3967339638354955,-0.011780738274740772,0.013251896314002132,0.0011749546422236646
503960000000,331,503960000000,BR_wheel_link,-0.09690083823573971,0.22659072629027513,-0.7719866812121852,0.01724891443249662,-0.022614136599891026,-0.00281844444977755
503961000000,332,503961000000,BR_wheel_link,-0.15313711656037104,-0.1257045748468313,-0.568448459476764,-0.02196390492851623,0.022673939749861233,0.00015532181168432407
503962000000,333,503962000000,BR_wheel_link,0.18014146788013086,0.41409943397120574,-1.3541982747689856,0.04087297397745377,-0.016948161226273666,0.001564521913106962
503963000000,334,503963000000,BR_wheel_link,-0.23463262284922248,-0.33284629037241875,-0.19340626376881653,-0.03654322541820089,0.009280012320369289,-0.007690881786792251
503964000000,335,503964000000,BR_wheel_link,0.0758877736872617,0.2994341511689398,-1.025140251145677,0.03020866573575145,-0.011248979080629084,-0.00034047098613075024
503965000000,336,503965000000,BR_wheel_link,-0.24356021147655507,-0.19110273152923318,-0.5296133232622142,-0.026451423738045376,0.013946201076480418,-0.006269934232017212
503966000000,337,503966000000,BR_wheel_link,0.18345937045042696,0.31609036785998373,-0.8889484920089477,0.027393416809917276,-0.01195702199872363,0.0025920624619818677
503967000000,338,503967000000,BR_wheel_link,-0.13619975727139655,-0.10749261199262343,-0.4241651931684214,-0.027519502483405418,0.010735918783867083,-0.0025078015483768123
503968000000,339,503968000000,BR_wheel_link,0.025004376852405988,0.2489450243516249,-0.6390007560918135,0.016919119975205805,-0.011362414581583763,-0.0002788667468452372
503969000000,340,503969000000,BR_wheel_link,-0.10176593191074514,-0.005833210920120669,-0.6813023247858103,-0.015266092614118864,0.016586356650390464,-0.0009714056705959854
503970000000,341,503970000000,BR_wheel_link,0.1732066644839972,0.2587128612298689,-0.6043656573544534,0.01748979140407057,-0.019014918512890548,0.0031882692137008882
503971000000,342,503971000000,BR_wheel_link,-0.12178193867927257,-0.04572125520425764,-0.7063467367524954,-0.019198647074544554,0.02139524482736891,0.0003058279878920204
503972000000,343,503972000000,BR_wheel_link,0.24355240678582202,0.3816181899521725,-1.0830716441298047,0.03376736938520848,-0.015327781398260576,0.003529217288283484
503973000000,344,503973000000,BR_wheel_link,-0.0733803345420255,-0.13085460756037237,-0.18565157035271382,-0.03470439972314768,0.005977801666930099,-0.0011380071518606342
503973000000,345,503974000000,BR_wheel_link,-0.13559782851948532,0.2306189435858228,-0.7072720150399245,0.016977459283047572,-0.008474264782091968,-0.004383035247256616
503975000000,346,503975000000,BR_wheel_link,-0.12878164292266708,0.037720098360054105,-0.75515668653279,-0.01271981692627874,0.014799457318183301,-0.0018914762456128972
503976000000,347,503976000000,BR_wheel_link,0.2040260966784785,0.3519139848001941,-1.2671360707335892,0.014739886495371243,-0.006312450672600623,0.004680611312017004
503977000000,348,503977000000,BR_wheel_link,0.0884051634922842,0.20279256007625585,-0.33779973800078045,-0.004494094492430882,-3.01891087386018e-05,0.0028034436016759518
503978000000,349,503978000000,BR_wheel_link,0.04029561224655143,0.2048106224774735,-0.4567791599532546,-0.003279273207833329,0.00016628853807555536,0.001031229983485668
503979000000,350,503979000000,BR_wheel_link,0.015484119391745058,0.22043539819796176,-0.5169655166927587,-0.0025596830222737333,-3.7541306105416715e-05,0.00040612699283180064
503980000000,351,503980000000,BR_wheel_link,0.01133868365536718,0.21995077541732444,-0.5255431471469213,-0.0024939311774413867,0.00015629162549260934,0.0003484804770953422
503981000000,352,503981000000,BR_wheel_link,-0.05915670756730548,0.12622464311556683,-1.3546304264936473,0.00921332697992615,9.418016587693645e-05,-0.0009485600019222184
503982000000,353,503982000000,BR_wheel_link,0.021803769000452576,0.10346190502368632,-0.3995385402859183,-0.003636728982365077,0.00036371493395781344,0.00045115316038568556
503983000000,354,503983000000,BR_wheel_link,0.024989380366152468,0.16347108372576413,-0.3521061521032511,-0.0038453856589399215,-0.0005262476198854445,0.0006033676263605518
503984000000,355,503984000000,BR_wheel_link,-0.05177587193231256,0.10831777848603215,-1.1656366253256956,0.0066406788188615295,7.21300958671507e-05,-0.0008115009916184067
