%time,field.header.seq,field.header.stamp,field.header.frame_id,field.wrench.force.x,field.wrench.force.y,field.wrench.force.z,field.wrench.torque.x,field.wrench.torque.y,field.wrench.torque.z
503635000000,0,503630000000,FL_wheel_link,-0.03319763590931052,0.25530868566490905,0.02590366506491255,-0.01452545594045597,-0.006160945266606563,0.0032522011577447345
503635000000,1,503631000000,FL_wheel_link,-0.11670391312846978,0.05731687211837094,-0.1668231322019587,-0.0037403941681097503,0.006213338160383804,0.003336348473640406
503635000000,2,503632000000,FL_wheel_link,0.08686684616874267,0.45301555523810866,-0.3075021143791187,0.004713499672916437,0.004527492099410284,-0.001626645838528128
503635000000,3,503633000000,FL_wheel_link,2.2004322050070693,-8.104602361805567,14.598025517119819,-0.8788225585442373,-0.22117361889222037,-0.006436434326469731
503636000000,4,503634000000,FL_wheel_link,0.14818693435748842,-0.35092907926015776,0.0995039558556044,-0.03359453483176531,-0.014618712939570353,1.3660502757595512e-05
503636000000,5,503635000000,FL_wheel_link,-0.32940639575590386,0.616551611654725,-1.1187148984660533,0.009984794674003676,0.0186207672704798,0.006656167747193236
503636000000,6,503636000000,FL_wheel_link,0.06301551639909073,0.07000233279796919,0.09315717925777438,-0.0007749810659575798,-0.006128337201703664,-0.0021131131198819236
503637000000,7,503637000000,FL_wheel_link,4.824066924571169,-9.074688257225112,13.181197172444524,-1.0102525627992358,-0.4872687200788956,-0.01731784494220953
503638000000,8,503638000000,FL_wheel_link,-0.19911282719556012,0.13159287591584493,0.06060554821487018,-0.023508458119358387,-0.003008474033472118,0.01135384007092261
503639000000,9,503639000000,FL_wheel_link,2.4535546173415765,-8.252425120702434,13.756765677174524,-0.898844843935668,-0.2418795246973392,-0.00891703137921318
503640000000,10,503640000000,FL_wheel_link,-0.2783708924853831,-0.39335772488523946,0.21493882118654514,-0.0349683308132214,-0.006694223760550308,0.013354860734581687
503641000000,11,503641000000,FL_wheel_link,1.7258746536861027,-6.025086500151468,13.148310352214725,-0.7152875162780425,-0.16978124232959757,-0.007112080135358231
503642000000,12,503642000000,FL_wheel_link,-0.04075635318580045,-0.05951163524608087,0.06658753811593435,-0.024678243611824677,0.000621807464365574,0.0037258604772533
503643000000,13,503643000000,FL_wheel_link,2.3268410608624235,-8.83461240776685,13.054027586705953,-0.9727377306572453,-0.24340023350430418,-0.0023792953519269633
503644000000,14,503644000000,FL_wheel_link,-0.09643310448405731,-0.2530511650418755,-0.06877829432383868,-0.03211428037592911,-0.000819912850531181,0.0067716860936987274
503645000000,15,503645000000,FL_wheel_link,2.249573508644675,-7.782597448284717,10.356933617628947,-0.9087092502511747,-0.21578865601798014,-0.01237116771267635
503646000000,16,503646000000,FL_wheel_link,0.042262888621258245,0.13474528485583503,0.005842362522253543,-0.015503274906293031,0.0006557973670735882,0.00011467315517513449
503646000000,17,503647000000,FL_wheel_link,2.1366574107288625,-7.046840225199099,12.626144584902645,-0.7657858558988706,-0.2210487158703201,-0.0038422908202782324
503646000000,18,503648000000,FL_wheel_link,-0.01593138712002587,0.16915912970802854,0.11747943559016913,-0.020618990961358767,-0.005270441831712918,0.000962747542819109
503649000000,19,503649000000,FL_wheel_link,2.991082118857606,-9.632298564357864,13.603919268449426,-1.0596245994969369,-0.3175466879665578,-0.004325046582708075
503650000000,20,503650000000,FL_wheel_link,-0.10423837323919082,-0.19213586155015247,-0.0011453135455967642,-0.02268650040803911,-0.003684180344922891,0.007952345403880654
503651000000,21,503651000000,FL_wheel_link,1.6873078103766506,-4.047531790695305,9.110096855991305,-0.4869251189951018,-0.1711197359890767,-0.005850046228331782
503652000000,22,503652000000,FL_wheel_link,0.035953409525114506,0.1645805151817586,0.02409377145491426,-0.014933459220018517,0.0008337480448073501,-0.001241507254361424
503653000000,23,503653000000,FL_wheel_link,1.8017602468374334,-6.441764459078746,11.802558499200691,-0.7010235736011647,-0.18727141727949315,-0.002218325198295401
503654000000,24,503654000000,FL_wheel_link,0.019855499545221936,0.24818936529140925,0.03841852984895787,-0.0181994589685691,-0.0032481128974349927,-0.0011483548999423544
503655000000,25,503655000000,FL_wheel_link,2.779705450207956,-8.871491891797117,12.63761757686019,-0.9748890689518687,-0.2945637569947543,-0.0041193341034956865
503656000000,26,503656000000,FL_wheel_link,-0.10787636534988036,-0.1758944972694032,-0.015164469618709625,-0.021097830202419184,-0.002962401526011205,0.0077946408885850825
503656000000,27,503657000000,FL_wheel_link,1.6556140472777043,-3.6569677172295276,8.376606811382906,-0.44578858860960224,-0.16805936934876853,-0.00576554322494624
503658000000,28,503658000000,FL_wheel_link,0.024743487862363987,0.11291154914875634,-0.025560728592180816,-0.013793734566518001,0.000532694888067317,-0.00013352473192662748
503659000000,29,503659000000,FL_wheel_link,1.565439609065368,-6.166308153631871,11.59953271054532,-0.6700239209000753,-0.16322852543732444,-0.0008913960006598082
503659000000,30,503660000000,FL_wheel_link,0.23495083646080858,0.2513638795116143,0.39721122785952456,-0.012531664008872642,-0.01094691197178654,-0.00812030406355103
503661000000,31,503661000000,FL_wheel_link,0.8532929404819081,-10.557865399448975,14.292064518046727,-1.1458422140783395,-0.10668176112678851,0.002736523809135971
503662000000,32,503662000000,FL_wheel_link,-0.013522731796169085,0.26321467658342906,-0.020531099416020306,-0.01446261291099764,-0.005744933730590723,0.0026090454477742404
503663000000,33,503663000000,FL_wheel_link,-0.11586554350488802,0.05338414475955701,-0.17443714320594378,-0.0038360222914655302,0.0062106611698695725,0.0033268169640956035
503664000000,34,503664000000,FL_wheel_link,0.08281054302263666,0.44234643884334424,-0.31089143862923174,0.0045694260929553965,0.0045138743992515695,-0.001555422215274175
503665000000,35,503665000000,FL_wheel_link,1.733708888517277,-7.186927301193601,13.112317053055595,-0.7832849078512906,-0.1743482035470576,-0.0038809360602651694
503666000000,36,503666000000,FL_wheel_link,-0.20229365065524396,-0.3379086835924553,0.06257158368647087,-0.03195962208081895,-0.003370430222971184,0.009727528943585115
503667000000,37,503667000000,FL_wheel_link,1.5199940741330105,-4.052011547066523,8.230871931691219,-0.5061968636126848,-0.1467711881376198,-0.008592226405844658
503668000000,38,503668000000,FL_wheel_link,-0.042028259634416795,-0.06828542696551547,-0.041461713549179637,-0.019008621560813253,0.0011654337261377996,0.002585321463040371
503669000000,39,503669000000,FL_wheel_link,1.4250941502401129,-6.136148998598913,12.185393977241572,-0.671054376755573,-0.14705549272907356,-0.0003911931150135245
503670000000,40,503670000000,FL_wheel_link,0.1991259125170954,0.15447167711554544,0.34157804057296925,-0.021157640383784208,-0.00811738102654257,-0.008660957434660737
503671000000,41,503671000000,FL_wheel_link,0.7138147439678719,-11.20449343310859,14.257392824962949,-1.2236694352038593,-0.08588325603151215,0.0012587121824929604
503671000000,42,503672000000,FL_wheel_link,-0.013930529619080242,0.2501082957045673,0.07171945567468266,-0.018543189168966415,-0.003876878650430145,0.0020222628659774325
503673000000,43,503673000000,FL_wheel_link,-0.09461219678418377,0.0897608146405772,-0.1825845729059929,-0.003437859169242322,0.006079366484131821,0.0029946943292647778
503674000000,44,503674000000,FL_wheel_link,1.7467884409942873,-9.763707256984715,12.153183461162367,-1.0861756547595731,-0.17045299643857087,-0.006243895571807545
503675000000,45,503675000000,FL_wheel_link,-0.12502346533777664,-0.19668693025112455,-0.02507698075417171,-0.023865464584755358,-0.000261252668403978,0.007550602933846061
503676000000,46,503676000000,FL_wheel_link,1.7517206967595609,-5.239391929661858,12.574205571485965,-0.6144108851954126,-0.17780379858354298,-0.006318225457610266
503677000000,47,503677000000,FL_wheel_link,0.013627980656832392,0.16420050580217704,0.14836165832356585,-0.016920994556582216,0.0013691359435058928,-0.0010997867145150424
503677000000,48,503678000000,FL_wheel_link,1.659402380819129,-6.372452661642358,12.126829240922007,-0.6912349371963633,-0.17127040237986701,-0.0018070255640047772
503679000000,49,503679000000,FL_wheel_link,0.24746960536112092,0.26742510988325974,0.42470346656220803,-0.01377556656444367,-0.011626303870448674,-0.008768820591833829
503680000000,50,503680000000,FL_wheel_link,0.9888772921745423,-10.676060031475545,14.941843687432335,-1.1568282124682443,-0.12494812278540246,0.003742087044472625
503681000000,51,503681000000,FL_wheel_link,-0.035039975663739134,0.2542978301702815,0.03140764545740765,-0.014631633548418987,-0.0060062853657997664,0.0032353840434609623
503682000000,52,503682000000,FL_wheel_link,-0.11784872378417159,0.05860242599301682,-0.1675836982808683,-0.0037410803912239143,0.006244233246602227,0.0033520282172330735
503683000000,53,503683000000,FL_wheel_link,0.08717221035986228,0.4512170321773035,-0.3082766590929001,0.004717440951051069,0.0044600831564019,-0.0015918622937734688
503684000000,54,503684000000,FL_wheel_link,2.249822766061472,-8.236268079077842,14.770165417073864,-0.8928889428433118,-0.22615695921867213,-0.006762940149095009
503685000000,55,503685000000,FL_wheel_link,0.15034322411752823,-0.3567344046779962,0.10004071054305375,-0.03411860236064229,-0.014845889641138284,8.463528341381282e-06
503686000000,56,503686000000,FL_wheel_link,-0.28474945847708555,0.5947128610278909,-1.0780668043067192,0.004975327448612375,0.012920967121638682,0.00451384897200528
503687000000,57,503687000000,FL_wheel_link,0.015348892387841172,0.11151147583126089,0.045134160208516585,0.004536657352424584,0.0007198131022868623,0.00034374551073314643
503688000000,58,503688000000,FL_wheel_link,4.655791305374439,-9.295718157429498,12.887334881654944,-1.0332071251238313,-0.4690551682930574,-0.017256338161653395
503689000000,59,503689000000,FL_wheel_link,-0.21277291789791325,0.13253942946467479,0.06872470932199234,-0.023457281253942787,-0.002336358951918629,0.011525569075286214
503690000000,60,503690000000,FL_wheel_link,2.3656157113817526,-8.216536187372336,13.761641472675866,-0.8956709471117659,-0.23213805744843352,-0.008986141186439173
503691000000,61,503691000000,FL_wheel_link,-0.2873463951078952,-0.3938274767516789,0.21526941467406138,-0.03473300083860936,-0.0062227250449132555,0.0134121990998167
503692000000,62,503692000000,FL_wheel_link,1.6723207145451577,-6.1105341773482,13.346997664328692,-0.7241213739285384,-0.1641943075795197,-0.007125131764309733
503693000000,63,503693000000,FL_wheel_link,-0.04645978513286125,-0.052739768314502194,0.0787150079861253,-0.0246473971943251,0.0010863105922044904,0.0036296412033684227
503694000000,64,503694000000,FL_wheel_link,2.2532800272077322,-8.68533176469095,13.116327759840747,-0.9550567295165155,-0.23655992193882736,-0.00193710858867574
503695000000,65,503695000000,FL_wheel_link,-0.10372215612907837,-0.25966750710980124,-0.06916551156501488,-0.03270807491012661,-0.0004392253558321499,0.006818675514627911
503696000000,66,503696000000,FL_wheel_link,2.1124734831256475,-7.672073441955574,10.02478503945979,-0.8986117847572384,-0.20025764195926327,-0.012628398182366718
503697000000,67,503697000000,FL_wheel_link,0.03514875717727823,0.12524677018494973,-0.0020703353283761834,-0.01550804626052609,0.0010287356060023822,0.00031222616787439893
503698000000,68,503698000000,FL_wheel_link,2.1418244830158777,-7.211226150911582,12.833881532102179,-0.7837701574356754,-0.22135913015405845,-0.004071202494097342
503699000000,69,503699000000,FL_wheel_link,-0.1912878879816601,-0.341361288282693,0.08771266530032447,-0.032069811114775026,-0.006211346435735473,0.01017830462042712
503700000000,70,503700000000,FL_wheel_link,1.8345265214424644,-3.9186505366464024,8.048404985828128,-0.49205029477502993,-0.1823666262899581,-0.008861138206020608
503701000000,71,503701000000,FL_wheel_link,-0.04563377809698254,-0.1133362853505549,-0.05273896084270294,-0.019143048910819575,-0.0008790534786210624,0.0032835053145423513
503702000000,72,503702000000,FL_wheel_link,1.605897870946327,-6.236920882932009,12.618038342242142,-0.6828389466862204,-0.16647313554536372,0.004321579321244912
503703000000,73,503703000000,FL_wheel_link,0.019580321293435385,0.24647932117834231,-0.032801745406698335,-0.026002026909951244,0.00028735626659028186,-0.009598521559791672
503704000000,74,503704000000,FL_wheel_link,2.692815068689553,-8.534929458057464,13.018709927748201,-0.9379147097061209,-0.2835645460084684,-0.00292354949430218
503705000000,75,503705000000,FL_wheel_link,-0.08934916139349774,-0.2137059900216819,-0.06885691592540423,-0.027651600740175017,-0.002649269912624576,0.006986488515452463
503706000000,76,503706000000,FL_wheel_link,2.3863428485440763,-4.512722125110223,7.953356706671529,-0.54536173791117,-0.2415905065307696,-0.00809600891887026
503707000000,77,503707000000,FL_wheel_link,0.03590976130952149,0.10236339510863633,-0.062473863934268584,-0.015898675925539285,0.001309447646619795,-0.0007572961781351167
503708000000,78,503708000000,FL_wheel_link,1.7921996624420564,-6.6659635341242485,12.076260149508498,-0.7259308059923597,-0.18463535649071489,-0.0018321030044368691
503709000000,79,503709000000,FL_wheel_link,0.2541929118203346,0.2609011235795437,0.4950444190806683,-0.014219920661262183,-0.011784065338369157,-0.008931893438199003
503710000000,80,503710000000,FL_wheel_link,1.1865210564661637,-10.992062766924596,15.545796683182653,-1.1911647073766543,-0.14469663465369287,0.0032768387061954674
503711000000,81,503711000000,FL_wheel_link,-0.017020126660942367,0.2543644164339119,0.05513835789529242,-0.015762089004166074,-0.006943666854562091,0.002891574257753356
503711000000,82,503712000000,FL_wheel_link,-0.11760908768627658,0.0622856283027976,-0.1655750250488079,-0.003757233470009837,0.006422665157021673,0.003349006750339489
503713000000,83,503713000000,FL_wheel_link,0.08594829418625885,0.46124399612078176,-0.29469759285738784,0.004856283800114689,0.004764507980093059,-0.001724801696763637
503714000000,84,503714000000,FL_wheel_link,2.3129994713460755,-8.19330655329011,14.669931671593977,-0.8890628973128597,-0.2330232205437856,-0.006627288331655656
503715000000,85,503715000000,FL_wheel_link,0.15536839152368537,-0.3533635587461753,0.09988411678336871,-0.03383028171762755,-0.015407728042021493,4.7006936380092866e-05
503716000000,86,503716000000,FL_wheel_link,-0.0565013813422557,0.316459950252432,-0.863607498808375,-0.020255406619998313,-0.011970672395696269,0.005762611618556914
503717000000,87,503717000000,FL_wheel_link,0.648799055030594,-4.65026742709114,5.264532506612625,-0.5386764650764443,-0.04244393159209536,-0.00996969736401751
503718000000,88,503718000000,FL_wheel_link,0.08246729060346376,-0.2617037229458811,0.03456665591889952,-0.025120267061723732,-0.007831690499433884,-0.0001635649471967938
503719000000,89,503719000000,FL_wheel_link,0.6227038479155209,-11.498962771518954,15.009537240684558,-1.2581671930498501,-0.08222063627905662,0.003545272541880945
503720000000,90,503720000000,FL_wheel_link,-0.1394242647359088,0.16200028807663952,0.26757903597202964,-0.024797375239836515,0.0013121791140045646,0.005194741693630646
503721000000,91,503721000000,FL_wheel_link,1.2034684893711662,-8.643149512079708,11.039811795121423,-0.9606210416110663,-0.11688166435931086,-0.004871272426220902
503722000000,92,503722000000,FL_wheel_link,-0.17436886832413986,-0.19576029806831818,-0.018530249309516057,-0.023183999736616136,0.0025074755551316164,0.00815768965082922
503723000000,93,503723000000,FL_wheel_link,1.40975847491478,-8.930952833426904,14.441857328617253,-0.9793726469880291,-0.14127040420440717,-0.003387344729408298
503724000000,94,503724000000,FL_wheel_link,-0.2313340461331822,-0.42415121253541865,0.0812772723806738,-0.040447345082191805,-0.00043369137496587773,0.009861226367861246
503725000000,95,503725000000,FL_wheel_link,1.2033693406697628,-4.564767265560247,9.044578053466424,-0.5688134253719009,-0.10731769987377443,-0.010486884846975436
503726000000,96,503726000000,FL_wheel_link,-0.026141211157628526,0.039975461730385436,0.02264404868752641,-0.022017214395727208,0.004601147556212517,-0.00035833138244432614
503727000000,97,503727000000,FL_wheel_link,1.5659061793981675,-7.636027203160504,12.853710587934087,-0.83576857083953,-0.15896407553789121,-0.0029835644429090924
503728000000,98,503728000000,FL_wheel_link,-0.19218116297239046,-0.3653170299591324,0.021909663022172857,-0.035851514718953016,-0.002233699630759794,0.009050203093519796
503729000000,99,503729000000,FL_wheel_link,1.4815459946755465,-4.539520447460156,9.376900537425588,-0.5627967621180319,-0.13952238021685762,-0.010332871799955234
503730000000,100,503730000000,FL_wheel_link,-0.019926351079608235,0.018564758135568092,0.04219524804163978,-0.020088283608200405,0.0023334842662019184,0.0005555402881035915
503731000000,101,503731000000,FL_wheel_link,1.7093493696086342,-7.447824303465263,12.677019207547957,-0.8145813663198093,-0.17483619724450633,-0.002839586540930722
503732000000,102,503732000000,FL_wheel_link,-0.18056517505421746,-0.3557018870586118,0.007904621878643506,-0.03529970174286459,-0.003486250135481931,0.009088376096602504
503733000000,103,503733000000,FL_wheel_link,1.6106602659347808,-4.415293415167225,9.088253019485874,-0.5491650943356415,-0.15422091798719195,-0.010245430417334125
503734000000,104,503734000000,FL_wheel_link,-0.26973914788501707,-0.02813843291226631,0.3551826053724636,-0.0740321190070961,0.002645371128496221,0.01160210055345376
503735000000,105,503735000000,FL_wheel_link,3.80675320500847,-19.170861352419173,27.016382133277347,-2.174945568499272,-0.37130421468140473,-0.016149814343076885
503736000000,106,503736000000,FL_wheel_link,0.2802903508553959,-0.9076669134590027,0.34344388607016785,-0.15040943765495973,-0.026175043767681386,-0.00042543274202085785
503737000000,107,503737000000,FL_wheel_link,2.087380194800655,-28.979028705348945,25.171802854974636,-3.305748849187067,-0.23698188820856259,-0.003571737021309973
503738000000,108,503738000000,FL_wheel_link,-0.32008373274833324,-0.8729885612451073,0.8148592249578991,-0.13994523127797434,-0.0019318507319093237,0.01967276712018538
503739000000,109,503739000000,FL_wheel_link,7.7956389032595865,-22.43998505502573,30.293280148645152,-2.479682285249481,-0.7419784400741375,-0.03688241335464043
503740000000,110,503740000000,FL_wheel_link,-0.5959269574307999,-1.168402186876462,0.5686938001737791,-0.10968714337592883,-0.03600688769331114,0.03413845801064203
503741000000,111,503741000000,FL_wheel_link,9.40079137405511,-22.91267170786549,22.48651565148361,-2.559348552892231,-0.9396953363931997,-0.03701101718438754
503742000000,112,503742000000,FL_wheel_link,-0.4270975899767246,-0.9938360860683688,0.008347891410573127,-0.08722312828246727,-0.01958498854207228,0.02445497576041314
503743000000,113,503743000000,FL_wheel_link,6.439714629122807,-21.96221875159783,23.116255131556038,-2.459795260040074,-0.6474946502617828,-0.022446470614074843
503744000000,114,503744000000,FL_wheel_link,-0.07285893386072848,-0.5018724114229609,0.26470195550284226,-0.0526156203589767,-0.015560812303803254,0.011237965871719002
503745000000,115,503745000000,FL_wheel_link,5.746278840372476,-13.818155961652739,20.77376371062189,-1.5191192510262255,-0.6131713656001532,-0.0047899036596198985
503746000000,116,503746000000,FL_wheel_link,0.18110569627576092,-0.5466230458924852,-0.06083361998293828,-0.0569724807106384,-0.016321129811848044,-0.001279304907867155
503748000000,117,503747000000,FL_wheel_link,-0.3596022229036443,-0.026315448007770026,-0.38850887951341506,-0.011105621164941093,0.015407645282321435,0.00999114672373205
503748000000,118,503748000000,FL_wheel_link,4.0437832828865465,-18.62744113098103,18.487926126891956,-2.0981354052924366,-0.38911299192061666,-0.01791919070354403
503749000000,119,503749000000,FL_wheel_link,-0.014701526807292198,-0.4132274324212827,0.047965752827082646,-0.04718184401299973,-0.009414970393160495,0.007718556738013651
503749000000,120,503750000000,FL_wheel_link,4.700850270493657,-15.570867538659218,16.99629058058538,-1.7356091093913113,-0.47981210159484466,-0.01363302694207802
503751000000,121,503751000000,FL_wheel_link,-0.001866005303399365,-0.3469808738191733,0.02698527838252593,-0.03854750155932769,-0.01136435200740315,0.007105236832723567
503752000000,122,503752000000,FL_wheel_link,4.578158774645301,-14.07718876235688,15.820464534269963,-1.5651840834314958,-0.47277707964714333,-0.011637825727247919
503753000000,123,503753000000,FL_wheel_link,-0.006417192766494079,-0.32606534962226,0.011521464999682846,-0.03568308189975722,-0.010763511260485109,0.006782615326901609
503754000000,124,503754000000,FL_wheel_link,4.639067428207005,-14.114783176509803,16.598221776285634,-1.5653561602688577,-0.4814816768811152,-0.01103469919306349
503755000000,125,503755000000,FL_wheel_link,-0.014826183367381479,-0.3294923494595327,0.024008086603163677,-0.034982700027528534,-0.010767545667159454,0.006899757196252555
503756000000,126,503756000000,FL_wheel_link,4.17139296210827,-13.373474305007225,15.069591383764319,-1.4861456002799578,-0.4303460423329821,-0.010832369778160045
503756000000,127,503757000000,FL_wheel_link,-0.022762208566112302,-0.31967936661371,0.003428408684569416,-0.03441664157691847,-0.009183207425248573,0.006685979271534727
503756000000,130,503760000000,FL_wheel_link,3.1037449494731857,-11.233369525741995,11.962898317063358,-1.2547594869976781,-0.3152008433650439,-0.009148019253946121
503761000000,131,503761000000,FL_wheel_link,-0.030062794925460656,-0.3437253470597891,-0.04880919268338871,-0.0390269651483139,-0.0057146672157344265,0.006213446592731314
503762000000,132,503762000000,FL_wheel_link,2.767205432918062,-10.237056563736203,15.883454703395838,-1.1254025557088525,-0.2839012682885096,-0.005467258141221759
503765000000,133,503763000000,FL_wheel_link,-0.11290677316865283,-0.531079960095862,0.013540122270341112,-0.0522644180197904,-0.010184217786562023,0.008654377636481726
503765000000,135,503765000000,FL_wheel_link,-0.03322847444226504,-0.38662117916463223,0.001124569531003275,-0.04303730977428583,-0.0069953549571146086,0.006947726067088357
503766000000,136,503766000000,FL_wheel_link,2.8602649435818854,-10.362438555839892,17.761883630549775,-1.1307410547786758,-0.29183616116809863,0.001298280301559207
503767000000,137,503767000000,FL_wheel_link,0.166695981794568,-0.5400794820744654,-0.379671787234783,-0.05780908587006213,-0.021115136246541783,-0.006804377194479876
503768000000,138,503768000000,FL_wheel_link,-0.4836758824925402,-0.11610803084335083,-0.3375701800257171,-0.011927757991439554,0.017152207443550255,0.01269522367299458
503769000000,139,503769000000,FL_wheel_link,3.625183517086704,-19.26537319340099,19.416957384583768,-2.1660759108436753,-0.34574581197243714,-0.017698393341499252
503770000000,140,503770000000,FL_wheel_link,-0.049264784802973915,-0.4675454525264603,0.09190913660287064,-0.04881875953777004,-0.007780808396337761,0.0078058089335819114
503771000000,141,503771000000,FL_wheel_link,4.381216692194995,-16.214659985034316,18.13036126153076,-1.8030551034471496,-0.446743357677303,-0.013581631458402965
503772000000,142,503772000000,FL_wheel_link,-0.034468579139261046,-0.4045751881874804,0.06655708488795017,-0.04086705527221119,-0.010013385478867955,0.007143863605047129
503773000000,143,503773000000,FL_wheel_link,4.292128215788839,-14.749348480089782,16.832283386717645,-1.636999638835777,-0.4425803263403665,-0.01186893713998527
503774000000,144,503774000000,FL_wheel_link,-0.0356965750665236,-0.37853980728135006,0.04465275861370458,-0.038096135163922996,-0.009523080074911743,0.00677065873981581
503775000000,145,503775000000,FL_wheel_link,4.349898583083265,-14.669064123079139,17.448410313181885,-1.6249287811098472,-0.45065136232340763,-0.011247965054680509
503776000000,146,503776000000,FL_wheel_link,-0.040812182405828235,-0.3664147402414589,0.050686443317760704,-0.03650031072799875,-0.009530456247994682,0.006849791582306423
503777000000,147,503777000000,FL_wheel_link,3.8883654118194744,-13.840006253789618,15.77291581504637,-1.5366645000792816,-0.40000497400369983,-0.01105935864120361
503777000000,148,503778000000,FL_wheel_link,-0.044932999391539274,-0.3550432218421221,0.023933847566074293,-0.036230621226856954,-0.007956915819234113,0.006557326687690941
503779000000,149,503779000000,FL_wheel_link,4.014844468906591,-12.589187662036,17.225186924262985,-1.385173932018119,-0.4227578040267232,-0.006504528073580068
503780000000,150,503780000000,FL_wheel_link,-0.040209085025380065,-0.3733436196750993,-0.021482657071979577,-0.04140764506726599,-0.007375570778965463,0.006059172410095387
503781000000,151,503781000000,FL_wheel_link,2.5555682470795924,-10.720814826277344,11.390049879069203,-1.19921366978991,-0.2558074396348078,-0.008773188763613465
503782000000,152,503782000000,FL_wheel_link,-0.04057180592793047,-0.379288497001965,-0.05958198645830631,-0.04287310784189337,-0.0037638349600343304,0.005796918793725823
503783000000,153,503783000000,FL_wheel_link,-3.0936816865004397,-5.923273477894523,3.1579226919247447,-0.6562072899147189,0.33365988388944834,0.002498681737127917
503784000000,154,503784000000,FL_wheel_link,-1.8147667790360504,-1.4758589853415172,1.3056865801440367,-0.18696401722990535,0.21816303305524887,-0.006206074197142559
503785000000,155,503785000000,FL_wheel_link,0.0015201354905446315,0.017629737938718054,0.0003639314382558089,-0.00014210375309091215,-0.00021972753072272338,-8.862083798387342e-06
503786000000,156,503786000000,FL_wheel_link,-0.4295315115749121,-15.411462373607247,20.28480265510411,-1.7333078092397947,0.0625086839099579,0.0001126568710334841
503787000000,157,503787000000,FL_wheel_link,-0.00690869064789601,-0.6907403879118477,0.2239016620194903,-0.06708554484524894,0.0048794507642720975,-0.0005476335382969119
503788000000,158,503788000000,FL_wheel_link,-2.2169587537610775,-8.82117639622515,7.6651191476835185,-0.9938128613884053,0.2369630928764267,0.00208140060584687
503789000000,159,503789000000,FL_wheel_link,-0.1265575196785455,-0.7448539683310098,0.18751795911957714,-0.07618649727544259,0.019173902445848812,-0.0009442559893466608
503789000000,160,503790000000,FL_wheel_link,0.5315590123464244,-13.856810898610568,20.930254901826075,-1.5457307822071598,-0.04147355177571932,-0.0018158286234232768
503791000000,161,503791000000,FL_wheel_link,0.044256599239698324,-0.645800432655083,0.2215327500017929,-0.06540297409807128,-0.002525346641371176,-4.2445373300205314e-05
503792000000,162,503792000000,FL_wheel_link,-1.8175413909634965,-10.410191568515765,9.344137980708267,-1.1695286533547775,0.1900964078999689,0.0015919441911203952
503793000000,163,503793000000,FL_wheel_link,-0.08034529045009009,-0.6842563328294164,0.20851889520455869,-0.07094944098828292,0.013106590645108808,-0.0007552809662849753
503794000000,164,503794000000,FL_wheel_link,4.136615285489478,-13.324788292006359,17.997856309266815,-1.4814131059802547,-0.38323915204130576,-0.022180275839238373
503795000000,165,503795000000,FL_wheel_link,-0.6793388542182737,-0.8872159655997504,0.1437123117739131,-0.07733860439883566,-0.002876514314575654,0.024271528119908455
503796000000,166,503796000000,FL_wheel_link,4.131816078416397,-17.396579176615987,17.71411882771774,-1.9653658818842368,-0.3626126693224633,-0.03058066999045106
503797000000,167,503797000000,FL_wheel_link,-0.36040009081665003,-0.5731436948698185,-0.012473826742731495,-0.05545470622006218,-0.005598551089875777,0.0179050083476832
503798000000,168,503798000000,FL_wheel_link,5.829290614458839,-13.516109594939,18.75937501632093,-1.4961700810358607,-0.579483543811721,-0.019221317294092627
503799000000,169,503799000000,FL_wheel_link,0.23676919390628537,-0.524977584625992,-0.0008622317580176536,-0.05371325759095925,-0.02451401356762147,-0.00038670215175268426
503800000000,170,503800000000,FL_wheel_link,0.6148524585353567,-11.404415290601523,14.110042092525335,-1.2709293133805621,-0.09687547080200243,0.009425786870640246
503801000000,171,503801000000,FL_wheel_link,0.03354420771739891,-0.42013799816289726,0.10096041236831171,-0.04682173311438703,-0.0037592276603873667,0.00044226315180262606
503802000000,172,503802000000,FL_wheel_link,1.7553982063697533,-12.261445217237501,21.743839129820294,-1.344860685516297,-0.19970332557821546,0.004582395034132769
503803000000,173,503803000000,FL_wheel_link,0.10394490224573624,-0.5105854922373381,0.19899022082621798,-0.052401985461854844,-0.010093640386976657,0.00027353868853459765
503804000000,174,503804000000,FL_wheel_link,-0.9484422218063715,-9.897474029530267,8.359801380109115,-1.1133053026092898,0.10532093958715749,-0.0025351923507039575
503805000000,175,503805000000,FL_wheel_link,-0.03023787295200543,-0.01944815382858114,0.1085352874141204,-0.006141831201369428,0.0027396782828043023,0.000619659092389514
503806000000,176,503806000000,FL_wheel_link,1.565590699788176,-12.818826936353375,21.394109251059987,-1.4107551518251875,-0.17017879623444654,0.0011740314442817978
503806000000,177,503807000000,FL_wheel_link,0.1165167571054854,-0.5839059752175358,0.18962287496071423,-0.057329214663017956,-0.009102918729871946,-0.0005451837511976487
503808000000,178,503808000000,FL_wheel_link,-1.9889468422012646,-9.236022501631389,7.841309880048616,-1.040107137272961,0.20864765523140094,0.0012274986082002615
503809000000,179,503809000000,FL_wheel_link,-0.06599306597212141,-0.05275744483830086,0.12997594682420344,-0.008891895767471902,0.007113064270765127,0.00047836665307854955
503810000000,180,503810000000,FL_wheel_link,1.9353122004752685,-13.623412203551347,21.615444720698626,-1.5024974643728246,-0.19356191230691333,-0.00468970776672592
503811000000,181,503811000000,FL_wheel_link,0.1542251010760109,-0.6434298642210654,0.2140465585792825,-0.062180238344167846,-0.013653239556148729,-0.00035360496668779273
503812000000,182,503812000000,FL_wheel_link,-2.0842058205388034,-9.253835247867796,7.949265374673605,-1.0390404274063223,0.20753611267824396,0.004250518677395676
503813000000,183,503813000000,FL_wheel_link,-0.08411969879959987,-0.06047527434728302,0.14220792876242852,-0.009628716457390742,0.008996121226822336,0.0005094695723390608
503814000000,184,503814000000,FL_wheel_link,4.805420485874843,-14.489452692795384,20.35087879386125,-1.603628342264181,-0.45041948480940763,-0.023679560489316104
503815000000,185,503815000000,FL_wheel_link,-0.20919639567547738,0.5630834667731286,-1.9366839775356843,0.0020894207234906613,-0.045679190796504336,0.009770901460350923
503816000000,186,503816000000,FL_wheel_link,-0.040271771057632154,0.03386633744319201,-0.013471894209776653,9.124532100926734e-05,0.0015210228885074264,0.0004183091059538778
503817000000,187,503817000000,FL_wheel_link,-0.009231815837013525,0.03756530234978371,-0.012065020052250717,-4.2498814805530256e-05,0.001027633694620215,4.8200636367549076e-06
503818000000,188,503818000000,FL_wheel_link,-0.45659010449330256,0.2802223949520219,-0.812495371371178,0.011650491806199023,0.009892967018280283,0.004533952489307029
503819000000,189,503819000000,FL_wheel_link,-0.011142755028968934,0.024064420879580956,-0.006435253077448728,0.00011579910945901003,0.0006668652544860875,0.00010925191673269293
503821000000,190,503820000000,FL_wheel_link,-0.11370451913824094,0.2727623004130726,-0.6517876258396529,0.004286551794969471,0.006585388233997579,0.001879647556376552
503821000000,191,503821000000,FL_wheel_link,0.0018363651373465243,0.025342225377891117,0.0010783805853206738,0.0002326796949711161,0.0003195465942466359,-4.792433559100098e-06
503822000000,192,503822000000,FL_wheel_link,-0.01679293835802847,0.30329771229337077,-1.2798356906579973,0.004034213359201065,0.004202329517602503,0.001526702945745229
503823000000,193,503823000000,FL_wheel_link,0.045349629293512494,0.0856299290963583,0.0374678050435715,0.00278817852932116,-0.0010887444740415374,-0.00022854937701032138
503824000000,194,503824000000,FL_wheel_link,-0.14056329840713672,-0.0019336803504162725,-0.2826470580916429,-0.0061214378192345036,0.008594383934153222,0.004919202195201291
503825000000,195,503825000000,FL_wheel_link,0.3382179784354036,0.6977263442956162,0.14790557407266078,0.03272401646514009,-0.01629054730876142,-0.0032074250532654
503826000000,196,503826000000,FL_wheel_link,-0.5043868750124701,-0.594940795637468,-1.2387108009976344,-0.04012453376307013,0.028731927758995093,0.006203204995389931
503827000000,197,503827000000,FL_wheel_link,0.4875979679169866,0.9741616935762429,0.2570651841435521,0.044080016943043046,-0.021767865112654813,-0.004545306214103275
503828000000,198,503828000000,FL_wheel_link,-0.3818319020535083,-0.502414145309119,-1.2142713366142783,-0.037192226414602465,0.025684936560313086,0.0046891725247685005
503829000000,199,503829000000,FL_wheel_link,0.46376305662032113,0.9500671955945423,0.2842918442442733,0.04165801435847509,-0.019776720722247246,-0.005064779790245081
503830000000,200,503830000000,FL_wheel_link,-0.321411590360844,-0.45094947400430213,-1.2016632495701025,-0.03560485690632792,0.024241814553401977,0.004052884566719645
503831000000,201,503831000000,FL_wheel_link,0.4510250711489925,0.9300134960831292,0.2897087877484636,0.0402570604775753,-0.018857494489958784,-0.005141657200137726
503832000000,202,503832000000,FL_wheel_link,-0.2976174286979206,-0.42229646984365277,-1.1858106593224824,-0.03453395672556255,0.02358471075598753,0.003949766205531278
503833000000,203,503833000000,FL_wheel_link,0.4432685904450486,0.9123292110038745,0.285641175357891,0.039331384571035674,-0.01841629279576799,-0.005026372768812072
503834000000,204,503834000000,FL_wheel_link,-0.2909891052863591,-0.4064782566056951,-1.1694889934328272,-0.033779255108863676,0.023294415227649815,0.004047467018818479
503835000000,205,503835000000,FL_wheel_link,0.4382882351322228,0.8989570720611443,0.2792275559194468,0.038726017584148634,-0.01819736224918567,-0.004875733638963779
503836000000,206,503836000000,FL_wheel_link,2.393550237860447,-12.165638620669267,27.24225167940815,-1.2848446550609112,-0.25232024528990166,0.0011180358252388667
503837000000,207,503837000000,FL_wheel_link,0.1682232633844602,-0.5879006302723333,0.26448306473685546,-0.05317142433044933,-0.01666350091025405,0.00039240481841456946
503838000000,208,503838000000,FL_wheel_link,5.0587781783045624,-10.527534154199994,12.518078865365277,-1.167776460462298,-0.5128529333323459,-0.015802077673935433
503839000000,209,503839000000,FL_wheel_link,-0.462884708002223,-0.7605274343133569,-0.021996694357142244,-0.06144867416681736,-0.011788305885795373,0.018589402051289252
503840000000,210,503840000000,FL_wheel_link,4.59699865293307,-13.158235067449773,19.133859335861032,-1.4557048930365668,-0.43431462150644945,-0.020773785090194036
503841000000,211,503841000000,FL_wheel_link,0.3384137012781076,-0.6824282429945134,0.2293020471592343,-0.06591449109741396,-0.033776991643044645,-0.00022775472430559135
503842000000,212,503842000000,FL_wheel_link,4.825698647484407,-11.348007236031307,16.97097475260837,-1.3105618976619842,-0.5502420801034825,-0.0022483646917288713
503843000000,213,503843000000,FL_wheel_link,0.1039251853383607,-0.2774837733150285,0.302496921379275,-0.029549201582610294,-0.007991996252410911,-0.00011600291740943795
503844000000,214,503844000000,FL_wheel_link,5.456248797051533,-10.334296392559807,18.343159818140556,-1.1187953625273088,-0.5502293884611358,-0.014491564038522031
503845000000,215,503845000000,FL_wheel_link,-0.4044472506031531,-0.44974880388526406,0.5628213264776698,-0.042805284800047014,-0.020307368668238908,0.020889408507436185
503846000000,216,503846000000,FL_wheel_link,4.453710525042311,-10.43595230388499,16.50753698905934,-1.1459317372392481,-0.43630346227423306,-0.015627035997525407
503847000000,217,503847000000,FL_wheel_link,-0.30867172578452784,-0.8528818278923435,-0.1958680204473212,-0.0694585690020634,-0.009384061457105589,0.011749940935509129
503848000000,218,503848000000,FL_wheel_link,0.2160044508222474,1.278615125153618,-0.015224787440507648,0.040409324363722764,-0.0029461053090281478,-0.002528070563056725
503849000000,219,503849000000,FL_wheel_link,6.182406067850235,-10.433172951524675,16.023940538428057,-1.1407704595623804,-0.6369844930698805,-0.014789704477226384
503850000000,220,503850000000,FL_wheel_link,-0.1587840075919189,-0.43921429441231885,-0.09556094541863627,-0.03721121002821072,-0.010105978404424957,0.009063661616576612
503851000000,221,503851000000,FL_wheel_link,5.646670844007442,-12.388288440966129,15.735416053986448,-1.3744868261229553,-0.5664142168258827,-0.018760708438386564
503852000000,222,503852000000,FL_wheel_link,-0.2098288848417773,-0.47357598363882036,-0.03818860185364475,-0.04084846352870538,-0.009423980073094064,0.010875073934902203
503853000000,223,503853000000,FL_wheel_link,3.6387280011078573,-8.401732674892806,14.811773039661738,-0.9118169891747085,-0.351696433048007,-0.013469454163792999
503854000000,224,503854000000,FL_wheel_link,2.0821989396880003,-3.7942157681095665,26.45065852903786,-0.4302696751258173,-0.24382224833151658,0.0030379261742241592
503855000000,225,503855000000,FL_wheel_link,0.08157562055893515,-0.08360638957758083,0.046026765838599826,-0.01292675646442653,-0.009035602886494652,0.0007419993124432021
503856000000,226,503856000000,FL_wheel_link,4.562683464308207,-7.724704802010315,15.246000008604987,-0.8272649029943581,-0.46457142422269304,-0.01031937632465113
503857000000,227,503857000000,FL_wheel_link,-0.2666265509443447,-0.11566147109729205,0.5458783814833461,-0.0227831455926475,-0.004486782264136747,0.015850927075127516
503858000000,228,503858000000,FL_wheel_link,3.72843366649448,-8.74834239013606,16.698027859347732,-0.947246456645986,-0.3591662765204841,-0.012558128761347237
503858000000,229,503859000000,FL_wheel_link,-0.04456718519917102,0.08421867455569085,1.2335022766456265,-0.011228880612042812,-0.015637107840832932,0.00598988628757756
503860000000,230,503860000000,FL_wheel_link,1.3996537547804464,-10.382774623836038,18.215308863200033,-1.1133058413314787,-0.14804298281150052,-0.0016602620460709483
503861000000,231,503861000000,FL_wheel_link,-0.06795304425467366,-0.19644111317304214,0.7366803551835928,-0.028536724453611544,-0.006511200798150084,0.0059763408191058805
503862000000,232,503862000000,FL_wheel_link,1.3892695501967092,-9.759961518235217,16.256850576275696,-1.0656825994610948,-0.1390407252428919,-0.0032691855818427207
503863000000,233,503863000000,FL_wheel_link,-0.1262134736144651,-0.054638102322922766,0.9671053265555289,-0.022438572406508803,-0.0016648641819164353,0.004166151043810223
503864000000,234,503864000000,FL_wheel_link,0.738936558801341,-10.568873956294276,17.840306422048606,-1.1474012907841915,-0.0637002542628724,-0.004298687882080016
503865000000,235,503865000000,FL_wheel_link,-0.1612990654334047,-0.06848822585901748,0.986430611950378,-0.02384504260388106,0.0017608326903773494,0.004519296927167505
503866000000,236,503866000000,FL_wheel_link,1.158720315774592,-9.792480435241377,18.450733287826573,-1.0611848211517998,-0.10880490066805554,-0.0033431741541937593
503867000000,237,503867000000,FL_wheel_link,-0.14959352900114703,-0.014778854284101334,1.026298227711477,-0.02159539543751318,0.0016192938108215097,0.0023641666695342583
503868000000,238,503868000000,FL_wheel_link,0.7501234299903756,-9.86166803567642,17.73118411359885,-1.0683988298591212,-0.06521056162245581,-0.0037580134214045963
503869000000,239,503869000000,FL_wheel_link,-0.1614805826034189,-0.03491896471756317,0.9733152588789381,-0.02223827550837168,0.002881803574314808,0.003053326427833098
503870000000,240,503870000000,FL_wheel_link,0.8563174057455982,-9.608125152849649,17.964356246475546,-1.0403555674770328,-0.07725953172706301,-0.0031926593363145878
503871000000,241,503871000000,FL_wheel_link,-0.16656503913664858,-0.0023940099456910557,1.02047826561735,-0.020606540912922564,0.003578818275834247,0.0023421317570832684
503872000000,242,503872000000,FL_wheel_link,0.6752451100002821,-9.58104152174783,17.878097590864357,-1.0361089413148112,-0.057697643508083984,-0.0032174021077442105
503873000000,243,503873000000,FL_wheel_link,-0.1735958802653608,-0.004863186009858217,1.008450946841739,-0.02040132742402277,0.004317952627661766,0.002606088925428592
503874000000,244,503874000000,FL_wheel_link,0.700627780629477,-9.43923986399788,18.010075285802706,-1.0198941249945497,-0.060745316711697084,-0.002909564753595509
503875000000,245,503875000000,FL_wheel_link,-0.1753896276941517,0.007028483784155326,1.0209465822084345,-0.01975616322677006,0.004597545100569318,0.0023420108650422807
503876000000,246,503876000000,FL_wheel_link,0.6133158789727924,-9.410015419934926,17.947016146552045,-1.016072100800932,-0.05150756100392451,-0.0028774324115064392
503877000000,247,503877000000,FL_wheel_link,-0.17877082497021263,0.00573257317493131,1.0135989517086061,-0.019726015540146597,0.004960988928051096,0.0024495069692836292
503878000000,248,503878000000,FL_wheel_link,1.4170914681879405,-11.921621026023583,20.446765143991023,-1.3050171494316407,-0.13050675554335822,-0.005600634411977307
503879000000,249,503879000000,FL_wheel_link,-0.13764870639687693,0.027032307912401993,0.9928041260908493,-0.014522314090425873,0.0013250060613703351,0.002917529674085524
503880000000,250,503880000000,FL_wheel_link,1.4973162015532329,-11.368579188181716,19.370362116224943,-1.2434980791744943,-0.14480021681792,-0.00447758533485465
503881000000,251,503881000000,FL_wheel_link,-0.10364865999807013,0.012159343802366912,0.8608001024401413,-0.014299159126623846,-0.001642695554860245,0.0035690972196012532
503882000000,252,503882000000,FL_wheel_link,0.7815919925055543,-8.317406386747537,16.706725123437373,-0.924648068517599,-0.08237948631005443,0.0013260795609432302
503883000000,253,503883000000,FL_wheel_link,-0.1911115991697302,0.05850835834921023,1.0530029897535815,-0.015412203060658412,0.0062484481835688496,0.0026636582171101
503884000000,254,503884000000,FL_wheel_link,0.7386789431421605,-8.432462069145215,18.388380338406485,-0.9373894011680588,-0.06921924994776368,0.00018445025951902005
503885000000,255,503885000000,FL_wheel_link,-0.2081545972620027,0.06502037021739557,1.118783386556638,-0.016768711928034835,0.008103114283000295,0.001879768189131726
503886000000,256,503886000000,FL_wheel_link,0.5740038873116418,-8.86299146827821,18.515608389614833,-0.9885427009790759,-0.046061964945579514,-0.0017229872023670906
503887000000,257,503887000000,FL_wheel_link,-0.18730296346015268,0.027547378623035607,1.0320126355428156,-0.018547742727664143,0.006299690037812822,0.0020855240134440584
503888000000,258,503888000000,FL_wheel_link,0.522593164987148,-9.075243791411767,18.10149988923565,-1.0137830776124943,-0.04157462310970461,-0.002020940379701755
503889000000,259,503889000000,FL_wheel_link,-0.18136379094252225,0.011085966948003595,0.9932535910466891,-0.019733276827856947,0.005558182574827862,0.002289164771321602
503890000000,260,503890000000,FL_wheel_link,0.47280677218026135,-9.144921405800433,17.884675806215363,-1.022084651921264,-0.03692242424327724,-0.002111702369876123
503891000000,261,503891000000,FL_wheel_link,-0.18690625315532824,0.013400653749351843,1.0020717642766108,-0.019906866175859527,0.005943963493477811,0.002355912812711107
503892000000,262,503892000000,FL_wheel_link,0.4515102180751298,-9.133512757900688,17.95031510278846,-1.0207944165403062,-0.03432957764266087,-0.002141272796659585
503893000000,263,503893000000,FL_wheel_link,-0.19071444723269984,0.019744631331904017,1.014070719112016,-0.01968078343620334,0.006247170520770862,0.002321606187931485
503894000000,264,503894000000,FL_wheel_link,0.44534792706170245,-9.09229202861886,18.01980391258753,-1.0158814032310381,-0.0335024728147203,-0.0021051343138557693
503895000000,265,503895000000,FL_wheel_link,-0.191604292525401,0.02248306593875163,1.0156938855240414,-0.01959836055212312,0.006308195270591698,0.0022940608446373246
503896000000,266,503896000000,FL_wheel_link,0.4473062666251506,-9.054518855399264,18.04417730177281,-1.011407269741475,-0.0337873546088065,-0.0020383789959589893
503897000000,267,503897000000,FL_wheel_link,-0.19195428920693358,0.024413558698006377,1.0158196130454367,-0.019586627500011486,0.00632075768238094,0.002262405676415839
503898000000,268,503898000000,FL_wheel_link,0.44654943007737824,-9.026471509008093,18.055228342944222,-1.0080530256860383,-0.03377433091761961,-0.0019965432408787925
503899000000,269,503899000000,FL_wheel_link,-0.19262025666169896,0.02647728337020344,1.0169905547759206,-0.019571014314829816,0.006364488797326663,0.0022347426542350347
503900000000,270,503900000000,FL_wheel_link,0.4481111009568175,-8.99754599563958,18.076005688065194,-1.0045994609428837,-0.03396641985355947,-0.0019539910656494325
503901000000,271,503901000000,FL_wheel_link,-0.19327561065987658,0.028852878639981178,1.018896450384722,-0.019535017521712408,0.006411947553347577,0.002200223342835884
503902000000,272,503902000000,FL_wheel_link,0.44980102030785174,-8.969015114479355,18.098214048405488,-1.001177643236703,-0.03414944694041694,-0.0019169770263237768
503903000000,273,503903000000,FL_wheel_link,-0.1937745546039719,0.03098772140384029,1.0203062977823398,-0.019505005371544756,0.006447282717320937,0.002168811336094299
503904000000,274,503904000000,FL_wheel_link,0.45243857831477374,-8.940974726131119,18.11871087442842,-0.9978165700618332,-0.034435648996578305,-0.0018798810296276475
503905000000,275,503905000000,FL_wheel_link,-0.1941609069287884,0.033000169921161226,1.021463141176926,-0.01948035919478912,0.006473163259074694,0.002137895803291729
503906000000,276,503906000000,FL_wheel_link,0.4548221054591495,-8.914189667132938,18.136551097487153,-0.9946001169664537,-0.0346918569535794,-0.0018467798961620818
503907000000,277,503907000000,FL_wheel_link,-0.19451532127960366,0.03490852423014851,1.022466919302306,-0.0194599607180233,0.006496364123809648,0.002109348783736166
503908000000,278,503908000000,FL_wheel_link,0.45737212181677256,-8.887905794087448,18.15364658308706,-0.9914447312728218,-0.03496097888928512,-0.0018152233547725355
503909000000,279,503909000000,FL_wheel_link,-0.19484839457548475,0.036802074605107926,1.0234565040174428,-0.01943930109527062,0.006517898163883488,0.0020812636595098992
503910000000,280,503910000000,FL_wheel_link,0.45984485900662353,-8.862012098329803,18.170030594956877,-0.9883343542495516,-0.035217178589502074,-0.001785517422583205
503911000000,281,503911000000,FL_wheel_link,-0.19515972477471993,0.03865545046874594,1.0243656115049573,-0.01941935507415056,0.00653758124966612,0.0020542579096553978
503912000000,282,503912000000,FL_wheel_link,0.46241383722365237,-8.836291268384816,18.185880004279444,-0.9852453580397245,-0.0354814484625362,-0.001756465800560103
503913000000,283,503913000000,FL_wheel_link,-0.1954490286238446,0.040487751329776944,1.025215205898589,-0.01939974960996025,0.0065552260374994765,0.002027726570102295
503914000000,284,503914000000,FL_wheel_link,0.4649611304147876,-8.810791662153902,18.201081378187702,-0.98218233077669,-0.03574185422483628,-0.001728264792057621
503916000000,285,503915000000,FL_wheel_link,-0.19572819762842092,0.042305769751005085,1.0260244201982696,-0.019380003828587955,0.006571410306825313,0.0020021316422277383
503916000000,286,503916000000,FL_wheel_link,0.4674610991828425,-8.785416242727528,18.2157129885084,-0.979134588047686,-0.03599433453647782,-0.001701140734448825
503917000000,287,503917000000,FL_wheel_link,-0.1959988945970378,0.044128355474379405,1.026828391121974,-0.019359290256358998,0.006586561505828993,0.001976748059946233
503918000000,288,503918000000,FL_wheel_link,0.4700368398937158,-8.760029219821671,18.23024314770283,-0.9760856766497534,-0.03625359061151329,-0.0016741216611940585
503919000000,289,503919000000,FL_wheel_link,-0.19625827128909207,0.04596015589947339,1.027632582340224,-0.019337385901178894,0.006600334677764792,0.001951410635963401
503920000000,290,503920000000,FL_wheel_link,0.4728578995009487,-8.734504820216184,18.24497383129855,-0.9730190625080186,-0.03654232470984936,-0.001645654022268933
503921000000,291,503921000000,FL_wheel_link,-0.19651280140847607,0.04779211043477968,1.028430294701029,-0.019315517546922217,0.006613825072262488,0.0019258094054967981
503922000000,292,503922000000,FL_wheel_link,0.4757873079648647,-8.709011231014246,18.25974589531517,-0.969955971507543,-0.03684170129442982,-0.0016171885377445766
503923000000,293,503923000000,FL_wheel_link,-0.19676684151211207,0.04962901917617682,1.0292362831486765,-0.019292958417856762,0.006627421531319286,0.0018998971344298251
503924000000,294,503924000000,FL_wheel_link,0.22036183562208622,-8.60363134445349,18.681381275916415,-0.9591553034230169,-0.014968911028901244,0.0004123289780185724
503925000000,295,503925000000,FL_wheel_link,-0.1896514032795752,0.007166347577960336,0.9235039176586232,-0.02170085599763088,0.007873711716527869,0.001154192375978614
503926000000,296,503926000000,FL_wheel_link,-0.08594242393458895,-8.842966686633426,16.452877736567693,-0.988903482714959,0.02950293670955212,-0.00522883690301254
503927000000,297,503927000000,FL_wheel_link,-0.2087842572745356,0.027552727371915553,0.9947072689229812,-0.020406029999827244,0.007534563740014561,0.0029508119035041224
503928000000,298,503928000000,FL_wheel_link,0.3010339906298518,-8.692398331646178,17.974634569528497,-0.9696553903206414,-0.016584739822482375,-0.0022381168425757436
503929000000,299,503929000000,FL_wheel_link,-0.20873928016436033,0.06215969809697769,1.0430744745504066,-0.018620142796961236,0.007548873519392846,0.002185133417130508
503930000000,300,503930000000,FL_wheel_link,0.33717709634608317,-8.585743345599816,18.157511738896858,-0.9557589970179786,-0.02077708779309345,-0.0020000205233712265
503931000000,301,503931000000,FL_wheel_link,0.3274147820511592,-3.465199958030486,12.037055013456044,-0.4278754610558406,-0.025528676792994948,-0.0042541872066877914
503932000000,302,503932000000,FL_wheel_link,-0.1643856859788615,-0.2991280592682429,-0.29332466616407876,-0.027935985298080578,0.0051458710964718685,0.003739666655729321
503933000000,303,503933000000,FL_wheel_link,2.3424123630592417,-6.1894028399988965,11.929700492131516,-0.7006430842397233,-0.2176358051967283,-0.005805863745333997
503934000000,304,503934000000,FL_wheel_link,0.3314366077183308,-4.249624928174883,15.861863952935769,-0.5093792068757079,-0.055812704599998014,0.006610724433266331
503935000000,305,503935000000,FL_wheel_link,1.8938691441883109,-4.011999810368563,9.094518074095816,-0.4591603631145854,-0.1905945782104139,-0.002225260863198582
503936000000,306,503936000000,FL_wheel_link,0.03914473543920671,-5.514676843117142,5.358634044342443,-0.6114805370751237,-0.010451656155236022,-0.00107107472306648
503937000000,307,503937000000,FL_wheel_link,-0.13649960982394446,0.2809906366056034,0.3819479780190269,0.014866122575020095,0.0014723525514810107,0.005717619162646667
503938000000,308,503938000000,FL_wheel_link,0.7388288059218593,-9.275292926371284,19.240170215955796,-1.0307115404252425,-0.06993587597189305,9.859039487894461e-05
503939000000,309,503939000000,FL_wheel_link,0.18291412004969193,-2.9369392612314935,15.427873573921543,-0.3755853421199752,-0.01395510945247913,-0.0028496916182560103
503940000000,310,503940000000,FL_wheel_link,2.3162529209885,-4.103476470532759,7.324009842644797,-0.4596109526895209,-0.23406310440926764,-0.0015754715042331363
503941000000,311,503941000000,FL_wheel_link,0.5131501203395601,-6.087863717788743,7.0086458032733985,-0.6773123505282089,-0.06215979223063617,0.00012714078041309307
503942000000,312,503942000000,FL_wheel_link,1.693105175080828,-3.6991622282804872,13.593558845609694,-0.4341147081672375,-0.18168141390051512,0.0053124189609208075
503943000000,313,503943000000,FL_wheel_link,0.04604053282557574,-5.231363543610037,5.259339300062136,-0.5824033800927342,-0.01210046122049957,-0.0009504701046420191
503944000000,314,503944000000,FL_wheel_link,2.1131897773261477,-5.374047481448425,8.472499228255128,-0.6121163014785468,-0.20156971280382646,-0.00483255826286251
503945000000,315,503945000000,FL_wheel_link,0.4214992441760736,-3.482091326017225,15.858633387833954,-0.41167007898500585,-0.06136292786972977,0.0072335442312393625
503946000000,316,503946000000,FL_wheel_link,2.124947827955425,-3.7180279327622623,9.477848626178655,-0.4227186580219484,-0.21997144238500685,0.0009275668098060186
503947000000,317,503947000000,FL_wheel_link,0.7628591134476572,-5.804145535797474,6.102933317000922,-0.6493684632701768,-0.08637608909791522,-0.0009235038655374672
503948000000,318,503948000000,FL_wheel_link,2.5409902297595783,-5.263330189410285,8.712765506764175,-0.5936581101928547,-0.25130281862594694,-0.0032480096026462346
503949000000,319,503949000000,FL_wheel_link,0.6073424826066588,-3.3017111045945344,16.785983973580407,-0.391893163395043,-0.08316591387845887,0.008810892108074356
503950000000,320,503950000000,FL_wheel_link,2.228455807156368,-3.786430903458634,7.953023347394462,-0.4246759854930008,-0.22796540089307393,0.0005741817281907577
503951000000,321,503951000000,FL_wheel_link,1.202465803006121,-5.891969222290028,6.725603133116194,-0.6557089499337763,-0.13349524512069905,0.0008568383310507965
503952000000,322,503952000000,FL_wheel_link,1.3432482027445587,-4.351709488046122,11.56235979763002,-0.49669194397496985,-0.1484648345800854,0.0076308728363674375
503953000000,323,503953000000,FL_wheel_link,1.1115809169899415,-5.283558882576276,7.273687244271482,-0.5967809696365944,-0.1172032800637989,0.00018332426798171875
503954000000,324,503954000000,FL_wheel_link,1.6595892682813282,-2.9120023843306475,15.386692826130599,-0.3507511608909556,-0.17813432024611253,0.0030632437431924314
503955000000,325,503955000000,FL_wheel_link,-0.11669862370171513,-3.7198011437161247,3.571393750023361,-0.4121242640358147,0.009616771146661068,-0.0014522548938371918
503956000000,326,503956000000,FL_wheel_link,-0.011423229429042657,0.009311026725721249,0.05181231486630664,-0.003480331777441087,0.0016090304344606632,0.00020127788442841557
503957000000,327,503957000000,FL_wheel_link,0.6135444769700804,-3.024661946865044,31.572900077396934,-0.38561154001934095,-0.06202862141744547,0.005031829077626199
503958000000,328,503958000000,FL_wheel_link,2.0744254986014576,-2.7978850174430274,3.1909856413591946,-0.3160277332400532,-0.2220905917250765,0.0007283264620495181
503959000000,329,503959000000,FL_wheel_link,-0.22138411188264076,-0.2142402519504509,-0.30257825610118183,-0.015162432617376346,0.005351483315575272,0.004631913058275901
503960000000,330,503960000000,FL_wheel_link,6.7907682771085005,-5.194273137557364,16.34469363902774,-0.6384832366643471,-0.6971982831203478,-0.0025565376501134746
503961000000,331,503961000000,FL_wheel_link,-0.3339675751241045,-0.567959643535403,-0.3961056141889695,-0.037673306822244304,0.003447224776524583,0.0066828454185373035
503962000000,332,503962000000,FL_wheel_link,0.370802539917742,0.9812794007095238,0.26243022794903936,0.040793171261019445,-0.015614802781588251,-0.002798468427248226
503963000000,333,503963000000,FL_wheel_link,-0.2601062018131084,-7.981711228031612,11.975065642502035,-0.870438232527363,0.032241903189326515,-0.005450579089658805
503964000000,334,503964000000,FL_wheel_link,0.25939975157247797,0.4110201550015071,0.38747411067542215,-0.00804030791880616,-0.0083825852520953,-0.003254424726919879
503965000000,335,503965000000,FL_wheel_link,-0.6753276710398128,-6.502527531080091,7.986057471702768,-0.7123918395918106,0.06480136066217007,-0.0031061727892315733
503966000000,336,503966000000,FL_wheel_link,0.22861942956445097,0.3420303864910026,0.2549721686462879,-0.002535690566068583,-0.0075322569083366465,-0.0005891476255635161
503967000000,337,503967000000,FL_wheel_link,-0.39045318036587817,-6.44656837999613,10.240562208368676,-0.7014770802412904,0.029916665045673474,9.787711977291697e-05
503968000000,338,503968000000,FL_wheel_link,2.861480871343062,-2.2437123889558084,6.233294238719721,-0.2828854390280602,-0.28826444514809496,-0.0007697971405074416
503969000000,339,503969000000,FL_wheel_link,-1.5694337847100628,-2.422428467511251,2.040853373711929,-0.26079246013166096,0.14670712136456043,0.002378657381183546
503970000000,340,503970000000,FL_wheel_link,3.2145474275101513,-1.2709701374391837,8.444185253995832,-0.1830352488795465,-0.32127733989861906,0.0008586037806165014
503971000000,341,503971000000,FL_wheel_link,-1.0470191984872754,-1.4536614821174165,0.7248820932376688,-0.1429728851410153,0.07942869079216157,0.00554676527930768
503972000000,342,503972000000,FL_wheel_link,0.24440564245330132,0.7462154896417631,0.19813222535983022,0.030716387304851326,-0.0048637061508405854,-0.0006809930847199372
503973000000,343,503973000000,FL_wheel_link,0.29421738139762166,-7.680460872840049,14.784148597450658,-0.831852416136436,-0.039275688135325004,0.0008311161550086515
503973000000,344,503974000000,FL_wheel_link,3.445958013381272,-3.4613084834727776,7.1869471286712,-0.4265187613861045,-0.34865872897370165,-0.00346574928180525
503975000000,345,503975000000,FL_wheel_link,-0.83331576764728,-3.7270093113604057,3.745673194556317,-0.410828653724557,0.07151859869821894,0.00172831166520555
503976000000,346,503976000000,FL_wheel_link,1.0861378771102714,-1.9337095897634002,5.831862946244008,-0.2516497571797899,-0.11040414564383964,0.003922380047906682
503977000000,347,503977000000,FL_wheel_link,0.7563144107626809,-3.2813790100733984,6.9332838113747695,-0.36914193173448573,-0.08403991640560438,0.0035690535050828115
503978000000,348,503978000000,FL_wheel_link,0.632609579949972,-4.423358127101477,7.606909679558477,-0.4992803172935081,-0.06759986660331013,0.0017141151300696378
503979000000,349,503979000000,FL_wheel_link,0.9712904253250056,-5.19918257299725,8.472868619636245,-0.5873274718173797,-0.10275232497346043,0.0013843544462303348
503980000000,350,503980000000,FL_wheel_link,0.9680622657896072,-5.21821263932938,8.435027034453494,-0.5895209564043841,-0.10257066036293824,0.0014141895335980995
503981000000,351,503981000000,FL_wheel_link,1.871814326119397,-3.5330386870032875,5.281512450475354,-0.416600570141233,-0.19871741492979678,0.0010470500542555314
503982000000,352,503982000000,FL_wheel_link,0.8914116416843273,-2.3808598006328094,5.531062437103369,-0.2756337238047916,-0.09383280963590032,0.0013837164597372657
503983000000,353,503983000000,FL_wheel_link,0.8688788592247975,-4.048198105554003,7.33274626236936,-0.45747278726716256,-0.09197097455368328,0.0014084907550460032
503984000000,354,503984000000,FL_wheel_link,1.8692546654665547,-3.2998699409027883,5.3089298025508445,-0.38780270723077914,-0.1985026123832465,0.001163177702488187
503985000000,355,503985000000,FL_wheel_link,1.0047542556635525,-2.258647413593307,5.569985751564654,-0.2646392424018093,-0.10421111684337415,0.0011064269807680403
503986000000,356,503986000000,FL_wheel_link,0.9947691086774197,-3.9910708479753323,7.153656288784827,-0.4496296771210181,-0.10704651214320451,0.0018317725136207039
503987000000,357,503987000000,FL_wheel_link,1.9541428320228875,-3.241886019427702,5.131931276171496,-0.38039308932301413,-0.20805314057558605,0.0013679367229038064
503988000000,358,503988000000,FL_wheel_link,1.0210362287463493,-2.18665389381577,5.449858549374388,-0.256797935941099,-0.10541250036188324,0.0009150271043349874
503989000000,359,503989000000,FL_wheel_link,1.0150565308062627,-3.943832400708291,7.099745507879096,-0.4438504450984233,-0.10928722653282813,0.0018262844655935057
503990000000,360,503990000000,FL_wheel_link,1.994323315108945,-3.2165523988288087,5.00367527008188,-0.37726228429403225,-0.21240046213457983,0.001424469434671484
503991000000,361,503991000000,FL_wheel_link,1.0193031584124497,-2.1639624435017932,5.331421831048335,-0.2532954095037593,-0.10518768547774608,0.0010253456950169056
503992000000,362,503992000000,FL_wheel_link,1.0453053477225644,-3.9649371522365597,7.109348050847994,-0.44606155376776513,-0.11232769888653724,0.0017365486464200608
