%time,field.header.seq,field.header.stamp,field.header.frame_id,field.orientation.x,field.orientation.y,field.orientation.z,field.orientation.w,field.orientation_covariance0,field.orientation_covariance1,field.orientation_covariance2,field.orientation_covariance3,field.orientation_covariance4,field.orientation_covariance5,field.orientation_covariance6,field.orientation_covariance7,field.orientation_covariance8,field.angular_velocity.x,field.angular_velocity.y,field.angular_velocity.z,field.angular_velocity_covariance0,field.angular_velocity_covariance1,field.angular_velocity_covariance2,field.angular_velocity_covariance3,field.angular_velocity_covariance4,field.angular_velocity_covariance5,field.angular_velocity_covariance6,field.angular_velocity_covariance7,field.angular_velocity_covariance8,field.linear_acceleration.x,field.linear_acceleration.y,field.linear_acceleration.z,field.linear_acceleration_covariance0,field.linear_acceleration_covariance1,field.linear_acceleration_covariance2,field.linear_acceleration_covariance3,field.linear_acceleration_covariance4,field.linear_acceleration_covariance5,field.linear_acceleration_covariance6,field.linear_acceleration_covariance7,field.linear_acceleration_covariance8
503635000000,0,503629000000,base_link,-0.15284327246246962,-0.15487577401719327,0.686885075145487,0.6934272292230217,0.0,0.0,0.0,0.0,0.0,0.0,0.0,0.0,0.0,-0.027074594818734615,0.0024748706007883016,-0.0008502340277361194,0.0,0.0,0.0,0.0,0.0,0.0,0.0,0.0,0.0,0.46328179577350026,-2.5020374666715943,14.738065504651697,0.0,0.0,0.0,0.0,0.0,0.0,0.0,0.0,0.0
503635000000,1,503630000000,base_link,-0.15284198864938991,-0.15488674233017086,0.6868829092716559,0.693427207792248,0.0,0.0,0.0,0.0,0.0,0.0,0.0,0.0,0.0,-0.013969087115235658,-0.01632377183119843,-0.006725362230071199,0.0,0.0,0.0,0.0,0.0,0.0,0.0,0.0,0.0,-1.0887409635069512,-2.022998893145951,3.4254462406298085,0.0,0.0,0.0,0.0,0.0,0.0,0.0,0.0,0.0
503635000000,2,503631000000,base_link,-0.15284273899462608,-0.15490734290987257,0.686882368286993,0.6934229765342907,0.0,0.0,0.0,0.0,0.0,0.0,0.0,0.0,0.0,-0.030801322272831125,-0.02868414459033791,-0.0010034345188162522,0.0,0.0,0.0,0.0,0.0,0.0,0.0,0.0,0.0,-1.7999104200454494,-3.319134497656441,9.106162956169458,0.0,0.0,0.0,0.0,0.0,0.0,0.0,0.0,0.0
503635000000,3,503632000000,base_link,-0.15284210632682074,-0.1548924817770547,0.6868835234153202,0.6934252914936697,0.0,0.0,0.0,0.0,0.0,0.0,0.0,0.0,0.0,0.02236139974822705,0.02010489902108968,0.002770651793474994,0.0,0.0,0.0,0.0,0.0,0.0,0.0,0.0,0.0,1.8043952431019727,-4.62585806599654,8.606799205524876,0.0,0.0,0.0,0.0,0.0,0.0,0.0,0.0,0.0
503636000000,4,503633000000,base_link,-0.1528422439476647,-0.1548788461687431,0.6868847635152486,0.6934270784481106,0.0,0.0,0.0,0.0,0.0,0.0,0.0,0.0,0.0,0.019471697888582728,0.019274102964708432,0.0034757972429174237,0.0,0.0,0.0,0.0,0.0,0.0,0.0,0.0,0.0,0.0835589851988735,-0.12323435042581998,0.06294320567377198,0.0,0.0,0.0,0.0,0.0,0.0,0.0,0.0,0.0
503636000000,5,503634000000,base_link,-0.1528358383368167,-0.15488840546668348,0.6868850968455456,0.6934260249683136,0.0,0.0,0.0,0.0,0.0,0.0,0.0,0.0,0.0,-0.004336531524141308,-0.022576552367552218,-0.002997393884161081,0.0,0.0,0.0,0.0,0.0,0.0,0.0,0.0,0.0,-1.1721524343650902,-5.119777563239034,25.943984310254653,0.0,0.0,0.0,0.0,0.0,0.0,0.0,0.0,0.0
503636000000,6,503635000000,base_link,-0.15283184360921956,-0.15489952202612203,0.6868849149161792,0.6934246024736065,0.0,0.0,0.0,0.0,0.0,0.0,0.0,0.0,0.0,-0.010222675697918432,-0.02128990617147413,-0.0029336196234167776,0.0,0.0,0.0,0.0,0.0,0.0,0.0,0.0,0.0,-0.021983077797447348,-0.17442724134866072,0.1469666212095273,0.0,0.0,0.0,0.0,0.0,0.0,0.0,0.0,0.0
503637000000,7,503636000000,base_link,-0.15284153607024506,-0.15489212054478774,0.6868901717944983,0.693418912156967,0.0,0.0,0.0,0.0,0.0,0.0,0.0,0.0,0.0,-0.00338494955337193,0.020211057405071155,0.020372762952883684,0.0,0.0,0.0,0.0,0.0,0.0,0.0,0.0,0.0,2.873748163026886,-4.021285048811086,7.146738556744584,0.0,0.0,0.0,0.0,0.0,0.0,0.0,0.0,0.0
503638000000,8,503637000000,base_link,-0.1528419295285313,-0.15491422896377793,0.6868911720732986,0.6934128957340813,0.0,0.0,0.0,0.0,0.0,0.0,0.0,0.0,0.0,-0.032445763165205095,-0.03228836374055066,0.003016612397940344,0.0,0.0,0.0,0.0,0.0,0.0,0.0,0.0,0.0,-2.314866558652742,-6.90661866544275,12.773610747639545,0.0,0.0,0.0,0.0,0.0,0.0,0.0,0.0,0.0
503639000000,9,503638000000,base_link,-0.15284399182557187,-0.15490274730709488,0.6868949960044136,0.6934112181841564,0.0,0.0,0.0,0.0,0.0,0.0,0.0,0.0,0.0,0.013593907188801331,0.017068738375368948,0.011758640583906856,0.0,0.0,0.0,0.0,0.0,0.0,0.0,0.0,0.0,1.7974989632837124,-4.176967434169677,7.685879631403128,0.0,0.0,0.0,0.0,0.0,0.0,0.0,0.0,0.0
503640000000,10,503639000000,base_link,-0.15283432657584878,-0.154908127780691,0.6868920671055474,0.6934150479439107,0.0,0.0,0.0,0.0,0.0,0.0,0.0,0.0,0.0,0.0062755591108442236,-0.01865799120482235,-0.01396229362281486,0.0,0.0,0.0,0.0,0.0,0.0,0.0,0.0,0.0,-0.8484890079292463,-3.519310133655245,4.122063942995573,0.0,0.0,0.0,0.0,0.0,0.0,0.0,0.0,0.0
503641000000,11,503640000000,base_link,-0.15283432657584878,-0.154908127780691,0.6868920671055474,0.6934150479439107,0.0,0.0,0.0,0.0,0.0,0.0,0.0,0.0,0.0,0.0062755591108442236,-0.01865799120482235,-0.01396229362281486,0.0,0.0,0.0,0.0,0.0,0.0,0.0,0.0,0.0,-0.8484890079292463,-3.519310133655245,4.122063942995573,0.0,0.0,0.0,0.0,0.0,0.0,0.0,0.0,0.0
503643000000,12,503642000000,base_link,-0.15283828681481423,-0.1549217358939171,0.6868860041928952,0.6934171407421696,0.0,0.0,0.0,0.0,0.0,0.0,0.0,0.0,0.0,-0.014509726520004453,-0.01747590736293876,-0.010122071233762443,0.0,0.0,0.0,0.0,0.0,0.0,0.0,0.0,0.0,-0.21487536578368027,-5.602339907662172,11.160261247256827,0.0,0.0,0.0,0.0,0.0,0.0,0.0,0.0,0.0
503644000000,13,503643000000,base_link,-0.15282917188734654,-0.1549197539433593,0.6868740082376432,0.6934314752489326,0.0,0.0,0.0,0.0,0.0,0.0,0.0,0.0,0.0,0.007937290418806572,-0.01161052543965763,-0.025854413444024407,0.0,0.0,0.0,0.0,0.0,0.0,0.0,0.0,0.0,-1.67060664132427,-3.222347412209741,3.973791465098614,0.0,0.0,0.0,0.0,0.0,0.0,0.0,0.0,0.0
503645000000,14,503644000000,base_link,-0.15282917188734654,-0.1549197539433593,0.6868740082376432,0.6934314752489326,0.0,0.0,0.0,0.0,0.0,0.0,0.0,0.0,0.0,0.007937290418806572,-0.01161052543965763,-0.025854413444024407,0.0,0.0,0.0,0.0,0.0,0.0,0.0,0.0,0.0,-1.67060664132427,-3.222347412209741,3.973791465098614,0.0,0.0,0.0,0.0,0.0,0.0,0.0,0.0,0.0
503646000000,15,503645000000,base_link,-0.1528311630839082,-0.1549386182773012,0.6868718828746411,0.6934289269081483,0.0,0.0,0.0,0.0,0.0,0.0,0.0,0.0,0.0,-0.019785878723739356,-0.02189108414776654,-0.0011572474228147079,0.0,0.0,0.0,0.0,0.0,0.0,0.0,0.0,0.0,-1.3073023189731015,-3.178561394663519,6.7929625515790235,0.0,0.0,0.0,0.0,0.0,0.0,0.0,0.0,0.0
503646000000,16,503646000000,base_link,-0.1528296809214655,-0.15492637959804162,0.6868716514697513,0.6934322172651796,0.0,0.0,0.0,0.0,0.0,0.0,0.0,0.0,0.0,0.019811290816282426,0.016028776933191238,-0.001557491580839098,0.0,0.0,0.0,0.0,0.0,0.0,0.0,0.0,0.0,1.3748468380541956,-4.610047971594992,8.03977369701282,0.0,0.0,0.0,0.0,0.0,0.0,0.0,0.0,0.0
503646000000,17,503647000000,base_link,-0.15283030055703611,-0.15493696335821214,0.6868718175199953,0.6934295515146154,0.0,0.0,0.0,0.0,0.0,0.0,0.0,0.0,0.0,-0.016161617542859795,-0.014703368253061679,0.00084868535753787,0.0,0.0,0.0,0.0,0.0,0.0,0.0,0.0,0.0,-0.38361656082293866,-3.6223405400331563,9.305110467450843,0.0,0.0,0.0,0.0,0.0,0.0,0.0,0.0,0.0
503649000000,18,503648000000,base_link,-0.15283266878108823,-0.15493211245898905,0.6868712440796717,0.6934306814229446,0.0,0.0,0.0,0.0,0.0,0.0,0.0,0.0,0.0,0.0035482766148929633,0.010506449921730582,-0.00013158690610457304,0.0,0.0,0.0,0.0,0.0,0.0,0.0,0.0,0.0,1.482865523221887,-6.602902330744675,9.82274632805505,0.0,0.0,0.0,0.0,0.0,0.0,0.0,0.0,0.0
503650000000,19,503649000000,base_link,-0.15282257144344213,-0.1549344496825515,0.6868682258976918,0.6934353742138747,0.0,0.0,0.0,0.0,0.0,0.0,0.0,0.0,0.0,0.01129243131943147,-0.014736129903547624,-0.014475749538281443,0.0,0.0,0.0,0.0,0.0,0.0,0.0,0.0,0.0,-1.421984112209823,-3.0283041332074676,4.0530307007294795,0.0,0.0,0.0,0.0,0.0,0.0,0.0,0.0,0.0
503651000000,20,503650000000,base_link,-0.15282653994907977,-0.1549355505198622,0.6868647790241998,0.6934376678608806,0.0,0.0,0.0,0.0,0.0,0.0,0.0,0.0,0.0,-0.007381276381425338,0.005693340026035047,-0.007043962786840829,0.0,0.0,0.0,0.0,0.0,0.0,0.0,0.0,0.0,1.2446359373265663,-5.08267182097878,15.53676907201288,0.0,0.0,0.0,0.0,0.0,0.0,0.0,0.0,0.0
503652000000,21,503651000000,base_link,-0.15282571514676555,-0.15494788835218826,0.686864433541437,0.6934354350773245,0.0,0.0,0.0,0.0,0.0,0.0,0.0,0.0,0.0,-0.016594247535629405,-0.01883210923746488,-0.001437442225214922,0.0,0.0,0.0,0.0,0.0,0.0,0.0,0.0,0.0,-1.0455211320679694,-3.1277134780087246,6.429716735728139,0.0,0.0,0.0,0.0,0.0,0.0,0.0,0.0,0.0
503653000000,22,503653000000,base_link,-0.15282375070901394,-0.15493631081735715,0.6868632365939301,0.6934396405061131,0.0,0.0,0.0,0.0,0.0,0.0,0.0,0.0,0.0,0.019558124732589537,0.015030492098636177,-0.004507625289223482,0.0,0.0,0.0,0.0,0.0,0.0,0.0,0.0,0.0,1.0130517759234168,-4.724814669883212,7.9904628856795314,0.0,0.0,0.0,0.0,0.0,0.0,0.0,0.0,0.0
503656000000,23,503655000000,base_link,-0.15281607823562335,-0.15494345599562548,0.6868620515201938,0.693440908699715,0.0,0.0,0.0,0.0,0.0,0.0,0.0,0.0,0.0,0.01315206790377255,-0.015348110472729557,-0.012263392672702166,0.0,0.0,0.0,0.0,0.0,0.0,0.0,0.0,0.0,-1.4289313899978782,-2.9981490446171457,4.0298015880321705,0.0,0.0,0.0,0.0,0.0,0.0,0.0,0.0,0.0
503656000000,24,503656000000,base_link,-0.15281607823562335,-0.15494345599562548,0.6868620515201938,0.693440908699715,0.0,0.0,0.0,0.0,0.0,0.0,0.0,0.0,0.0,-0.010850969842212798,0.0054112510369731665,-0.005008620744482807,0.0,0.0,0.0,0.0,0.0,0.0,0.0,0.0,0.0,-1.4289313899978782,-2.9981490446171457,4.0298015880321705,0.0,0.0,0.0,0.0,0.0,0.0,0.0,0.0,0.0
503658000000,25,503657000000,base_link,-0.15282131079798164,-0.15494568977191317,0.6868590623717081,0.6934422172214141,0.0,0.0,0.0,0.0,0.0,0.0,0.0,0.0,0.0,-0.010850969842212798,0.0054112510369731665,-0.005008620744482807,0.0,0.0,0.0,0.0,0.0,0.0,0.0,0.0,0.0,1.2828268814774413,-4.717236954141471,16.520402792550577,0.0,0.0,0.0,0.0,0.0,0.0,0.0,0.0,0.0
503659000000,26,503660000000,base_link,-0.15283697356797604,-0.15495036597840442,0.68685606652485,0.6934406877821284,0.0,0.0,0.0,0.0,0.0,0.0,0.0,0.0,0.0,-0.03614644793618281,0.016206286888481327,0.011641778663109895,0.0,0.0,0.0,0.0,0.0,0.0,0.0,0.0,0.0,0.9958033727812612,-0.5062988343069215,1.4077086300867023,0.0,0.0,0.0,0.0,0.0,0.0,0.0,0.0,0.0
503662000000,27,503661000000,base_link,-0.15281843367056502,-0.15493754925546876,0.6868629231091278,0.6934408460850635,0.0,0.0,0.0,0.0,0.0,0.0,0.0,0.0,0.0,-0.025033085920054716,0.004515144236279732,-0.0016101867051718996,0.0,0.0,0.0,0.0,0.0,0.0,0.0,0.0,0.0,0.4059993574410483,-2.4119658892328393,14.9699121584866,0.0,0.0,0.0,0.0,0.0,0.0,0.0,0.0,0.0
503663000000,28,503662000000,base_link,-0.15281708503216762,-0.15494719736460486,0.6868605896290348,0.6934412988606753,0.0,0.0,0.0,0.0,0.0,0.0,0.0,0.0,0.0,-0.011968829209582334,-0.01438064849972918,-0.0072322148031104165,0.0,0.0,0.0,0.0,0.0,0.0,0.0,0.0,0.0,-1.0793442547209662,-2.011299257089125,3.444278245686524,0.0,0.0,0.0,0.0,0.0,0.0,0.0,0.0,0.0
503664000000,29,503663000000,base_link,-0.1528175299924762,-0.1549660527774588,0.6868597351398883,0.6934378337364749,0.0,0.0,0.0,0.0,0.0,0.0,0.0,0.0,0.0,-0.027842684797096288,-0.026351549425640393,-0.002050650365044957,0.0,0.0,0.0,0.0,0.0,0.0,0.0,0.0,0.0,-1.787160329700387,-3.254149136778642,9.042672680390565,0.0,0.0,0.0,0.0,0.0,0.0,0.0,0.0,0.0
503665000000,30,503664000000,base_link,-0.1528170674669636,-0.15495557338987964,0.6868590120488652,0.6934409936926631,0.0,0.0,0.0,0.0,0.0,0.0,0.0,0.0,0.0,0.01578862971048914,0.015098948373025022,-0.0022820803221344,0.0,0.0,0.0,0.0,0.0,0.0,0.0,0.0,0.0,1.1238158171416233,-4.9457989048960895,8.568113026975302,0.0,0.0,0.0,0.0,0.0,0.0,0.0,0.0,0.0
503666000000,31,503665000000,base_link,-0.15280446340593468,-0.15495621057014228,0.6868543194763704,0.6934482767918732,0.0,0.0,0.0,0.0,0.0,0.0,0.0,0.0,0.0,0.017376740152211627,-0.01450659542096085,-0.02061370227969346,0.0,0.0,0.0,0.0,0.0,0.0,0.0,0.0,0.0,-0.9717559923449288,-2.971667161189239,3.764211774039426,0.0,0.0,0.0,0.0,0.0,0.0,0.0,0.0,0.0
503667000000,32,503666000000,base_link,-0.1528131156919922,-0.15496317789120045,0.6868502023124037,0.6934488912340809,0.0,0.0,0.0,0.0,0.0,0.0,0.0,0.0,0.0,-0.02265841852146908,0.0036729511688312552,-0.006006907299265281,0.0,0.0,0.0,0.0,0.0,0.0,0.0,0.0,0.0,1.2957100000570252,-5.308911418009233,18.947005866693484,0.0,0.0,0.0,0.0,0.0,0.0,0.0,0.0,0.0
503668000000,33,503667000000,base_link,-0.15281142370414308,-0.15497517843889316,0.6868470843860724,0.6934496705051476,0.0,0.0,0.0,0.0,0.0,0.0,0.0,0.0,0.0,-0.014867925277184365,-0.017774599500290436,-0.009585445298860996,0.0,0.0,0.0,0.0,0.0,0.0,0.0,0.0,0.0,-1.1625921167950912,-2.520234308604428,4.124155142106426,0.0,0.0,0.0,0.0,0.0,0.0,0.0,0.0,0.0
503669000000,34,503668000000,base_link,-0.1528088899996415,-0.1549646809776264,0.6868419019332301,0.6934577078202557,0.0,0.0,0.0,0.0,0.0,0.0,0.0,0.0,0.0,0.018817755941564207,0.015163029915363842,-0.015819955976413683,0.0,0.0,0.0,0.0,0.0,0.0,0.0,0.0,0.0,0.6722751295664984,-5.489608513653284,9.118748723737784,0.0,0.0,0.0,0.0,0.0,0.0,0.0,0.0,0.0
503670000000,35,503669000000,base_link,-0.15282533030786005,-0.1549719020183294,0.6868400657661976,0.6934542898125298,0.0,0.0,0.0,0.0,0.0,0.0,0.0,0.0,0.0,-0.03433417589229185,0.012070843340963477,0.00503687485656285,0.0,0.0,0.0,0.0,0.0,0.0,0.0,0.0,0.0,0.9487838736850175,-0.609133991459732,1.0368305379523548,0.0,0.0,0.0,0.0,0.0,0.0,0.0,0.0,0.0
503671000000,36,503670000000,base_link,-0.15282533030786005,-0.1549719020183294,0.6868400657661976,0.6934542898125298,0.0,0.0,0.0,0.0,0.0,0.0,0.0,0.0,0.0,-0.03433417589229185,0.012070843340963477,0.00503687485656285,0.0,0.0,0.0,0.0,0.0,0.0,0.0,0.0,0.0,0.9487838736850175,-0.609133991459732,1.0368305379523548,0.0,0.0,0.0,0.0,0.0,0.0,0.0,0.0,0.0
503673000000,37,503672000000,base_link,-0.15280707327837706,-0.15498015592762532,0.6868421936342738,0.693454360912385,0.0,0.0,0.0,0.0,0.0,0.0,0.0,0.0,0.0,-0.018283987589383217,-0.021135909826418567,-0.007465490193760597,0.0,0.0,0.0,0.0,0.0,0.0,0.0,0.0,0.0,-1.2369846927157802,-2.218473217836116,3.8313252921467793,0.0,0.0,0.0,0.0,0.0,0.0,0.0,0.0,0.0
503674000000,38,503673000000,base_link,-0.15281029722083578,-0.15498046281333624,0.686841327079159,0.6934544401945838,0.0,0.0,0.0,0.0,0.0,0.0,0.0,0.0,0.0,-0.005135886199927395,0.004292763907922587,-0.00040616426366201224,0.0,0.0,0.0,0.0,0.0,0.0,0.0,0.0,0.0,0.4504733861832655,-6.896084592941393,9.922372098228156,0.0,0.0,0.0,0.0,0.0,0.0,0.0,0.0,0.0
503675000000,39,503674000000,base_link,-0.15281029722083578,-0.15498046281333624,0.686841327079159,0.6934544401945838,0.0,0.0,0.0,0.0,0.0,0.0,0.0,0.0,0.0,-0.005135886199927395,0.004292763907922587,-0.00040616426366201224,0.0,0.0,0.0,0.0,0.0,0.0,0.0,0.0,0.0,0.4504733861832655,-6.896084592941393,9.922372098228156,0.0,0.0,0.0,0.0,0.0,0.0,0.0,0.0,0.0
503676000000,40,503675000000,base_link,-0.15280364258197435,-0.15498619077203563,0.6868352972798075,0.693460598660236,0.0,0.0,0.0,0.0,0.0,0.0,0.0,0.0,0.0,-0.0019734970920706994,0.007364932872768031,-0.006523663188616125,0.0,0.0,0.0,0.0,0.0,0.0,0.0,0.0,0.0,1.6546131252047476,-6.165263613536386,14.988568549168974,0.0,0.0,0.0,0.0,0.0,0.0,0.0,0.0,0.0
503677000000,41,503676000000,base_link,-0.1528028014241592,-0.1549990780542522,0.6868351201290346,0.6934580790765911,0.0,0.0,0.0,0.0,0.0,0.0,0.0,0.0,0.0,-0.01736170184983461,-0.01975686683014615,-0.0009814578710810075,0.0,0.0,0.0,0.0,0.0,0.0,0.0,0.0,0.0,-0.8844014045474358,-3.345102305098918,6.705953731125788,0.0,0.0,0.0,0.0,0.0,0.0,0.0,0.0,0.0
503677000000,42,503677000000,base_link,-0.1528000898197763,-0.15498640857575133,0.6868338358835628,0.6934627802509155,0.0,0.0,0.0,0.0,0.0,0.0,0.0,0.0,0.0,0.02222323151306447,0.015708271316393203,-0.00522302932219199,0.0,0.0,0.0,0.0,0.0,0.0,0.0,0.0,0.0,0.962552937980107,-4.838159888670027,8.275642656599814,0.0,0.0,0.0,0.0,0.0,0.0,0.0,0.0,0.0
503679000000,43,503678000000,base_link,-0.1528190121283649,-0.15499275166276374,0.6868355472419765,0.6934554978575987,0.0,0.0,0.0,0.0,0.0,0.0,0.0,0.0,0.0,-0.0366506292815232,0.014415745228119416,0.016303148302911342,0.0,0.0,0.0,0.0,0.0,0.0,0.0,0.0,0.0,1.0416297640887,-0.6021165224656717,1.2934239500066562,0.0,0.0,0.0,0.0,0.0,0.0,0.0,0.0,0.0
503680000000,44,503679000000,base_link,-0.1528190121283649,-0.15499275166276374,0.6868355472419765,0.6934554978575987,0.0,0.0,0.0,0.0,0.0,0.0,0.0,0.0,0.0,-0.0366506292815232,0.014415745228119416,0.016303148302911342,0.0,0.0,0.0,0.0,0.0,0.0,0.0,0.0,0.0,1.0416297640887,-0.6021165224656717,1.2934239500066562,0.0,0.0,0.0,0.0,0.0,0.0,0.0,0.0,0.0
503681000000,45,503680000000,base_link,-0.15279021032558232,-0.15497275405958047,0.6868457477868964,0.693456210495596,0.0,0.0,0.0,0.0,0.0,0.0,0.0,0.0,0.0,0.06094823826462416,0.0024182445140298672,0.006102689936351678,0.0,0.0,0.0,0.0,0.0,0.0,0.0,0.0,0.0,0.40929765127118833,-9.45470076005058,16.351977958889076,0.0,0.0,0.0,0.0,0.0,0.0,0.0,0.0,0.0
503682000000,46,503681000000,base_link,-0.15280122811437052,-0.1549814636308029,0.6868429095666708,0.6934546475405471,0.0,0.0,0.0,0.0,0.0,0.0,0.0,0.0,0.0,-0.02715040796318317,0.002428414065472428,-0.0010476772614285688,0.0,0.0,0.0,0.0,0.0,0.0,0.0,0.0,0.0,0.4622836464508111,-2.5000973981507637,14.704618422362923,0.0,0.0,0.0,0.0,0.0,0.0,0.0,0.0,0.0
503684000000,47,503683000000,base_link,-0.1527999085945768,-0.15499773692810223,0.6868412248069021,0.6934529698446826,0.0,0.0,0.0,0.0,0.0,0.0,0.0,0.0,0.0,0.023294164088318723,0.020881324870966757,0.00287293025529785,0.0,0.0,0.0,0.0,0.0,0.0,0.0,0.0,0.0,1.885151424045388,-4.587178330078208,8.620760562375951,0.0,0.0,0.0,0.0,0.0,0.0,0.0,0.0,0.0
503685000000,48,503685000000,base_link,-0.15280000593896315,-0.15498352445724503,0.6868425174287246,0.6934548446611613,0.0,0.0,0.0,0.0,0.0,0.0,0.0,0.0,0.0,0.020362064764122507,0.02003124015675826,0.003590847205733881,0.0,0.0,0.0,0.0,0.0,0.0,0.0,0.0,0.0,0.08618179384651847,-0.12382340707950501,0.0622861942622599,0.0,0.0,0.0,0.0,0.0,0.0,0.0,0.0,0.0
503686000000,49,503686000000,base_link,-0.15279401463856332,-0.15499267850896917,0.6868428629427261,0.6934537766310639,0.0,0.0,0.0,0.0,0.0,0.0,0.0,0.0,0.0,-0.004363337914066675,-0.021401404110167152,-0.0026960614066078364,0.0,0.0,0.0,0.0,0.0,0.0,0.0,0.0,0.0,-1.169371624422646,-5.127692546062349,26.083932332345807,0.0,0.0,0.0,0.0,0.0,0.0,0.0,0.0,0.0
503689000000,50,503688000000,base_link,-0.15280008529604838,-0.15501807556979663,0.6868493008027542,0.6934403854455874,0.0,0.0,0.0,0.0,0.0,0.0,0.0,0.0,0.0,-0.032712149194446295,-0.03278143695188801,0.003091991242584897,0.0,0.0,0.0,0.0,0.0,0.0,0.0,0.0,0.0,-2.308767615784074,-6.9448724895576035,12.89353936263357,0.0,0.0,0.0,0.0,0.0,0.0,0.0,0.0,0.0
503690000000,51,503689000000,base_link,-0.1528022608800409,-0.1550068018666874,0.6868531699223658,0.6934385938297688,0.0,0.0,0.0,0.0,0.0,0.0,0.0,0.0,0.0,0.013128835366766374,0.016886560717661116,0.011947831692699418,0.0,0.0,0.0,0.0,0.0,0.0,0.0,0.0,0.0,1.7689575963921176,-4.198584152618361,7.713716345975859,0.0,0.0,0.0,0.0,0.0,0.0,0.0,0.0,0.0
503691000000,52,503690000000,base_link,-0.15279261793266274,-0.15501248968559753,0.6868502493540681,0.6934423400031258,0.0,0.0,0.0,0.0,0.0,0.0,0.0,0.0,0.0,0.005799552528966646,-0.019081015858890955,-0.01392433085645085,0.0,0.0,0.0,0.0,0.0,0.0,0.0,0.0,0.0,-0.8312214722185993,-3.5088013411096908,4.117824512778314,0.0,0.0,0.0,0.0,0.0,0.0,0.0,0.0,0.0
503692000000,53,503691000000,base_link,-0.15279811365239962,-0.15501404918941536,0.6868475414060903,0.6934434626431915,0.0,0.0,0.0,0.0,0.0,0.0,0.0,0.0,0.0,-0.010259995493525551,0.006564095082538867,-0.004073858094808181,0.0,0.0,0.0,0.0,0.0,0.0,0.0,0.0,0.0,1.1226989295156873,-7.759855534743918,16.651965623499024,0.0,0.0,0.0,0.0,0.0,0.0,0.0,0.0,0.0
503693000000,54,503692000000,base_link,-0.15279633921862315,-0.1550261205375237,0.6868443395157595,0.6934443264946601,0.0,0.0,0.0,0.0,0.0,0.0,0.0,0.0,0.0,-0.014852130211780676,-0.017934916860847555,-0.009863835572670352,0.0,0.0,0.0,0.0,0.0,0.0,0.0,0.0,0.0,-1.4985373566940672,-3.503286927345105,5.631662397187338,0.0,0.0,0.0,0.0,0.0,0.0,0.0,0.0,0.0
503694000000,55,503693000000,base_link,-0.1527955165289011,-0.1550203410881519,0.686839642953037,0.693450451615488,0.0,0.0,0.0,0.0,0.0,0.0,0.0,0.0,0.0,0.009470549015551777,0.010222137708800422,-0.013402930508317815,0.0,0.0,0.0,0.0,0.0,0.0,0.0,0.0,0.0,0.8333610945770302,-6.618969131627126,10.052251810663638,0.0,0.0,0.0,0.0,0.0,0.0,0.0,0.0,0.0
503695000000,56,503694000000,base_link,-0.1527955165289011,-0.1550203410881519,0.686839642953037,0.693450451615488,0.0,0.0,0.0,0.0,0.0,0.0,0.0,0.0,0.0,0.009470549015551777,0.010222137708800422,-0.013402930508317815,0.0,0.0,0.0,0.0,0.0,0.0,0.0,0.0,0.0,0.8333610945770302,-6.618969131627126,10.052251810663638,0.0,0.0,0.0,0.0,0.0,0.0,0.0,0.0,0.0
503697000000,57,503696000000,base_link,-0.1527897232785794,-0.15502856618549582,0.6868299715955115,0.6934594683505542,0.0,0.0,0.0,0.0,0.0,0.0,0.0,0.0,0.0,-0.011877018719204529,-0.002288601562260742,-0.0033423787613260435,0.0,0.0,0.0,0.0,0.0,0.0,0.0,0.0,0.0,-0.4261251647880073,-5.113224355110923,9.291973118404494,0.0,0.0,0.0,0.0,0.0,0.0,0.0,0.0,0.0
503699000000,58,503698000000,base_link,-0.1527742709489163,-0.1550303994747479,0.6868246972899624,0.6934676867506364,0.0,0.0,0.0,0.0,0.0,0.0,0.0,0.0,0.0,0.020215119883885926,-0.013708106252598162,-0.020795429519308427,0.0,0.0,0.0,0.0,0.0,0.0,0.0,0.0,0.0,-0.895593711669767,-2.957375272410785,3.712288073180117,0.0,0.0,0.0,0.0,0.0,0.0,0.0,0.0,0.0
503700000000,59,503699000000,base_link,-0.15278437880135504,-0.15503736378238517,0.6868200276517811,0.6934685277949528,0.0,0.0,0.0,0.0,0.0,0.0,0.0,0.0,0.0,-0.024775681983112557,0.005914505323036489,-0.0066295005710985885,0.0,0.0,0.0,0.0,0.0,0.0,0.0,0.0,0.0,1.6505479435499157,-4.900711280706992,19.965024264519506,0.0,0.0,0.0,0.0,0.0,0.0,0.0,0.0,0.0
503701000000,60,503700000000,base_link,-0.15278437880135504,-0.15503736378238517,0.6868200276517811,0.6934685277949528,0.0,0.0,0.0,0.0,0.0,0.0,0.0,0.0,0.0,-0.024775681983112557,0.005914505323036489,-0.0066295005710985885,0.0,0.0,0.0,0.0,0.0,0.0,0.0,0.0,0.0,1.6505479435499157,-4.900711280706992,19.965024264519506,0.0,0.0,0.0,0.0,0.0,0.0,0.0,0.0,0.0
503703000000,61,503702000000,base_link,-0.15277869457388896,-0.1550350085009845,0.6868103224580736,0.6934799186627073,0.0,0.0,0.0,0.0,0.0,0.0,0.0,0.0,0.0,0.02443777016494266,0.017200444461785067,-0.018429825806888074,0.0,0.0,0.0,0.0,0.0,0.0,0.0,0.0,0.0,-0.1935692042029868,-3.983141620146714,6.543737911836234,0.0,0.0,0.0,0.0,0.0,0.0,0.0,0.0,0.0
503704000000,62,503703000000,base_link,-0.15277780530666235,-0.15504050774550168,0.6868064322991384,0.693482737864632,0.0,0.0,0.0,0.0,0.0,0.0,0.0,0.0,0.0,0.012616687148057491,0.009051655852595148,-0.006661037095165451,0.0,0.0,0.0,0.0,0.0,0.0,0.0,0.0,0.0,1.1074015691041248,-6.283767583062643,9.855058613431881,0.0,0.0,0.0,0.0,0.0,0.0,0.0,0.0,0.0
503705000000,63,503704000000,base_link,-0.15276788551896087,-0.15504210083711936,0.6868013672120177,0.6934895832799376,0.0,0.0,0.0,0.0,0.0,0.0,0.0,0.0,0.0,0.012091556245960127,-0.012165473962840822,-0.01999081405780255,0.0,0.0,0.0,0.0,0.0,0.0,0.0,0.0,0.0,-1.5532614584480182,-3.0632260531962148,3.770522628994624,0.0,0.0,0.0,0.0,0.0,0.0,0.0,0.0,0.0
503706000000,64,503705000000,base_link,-0.15276788551896087,-0.15504210083711936,0.6868013672120177,0.6934895832799376,0.0,0.0,0.0,0.0,0.0,0.0,0.0,0.0,0.0,0.012091556245960127,-0.012165473962840822,-0.01999081405780255,0.0,0.0,0.0,0.0,0.0,0.0,0.0,0.0,0.0,-1.5532614584480182,-3.0632260531962148,3.770522628994624,0.0,0.0,0.0,0.0,0.0,0.0,0.0,0.0,0.0
503708000000,65,503707000000,base_link,-0.15277057799177624,-0.15504999477166054,0.6867941662795904,0.6934943567078891,0.0,0.0,0.0,0.0,0.0,0.0,0.0,0.0,0.0,0.018047004325568643,0.015376611643787404,-0.007421445972646058,0.0,0.0,0.0,0.0,0.0,0.0,0.0,0.0,0.0,0.8263568782808579,-5.062704512796664,8.460943004234796,0.0,0.0,0.0,0.0,0.0,0.0,0.0,0.0,0.0
503709000000,66,503708000000,base_link,-0.15279016550443303,-0.15505803701933557,0.6867950410908384,0.6934873769679388,0.0,0.0,0.0,0.0,0.0,0.0,0.0,0.0,0.0,-0.04007358326158972,0.013319411502011916,0.0144166116139735,0.0,0.0,0.0,0.0,0.0,0.0,0.0,0.0,0.0,1.057601502292934,-0.6628237278097808,1.296705105170263,0.0,0.0,0.0,0.0,0.0,0.0,0.0,0.0,0.0
503710000000,67,503709000000,base_link,-0.15276078488082837,-0.15503799532285376,0.6868050427141428,0.693488425217962,0.0,0.0,0.0,0.0,0.0,0.0,0.0,0.0,0.0,0.06076114214770813,0.0037383216486259058,0.004698978372454543,0.0,0.0,0.0,0.0,0.0,0.0,0.0,0.0,0.0,0.4692729858049407,-9.608985391726247,16.716692312004525,0.0,0.0,0.0,0.0,0.0,0.0,0.0,0.0,0.0
503711000000,68,503710000000,base_link,-0.15276078488082837,-0.15503799532285376,0.6868050427141428,0.693488425217962,0.0,0.0,0.0,0.0,0.0,0.0,0.0,0.0,0.0,0.06076114214770813,0.0037383216486259058,0.004698978372454543,0.0,0.0,0.0,0.0,0.0,0.0,0.0,0.0,0.0,0.4692729858049407,-9.608985391726247,16.716692312004525,0.0,0.0,0.0,0.0,0.0,0.0,0.0,0.0,0.0
503713000000,69,503712000000,base_link,-0.15277176924226263,-0.15507870463178222,0.6867991065430982,0.6934827821539045,0.0,0.0,0.0,0.0,0.0,0.0,0.0,0.0,0.0,-0.03153534952231027,-0.029109851358713676,-0.0010333498695976173,0.0,0.0,0.0,0.0,0.0,0.0,0.0,0.0,0.0,-1.789306170307319,-3.3368999575639,9.099547736961329,0.0,0.0,0.0,0.0,0.0,0.0,0.0,0.0,0.0
503714000000,70,503714000000,base_link,-0.15277132658282888,-0.1550641800177176,0.6868002089511815,0.6934850357680177,0.0,0.0,0.0,0.0,0.0,0.0,0.0,0.0,0.0,0.02159843187463567,0.019899235018172583,0.002736363530111972,0.0,0.0,0.0,0.0,0.0,0.0,0.0,0.0,0.0,1.8151095786887619,-4.657091231840553,8.671271630883993,0.0,0.0,0.0,0.0,0.0,0.0,0.0,0.0,0.0
503717000000,71,503716000000,base_link,-0.15277038739656698,-0.15506403108858216,0.6868052079271956,0.6934803251436509,0.0,0.0,0.0,0.0,0.0,0.0,0.0,0.0,0.0,-0.01213084987331271,0.0025444397477177375,0.013302901118518553,0.0,0.0,0.0,0.0,0.0,0.0,0.0,0.0,0.0,0.3944360987272074,-2.048009864818642,2.8432534785033408,0.0,0.0,0.0,0.0,0.0,0.0,0.0,0.0,0.0
503718000000,72,503717000000,base_link,-0.15277038739656698,-0.15506403108858216,0.6868052079271956,0.6934803251436509,0.0,0.0,0.0,0.0,0.0,0.0,0.0,0.0,0.0,-0.01213084987331271,0.0025444397477177375,0.013302901118518553,0.0,0.0,0.0,0.0,0.0,0.0,0.0,0.0,0.0,0.3944360987272074,-2.048009864818642,2.8432534785033408,0.0,0.0,0.0,0.0,0.0,0.0,0.0,0.0,0.0
503719000000,73,503718000000,base_link,-0.15276381152261773,-0.1550530895935615,0.6868134748266888,0.693476032818051,0.0,0.0,0.0,0.0,0.0,0.0,0.0,0.0,0.0,0.03994245643877234,0.0001722433662032577,0.00445260258202059,0.0,0.0,0.0,0.0,0.0,0.0,0.0,0.0,0.0,0.46901831843580655,-9.801867515254273,15.24758766317986,0.0,0.0,0.0,0.0,0.0,0.0,0.0,0.0,0.0
503720000000,74,503719000000,base_link,-0.15276381152261773,-0.1550530895935615,0.6868134748266888,0.693476032818051,0.0,0.0,0.0,0.0,0.0,0.0,0.0,0.0,0.0,0.03994245643877234,0.0001722433662032577,0.00445260258202059,0.0,0.0,0.0,0.0,0.0,0.0,0.0,0.0,0.0,0.46901831843580655,-9.801867515254273,15.24758766317986,0.0,0.0,0.0,0.0,0.0,0.0,0.0,0.0,0.0
503721000000,75,503720000000,base_link,-0.1527771164423328,-0.15507911805895708,0.6868090283949521,0.693471685325943,0.0,0.0,0.0,0.0,0.0,0.0,0.0,0.0,0.0,-0.02130915615369107,0.0018247158588714472,0.0006676517452522948,0.0,0.0,0.0,0.0,0.0,0.0,0.0,0.0,0.0,0.5620105538264031,-6.125145744993071,8.858008640490532,0.0,0.0,0.0,0.0,0.0,0.0,0.0,0.0,0.0
503721000000,76,503721000000,base_link,-0.15277214380241075,-0.1550933854554502,0.6868048999663617,0.6934736788430967,0.0,0.0,0.0,0.0,0.0,0.0,0.0,0.0,0.0,-0.013372235672351424,-0.02473885454470347,-0.014365917639252521,0.0,0.0,0.0,0.0,0.0,0.0,0.0,0.0,0.0,-1.4680592329204363,-3.1371528164013665,4.200098964845477,0.0,0.0,0.0,0.0,0.0,0.0,0.0,0.0,0.0
503723000000,77,503722000000,base_link,-0.15276987384734678,-0.15508198619472857,0.6867999813764218,0.693481599455898,0.0,0.0,0.0,0.0,0.0,0.0,0.0,0.0,0.0,0.019716197906461945,0.016652004400349585,-0.014919404324172839,0.0,0.0,0.0,0.0,0.0,0.0,0.0,0.0,0.0,1.1505008778539427,-6.211067581052576,9.950144048726438,0.0,0.0,0.0,0.0,0.0,0.0,0.0,0.0,0.0
503724000000,78,503723000000,base_link,-0.15276987384734678,-0.15508198619472857,0.6867999813764218,0.693481599455898,0.0,0.0,0.0,0.0,0.0,0.0,0.0,0.0,0.0,0.019716197906461945,0.016652004400349585,-0.014919404324172839,0.0,0.0,0.0,0.0,0.0,0.0,0.0,0.0,0.0,1.1505008778539427,-6.211067581052576,9.950144048726438,0.0,0.0,0.0,0.0,0.0,0.0,0.0,0.0,0.0
503726000000,79,503725000000,base_link,-0.15276024926536885,-0.15510420514185294,0.6867815471426182,0.6934970066958388,0.0,0.0,0.0,0.0,0.0,0.0,0.0,0.0,0.0,-0.02085022802736221,-0.02288403155744259,-0.00962489533872522,0.0,0.0,0.0,0.0,0.0,0.0,0.0,0.0,0.0,-1.0351384405428026,-2.9918824813603484,5.445960874772185,0.0,0.0,0.0,0.0,0.0,0.0,0.0,0.0,0.0
503727000000,80,503726000000,base_link,-0.15276010813500876,-0.15509558974502594,0.6867776158284435,0.6935028578176315,0.0,0.0,0.0,0.0,0.0,0.0,0.0,0.0,0.0,0.012612713895516152,0.014773260092833354,-0.010900117984371804,0.0,0.0,0.0,0.0,0.0,0.0,0.0,0.0,0.0,0.9973929410593054,-5.386925585405441,8.818538347210547,0.0,0.0,0.0,0.0,0.0,0.0,0.0,0.0,0.0
503728000000,81,503727000000,base_link,-0.15276010813500876,-0.15509558974502594,0.6867776158284435,0.6935028578176315,0.0,0.0,0.0,0.0,0.0,0.0,0.0,0.0,0.0,0.012612713895516152,0.014773260092833354,-0.010900117984371804,0.0,0.0,0.0,0.0,0.0,0.0,0.0,0.0,0.0,0.9973929410593054,-5.386925585405441,8.818538347210547,0.0,0.0,0.0,0.0,0.0,0.0,0.0,0.0,0.0
503730000000,82,503729000000,base_link,-0.1527533254188963,-0.15511798199139076,0.6867632134892917,0.6935136060916536,0.0,0.0,0.0,0.0,0.0,0.0,0.0,0.0,0.0,-0.019518539987485532,-0.021547401056160324,-0.007208049156005371,0.0,0.0,0.0,0.0,0.0,0.0,0.0,0.0,0.0,-1.0316009234157095,-2.844126461449226,4.985604512258318,0.0,0.0,0.0,0.0,0.0,0.0,0.0,0.0,0.0
503731000000,83,503730000000,base_link,-0.152752948177589,-0.1551085561737052,0.6867599775593377,0.693519001792641,0.0,0.0,0.0,0.0,0.0,0.0,0.0,0.0,0.0,0.014131578362986248,0.015221217805275612,-0.0091369722344806,0.0,0.0,0.0,0.0,0.0,0.0,0.0,0.0,0.0,0.971066727396575,-5.330839297867378,8.742195686936029,0.0,0.0,0.0,0.0,0.0,0.0,0.0,0.0,0.0
503732000000,84,503731000000,base_link,-0.15274042530502807,-0.1551094698142172,0.6867533148785231,0.6935281532533135,0.0,0.0,0.0,0.0,0.0,0.0,0.0,0.0,0.0,0.016843755983647794,-0.013593232999425194,-0.025975026865735204,0.0,0.0,0.0,0.0,0.0,0.0,0.0,0.0,0.0,-1.039459143560994,-2.929144939245709,3.7626082802676253,0.0,0.0,0.0,0.0,0.0,0.0,0.0,0.0,0.0
503733000000,85,503732000000,base_link,-0.15274794823464302,-0.15511577075053723,0.6867488731705519,0.6935294854391924,0.0,0.0,0.0,0.0,0.0,0.0,0.0,0.0,0.0,-0.02005902281587508,0.0033652396537311967,-0.007585481886386513,0.0,0.0,0.0,0.0,0.0,0.0,0.0,0.0,0.0,1.4875179389774533,-5.604582083808331,18.202887379826684,0.0,0.0,0.0,0.0,0.0,0.0,0.0,0.0,0.0
503734000000,86,503733000000,base_link,-0.15275136612052856,-0.155142772063066,0.6867369629302961,0.6935344866480491,0.0,0.0,0.0,0.0,0.0,0.0,0.0,0.0,0.0,-0.043990181770037794,-0.027566067771409155,-0.030575036860381766,0.0,0.0,0.0,0.0,0.0,0.0,0.0,0.0,0.0,-1.5838052842901296,-3.8975676919760938,4.628935031780274,0.0,0.0,0.0,0.0,0.0,0.0,0.0,0.0,0.0
503735000000,87,503734000000,base_link,-0.15277711995757826,-0.1551293724688209,0.6867279489022742,0.6935407368074159,0.0,0.0,0.0,0.0,0.0,0.0,0.0,0.0,0.0,-0.018630636048480902,0.05530164072916739,-0.012145968115010723,0.0,0.0,0.0,0.0,0.0,0.0,0.0,0.0,0.0,3.1767147474364847,-10.573211723905297,16.692856756202822,0.0,0.0,0.0,0.0,0.0,0.0,0.0,0.0,0.0
503736000000,88,503735000000,base_link,-0.1528091034997619,-0.15512584491185985,0.6867173093027723,0.6935450145678658,0.0,0.0,0.0,0.0,0.0,0.0,0.0,0.0,0.0,-0.04151277588004841,0.05339918091084026,-0.009632273038065978,0.0,0.0,0.0,0.0,0.0,0.0,0.0,0.0,0.0,0.1582510268941999,-0.21220535895744108,0.15640159107648088,0.0,0.0,0.0,0.0,0.0,0.0,0.0,0.0,0.0
503737000000,89,503736000000,base_link,-0.1528510726442762,-0.1551544336149564,0.6867063138177208,0.6935402583008389,0.0,0.0,0.0,0.0,0.0,0.0,0.0,0.0,0.0,-0.1023351863536121,0.020020435057719395,-0.004250392612996927,0.0,0.0,0.0,0.0,0.0,0.0,0.0,0.0,0.0,0.5692103505622574,-22.060675915202836,27.854690246964527,0.0,0.0,0.0,0.0,0.0,0.0,0.0,0.0,0.0
503738000000,90,503738000000,base_link,-0.15289894833618564,-0.15522095018403212,0.6866794926653405,0.693541377694601,0.0,0.0,0.0,0.0,0.0,0.0,0.0,0.0,0.0,-0.16570796273518296,-0.017950413229479684,-0.04419568180886912,0.0,0.0,0.0,0.0,0.0,0.0,0.0,0.0,0.0,-2.674002563724684,-7.088011183107722,6.986019715927847,0.0,0.0,0.0,0.0,0.0,0.0,0.0,0.0,0.0
503741000000,91,503740000000,base_link,-0.15314278505277013,-0.15530981602439956,0.6866111229436531,0.6935353734906418,0.0,0.0,0.0,0.0,0.0,0.0,0.0,0.0,0.0,-0.20005060411440062,0.0904991130628701,-0.0023651033684698175,0.0,0.0,0.0,0.0,0.0,0.0,0.0,0.0,0.0,4.543881031074573,-9.03708861360003,11.551274599355608,0.0,0.0,0.0,0.0,0.0,0.0,0.0,0.0,0.0
503742000000,92,503741000000,base_link,-0.1531963659088784,-0.1553669381463114,0.6865827775356835,0.6935388075621575,0.0,0.0,0.0,0.0,0.0,0.0,0.0,0.0,0.0,-0.16227162578079524,0.005755535048001789,-0.04435202564879767,0.0,0.0,0.0,0.0,0.0,0.0,0.0,0.0,0.0,-1.9976941839755449,-6.798858413863186,9.807044645184476,0.0,0.0,0.0,0.0,0.0,0.0,0.0,0.0,0.0
503743000000,93,503742000000,base_link,-0.1531963659088784,-0.1553669381463114,0.6865827775356835,0.6935388075621575,0.0,0.0,0.0,0.0,0.0,0.0,0.0,0.0,0.0,-0.16227162578079524,0.005755535048001789,-0.04435202564879767,0.0,0.0,0.0,0.0,0.0,0.0,0.0,0.0,0.0,-1.9976941839755449,-6.798858413863186,9.807044645184476,0.0,0.0,0.0,0.0,0.0,0.0,0.0,0.0,0.0
503745000000,94,503744000000,base_link,-0.15345228158710417,-0.15552453530101282,0.6864920761531113,0.693536693747423,0.0,0.0,0.0,0.0,0.0,0.0,0.0,0.0,0.0,-0.1811019964277515,0.07044029431893704,-0.04155962517050643,0.0,0.0,0.0,0.0,0.0,0.0,0.0,0.0,0.0,2.4143668507422587,-9.67745146150705,14.560853622495774,0.0,0.0,0.0,0.0,0.0,0.0,0.0,0.0,0.0
503746000000,95,503745000000,base_link,-0.1535386405996417,-0.15556723595242086,0.6864587330707591,0.6935410072460215,0.0,0.0,0.0,0.0,0.0,0.0,0.0,0.0,0.0,-0.1874611090869583,0.07091547264954268,-0.03841480178426885,0.0,0.0,0.0,0.0,0.0,0.0,0.0,0.0,0.0,0.017017038249273475,-0.09091071589364663,-0.1454436401891659,0.0,0.0,0.0,0.0,0.0,0.0,0.0,0.0,0.0
503748000000,96,503746000000,base_link,-0.15359582855431828,-0.15561380084664836,0.6864253709660214,0.6935509184846718,0.0,0.0,0.0,0.0,0.0,0.0,0.0,0.0,0.0,-0.15057481517748394,0.027252457141233602,-0.05638431589525331,0.0,0.0,0.0,0.0,0.0,0.0,0.0,0.0,0.0,-2.1730203524173106,-4.097738035000099,6.401858436467932,0.0,0.0,0.0,0.0,0.0,0.0,0.0,0.0,0.0
503748000000,97,503747000000,base_link,-0.15368035160271024,-0.15565824805019685,0.6863957970628615,0.6935514898835198,0.0,0.0,0.0,0.0,0.0,0.0,0.0,0.0,0.0,-0.1872873549663928,0.06364809393305723,-0.02915611854071203,0.0,0.0,0.0,0.0,0.0,0.0,0.0,0.0,0.0,0.7555773174287861,-12.071576516833272,14.958463462200903,0.0,0.0,0.0,0.0,0.0,0.0,0.0,0.0,0.0
503749000000,98,503748000000,base_link,-0.15368035160271024,-0.15565824805019685,0.6863957970628615,0.6935514898835198,0.0,0.0,0.0,0.0,0.0,0.0,0.0,0.0,0.0,-0.1872873549663928,0.06364809393305723,-0.02915611854071203,0.0,0.0,0.0,0.0,0.0,0.0,0.0,0.0,0.0,0.7555773174287861,-12.071576516833272,14.958463462200903,0.0,0.0,0.0,0.0,0.0,0.0,0.0,0.0,0.0
503749000000,99,503749000000,base_link,-0.1537525694260002,-0.1557101338752121,0.686364134971501,0.6935551714379252,0.0,0.0,0.0,0.0,0.0,0.0,0.0,0.0,0.0,-0.18012701232532224,0.038046611343103554,-0.042437698081131695,0.0,0.0,0.0,0.0,0.0,0.0,0.0,0.0,0.0,-1.652657711849059,-3.4024132005530534,4.468515944137186,0.0,0.0,0.0,0.0,0.0,0.0,0.0,0.0,0.0
503752000000,100,503751000000,base_link,-0.1539859060946251,-0.15583885207298695,0.6862800545290518,0.6935576974299923,0.0,0.0,0.0,0.0,0.0,0.0,0.0,0.0,0.0,-0.17091206429888017,0.06369741824878142,-0.024237764041748423,0.0,0.0,0.0,0.0,0.0,0.0,0.0,0.0,0.0,1.6943730295697332,-8.73624151460616,11.982235786618496,0.0,0.0,0.0,0.0,0.0,0.0,0.0,0.0,0.0
503753000000,101,503752000000,base_link,-0.15405266556194924,-0.1558828559743622,0.6862520481136865,0.69356069518558,0.0,0.0,0.0,0.0,0.0,0.0,0.0,0.0,0.0,-0.16080658162447634,0.04015223385731962,-0.035707287628445966,0.0,0.0,0.0,0.0,0.0,0.0,0.0,0.0,0.0,-1.2702748617782886,-2.741365183598145,3.7486748500067435,0.0,0.0,0.0,0.0,0.0,0.0,0.0,0.0,0.0
503754000000,102,503753000000,base_link,-0.15412791896226516,-0.15591498579395738,0.686226229382198,0.6935622999479731,0.0,0.0,0.0,0.0,0.0,0.0,0.0,0.0,0.0,-0.1560369671537215,0.06717319253721321,-0.024455394959171217,0.0,0.0,0.0,0.0,0.0,0.0,0.0,0.0,0.0,1.927230533196113,-8.728508906833882,12.108858462785209,0.0,0.0,0.0,0.0,0.0,0.0,0.0,0.0,0.0
503755000000,103,503754000000,base_link,-0.15419069814164385,-0.15595287845807954,0.6861989162720467,0.6935668501408502,0.0,0.0,0.0,0.0,0.0,0.0,0.0,0.0,0.0,-0.1462025971170477,0.04343773023258933,-0.036235848329224274,0.0,0.0,0.0,0.0,0.0,0.0,0.0,0.0,0.0,-1.1998438693731532,-2.6918105758226014,3.6723180311016943,0.0,0.0,0.0,0.0,0.0,0.0,0.0,0.0,0.0
503756000000,104,503755000000,base_link,-0.15419069814164385,-0.15595287845807954,0.6861989162720467,0.6935668501408502,0.0,0.0,0.0,0.0,0.0,0.0,0.0,0.0,0.0,-0.1462025971170477,0.04343773023258933,-0.036235848329224274,0.0,0.0,0.0,0.0,0.0,0.0,0.0,0.0,0.0,-1.1998438693731532,-2.6918105758226014,3.6723180311016943,0.0,0.0,0.0,0.0,0.0,0.0,0.0,0.0,0.0
503756000000,105,503758000000,base_link,-0.1544339005982195,-0.1560575835017145,0.6860969364511985,0.6935900768969411,0.0,0.0,0.0,0.0,0.0,0.0,0.0,0.0,0.0,-0.11442311908036347,0.049927358870051966,-0.04148914703375049,0.0,0.0,0.0,0.0,0.0,0.0,0.0,0.0,0.0,0.24943493698357222,-5.57385094932409,7.700971465395323,0.0,0.0,0.0,0.0,0.0,0.0,0.0,0.0,0.0
503761000000,106,503760000000,base_link,-0.1544923742687904,-0.15607664302704355,0.6860730928948943,0.6935963516338842,0.0,0.0,0.0,0.0,0.0,0.0,0.0,0.0,0.0,-0.11276925554701357,0.0631213278616967,-0.029322507685007874,0.0,0.0,0.0,0.0,0.0,0.0,0.0,0.0,0.0,0.7148100747152004,-7.560402030225036,10.20136842251866,0.0,0.0,0.0,0.0,0.0,0.0,0.0,0.0,0.0
503765000000,107,503762000000,base_link,-0.15458875919540663,-0.15610081392960576,0.6860229634774255,0.6936190200698003,0.0,0.0,0.0,0.0,0.0,0.0,0.0,0.0,0.0,-0.07369528869561373,0.08161480654268925,-0.03802773403349741,0.0,0.0,0.0,0.0,0.0,0.0,0.0,0.0,0.0,-0.013813124046399894,-4.992080506760759,7.367252751553796,0.0,0.0,0.0,0.0,0.0,0.0,0.0,0.0,0.0
503765000000,108,503764000000,base_link,-0.1546753821561266,-0.1561180020179368,0.6859722204509469,0.6936460252682064,0.0,0.0,0.0,0.0,0.0,0.0,0.0,0.0,0.0,-0.08013601089992653,0.06697885446378354,-0.03160117642051765,0.0,0.0,0.0,0.0,0.0,0.0,0.0,0.0,0.0,-0.058134984876785256,-6.141277676308381,7.921553179373459,0.0,0.0,0.0,0.0,0.0,0.0,0.0,0.0,0.0
503767000000,109,503766000000,base_link,-0.1547859237659975,-0.15609835866946836,0.6858989082512974,0.6936982830339737,0.0,0.0,0.0,0.0,0.0,0.0,0.0,0.0,0.0,-0.036354711337674595,0.08667506837998921,-0.043570280839978194,0.0,0.0,0.0,0.0,0.0,0.0,0.0,0.0,0.0,0.057807252741559845,-0.09688209310020302,-0.31226050503060954,0.0,0.0,0.0,0.0,0.0,0.0,0.0,0.0,0.0
503768000000,110,503767000000,base_link,-0.1547915880499874,-0.15609059622651061,0.6858731462171271,0.6937242372418849,0.0,0.0,0.0,0.0,0.0,0.0,0.0,0.0,0.0,0.0027882496373341815,0.034621134132209457,-0.0671698901700434,0.0,0.0,0.0,0.0,0.0,0.0,0.0,0.0,0.0,-1.909559942205355,-4.383721311445386,6.746729644084965,0.0,0.0,0.0,0.0,0.0,0.0,0.0,0.0,0.0
503769000000,111,503768000000,base_link,-0.1547915880499874,-0.15609059622651061,0.6858731462171271,0.6937242372418849,0.0,0.0,0.0,0.0,0.0,0.0,0.0,0.0,0.0,0.0027882496373341815,0.034621134132209457,-0.0671698901700434,0.0,0.0,0.0,0.0,0.0,0.0,0.0,0.0,0.0,-1.909559942205355,-4.383721311445386,6.746729644084965,0.0,0.0,0.0,0.0,0.0,0.0,0.0,0.0,0.0
503771000000,112,503770000000,base_link,-0.15484796892222355,-0.15607999259568434,0.6858273625953994,0.6937593034672991,0.0,0.0,0.0,0.0,0.0,0.0,0.0,0.0,0.0,-0.029757780862148985,0.045495012745333505,-0.052225430667741116,0.0,0.0,0.0,0.0,0.0,0.0,0.0,0.0,0.0,-0.1651796759266304,-7.793871447045012,9.629800435948352,0.0,0.0,0.0,0.0,0.0,0.0,0.0,0.0,0.0
503773000000,113,503772000000,base_link,-0.15493248531919204,-0.15604577060568686,0.6857675846568216,0.6938072227231744,0.0,0.0,0.0,0.0,0.0,0.0,0.0,0.0,0.0,-0.020486033317230038,0.07400541498600159,-0.031440252074671673,0.0,0.0,0.0,0.0,0.0,0.0,0.0,0.0,0.0,2.0064175096388177,-9.002343563865438,12.202939808458856,0.0,0.0,0.0,0.0,0.0,0.0,0.0,0.0,0.0
503774000000,114,503773000000,base_link,-0.15493248531919204,-0.15604577060568686,0.6857675846568216,0.6938072227231744,0.0,0.0,0.0,0.0,0.0,0.0,0.0,0.0,0.0,-0.020486033317230038,0.07400541498600159,-0.031440252074671673,0.0,0.0,0.0,0.0,0.0,0.0,0.0,0.0,0.0,2.0064175096388177,-9.002343563865438,12.202939808458856,0.0,0.0,0.0,0.0,0.0,0.0,0.0,0.0,0.0
503776000000,115,503775000000,base_link,-0.1549894531478484,-0.1559953249964359,0.6857125222069971,0.6938602632235872,0.0,0.0,0.0,0.0,0.0,0.0,0.0,0.0,0.0,0.0048150431924641746,0.05385613396024609,-0.04228102020541597,0.0,0.0,0.0,0.0,0.0,0.0,0.0,0.0,0.0,-1.0292579396009223,-2.563989461943049,3.491002531277779,0.0,0.0,0.0,0.0,0.0,0.0,0.0,0.0,0.0
503777000000,116,503776000000,base_link,-0.15501090930517802,-0.15596853681850428,0.6856974354283359,0.6938764015053975,0.0,0.0,0.0,0.0,0.0,0.0,0.0,0.0,0.0,0.0072603427855722005,0.07631196998976958,-0.02807202904096184,0.0,0.0,0.0,0.0,0.0,0.0,0.0,0.0,0.0,1.7677893891379994,-8.591999284047052,11.63416959925323,0.0,0.0,0.0,0.0,0.0,0.0,0.0,0.0,0.0
503777000000,117,503777000000,base_link,-0.1550195159671776,-0.15594719799848422,0.6856810104008864,0.6938955058806358,0.0,0.0,0.0,0.0,0.0,0.0,0.0,0.0,0.0,0.018119494851342993,0.05246742808987783,-0.03969332336874594,0.0,0.0,0.0,0.0,0.0,0.0,0.0,0.0,0.0,-1.124124333966923,-2.627709835325552,3.577240786342805,0.0,0.0,0.0,0.0,0.0,0.0,0.0,0.0,0.0
503779000000,118,503778000000,base_link,-0.1550195159671776,-0.15594719799848422,0.6856810104008864,0.6938955058806358,0.0,0.0,0.0,0.0,0.0,0.0,0.0,0.0,0.0,0.018119494851342993,0.05246742808987783,-0.03969332336874594,0.0,0.0,0.0,0.0,0.0,0.0,0.0,0.0,0.0,-1.124124333966923,-2.627709835325552,3.577240786342805,0.0,0.0,0.0,0.0,0.0,0.0,0.0,0.0,0.0
503780000000,119,503779000000,base_link,-0.15503550008757228,-0.15587718175050305,0.6856468532375595,0.6939414172446762,0.0,0.0,0.0,0.0,0.0,0.0,0.0,0.0,0.0,0.037748633663275084,0.06203039107182051,-0.04790141753334976,0.0,0.0,0.0,0.0,0.0,0.0,0.0,0.0,0.0,-1.2974026554721556,-2.83641050179732,3.33687358615399,0.0,0.0,0.0,0.0,0.0,0.0,0.0,0.0,0.0
503781000000,120,503780000000,base_link,-0.15504423083747806,-0.15584075192992905,0.6856321705530355,0.6939621554700679,0.0,0.0,0.0,0.0,0.0,0.0,0.0,0.0,0.0,0.03969278965653864,0.07355071744250524,-0.034798674782468474,0.0,0.0,0.0,0.0,0.0,0.0,0.0,0.0,0.0,0.5378809662518944,-7.388952394116416,9.833977408636471,0.0,0.0,0.0,0.0,0.0,0.0,0.0,0.0,0.0
503782000000,121,503781000000,base_link,-0.1550403806573913,-0.1558093823212751,0.6856165631807452,0.6939854789824477,0.0,0.0,0.0,0.0,0.0,0.0,0.0,0.0,0.0,0.05072797439266098,0.05036793198996959,-0.04511728914060106,0.0,0.0,0.0,0.0,0.0,0.0,0.0,0.0,0.0,-1.581729127492519,-3.062509231758966,4.096164665189301,0.0,0.0,0.0,0.0,0.0,0.0,0.0,0.0,0.0
503783000000,122,503782000000,base_link,-0.15495536019254966,-0.1557597608773098,0.6856228358570096,0.6940094092953152,0.0,0.0,0.0,0.0,0.0,0.0,0.0,0.0,0.0,0.19547411120872749,-0.042273460326777035,-0.03515551676401821,0.0,0.0,0.0,0.0,0.0,0.0,0.0,0.0,0.0,-4.468992129610139,-8.509308118976483,18.14612657491866,0.0,0.0,0.0,0.0,0.0,0.0,0.0,0.0,0.0
503784000000,123,503783000000,base_link,-0.15488862066625694,-0.1557084301887976,0.6856295948006368,0.6940291482998097,0.0,0.0,0.0,0.0,0.0,0.0,0.0,0.0,0.0,0.17124540694937956,-0.01621362754448266,-0.022567978101028847,0.0,0.0,0.0,0.0,0.0,0.0,0.0,0.0,0.0,-0.8525076687365487,-0.902265133454045,0.3524332369642007,0.0,0.0,0.0,0.0,0.0,0.0,0.0,0.0,0.0
503785000000,124,503784000000,base_link,-0.1548215796383199,-0.15565695266392343,0.6856364420464561,0.6940488894188602,0.0,0.0,0.0,0.0,0.0,0.0,0.0,0.0,0.0,0.17189358192933119,-0.016450223816844328,-0.022496955418609996,0.0,0.0,0.0,0.0,0.0,0.0,0.0,0.0,0.0,0.010853805867873545,0.03211257965933356,0.005905750181856462,0.0,0.0,0.0,0.0,0.0,0.0,0.0,0.0,0.0
503786000000,125,503785000000,base_link,-0.15476904628352403,-0.1556025676091942,0.6856396967765251,0.6940695854668387,0.0,0.0,0.0,0.0,0.0,0.0,0.0,0.0,0.0,0.15492889226552897,0.00888816759987171,-0.02338662595211548,0.0,0.0,0.0,0.0,0.0,0.0,0.0,0.0,0.0,-1.309304712203567,-14.399968217623837,19.819992118126276,0.0,0.0,0.0,0.0,0.0,0.0,0.0,0.0,0.0
503787000000,126,503786000000,base_link,-0.1547202727447535,-0.15555159720619977,0.6856424993319492,0.694089115977356,0.0,0.0,0.0,0.0,0.0,0.0,0.0,0.0,0.0,0.1445167299796103,0.00908236181861144,-0.0222927441228567,0.0,0.0,0.0,0.0,0.0,0.0,0.0,0.0,0.0,-0.05956370635224706,-0.5098785006258115,0.24703280482278345,0.0,0.0,0.0,0.0,0.0,0.0,0.0,0.0,0.0
503788000000,127,503787000000,base_link,-0.1546409083817017,-0.1555022224604772,0.6856533687354962,0.6941071287678869,0.0,0.0,0.0,0.0,0.0,0.0,0.0,0.0,0.0,0.186927123107072,-0.038083002773022914,-0.019036284438352723,0.0,0.0,0.0,0.0,0.0,0.0,0.0,0.0,0.0,-2.858517012357419,-9.846058176785103,15.831109898733896,0.0,0.0,0.0,0.0,0.0,0.0,0.0,0.0,0.0
503789000000,128,503788000000,base_link,-0.1545678340515432,-0.15545701510719165,0.6856635569408193,0.6941234672692179,0.0,0.0,0.0,0.0,0.0,0.0,0.0,0.0,0.0,0.1716577543112652,-0.035519509158365936,-0.017006314266783593,0.0,0.0,0.0,0.0,0.0,0.0,0.0,0.0,0.0,-0.15190121756730313,-0.5566797858645831,0.13061490090102446,0.0,0.0,0.0,0.0,0.0,0.0,0.0,0.0,0.0
503789000000,129,503789000000,base_link,-0.1545678340515432,-0.15545701510719165,0.6856635569408193,0.6941234672692179,0.0,0.0,0.0,0.0,0.0,0.0,0.0,0.0,0.0,0.1716577543112652,-0.035519509158365936,-0.017006314266783593,0.0,0.0,0.0,0.0,0.0,0.0,0.0,0.0,0.0,-0.15190121756730313,-0.5566797858645831,0.13061490090102446,0.0,0.0,0.0,0.0,0.0,0.0,0.0,0.0,0.0
503792000000,130,503791000000,base_link,-0.15445586439174863,-0.15533758751374213,0.6856762722640776,0.694162567065127,0.0,0.0,0.0,0.0,0.0,0.0,0.0,0.0,0.0,0.16197900786121538,0.010111012488298113,-0.01674176158538269,0.0,0.0,0.0,0.0,0.0,0.0,0.0,0.0,0.0,0.2037521486421766,-6.015091998764155,8.312369405709461,0.0,0.0,0.0,0.0,0.0,0.0,0.0,0.0,0.0
503794000000,131,503793000000,base_link,-0.15429246823266413,-0.15523218851176018,0.6857040973442269,0.6941949962235832,0.0,0.0,0.0,0.0,0.0,0.0,0.0,0.0,0.0,0.18900363167257067,-0.037106626914882535,-0.011718738030511367,0.0,0.0,0.0,0.0,0.0,0.0,0.0,0.0,0.0,-1.1923136602228868,-5.5545954088384955,8.471590891046986,0.0,0.0,0.0,0.0,0.0,0.0,0.0,0.0,0.0
503795000000,132,503794000000,base_link,-0.15423309836642402,-0.15514524149330672,0.6857268539504879,0.6942051477635719,0.0,0.0,0.0,0.0,0.0,0.0,0.0,0.0,0.0,0.2118832133891222,0.035421702817777304,0.026062510499420755,0.0,0.0,0.0,0.0,0.0,0.0,0.0,0.0,0.0,2.3858376262068406,-5.763351998363168,8.991038092611632,0.0,0.0,0.0,0.0,0.0,0.0,0.0,0.0,0.0
503797000000,133,503796000000,base_link,-0.15398065751994688,-0.15496814564690337,0.6857882515703561,0.6942400917208391,0.0,0.0,0.0,0.0,0.0,0.0,0.0,0.0,0.0,0.2079457075510744,-0.061441141586587075,4.9241960878437796e-05,0.0,0.0,0.0,0.0,0.0,0.0,0.0,0.0,0.0,-2.8818627019708662,-6.317817388749201,9.96864856376572,0.0,0.0,0.0,0.0,0.0,0.0,0.0,0.0,0.0
503798000000,134,503797000000,base_link,-0.15390509112356945,-0.1548863209140071,0.6858158876311718,0.6942478079134545,0.0,0.0,0.0,0.0,0.0,0.0,0.0,0.0,0.0,0.22805655861720348,0.0038498587458686284,0.029581403301689055,0.0,0.0,0.0,0.0,0.0,0.0,0.0,0.0,0.0,3.0361397962970904,-6.097173760152117,9.300662668754816,0.0,0.0,0.0,0.0,0.0,0.0,0.0,0.0,0.0
503799000000,135,503798000000,base_link,-0.1538313605405686,-0.15480689238462192,0.6858437137100148,0.6942543762547765,0.0,0.0,0.0,0.0,0.0,0.0,0.0,0.0,0.0,0.22196284770464858,0.002624496430605708,0.031236235633431107,0.0,0.0,0.0,0.0,0.0,0.0,0.0,0.0,0.0,0.07879854117877438,-0.14815325443556393,-0.07272183258173825,0.0,0.0,0.0,0.0,0.0,0.0,0.0,0.0,0.0
503800000000,136,503799000000,base_link,-0.15374638557124531,-0.15474235815089493,0.6858657438988601,0.6942658229120466,0.0,0.0,0.0,0.0,0.0,0.0,0.0,0.0,0.0,0.2168443418233521,-0.030187465967364713,0.008429631757659314,0.0,0.0,0.0,0.0,0.0,0.0,0.0,0.0,0.0,-0.8292421509902212,-12.504104202074936,17.541894753546444,0.0,0.0,0.0,0.0,0.0,0.0,0.0,0.0,0.0
503801000000,137,503800000000,base_link,-0.15366464699965504,-0.15468106330584236,0.6858871280816977,0.6942764524660807,0.0,0.0,0.0,0.0,0.0,0.0,0.0,0.0,0.0,0.20746325226257584,-0.030299337628122078,0.0086626037905691,0.0,0.0,0.0,0.0,0.0,0.0,0.0,0.0,0.0,-0.02100124386704061,-0.3412965693432928,0.06900365852122192,0.0,0.0,0.0,0.0,0.0,0.0,0.0,0.0,0.0
503802000000,138,503801000000,base_link,-0.15358396912336922,-0.15459943824745326,0.6859020269992268,0.6942977657174448,0.0,0.0,0.0,0.0,0.0,0.0,0.0,0.0,0.0,0.23517280409303354,0.00468095512576501,-0.008403702717670353,0.0,0.0,0.0,0.0,0.0,0.0,0.0,0.0,0.0,1.3062073949006887,-11.148942548318313,16.794889300233507,0.0,0.0,0.0,0.0,0.0,0.0,0.0,0.0,0.0
503803000000,139,503802000000,base_link,-0.1535062177475693,-0.15452119714588905,0.6859162157602536,0.6943183604821137,0.0,0.0,0.0,0.0,0.0,0.0,0.0,0.0,0.0,0.22600987512973403,0.003995137132255813,-0.008557011749601565,0.0,0.0,0.0,0.0,0.0,0.0,0.0,0.0,0.0,0.04425253308927324,-0.376410380048374,0.13231683168276298,0.0,0.0,0.0,0.0,0.0,0.0,0.0,0.0,0.0
503804000000,140,503803000000,base_link,-0.1535062177475693,-0.15452119714588905,0.6859162157602536,0.6943183604821137,0.0,0.0,0.0,0.0,0.0,0.0,0.0,0.0,0.0,0.22600987512973403,0.003995137132255813,-0.008557011749601565,0.0,0.0,0.0,0.0,0.0,0.0,0.0,0.0,0.0,0.04425253308927324,-0.376410380048374,0.13231683168276298,0.0,0.0,0.0,0.0,0.0,0.0,0.0,0.0,0.0
503805000000,141,503804000000,base_link,-0.15330804007211923,-0.15437233350840526,0.685960696003581,0.6943513167228085,0.0,0.0,0.0,0.0,0.0,0.0,0.0,0.0,0.0,0.24830799976626838,-0.03390675649657937,-0.00046224648373577315,0.0,0.0,0.0,0.0,0.0,0.0,0.0,0.0,0.0,-0.04397733622106448,-0.2273761199472082,0.05272197030913439,0.0,0.0,0.0,0.0,0.0,0.0,0.0,0.0,0.0
503806000000,142,503805000000,base_link,-0.15321709302064693,-0.15427947431369934,0.6859775956046628,0.6943753340522955,0.0,0.0,0.0,0.0,0.0,0.0,0.0,0.0,0.0,0.26628890639087466,0.006413300540974151,-0.00907790734698172,0.0,0.0,0.0,0.0,0.0,0.0,0.0,0.0,0.0,1.496851306333609,-10.682594094884763,15.692786471657506,0.0,0.0,0.0,0.0,0.0,0.0,0.0,0.0,0.0
503806000000,143,503806000000,base_link,-0.1531279203108653,-0.15418858741471725,0.6859946806764217,0.6943983133735119,0.0,0.0,0.0,0.0,0.0,0.0,0.0,0.0,0.0,0.26084481675059334,0.005733304769890535,-0.007463878942247936,0.0,0.0,0.0,0.0,0.0,0.0,0.0,0.0,0.0,0.05245169892671386,-0.2730910043110901,0.15193882503334244,0.0,0.0,0.0,0.0,0.0,0.0,0.0,0.0,0.0
503808000000,144,503807000000,base_link,-0.1531279203108653,-0.15418858741471725,0.6859946806764217,0.6943983133735119,0.0,0.0,0.0,0.0,0.0,0.0,0.0,0.0,0.0,0.26084481675059334,0.005733304769890535,-0.007463878942247936,0.0,0.0,0.0,0.0,0.0,0.0,0.0,0.0,0.0,0.05245169892671386,-0.2730910043110901,0.15193882503334244,0.0,0.0,0.0,0.0,0.0,0.0,0.0,0.0,0.0
503809000000,145,503808000000,base_link,-0.1529016111282938,-0.1540208562173665,0.6860415609180482,0.6944390900990304,0.0,0.0,0.0,0.0,0.0,0.0,0.0,0.0,0.0,0.2828712929998053,-0.039392372196142666,-0.005512238925637968,0.0,0.0,0.0,0.0,0.0,0.0,0.0,0.0,0.0,-0.06738851211754449,-0.2674775807297083,0.13358723331010935,0.0,0.0,0.0,0.0,0.0,0.0,0.0,0.0,0.0
503810000000,146,503809000000,base_link,-0.1529016111282938,-0.1540208562173665,0.6860415609180482,0.6944390900990304,0.0,0.0,0.0,0.0,0.0,0.0,0.0,0.0,0.0,0.2828712929998053,-0.039392372196142666,-0.005512238925637968,0.0,0.0,0.0,0.0,0.0,0.0,0.0,0.0,0.0,-0.06738851211754449,-0.2674775807297083,0.13358723331010935,0.0,0.0,0.0,0.0,0.0,0.0,0.0,0.0,0.0
503811000000,147,503810000000,base_link,-0.1527012002362251,-0.15380842017022225,0.6860853784597001,0.6944869810118594,0.0,0.0,0.0,0.0,0.0,0.0,0.0,0.0,0.0,0.2959592530272887,0.009978721326579898,-0.00017398067217973961,0.0,0.0,0.0,0.0,0.0,0.0,0.0,0.0,0.0,0.09457117389451264,-0.31077916720000953,0.17163390616716967,0.0,0.0,0.0,0.0,0.0,0.0,0.0,0.0,0.0
503812000000,148,503811000000,base_link,-0.1525729223129824,-0.1537134174820194,0.6861127358105656,0.6945091809482549,0.0,0.0,0.0,0.0,0.0,0.0,0.0,0.0,0.0,0.32374213406749724,-0.04558749532486642,-0.0029180017727697717,0.0,0.0,0.0,0.0,0.0,0.0,0.0,0.0,0.0,-2.1494594344579645,-10.161537660900299,15.476769363387838,0.0,0.0,0.0,0.0,0.0,0.0,0.0,0.0,0.0
503813000000,149,503812000000,base_link,-0.152446855131737,-0.1536204979744669,0.6861388700165642,0.6945316047631758,0.0,0.0,0.0,0.0,0.0,0.0,0.0,0.0,0.0,0.31749303891634684,-0.04500675756432815,-0.004872070971224128,0.0,0.0,0.0,0.0,0.0,0.0,0.0,0.0,0.0,-0.0737676025514723,-0.2985437948669478,0.14668997742406376,0.0,0.0,0.0,0.0,0.0,0.0,0.0,0.0,0.0
503814000000,150,503813000000,base_link,-0.152446855131737,-0.1536204979744669,0.6861388700165642,0.6945316047631758,0.0,0.0,0.0,0.0,0.0,0.0,0.0,0.0,0.0,0.31749303891634684,-0.04500675756432815,-0.004872070971224128,0.0,0.0,0.0,0.0,0.0,0.0,0.0,0.0,0.0,-0.0737676025514723,-0.2985437948669478,0.14668997742406376,0.0,0.0,0.0,0.0,0.0,0.0,0.0,0.0,0.0
503815000000,151,503814000000,base_link,-0.1523412874483334,-0.15348685823015806,0.6861753080483776,0.6945483158959741,0.0,0.0,0.0,0.0,0.0,0.0,0.0,0.0,0.0,0.34632399737135044,0.0347887513258818,0.0359915235108437,0.0,0.0,0.0,0.0,0.0,0.0,0.0,0.0,0.0,2.738782316995916,-6.453973549765611,10.055001896553645,0.0,0.0,0.0,0.0,0.0,0.0,0.0,0.0,0.0
503816000000,152,503815000000,base_link,-0.15238087579271356,-0.15337024082455555,0.6861762535542962,0.6945644584775796,0.0,0.0,0.0,0.0,0.0,0.0,0.0,0.0,0.0,0.11324268569402926,0.05845305992300283,0.012835582126219375,0.0,0.0,0.0,0.0,0.0,0.0,0.0,0.0,0.0,0.18402117229806247,0.15861692722031684,0.09922337319564178,0.0,0.0,0.0,0.0,0.0,0.0,0.0,0.0,0.0
503817000000,153,503816000000,base_link,-0.1523626035036719,-0.1533099990361884,0.6861849390345742,0.6945731859863471,0.0,0.0,0.0,0.0,0.0,0.0,0.0,0.0,0.0,0.11337953388110658,0.05863766673368574,0.012842575500379408,0.0,0.0,0.0,0.0,0.0,0.0,0.0,0.0,0.0,-0.01796919485604187,0.013642988909023046,-0.012902626113481475,0.0,0.0,0.0,0.0,0.0,0.0,0.0,0.0,0.0
503818000000,154,503817000000,base_link,-0.1523467973266841,-0.1532736249036645,0.6861898994860381,0.69457978022437,0.0,0.0,0.0,0.0,0.0,0.0,0.0,0.0,0.0,0.07540682681570325,0.029347926017658874,0.004078932121178996,0.0,0.0,0.0,0.0,0.0,0.0,0.0,0.0,0.0,2.214122327366365,-0.4786780816562226,21.563430148114392,0.0,0.0,0.0,0.0,0.0,0.0,0.0,0.0,0.0
503819000000,155,503818000000,base_link,-0.1523308469066877,-0.1532373627852853,0.6861947724649274,0.6945864654376074,0.0,0.0,0.0,0.0,0.0,0.0,0.0,0.0,0.0,0.07545381715381537,0.029048402542041905,0.0037539714316471053,0.0,0.0,0.0,0.0,0.0,0.0,0.0,0.0,0.0,0.022881421953774073,0.014675887001266652,0.033701723192283595,0.0,0.0,0.0,0.0,0.0,0.0,0.0,0.0,0.0
503821000000,156,503819000000,base_link,-0.15231297268904093,-0.15321298730477942,0.6861989103045134,0.6945916745604365,0.0,0.0,0.0,0.0,0.0,0.0,0.0,0.0,0.0,0.06113850177020029,0.009667688036969026,0.0005471948269604428,0.0,0.0,0.0,0.0,0.0,0.0,0.0,0.0,0.0,-0.8973908198379443,-2.2658834932999885,14.34888719221803,0.0,0.0,0.0,0.0,0.0,0.0,0.0,0.0,0.0
503821000000,157,503821000000,base_link,-0.15229522070522453,-0.15318866192372801,0.6862029726817112,0.6945969190049344,0.0,0.0,0.0,0.0,0.0,0.0,0.0,0.0,0.0,0.060887272056152054,0.009799158943365957,0.0004163958192506083,0.0,0.0,0.0,0.0,0.0,0.0,0.0,0.0,0.0,-0.04714972801531614,-0.04784257637652001,0.02022307251843891,0.0,0.0,0.0,0.0,0.0,0.0,0.0,0.0,0.0
503823000000,158,503822000000,base_link,-0.15226420241253916,-0.1531595330332394,0.6862081608327996,0.6946050173380409,0.0,0.0,0.0,0.0,0.0,0.0,0.0,0.0,0.0,0.03889703816895567,0.0017722632819864338,-0.002208864122428729,0.0,0.0,0.0,0.0,0.0,0.0,0.0,0.0,0.0,-0.20298971759923323,-0.1890451024966815,0.1558421552403466,0.0,0.0,0.0,0.0,0.0,0.0,0.0,0.0,0.0
503824000000,159,503823000000,base_link,-0.15226420241253916,-0.1531595330332394,0.6862081608327996,0.6946050173380409,0.0,0.0,0.0,0.0,0.0,0.0,0.0,0.0,0.0,0.03889703816895567,0.0017722632819864338,-0.002208864122428729,0.0,0.0,0.0,0.0,0.0,0.0,0.0,0.0,0.0,-0.20298971759923323,-0.1890451024966815,0.1558421552403466,0.0,0.0,0.0,0.0,0.0,0.0,0.0,0.0,0.0
503826000000,160,503825000000,base_link,-0.15225909044512365,-0.1531561512134506,0.6862021894013116,0.694612782766883,0.0,0.0,0.0,0.0,0.0,0.0,0.0,0.0,0.0,-0.04684663417746369,0.027638196750129837,-0.007368509293728131,0.0,0.0,0.0,0.0,0.0,0.0,0.0,0.0,0.0,-0.5382624120787185,-0.9599492838318717,5.520251947415826,0.0,0.0,0.0,0.0,0.0,0.0,0.0,0.0,0.0
503828000000,161,503827000000,base_link,-0.15214947544976543,-0.15317428079407389,0.6862065292606158,0.6946285165638386,0.0,0.0,0.0,0.0,0.0,0.0,0.0,0.0,0.0,0.060897475578277266,-0.07696690215551451,-0.017205935446082916,0.0,0.0,0.0,0.0,0.0,0.0,0.0,0.0,0.0,-3.8015252119411818,-4.917609025794962,11.75957241811711,0.0,0.0,0.0,0.0,0.0,0.0,0.0,0.0,0.0
503829000000,162,503828000000,base_link,-0.15219156982279697,-0.1532086969418757,0.6861932664357735,0.6946248068953836,0.0,0.0,0.0,0.0,0.0,0.0,0.0,0.0,0.0,-0.0741254950150381,-0.01249457423981563,-0.008507382861021592,0.0,0.0,0.0,0.0,0.0,0.0,0.0,0.0,0.0,0.9831684457154248,0.8084301316452107,6.651392044576094,0.0,0.0,0.0,0.0,0.0,0.0,0.0,0.0,0.0
503830000000,163,503829000000,base_link,-0.15211965166093122,-0.15322310910564543,0.6862027919304239,0.6946279714793006,0.0,0.0,0.0,0.0,0.0,0.0,0.0,0.0,0.0,0.041403791246438774,-0.09077501814412975,-0.014459401350570758,0.0,0.0,0.0,0.0,0.0,0.0,0.0,0.0,0.0,-4.044113043375214,-5.039539531051721,11.708259099234223,0.0,0.0,0.0,0.0,0.0,0.0,0.0,0.0,0.0
503831000000,164,503830000000,base_link,-0.15215745267683567,-0.15326754095081005,0.6861918071043586,0.6946207413752077,0.0,0.0,0.0,0.0,0.0,0.0,0.0,0.0,0.0,-0.08913305874289984,-0.029352708619416825,-0.005334878805754258,0.0,0.0,0.0,0.0,0.0,0.0,0.0,0.0,0.0,0.9232682604086362,0.6974182879264275,6.331788851170426,0.0,0.0,0.0,0.0,0.0,0.0,0.0,0.0,0.0
503832000000,165,503831000000,base_link,-0.15208997188604986,-0.15329363752094205,0.6862016259469783,0.6946200613968919,0.0,0.0,0.0,0.0,0.0,0.0,0.0,0.0,0.0,0.022979070252408175,-0.10557765937881222,-0.011299164967911064,0.0,0.0,0.0,0.0,0.0,0.0,0.0,0.0,0.0,-4.176806437852297,-5.156232740524832,11.717513629800735,0.0,0.0,0.0,0.0,0.0,0.0,0.0,0.0,0.0
503833000000,166,503832000000,base_link,-0.15212526942957033,-0.15334833111070406,0.6861924157294625,0.6946093580869086,0.0,0.0,0.0,0.0,0.0,0.0,0.0,0.0,0.0,-0.10459870939824358,-0.045656685989878876,-0.0022801755674611585,0.0,0.0,0.0,0.0,0.0,0.0,0.0,0.0,0.0,0.8706470654300869,0.6394128351614317,6.1447057370326785,0.0,0.0,0.0,0.0,0.0,0.0,0.0,0.0,0.0
503834000000,167,503833000000,base_link,-0.15206064199118444,-0.15338601939804214,0.686202628737777,0.6946050982564241,0.0,0.0,0.0,0.0,0.0,0.0,0.0,0.0,0.0,0.005102317324535054,-0.12099881889044978,-0.008655333320543001,0.0,0.0,0.0,0.0,0.0,0.0,0.0,0.0,0.0,-4.240663536611121,-5.2457261920094105,11.730639360407757,0.0,0.0,0.0,0.0,0.0,0.0,0.0,0.0,0.0
503835000000,168,503834000000,base_link,-0.15209457196249365,-0.1534513193056065,0.6861946574859995,0.6945911213228878,0.0,0.0,0.0,0.0,0.0,0.0,0.0,0.0,0.0,-0.12054148167754186,-0.06184760981761231,0.00013693572814161073,0.0,0.0,0.0,0.0,0.0,0.0,0.0,0.0,0.0,0.833803751146039,0.6093912169459355,6.035999834383553,0.0,0.0,0.0,0.0,0.0,0.0,0.0,0.0,0.0
