%time,field.header.seq,field.header.stamp,field.header.frame_id,field.wrench.force.x,field.wrench.force.y,field.wrench.force.z,field.wrench.torque.x,field.wrench.torque.y,field.wrench.torque.z
503636000000,0,503630000000,FR_wheel_link,-0.10653328520674155,-7.012792257632338,15.01134620358355,-0.37251017785930773,-0.00025236741295184273,0.0029553972502377873
503636000000,1,503631000000,FR_wheel_link,-1.838339479907087,-4.57398202077636,6.081643309494644,-0.3175570802411762,0.18139596912357875,0.04919954187672666
503636000000,2,503632000000,FR_wheel_link,-2.7426283810514263,-6.180732276549068,12.807013986812741,-0.31185726836213823,0.293743190313225,0.07362421052018417
503636000000,3,503633000000,FR_wheel_link,1.1244203789397138,-3.024516607763484,1.4937822790584185,-0.2701972880286002,-0.10445247627526251,-0.02871784952128662
503636000000,4,503634000000,FR_wheel_link,0.05297947985513356,0.022982768087996645,0.042510004120206,-0.0012274020961045113,-0.005407608339538797,-0.001646926286272441
503636000000,5,503635000000,FR_wheel_link,-1.6935803790392607,-12.282407436421886,31.587983707820015,-0.45512212552805287,0.1557431590141753,0.04324921812626028
503636000000,6,503636000000,FR_wheel_link,-0.08681518030675518,-0.2820591491902942,0.15442419324096182,-0.027454607974250145,0.011696899810774763,0.0024713639169487147
503637000000,7,503637000000,FR_wheel_link,0.3353700924982419,0.048603098317099774,-0.1470343311901684,-0.002089966683899851,-0.012743253850789305,-0.013049169620453263
503638000000,8,503638000000,FR_wheel_link,-2.165659457793748,-12.644621224905007,19.975180257368166,-0.8362279628314818,0.19737559399151655,0.058608507608286134
503639000000,9,503639000000,FR_wheel_link,1.0208494641912464,-1.8447055871337796,0.7160272989424895,-0.16257477346637275,-0.08870061829964808,-0.027127352054856283
503640000000,10,503640000000,FR_wheel_link,-1.5697755280686492,-8.556909799771233,7.431190502846777,-0.7301290558510419,0.12490919105954801,0.04374400532520882
503641000000,11,503641000000,FR_wheel_link,-0.35523663517931636,-9.465103894670088,13.065783306612008,-0.6619081118685992,0.04820511722917503,0.008476974984431354
503642000000,12,503642000000,FR_wheel_link,-2.495055877338315,-6.9557444900964125,9.254505675717084,-0.4905301886275888,0.24992918990850826,0.06681520817490398
503643000000,13,503643000000,FR_wheel_link,-1.0170221308895302,-7.8878039903418955,5.876500508786275,-0.6844420408147295,0.10669837323248887,0.028443350063033487
503644000000,14,503644000000,FR_wheel_link,-3.4351883858959265,-7.939245685594221,7.389757819704927,-0.6455892885191823,0.33889677894206466,0.09384832043610088
503645000000,15,503645000000,FR_wheel_link,-1.2004779430404506,-7.631374466378322,12.531647752818431,-0.4751688383840501,0.1436540383269581,0.027309896646758078
503646000000,16,503646000000,FR_wheel_link,-1.9224581863128638,-5.583944262946834,10.239063077144204,-0.31866009453432537,0.2003854036985918,0.05027045670572403
503646000000,17,503647000000,FR_wheel_link,0.3036128263688893,-4.119381379016261,2.375248366804083,-0.3696336539304555,-0.026388700750281713,-0.006471539187421757
503646000000,18,503648000000,FR_wheel_link,-0.6802138842061909,-6.3117072504524385,12.554209637745858,-0.3494756044575421,0.06262492855819199,0.015081840520700912
503649000000,19,503649000000,FR_wheel_link,-0.1548063716699346,-6.672826590006787,5.011466127397698,-0.582942544426853,0.01432446220523842,0.004277993916777384
503650000000,20,503650000000,FR_wheel_link,-2.881714220680066,-7.458830998567571,7.383123978225532,-0.5937801444795839,0.278901649777509,0.07844377585474305
503651000000,21,503651000000,FR_wheel_link,-0.4717680688897563,-7.028913478950911,12.278130637182782,-0.4222956857144812,0.054810942408516666,0.011023060997513413
503652000000,22,503652000000,FR_wheel_link,-1.6906051903556998,-5.191885752821575,9.865599574406927,-0.2844591596359219,0.1764248277160083,0.042670752375235585
503653000000,23,503653000000,FR_wheel_link,-0.13163522343730927,-5.058843370130572,3.1035975281576125,-0.45126505937473727,0.01627281433556707,0.005757270755217675
503654000000,24,503654000000,FR_wheel_link,-0.781232296208713,-5.9279533141086755,13.08448185338732,-0.2910787415212354,0.07891215792612397,0.017195482008810027
503655000000,25,503655000000,FR_wheel_link,-0.18090912454798058,-6.094672706130513,4.703116681407176,-0.5270635397078738,0.0175588441352498,0.0049849550978096485
503656000000,26,503656000000,FR_wheel_link,-2.89039386943569,-7.399937983901983,7.349373365332106,-0.5877660166854283,0.280245702942181,0.07869195485985281
503656000000,27,503657000000,FR_wheel_link,-0.3588861321475483,-6.813907529232853,13.344834500685852,-0.37147478630682684,0.042915395402216366,0.007957292664286186
503658000000,28,503658000000,FR_wheel_link,-1.6863651945579432,-4.91214541085115,8.992303496471212,-0.27799186776342294,0.17463216555927305,0.04356710078669294
503659000000,29,503659000000,FR_wheel_link,-0.44416101314223355,-6.011205301406845,3.773857037083008,-0.5343990436850086,0.046253630136006724,0.014663598356279076
503659000000,30,503660000000,FR_wheel_link,0.1327955585739844,0.18781367782388997,0.5442368535082871,0.017664060946234305,0.0006530287882350171,-0.008563992791501206
503661000000,31,503661000000,FR_wheel_link,-0.4195149154614488,-12.415907319869929,15.383082158627255,-0.8768994791207989,0.028276110458067105,0.010793903590667495
503662000000,32,503662000000,FR_wheel_link,-0.1545266205466329,-6.833544936954266,15.187601879195986,-0.34762937655959436,0.007171694862780714,0.004353707208805485
503663000000,33,503663000000,FR_wheel_link,-1.798300172311127,-4.5162977651381855,6.094322153835739,-0.31119412907430266,0.1774723229996379,0.048193155936302294
503664000000,34,503664000000,FR_wheel_link,-2.7113708014916216,-6.140930942182904,12.684432866080172,-0.31059705776181423,0.29010637209133994,0.07280214529288935
503664000000,35,503665000000,FR_wheel_link,0.1548710319278137,-4.83240668736583,2.904403083447355,-0.42837487629367027,-0.007756173696569335,-0.001918208563528978
503666000000,36,503666000000,FR_wheel_link,-1.841287821661667,-7.199431815931091,6.8401337711614385,-0.5918757809091926,0.16363934185652068,0.050367610560024326
503667000000,37,503667000000,FR_wheel_link,-0.5116350153179263,-7.6466968229393215,16.192792423870458,-0.3827911490539988,0.0653225340345173,0.010700568128336953
503668000000,38,503668000000,FR_wheel_link,-2.1745794784319226,-5.311486752358513,7.100081586477776,-0.36799752135810654,0.21810506629691195,0.05764031873339021
503669000000,39,503669000000,FR_wheel_link,-0.8705356301556355,-7.24650431843308,4.609603327339445,-0.641788907446854,0.08981418504261743,0.025980806352235944
503670000000,40,503670000000,FR_wheel_link,0.10130214645504484,0.21135564422785758,0.46077556703303535,0.019491012406291704,0.004548445977805703,-0.008053260528067948
503671000000,41,503671000000,FR_wheel_link,-0.6250936596721024,-12.701939217863291,15.637644866293307,-0.9027864160545527,0.055117720072602405,0.016170249844153994
503671000000,42,503672000000,FR_wheel_link,-0.5360538303368811,-7.208233483946617,14.76781222893261,-0.3969420986263653,0.04791376742882297,0.01398919925620154
503673000000,43,503673000000,FR_wheel_link,-2.0678649185206446,-4.879001669569894,6.702725360109895,-0.33273174919823206,0.2069566370824788,0.05548522038372012
503674000000,44,503674000000,FR_wheel_link,-0.9614859213783977,-7.536857034900283,6.586544580652531,-0.6263907433358925,0.1125443882840334,0.026100535288172078
503675000000,45,503675000000,FR_wheel_link,-2.996100084550126,-7.524827402889161,7.504632936183136,-0.596311168145116,0.29180724775322775,0.08141334204064589
503676000000,46,503676000000,FR_wheel_link,-0.1025025967897486,-7.737707589924357,10.166898796081178,-0.5524570029304684,0.017256248749699526,0.001319925421177745
503677000000,47,503677000000,FR_wheel_link,-1.7586917315171378,-5.782405412178936,10.095900511764942,-0.34236046467089615,0.18145105679030882,0.043998013339280974
503677000000,48,503678000000,FR_wheel_link,-0.15008890275146203,-5.4038598096115225,3.2649442299392963,-0.4812740186907134,0.017661462408718964,0.0064470557684090934
503679000000,49,503679000000,FR_wheel_link,0.15429834714499424,0.2354156498645671,0.5264824750725645,0.021004636625660215,-0.00047711057393516956,-0.00954789484116609
503680000000,50,503680000000,FR_wheel_link,-0.18836667829637221,-12.63784384185859,15.03828448221712,-0.9138568270617664,0.0008119518580634866,0.004993819383762033
503681000000,51,503681000000,FR_wheel_link,-0.07301873855298102,-7.016588319133039,14.97062198536064,-0.37417855556099255,-0.0036710788262427074,0.002063034929349887
503682000000,52,503682000000,FR_wheel_link,-1.8309939765397818,-4.593102462639893,6.107247156246162,-0.31908758913623586,0.18061527144666462,0.049019895314870804
503683000000,53,503683000000,FR_wheel_link,-2.7068386457745435,-6.165726589802283,12.782930257979139,-0.31116339518754266,0.29004158643622474,0.07273251528695991
503684000000,54,503684000000,FR_wheel_link,1.2450451155462317,-2.824420684288909,1.3258602636413404,-0.2532450224362967,-0.11653027350110581,-0.032077389241372316
503685000000,55,503685000000,FR_wheel_link,0.056499788701328414,0.026276863123043254,0.040698016913561175,-0.0010235089227137767,-0.005747994914495557,-0.0017256730727392808
503686000000,56,503686000000,FR_wheel_link,-1.7084100824151636,-12.367066185802159,31.692353387018983,-0.46084926329806336,0.15959837178804864,0.04432760955689552
503687000000,57,503687000000,FR_wheel_link,-0.09564422929221997,-0.2865566947473714,0.15111714232589135,-0.028779988160858406,0.01039609587188944,0.0019460382667184314
503688000000,58,503688000000,FR_wheel_link,0.3364865243500981,0.04030733005054066,-0.15362719091159988,-0.002422364540595052,-0.01230020507926764,-0.01302974041440567
503689000000,59,503689000000,FR_wheel_link,-2.107842789351528,-12.770519173092179,20.091948850591358,-0.8475981554588164,0.19090807559934886,0.05717704587555876
503690000000,60,503690000000,FR_wheel_link,1.0465441242449027,-1.899171895170649,0.7530255867549874,-0.16742947831466784,-0.09082687046308272,-0.027783877881808066
503691000000,61,503691000000,FR_wheel_link,-1.5236484761621147,-8.555986335982796,7.401097564675156,-0.7311230232544185,0.1198557683645432,0.04254370890463116
503692000000,62,503692000000,FR_wheel_link,-0.2537707587584439,-9.463844288537471,12.809441771417594,-0.6685902950941569,0.037856295866342815,0.0057796192448742595
503693000000,63,503693000000,FR_wheel_link,-2.4159439408764096,-6.962651863519111,9.354829103101046,-0.4890410271302091,0.24177816769842897,0.06463031362804042
503694000000,64,503694000000,FR_wheel_link,-0.9124091837026245,-7.859795676913556,5.716470212608828,-0.685592862241647,0.09507905554725515,0.025826124828931596
503695000000,65,503695000000,FR_wheel_link,-3.4083889324714467,-7.968060617357871,7.333819819805119,-0.6508309336095658,0.33589613381687405,0.09321733339321982
503696000000,66,503696000000,FR_wheel_link,-1.158820565711608,-7.597174303194701,12.831996328309259,-0.4631557650327902,0.1404569370807458,0.02600634280614722
503697000000,67,503697000000,FR_wheel_link,-1.9085308031749844,-5.566691686634763,10.111607890648965,-0.3203326065382664,0.19865244898635792,0.05006345990899609
503698000000,68,503698000000,FR_wheel_link,0.42048800117132457,-4.039277865780836,2.294736165021531,-0.3633108429463385,-0.03805888093084639,-0.009667972487448176
503699000000,69,503699000000,FR_wheel_link,-1.6995158737138143,-7.186019412557295,6.718237018902478,-0.5962606891744666,0.14754275981975196,0.046667690949507054
503700000000,70,503700000000,FR_wheel_link,-0.35635575769813355,-7.291718611337814,16.731656257327867,-0.33242324230132503,0.04714274001399063,0.006170097986061919
503701000000,71,503701000000,FR_wheel_link,-2.1642835398379976,-5.1011837919901435,6.194637906464166,-0.36937681947645234,0.21473827233427323,0.05749717722489783
503702000000,72,503702000000,FR_wheel_link,-1.1275199709840216,-7.692731266815425,5.032171895214729,-0.6804294011141241,0.11176861885520151,0.032556664733368615
503703000000,73,503703000000,FR_wheel_link,-1.3923031199353513,-5.974319109531661,11.519718642884783,-0.33192094177268905,0.15220508719723916,0.032408556250176246
503704000000,74,503704000000,FR_wheel_link,-0.7081204402726033,-6.9251996460821506,5.458826755165937,-0.5905424546738974,0.07292331229136453,0.019396550199516804
503705000000,75,503705000000,FR_wheel_link,-3.1962196949561053,-7.6081320090137865,6.998377152600443,-0.6218287182853685,0.31332828321908257,0.08750972316186235
503706000000,76,503706000000,FR_wheel_link,-1.1263393594306772,-6.943666856938659,14.284031651751064,-0.3578425792668324,0.12460526326357184,0.02648735758506611
503707000000,77,503707000000,FR_wheel_link,-2.101736094648419,-5.006780281616622,8.389012137576358,-0.3028210494804596,0.21877136288166427,0.05465650263598136
503708000000,78,503708000000,FR_wheel_link,-0.5712294301660994,-5.903519976502572,3.657126116974842,-0.5251792974938747,0.061783494106361386,0.01787503750054384
503709000000,79,503709000000,FR_wheel_link,0.13394571482567652,0.16920876344467586,0.5513163713234697,0.01675635351975708,0.0013314977360130709,-0.009378285382304572
503710000000,80,503710000000,FR_wheel_link,-0.28494365983716774,-12.738720365277414,15.073710833128748,-0.9226097920114638,0.011774450178305307,0.007649800569899057
503711000000,81,503711000000,FR_wheel_link,-0.20091331715310679,-7.103313395516755,14.91587465883879,-0.3837999568364179,0.010268946079620395,0.005188513812089249
503711000000,82,503712000000,FR_wheel_link,-1.9055094633742087,-4.690759764577212,6.160939764357261,-0.3276920481156922,0.1883808070683093,0.050982489769836846
503713000000,83,503713000000,FR_wheel_link,-2.7696453138081893,-6.259015969224102,12.798938682437758,-0.3202549343837496,0.2966444783483652,0.07422017369514779
503714000000,84,503714000000,FR_wheel_link,1.0294577179413307,-3.07442584583385,1.5091249520725385,-0.2754335081545176,-0.09470808195866735,-0.02628756519713831
503715000000,85,503715000000,FR_wheel_link,0.050856401192138134,0.022652035598155332,0.04370920916601012,-0.0013132091622031017,-0.005248960135761037,-0.0016116665565247773
503716000000,86,503716000000,FR_wheel_link,-1.6576108710675963,-12.415591111552166,31.372539768191107,-0.4773177827680677,0.15283920417131203,0.04202052430105177
503717000000,87,503717000000,FR_wheel_link,0.19716576359803561,-0.31498577113140847,0.22327863084242577,-0.02581691185402741,0.00442637700440297,-0.005584243188204517
503718000000,88,503718000000,FR_wheel_link,0.018050135282835778,0.044025690176576836,0.024731791341647463,0.0009890469749688298,-0.0010386766268578756,-0.0007675897268345222
503719000000,89,503719000000,FR_wheel_link,0.20819621783281095,-13.018008096056747,13.269502592563253,-1.0251479421597842,-0.0356185751251209,-0.0044950260145095455
503720000000,90,503720000000,FR_wheel_link,-0.7576391554304203,-9.015461102238852,15.171382643080209,-0.5802447200638485,0.0628280093994909,0.020042935283713426
503721000000,91,503721000000,FR_wheel_link,-0.14880879166847416,-6.525292811209848,5.734161582368606,-0.5417443733738937,0.025146387223382916,0.003999472167679208
503722000000,92,503722000000,FR_wheel_link,-2.906166944967322,-7.760510785048918,7.646239149496116,-0.6189294304518234,0.28062325581985315,0.07919802154000968
503723000000,93,503723000000,FR_wheel_link,0.46908351658210323,-6.538705259442441,4.169506173338461,-0.5820639995624797,-0.04072103620194861,-0.010322714300397343
503724000000,94,503724000000,FR_wheel_link,-1.8682810860884629,-7.435339076176777,7.036758883887048,-0.612289204060298,0.16609565251091535,0.051046293631446166
503725000000,95,503725000000,FR_wheel_link,-0.5496442969499888,-7.957484155446094,15.40761360150389,-0.4342466578730422,0.07519523512474297,0.010885834070016372
503726000000,96,503726000000,FR_wheel_link,-2.062089449627637,-5.492592794142269,8.768750317355815,-0.3425819649378078,0.2118012000698059,0.05261845197267544
503727000000,97,503727000000,FR_wheel_link,0.021136692701889892,-5.7767940170193075,3.601760944099611,-0.5153500057957071,0.004138913776774222,0.0017558066628211993
503728000000,98,503728000000,FR_wheel_link,-1.9249904594105736,-7.029969130280648,6.824550466405041,-0.5726885345639802,0.17437678774428494,0.0524514756851963
503729000000,99,503729000000,FR_wheel_link,-0.5191035980947929,-7.698765666721681,14.743682352737427,-0.4240223781768256,0.06943223196818635,0.009843620423810907
503730000000,100,503730000000,FR_wheel_link,-2.1271066405900108,-5.490179643699203,8.130080675192911,-0.3596545171500981,0.21670259967749705,0.054988631249952874
503731000000,101,503731000000,FR_wheel_link,-0.18110288327666257,-5.826785472727164,3.6227669144366565,-0.5196555893521151,0.02393062133706536,0.007139560312358836
503732000000,102,503732000000,FR_wheel_link,-1.9850944471361578,-7.093233192419217,6.8578562945405155,-0.5788345925108762,0.18062240721399622,0.054095229401786085
503733000000,103,503733000000,FR_wheel_link,-0.5796695390787197,-7.655872854542403,15.140649804728024,-0.40923143180693755,0.07451916443095469,0.01140538439264846
503734000000,104,503734000000,FR_wheel_link,-3.2343504808229553,-10.041396477067634,8.59864388049985,-0.919376563131471,0.30486998349108246,0.08866976900925083
503735000000,105,503735000000,FR_wheel_link,2.2273696375674,-7.515475732138222,4.849771545460509,-0.7365586007728315,-0.19799018409760172,-0.05910531486919254
503736000000,106,503736000000,FR_wheel_link,0.1297590192699345,0.05330058943879934,0.31870404839646904,-0.061625682822260094,-0.011901521506188343,-0.004224499672469781
503737000000,107,503737000000,FR_wheel_link,-0.2953044375920584,-27.34768415281907,28.214918792439235,-2.2804391164826985,0.018910063096828633,0.003200792239049677
503738000000,108,503738000000,FR_wheel_link,-5.679632332939711,-17.50171021965005,12.597827283142863,-1.5936198996503477,0.5408289951274224,0.156238411146314
503739000000,109,503739000000,FR_wheel_link,0.8441728632275823,-0.3960113176218385,-0.4050492440670438,-0.03404431021289863,-0.010453623375340716,-0.02585332695123521
503740000000,110,503740000000,FR_wheel_link,-2.165391248993246,-19.332267541042313,14.657212349094902,-1.7411553849142691,0.12574201396110007,0.060782486356423304
503741000000,111,503741000000,FR_wheel_link,0.5068313134149632,0.12988239948115488,0.4028902087100231,-0.0021273322945080052,0.0003956286683303601,-0.023917299825048755
503742000000,112,503742000000,FR_wheel_link,-3.531886534626604,-16.02785244385913,17.763682651737234,-1.234530153447904,0.2965238599554795,0.09464382140624059
503743000000,113,503743000000,FR_wheel_link,-0.5945701814693578,-9.187278709153262,6.817319216231977,-0.8254231233835019,0.09339920144089453,0.011370134372215512
503744000000,114,503744000000,FR_wheel_link,-2.4724143602081528,-8.426291743344983,7.733878914380181,-0.7015466030540374,0.22702333735808422,0.06698634851866156
503745000000,115,503745000000,FR_wheel_link,-1.2924621654470938,-10.127046989777956,6.76101172025874,-0.9093170495085012,0.12545064146743573,0.03459626210989854
503746000000,116,503746000000,FR_wheel_link,-0.06475869105259552,0.24711509470108112,-0.1007238492063173,0.014379576655602171,0.007975865305246379,0.0013863841364309929
503748000000,117,503747000000,FR_wheel_link,-4.051328722745884,-10.144922197809551,11.928391380918201,-0.7464252875346225,0.39274535741499905,0.10930025477587699
503748000000,118,503748000000,FR_wheel_link,-2.3750424305424325,-11.686813107656814,10.577115481945093,-0.9792941020777299,0.28062063357477,0.06052091187384548
503749000000,119,503749000000,FR_wheel_link,-3.4404898804931103,-8.090241884687867,8.16493453884831,-0.6391161240886089,0.33846515136680966,0.09262555242417143
503749000000,120,503750000000,FR_wheel_link,-1.2458922439116153,-8.471925434510137,8.216845166488948,-0.6935558886222272,0.1441694649742859,0.029707931577054925
503751000000,121,503751000000,FR_wheel_link,-2.7951781468052372,-6.860608112208604,7.1515331309350145,-0.5364673682646269,0.27240724244840336,0.07523414891568288
503752000000,122,503752000000,FR_wheel_link,-1.0081182361211196,-7.595064501667585,7.260983052924264,-0.625922312858007,0.11413243121756028,0.023746664308144497
503753000000,123,503753000000,FR_wheel_link,-2.6205445047891134,-6.4815489075744095,6.86894052301135,-0.5034212313980223,0.25486305202056725,0.07049073686892256
503754000000,124,503754000000,FR_wheel_link,-0.6597853840396004,-7.463839824324369,6.743582789162461,-0.6268456685916258,0.07632532737936176,0.014907322129116371
503755000000,125,503755000000,FR_wheel_link,-2.464624402750955,-6.34164368132078,6.727559471491298,-0.49282732044986066,0.23806777931908743,0.06630198202718546
503756000000,126,503756000000,FR_wheel_link,-0.8454000209346253,-7.294860677631442,7.103286768938192,-0.5968050373189834,0.09701407634455192,0.019639918984300092
503756000000,127,503757000000,FR_wheel_link,-2.5829007209245805,-6.424295184189033,6.856439312123433,-0.4972484285031181,0.2509931274386059,0.0694615098220198
503756000000,130,503760000000,FR_wheel_link,-1.5078468686825472,-7.400487656075987,7.752422110591413,-0.585619487738863,0.16685287040632912,0.037738890840893366
503761000000,131,503761000000,FR_wheel_link,-3.143976778734089,-7.026552591037796,7.547801087954854,-0.5405326994650912,0.31116878215746385,0.08449595425353455
503762000000,132,503762000000,FR_wheel_link,-0.08126063872047462,-6.718770252530412,4.527779718331843,-0.5954145872626416,0.016142094729274747,0.003715501835963822
503765000000,133,503763000000,FR_wheel_link,-1.9056255358734433,-6.809993746376993,6.9683815860007154,-0.546155462440582,0.17271320257022693,0.051173602362001386
503765000000,135,503765000000,FR_wheel_link,-3.192732659172041,-7.42445237861458,7.8795822594416105,-0.5747223530436408,0.3142173914633176,0.08581563385380016
503766000000,136,503766000000,FR_wheel_link,-0.2574085562132411,-7.80847377583858,5.236456583348776,-0.6897782594938439,0.02769377449058419,0.008468570540701326
503767000000,137,503767000000,FR_wheel_link,0.06451420860974302,0.1607952711403581,-0.0341797053615423,0.00932680495289977,-0.0012458727227616815,-0.0013706318065090004
503768000000,138,503768000000,FR_wheel_link,-3.359675215393249,-10.502465205908706,12.665513055063766,-0.7665057865961948,0.3110456286474136,0.0900735263653802
503769000000,139,503769000000,FR_wheel_link,-1.206588074404972,-11.133926626273158,10.359316231263184,-0.9297757093742317,0.15988348358843718,0.029042033829797434
503770000000,140,503770000000,FR_wheel_link,-2.9269704051457817,-7.483038821664499,7.822070279123172,-0.5844525875185912,0.28389390805453707,0.07855038227503498
503771000000,141,503771000000,FR_wheel_link,-0.1646940012272018,-7.941324430029017,7.944918302972203,-0.6461528124435156,0.03303073754399016,0.0007475826311277023
503772000000,142,503772000000,FR_wheel_link,-2.2616076253322026,-6.2277459151355234,6.77228120067808,-0.4798176901073977,0.21576546393393495,0.06059645622051005
503773000000,143,503773000000,FR_wheel_link,-0.041344048722339544,-7.102419405958964,7.080547771463171,-0.5796074671600837,0.015418039736340317,-0.002244645052228572
503774000000,144,503774000000,FR_wheel_link,-2.1473457879027684,-5.909653138019172,6.540153362303041,-0.451658206149246,0.20467092215491917,0.0574839851443835
503775000000,145,503775000000,FR_wheel_link,0.18119426174654274,-7.039373390387727,6.641699230871608,-0.5852537276570974,-0.009221320225639096,-0.007668420623046013
503776000000,146,503776000000,FR_wheel_link,-2.0733511320546856,-5.847736475966938,6.461962117953808,-0.44742030297330876,0.19661375831788752,0.05551908597784431
503777000000,147,503777000000,FR_wheel_link,-0.12722479795076103,-6.928605547371939,7.070693406968956,-0.5592468639729193,0.02418301329933964,0.0003229078076208841
503777000000,148,503778000000,FR_wheel_link,-2.268127670230382,-6.001128912162582,6.657702123565205,-0.4573888996482203,0.2177558273767071,0.0607437937668271
503779000000,149,503779000000,FR_wheel_link,0.10420484224667703,-7.300740705260996,6.24431328529109,-0.6182315179660587,-0.008881772587687131,-0.00408469068633821
503780000000,150,503780000000,FR_wheel_link,-2.688673421956977,-6.59530023125821,6.418203991524727,-0.532007716661646,0.261835416624041,0.07311037339509083
503781000000,151,503781000000,FR_wheel_link,-1.2963323620739076,-7.11275371146728,7.910438366912935,-0.5486934060563697,0.14664994702978737,0.032135493941249385
503782000000,152,503782000000,FR_wheel_link,-3.2354762725281594,-7.0140319345734605,7.747448867612434,-0.5328118714492427,0.3214344014394652,0.08676192752407891
503783000000,153,503783000000,FR_wheel_link,-5.042004687758726,-14.538370541401486,30.790876878711845,-1.5341681159422835,0.5325359164835277,0.009695012163869393
503784000000,154,503784000000,FR_wheel_link,-0.04696934826695259,-0.7384051098772385,-0.3907609795909389,-0.07000972171870555,0.03877752688397826,-0.009389044811836436
503785000000,155,503785000000,FR_wheel_link,0.023883324170321636,0.0545960749330244,0.012649726447286284,-0.00020203249026038328,-0.002601576833819644,-0.00018187717937554246
503786000000,156,503786000000,FR_wheel_link,-2.74564086611731,-19.775357611798615,19.053359662480663,-2.200124509345239,0.30899563385299544,0.0021985419123095595
503787000000,157,503787000000,FR_wheel_link,-0.10150364313473237,-0.5836723728219284,0.360330891547688,-0.05654841005515325,0.011622254402950373,-0.0019316966842414674
503788000000,158,503788000000,FR_wheel_link,-3.187293466773409,-15.16480968476172,23.069916391771734,-1.6590856717303712,0.34013372479242265,0.004740052471957579
503789000000,159,503789000000,FR_wheel_link,-0.1887273466858177,-0.6627744133773424,0.21768646376658024,-0.06634578606180716,0.0248650845889693,-0.0022826099548445278
503789000000,160,503790000000,FR_wheel_link,-0.3223345210859119,-14.01082975728524,11.685766566565729,-1.5665258320614828,0.050286556222120304,-0.0010905537299730206
503791000000,161,503791000000,FR_wheel_link,-0.013014426940686191,-0.5377649614355399,0.22544965061541236,-0.05514881016169164,0.0016401258867436083,-0.0009368342736237037
503792000000,162,503792000000,FR_wheel_link,-2.3243288400509403,-15.249879519498032,23.333637984910887,-1.6765249889575586,0.24530241383322926,0.0037740767427452693
503793000000,163,503793000000,FR_wheel_link,-0.12836232712473233,-0.6342563425305262,0.30998148373743395,-0.06263390433640195,0.0163039803859074,-0.0017653540648139678
503794000000,164,503794000000,FR_wheel_link,0.727522404205585,-0.06490806381200409,-0.1616418637354953,-0.00756325064684585,-0.022459967503844554,-0.019594774015090122
503795000000,165,503795000000,FR_wheel_link,-3.5142501148408227,-16.07913486107586,20.451389674877856,-1.7989547703585265,0.2961800908845147,0.027621462110185346
503796000000,166,503796000000,FR_wheel_link,0.6160363713526538,-0.6221079021277458,0.6382591036556685,-0.060269267862804995,0.008656479375823783,-0.02798075079332984
503797000000,167,503797000000,FR_wheel_link,-5.478980969072762,-14.82211248787987,19.27900041370942,-1.6451294627576682,0.5300728671727102,0.02250601465195895
503798000000,168,503798000000,FR_wheel_link,0.33508108359941824,-0.6031912673709064,-0.2527730749642674,-0.06391009559026514,0.004284259690261982,-0.016945009427963856
503799000000,169,503799000000,FR_wheel_link,-0.00624702672653666,0.0807591513563545,-0.006161175759644817,0.0005826797497494613,-0.0011532724765779235,0.0003349668796583349
503800000000,170,503800000000,FR_wheel_link,-2.379045190372353,-18.77137797933519,20.827794702845168,-2.10045141277631,0.218122414498929,0.013131863117058024
503801000000,171,503801000000,FR_wheel_link,-0.0894646502652802,-0.4781855170980823,0.16451534958932632,-0.04885327007375043,0.009677273119468036,-0.0005376363731222347
503802000000,172,503802000000,FR_wheel_link,0.21490421134202098,-14.0101087830568,11.41738701265033,-1.572794088196276,-0.03598716757992759,0.005845740957237527
503803000000,173,503803000000,FR_wheel_link,-0.00581541287853099,-0.43975051835890155,0.1710454298737921,-0.045840836123269994,-0.0002687956455056338,-0.0003605987645489044
503804000000,174,503804000000,FR_wheel_link,-1.7692291499276624,-11.57864581848692,19.09869239645038,-1.270267926407062,0.19285894722619656,-0.0005915860430228126
503805000000,175,503805000000,FR_wheel_link,-0.10668900383878113,-0.5467991328487884,0.053051461676881864,-0.05591810270234906,0.010052820373584948,0.00028238608826960075
503806000000,176,503806000000,FR_wheel_link,0.9059616536007766,-12.277273784675147,9.828691116176675,-1.3812102872511876,-0.09890179425284629,0.0015693093747504994
503806000000,177,503807000000,FR_wheel_link,0.0362802571007477,-0.08704156399371979,0.17883088006047898,-0.01209365043902778,-0.002716244330239784,-0.0011183712373998686
503808000000,178,503808000000,FR_wheel_link,-1.8615403506934225,-13.501678772442128,21.06083513559704,-1.4832397799451957,0.19695285657264516,0.0025758410623687167
503809000000,179,503809000000,FR_wheel_link,-0.11841227269516319,-0.6078897548551093,0.18698398273732408,-0.05915116169899819,0.010956657037625335,2.387102322657167e-05
503810000000,180,503810000000,FR_wheel_link,1.2653037899934434,-9.650929504784127,7.753326196132199,-1.0848758052172793,-0.12038492655100624,-0.004412658167777722
503811000000,181,503811000000,FR_wheel_link,0.09121844613221863,-0.11708484742607458,0.20314886891352663,-0.014903418979122127,-0.009677983844231566,-0.0008379682467442172
503812000000,182,503812000000,FR_wheel_link,-1.800854606015493,-14.894951989307916,22.726867840175313,-1.6410043791461226,0.17948042420449062,0.00561901400720477
503813000000,183,503813000000,FR_wheel_link,-0.11808171605482598,-0.6753664437732927,0.20936926911313836,-0.06523780373717009,0.010797939116432897,4.431189480020442e-05
503814000000,184,503814000000,FR_wheel_link,0.7755442576426134,-0.09832455260863476,-0.21985638119930978,-0.009227810664938867,-0.02380115081311547,-0.02077311817783805
503815000000,185,503815000000,FR_wheel_link,8.650403195379212,-5.7222523948051816,54.303034119959605,-0.6847449712342175,-0.9836562410023222,6.047683386808944e-05
503816000000,186,503816000000,FR_wheel_link,0.24409932607268764,0.09651714951469738,-0.012097997785331847,0.0005986869142574191,-0.02839946493782565,0.0013395257828109019
503817000000,187,503817000000,FR_wheel_link,-0.014869157590023581,0.010956430607735783,-0.002692032121557381,-4.2450495546911206e-05,0.0017208555455691884,-3.110831664408201e-06
503818000000,188,503818000000,FR_wheel_link,2.9518579299603513,-3.432881088821757,22.24641085799668,-0.38635556042591584,-0.34974520708314355,0.001976658875856102
503819000000,189,503819000000,FR_wheel_link,0.03858127916393202,-0.017063665806213737,0.028792139667796743,-0.002235856438219071,-0.004856804592164613,0.00028597951589721656
503821000000,190,503820000000,FR_wheel_link,-0.5351781826921788,-4.237224340458175,18.11532938465146,-0.468168474700851,0.05121037965221015,0.002584523175895685
503821000000,191,503821000000,FR_wheel_link,-0.050731685915851574,-0.07710064375370455,0.08136558634337948,-0.00729762808555384,0.0051646132759257885,-0.0001544926198968926
503822000000,192,503822000000,FR_wheel_link,-1.8580941541885843,-5.657482743479822,26.889194507593928,-0.6142950291997106,0.19817131185925949,0.003398501826943172
503823000000,193,503823000000,FR_wheel_link,-0.05886300125472277,-0.0820805126295944,0.16661144166380337,-0.010289478088853159,0.009417503223274339,-0.000642280046609454
503824000000,194,503824000000,FR_wheel_link,-4.37128352558992,-7.19212911112872,10.284039589908453,-0.7829639509123104,0.45527895440793087,0.009409370691161316
503825000000,195,503825000000,FR_wheel_link,0.12552024348665114,0.21058485794437826,1.3340113882060316,0.007456940465230923,0.005155241121465655,-0.0046896336266959915
503826000000,196,503826000000,FR_wheel_link,-5.8769184825275005,-10.072971706109762,23.64737718486966,-1.061643737007198,0.5959859742395024,0.012931805169684438
503827000000,197,503827000000,FR_wheel_link,0.07372776914009371,0.17626693751010794,1.8106166169926712,0.000135926215349573,0.020680677187015523,-0.006304561991972562
503828000000,198,503828000000,FR_wheel_link,-6.830847514001234,-10.286996032541513,23.127724440881163,-1.0853688899302574,0.706606945824835,0.012318902715719705
503829000000,199,503829000000,FR_wheel_link,-0.0032277427761406297,0.12228569544802947,1.7137412443619413,-0.003917400751605309,0.02823474839057099,-0.00678523484417495
503830000000,200,503830000000,FR_wheel_link,-7.445419458837338,-10.609385434801148,23.104723989520622,-1.1212552362063508,0.7764832070682208,0.012307949246533431
503831000000,201,503831000000,FR_wheel_link,-0.044650547907429866,0.08797873979495224,1.6632056104013395,-0.007654875520083914,0.032139245665354026,-0.006848539174566953
503832000000,202,503832000000,FR_wheel_link,-7.7740903009650015,-10.893295684546471,23.17549268859074,-1.1533417295638175,0.8131089618310988,0.012566341539125066
503833000000,203,503833000000,FR_wheel_link,-0.06635601871137753,0.06426405061317964,1.6334132327997946,-0.010515648922741651,0.034017977792681175,-0.0067233049077878235
503834000000,204,503834000000,FR_wheel_link,-7.931642444712363,-11.097272762403668,23.238618363019647,-1.1766956804213793,0.8302255254389462,0.012862415095375869
503835000000,205,503835000000,FR_wheel_link,-0.07707678738551246,0.04891947054148396,1.6149831596865258,-0.012515354643758435,0.03482175295377356,-0.006562750345132665
503836000000,206,503836000000,FR_wheel_link,-1.066729127032532,-13.5471566778022,16.291450109047414,-1.47337333153466,0.11479713434493222,0.004176448118530018
503837000000,207,503837000000,FR_wheel_link,-0.052811829522988324,-0.5468213166539383,0.22072889667016066,-0.05475241625443195,0.0039723112302681406,-0.00034071952750617477
503838000000,208,503838000000,FR_wheel_link,0.33408118071328363,0.18616106675634528,-0.01207655275631829,0.002225120020097857,-0.013081942302764576,-0.011490791686093488
503839000000,209,503839000000,FR_wheel_link,-3.5767462614961967,-13.204720552430382,19.29480568758332,-1.4668843861418375,0.3162558606965473,0.022345582915432594
503840000000,210,503840000000,FR_wheel_link,0.4255608914462286,-0.7394357464355421,-0.021027896808381033,-0.06853682153523746,0.005331577744330067,-0.01827286539934957
503841000000,211,503841000000,FR_wheel_link,0.031197126180032494,0.10062202966282281,0.04090586255104655,0.0021146980229076262,-0.002489474356482405,-0.0009246757824357938
503842000000,212,503842000000,FR_wheel_link,0.04509302889783173,-14.840341869926121,28.40728214856008,-1.6858813874597618,-0.044363096195921714,0.003240509771986505
503843000000,213,503843000000,FR_wheel_link,-0.08593139627016039,-0.33466601065802565,0.07380581976110265,-0.034985173121456936,0.009918500315239068,-0.0010760354193748386
503844000000,214,503844000000,FR_wheel_link,0.44838330436393725,-0.1664692726987816,-0.5844597244113414,-0.01760968683690605,-0.020704101247163566,-0.010528039631066594
503845000000,215,503845000000,FR_wheel_link,-2.3033885617142706,-12.66233613190949,13.162816531174135,-1.4334109411934939,0.1792966634979578,0.02297771360848261
503846000000,216,503846000000,FR_wheel_link,0.3188837790348008,-0.5466553636688243,-0.1473406219507907,-0.05054328842843735,-0.0007139038604646181,-0.013062688751981551
503847000000,217,503847000000,FR_wheel_link,-2.943553660813619,-9.34542787457443,15.84043753898521,-1.025471906318729,0.2642726815702726,0.009775826635446752
503848000000,218,503848000000,FR_wheel_link,-2.605759118904887,-6.961625516517507,18.896202122750278,-0.7820416343633618,0.29881694399355396,0.00554235902653611
503849000000,219,503849000000,FR_wheel_link,0.14168663030539552,-0.2064727311612119,-0.24611412629838586,-0.030429390498068004,0.000781855705878071,-0.010169467860512121
503850000000,220,503850000000,FR_wheel_link,-2.805315088092303,-7.338047193244199,11.943995099900508,-0.8069961435076431,0.2671504741855907,0.011349947351763576
503851000000,221,503851000000,FR_wheel_link,0.25035006620094713,-0.3222744006140599,-0.01035445687833228,-0.04252512271996929,0.004598439774638856,-0.014337183537069963
503852000000,222,503852000000,FR_wheel_link,-3.203023998723725,-8.68214795106379,13.32486380420739,-0.9577852311301016,0.3044590715894865,0.013558106723882718
503853000000,223,503853000000,FR_wheel_link,0.2752406317033468,-0.7397880414685449,-0.3977446164056665,-0.0665313861039477,0.002873519935108683,-0.010278273464543311
503854000000,224,503854000000,FR_wheel_link,-0.3103554901820241,1.2443777131256368,-0.6120854462388974,0.04516847375604004,0.009498351161117826,0.003920454855582373
503855000000,225,503855000000,FR_wheel_link,0.009075122059166413,0.06723917692004196,0.033595297759536805,0.0006155737533785739,-0.00190252392674085,0.000476474132377751
503856000000,226,503856000000,FR_wheel_link,0.32835980486596783,-0.19178498840814737,-0.5846565136752341,-0.017728487615952804,-0.01696389564961323,-0.006977783866994856
503857000000,227,503857000000,FR_wheel_link,-6.896072953163436,-7.199574343572414,19.140224856785082,-0.8436737752594812,0.6936036855124995,0.022693871433226206
503858000000,228,503858000000,FR_wheel_link,0.28890776786237754,-0.4598433030761804,-0.2965954544214532,-0.03691869463559415,0.00326601016632622,-0.011091913315316435
503859000000,229,503859000000,FR_wheel_link,-0.2871293201262974,0.8288420765328993,0.4626971648196164,0.03222530714397367,0.008848656879690999,0.006159401110826504
503860000000,230,503860000000,FR_wheel_link,-0.9362282953338488,-10.294815782912218,16.470179354100516,-1.110877263007685,0.10004039280650989,0.0009342541173312791
503861000000,231,503861000000,FR_wheel_link,-0.21963736571181375,0.08500362422207375,0.5708320600643371,-0.025042163225706175,0.007387406241001078,0.005570523002285664
503862000000,232,503862000000,FR_wheel_link,-0.4183742767018628,-8.455324647394395,11.141750457967522,-0.9263591866778924,0.05327442861449588,-0.0014390931321691391
503863000000,233,503863000000,FR_wheel_link,-0.24737959971577914,0.20319886888792138,0.4816592618329434,-0.01424293765023597,0.009293115892890422,0.0040867656564363645
503864000000,234,503864000000,FR_wheel_link,-0.7241617363521224,-9.496355554502273,14.636785378330227,-1.025528300263536,0.09232364808939081,-0.002715749593267272
503865000000,235,503865000000,FR_wheel_link,-0.25975464873994775,0.21073207059462779,0.5297211514895867,-0.01546135515243496,0.0103229341718368,0.00439570125102612
503866000000,236,503866000000,FR_wheel_link,0.04759741609185397,-8.123684790988168,10.191636360231115,-0.885169462904676,0.00998567669694439,-0.0024533613172632723
503867000000,237,503867000000,FR_wheel_link,-0.22874125747704535,0.20108090808615464,0.38859401475784894,-0.010469229197025762,0.008330350713082085,0.0024478859095400946
503868000000,238,503868000000,FR_wheel_link,-0.15781986652129332,-8.489832094440509,12.1769666819479,-0.9186401853446762,0.03214529514199371,-0.0028816783760375747
503869000000,239,503869000000,FR_wheel_link,-0.2261553961377886,0.197385702625145,0.4321099834853117,-0.012355208789347963,0.0080858125403244,0.0030573204646829793
503870000000,240,503870000000,FR_wheel_link,0.142509756551215,-8.110233511669911,10.719868006279906,-0.8811960865605264,-0.00041842159303800974,-0.0026206771203202556
503871000000,241,503871000000,FR_wheel_link,-0.2194498301550691,0.2054399236566105,0.3859807169788054,-0.010135171077122477,0.007590990775431282,0.0024445191467878475
503872000000,242,503872000000,FR_wheel_link,0.11993668810623692,-8.225358865497537,11.329954961374815,-0.8908325949731116,0.0024167990808661166,-0.0027550776018733375
503873000000,243,503873000000,FR_wheel_link,-0.21729426203009594,0.20813534175299478,0.40079718753356086,-0.01056945938569419,0.007371537461325673,0.0026894882821206587
503874000000,244,503874000000,FR_wheel_link,0.2692156793420941,-8.054737636927321,10.709524202040235,-0.8735303183148617,-0.013720325900859587,-0.002620079646108789
503875000000,245,503875000000,FR_wheel_link,-0.21163377393039623,0.21069897233662666,0.3821609214547783,-0.00975616421430211,0.006890524580024848,0.002461734308157373
503876000000,246,503876000000,FR_wheel_link,0.28269830726148104,-8.084270534051818,10.95417327029137,-0.8755622428249973,-0.01512052021460819,-0.0026639858119535537
503877000000,247,503877000000,FR_wheel_link,-0.20915449441703055,0.21171395949707877,0.387961668450855,-0.009970380627531687,0.0066433963077767375,0.002560516939399053
503878000000,248,503878000000,FR_wheel_link,0.6547471762601558,-7.899003630024111,11.124328942569012,-0.8580793825648543,-0.04818801268531575,-0.006188720001312709
503879000000,249,503879000000,FR_wheel_link,-0.16723516891781795,0.20478728611223307,0.37167885312406523,-0.009179005025162893,0.0025858597657923347,0.00271580310228234
503880000000,250,503880000000,FR_wheel_link,0.7531937861029314,-7.589555765033594,10.97343422896958,-0.8259486170633574,-0.06451178046489664,-0.005151058067227404
503881000000,251,503881000000,FR_wheel_link,-0.1303274593607492,0.18048752722013672,0.36692628355457313,-0.01140608917989997,-0.0007011266591672007,0.003255895441931755
503882000000,252,503882000000,FR_wheel_link,0.6329854472640495,-7.76731961655639,10.455262355897707,-0.8463344433192621,-0.06528418326516372,0.0001659281345635366
503883000000,253,503883000000,FR_wheel_link,-0.21106279947888837,0.24552033027621,0.3777467829307246,-0.007731873840995088,0.006869954589454872,0.002779790189528936
503884000000,254,503884000000,FR_wheel_link,0.6204813526630883,-7.670245249954943,9.534033565597152,-0.8310485564923478,-0.05527954297736021,-0.0009167879343130597
503885000000,255,503885000000,FR_wheel_link,-0.22582275215276393,0.25135379329536617,0.3651418172298142,-0.005969361335549905,0.008459973200513313,0.002051337955866309
503886000000,256,503886000000,FR_wheel_link,0.48881762373211135,-7.667426506945369,9.985949802482331,-0.8274860040955252,-0.03560469840159142,-0.002473369072781881
503887000000,257,503887000000,FR_wheel_link,-0.2027515572230632,0.22417052304413532,0.3593249379130543,-0.007940131644647833,0.006469692905840396,0.0021782863976719863
503888000000,258,503888000000,FR_wheel_link,0.46752790347810746,-7.778693167502875,10.561319532618864,-0.8406426939732792,-0.03428115235242701,-0.0026652918408323484
503889000000,259,503889000000,FR_wheel_link,-0.19537930585492777,0.2124714520001973,0.37079919447264553,-0.009377641027808914,0.005566972509120276,0.002340926135318439
503890000000,260,503890000000,FR_wheel_link,0.44012559422884445,-7.872991084467484,10.93555996125236,-0.8511941473825211,-0.031980856945546254,-0.002658735130265155
503891000000,261,503891000000,FR_wheel_link,-0.19982316187270094,0.21563336484096549,0.3797481792594869,-0.009671447460911088,0.005823364674387301,0.002409485709289874
503892000000,262,503892000000,FR_wheel_link,0.4345539205901985,-7.890219661744942,10.955042577311897,-0.8527868239363023,-0.031045872721326917,-0.002661039370235402
503893000000,263,503893000000,FR_wheel_link,-0.2027167539921808,0.21981868263487186,0.37981414085610804,-0.009510981697096754,0.006026724718171833,0.0023861863162011757
503894000000,264,503894000000,FR_wheel_link,0.44073134698989636,-7.876642318759272,10.916657697547194,-0.8509421652374959,-0.0315230606347332,-0.0026287259354964565
503895000000,265,503895000000,FR_wheel_link,-0.20285440800934623,0.22093210927132653,0.37854620969766184,-0.009481659921842934,0.006009233873482213,0.00236203172018243
503896000000,266,503896000000,FR_wheel_link,0.452733041050589,-7.855930767279197,10.881360203044656,-0.8485565479690027,-0.032869649888718155,-0.00257891147880418
503897000000,267,503897000000,FR_wheel_link,-0.20260003459504813,0.22145983743741407,0.3769533130253425,-0.009474187477188091,0.005959310633487989,0.002332223591943589
503898000000,268,503898000000,FR_wheel_link,0.46007226391885947,-7.840894122275381,10.876691799282277,-0.8467527106828492,-0.033711723256815485,-0.0025445710394522703
503899000000,269,503899000000,FR_wheel_link,-0.20278592593662362,0.22242837029687396,0.37581423762658533,-0.009450965516772441,0.0059530588336352205,0.002306748448096603
503900000000,270,503900000000,FR_wheel_link,0.4679683719407044,-7.822475753259381,10.856940837477136,-0.8445810609105792,-0.03457309812559861,-0.0025128959873685908
503901000000,271,503901000000,FR_wheel_link,-0.20305646549249706,0.22360831140695595,0.3741992063523826,-0.009390584756058851,0.005960839017272638,0.002275146393999782
503902000000,272,503902000000,FR_wheel_link,0.47465157767766586,-7.803476651819082,10.838957832556769,-0.8423107067158804,-0.03528383758219861,-0.002485512705018733
503903000000,273,503903000000,FR_wheel_link,-0.2032471693014259,0.22471707243914507,0.37265442546725286,-0.009334443379734447,0.00596459977031984,0.002246094918537043
503904000000,274,503904000000,FR_wheel_link,0.4812256019283474,-7.783492327861836,10.819578341733976,-0.83994304088711,-0.035986215740811234,-0.002458830467163192
503905000000,275,503905000000,FR_wheel_link,-0.20338643169840365,0.22577004258398628,0.3710731147187256,-0.009278829977837593,0.005965388078448551,0.002217243251330435
503906000000,276,503906000000,FR_wheel_link,0.4867179156885659,-7.764173117971415,10.804943625259291,-0.8376391953096808,-0.036571145694902496,-0.0024344785144490982
503907000000,277,503907000000,FR_wheel_link,-0.20354339414849884,0.22681977644964274,0.3696165007549957,-0.009227068397855274,0.005968618532932617,0.0021904851815186047
503908000000,278,503908000000,FR_wheel_link,0.49169979957580034,-7.744854353263708,10.79080374854085,-0.8353357205842104,-0.03709751963833435,-0.002411223306539423
503909000000,279,503909000000,FR_wheel_link,-0.20371842543704793,0.22788398285484354,0.3681698572997022,-0.009174034812219317,0.005974304368112248,0.00216411424413386
503910000000,280,503910000000,FR_wheel_link,0.4960664805735928,-7.725798312103851,10.778275538277821,-0.833055145853996,-0.03755418189334475,-0.0023890037620467736
503911000000,281,503911000000,FR_wheel_link,-0.2039032358657284,0.2289478511567512,0.3667703698498558,-0.009122398506695432,0.005981423561599359,0.0021386909929145825
503912000000,282,503912000000,FR_wheel_link,0.5000980432669153,-7.7067801521746215,10.766125139631903,-0.8307783767101242,-0.03797339404660477,-0.0023671452024330436
503913000000,283,503913000000,FR_wheel_link,-0.2040910836560033,0.2300078886975949,0.3653830463202359,-0.009071400031221886,0.005989137344513707,0.002113655402819024
503914000000,284,503914000000,FR_wheel_link,0.5037662160535952,-7.687954107265037,10.754974991422852,-0.8285205459167602,-0.038352677732360396,-0.0023456786458798673
503916000000,285,503915000000,FR_wheel_link,-0.20428891930401513,0.23108567211827158,0.3640378706809254,-0.00902103152640752,0.005997478804540638,0.002089470580643385
503916000000,286,503916000000,FR_wheel_link,0.5071130691825174,-7.669153492658096,10.744424873987601,-0.8262629157240375,-0.03869509339327387,-0.0023248601373157957
503917000000,287,503917000000,FR_wheel_link,-0.20449450094235697,0.23216766299361338,0.3626957930715523,-0.008970621380821006,0.00600646437298142,0.0020654687386480767
503918000000,288,503918000000,FR_wheel_link,0.5103149337698745,-7.650344344364289,10.733830995057035,-0.8240037470827556,-0.03902098043114477,-0.0023040710347913274
503919000000,289,503919000000,FR_wheel_link,-0.20470178729576902,0.2332513449355663,0.36134358871649197,-0.008919919722317137,0.006015413081811702,0.0020414965401358634
503920000000,290,503920000000,FR_wheel_link,0.5135860329404589,-7.631626615121748,10.72291797712181,-0.8217567762758489,-0.039357836434197324,-0.002282175667426084
503921000000,291,503921000000,FR_wheel_link,-0.20491430106484287,0.23432855971366623,0.35997445117180243,-0.00886849155329565,0.006025157646492365,0.00201725031731785
503922000000,292,503922000000,FR_wheel_link,0.5168247381674012,-7.612842211183997,10.711749930813545,-0.8195027739481946,-0.03969048261232505,-0.002260347642575683
503923000000,293,503923000000,FR_wheel_link,-0.20513426685226002,0.23540724939850857,0.3585872964304312,-0.008816155948726177,0.006035870230218286,0.001992696539072309
503924000000,294,503924000000,FR_wheel_link,0.4062314786764678,-8.951603152010897,11.788820105995207,-0.9749565669171982,-0.03300114006375987,0.00038941720275281755
503925000000,295,503925000000,FR_wheel_link,-0.19827848284687444,0.1985732017469417,0.34375686761287927,-0.008227315039840203,0.0071612136296372465,0.0012532356484728376
503926000000,296,503926000000,FR_wheel_link,-0.023555664996709247,-7.377830119983743,12.58233089037163,-0.8113162153304749,0.024484562901604,-0.00512840029193741
503927000000,297,503927000000,FR_wheel_link,-0.21644156989131086,0.24152159496922757,0.4231991893668202,-0.011717296243394827,0.006857712428561082,0.003013518519553991
503928000000,298,503928000000,FR_wheel_link,0.35442200402600177,-7.692627074276277,11.253279303598926,-0.8504395583482418,-0.020723401352550685,-0.0023108572398709004
503929000000,299,503929000000,FR_wheel_link,-0.21635714142208995,0.2500547565317399,0.3795530712036673,-0.009270091812453966,0.0068693876074527194,0.00234165958138104
503930000000,300,503930000000,FR_wheel_link,0.39069743913499666,-7.6388168588115315,11.189632157717458,-0.8430281523258993,-0.024944898684019168,-0.0020901269144195517
503931000000,301,503931000000,FR_wheel_link,0.10442492136866216,0.15667358847343288,0.08939730266481714,-0.013521123409513485,-0.003125449942547023,-0.004668470479346811
503932000000,302,503932000000,FR_wheel_link,-3.187293771964566,-5.335783747630219,10.617575389065298,-0.5961442782552897,0.3229258769955218,0.0016876666932318582
503933000000,303,503933000000,FR_wheel_link,0.3182482694130653,-0.4210542395912382,-0.22633434537563768,-0.0345993067650851,-0.0028402027522577023,-0.00866972700719555
503934000000,304,503934000000,FR_wheel_link,-1.2912394671606118,-5.305213777719492,8.699489591804813,-0.6542277532267426,0.11579621691924091,0.005309648055028232
503935000000,305,503935000000,FR_wheel_link,0.1326649691894249,-0.07551594383422032,-0.049786463722102645,-0.014888222821896259,-0.005578097074569261,-0.004437500817737026
503936000000,306,503936000000,FR_wheel_link,-1.1243750893135607,-5.213626906229145,13.466599428235565,-0.5892365754517908,0.11252369656310526,-0.0019032004467477714
503937000000,307,503937000000,FR_wheel_link,-0.19668208860552183,0.12168973710184074,0.36174045470131594,-0.020040335848332425,0.0070593715204402335,0.005732795518704655
503938000000,308,503938000000,FR_wheel_link,-0.0488806291857391,-9.176496914126634,13.410006916170355,-1.0179944620979071,0.014758658563175098,-0.0006311206459836544
503939000000,309,503939000000,FR_wheel_link,0.019820597053337233,0.2049804429560564,-0.05034288375030012,-0.016041734678074522,0.0016621957230419059,-0.003224171580833492
503940000000,310,503940000000,FR_wheel_link,0.16609064992449057,-0.0016493774829862556,-0.15377790960649546,-0.004236453428868225,-0.006942016152833538,-0.00399790895574189
503941000000,311,503941000000,FR_wheel_link,-0.9558535010109506,-4.76881356568848,12.79003630805229,-0.5499919601265533,0.0930972172480431,-0.0007648177827425523
503942000000,312,503942000000,FR_wheel_link,0.025673509464563038,0.21510537346198821,0.109265801451318,-0.02287448078222567,-0.006467133262169137,0.0029701048747579764
503943000000,313,503943000000,FR_wheel_link,-1.2591648527647372,-5.670461352801244,13.083074766132807,-0.6387791181326626,0.1258699434951876,-0.0016740170295756612
503944000000,314,503944000000,FR_wheel_link,0.20774208763737087,-0.3185582072687018,0.07609384018640555,-0.03145618397586647,-0.001030471540965902,-0.007255461809708631
503945000000,315,503945000000,FR_wheel_link,-1.3951722202923185,-2.9761627015171706,8.69705179550845,-0.3937719887582557,0.1303394877287294,0.005701331776201982
503946000000,316,503946000000,FR_wheel_link,0.060193648471729144,-0.05060429844796649,-0.0419909701797626,-0.01916833673640226,-0.002883018949828193,-0.001572172433832998
503947000000,317,503947000000,FR_wheel_link,-1.1115783721076822,-5.275521290215247,11.490383680515926,-0.5965575055782186,0.11164733092480225,-0.0023819658050642165
503948000000,318,503948000000,FR_wheel_link,0.17517380510136552,-0.3316347853550536,-0.017762915579838133,-0.033757795990757254,-0.002008284111417841,-0.0061020289916301
503949000000,319,503949000000,FR_wheel_link,-1.6679223626779094,-2.9804384198912324,9.02785791715582,-0.3995267371897529,0.15675858183593577,0.006912902980471997
503950000000,320,503950000000,FR_wheel_link,0.07077297407852236,-0.11607486494139518,-0.017767278953079915,-0.01971406101673361,-0.0011017184187754794,-0.0020838411665801346
503951000000,321,503951000000,FR_wheel_link,-1.2990222928511626,-4.105803771036575,11.444219467093705,-0.47556445992412666,0.13007272499725545,-0.001188583068808785
503952000000,322,503952000000,FR_wheel_link,-1.0911659742112865,-3.996875746586257,5.825159631355497,-0.48452582461810245,0.10861343146545549,0.005000570293529523
503953000000,323,503953000000,FR_wheel_link,-0.9131466827794337,-4.897531016260885,7.679209084671914,-0.5531891734800893,0.09636825679173783,-0.001992273063468629
503954000000,324,503954000000,FR_wheel_link,-0.03952410062040361,0.2060356065761883,-0.24619324228232264,-0.013396930916532922,0.0004234990745533391,0.000981930901604622
503955000000,325,503955000000,FR_wheel_link,-1.8863630216084348,-4.894803405553961,12.030739545424787,-0.5445050836372836,0.19642997390807065,-0.002681761964375362
503956000000,326,503956000000,FR_wheel_link,-0.11928373627604041,-0.2633419763429664,0.11975162359361048,-0.026880091596617424,0.01219021832022029,-0.00020899586311345962
503957000000,327,503957000000,FR_wheel_link,-0.9547880987415227,-3.474051999958499,3.0556875617711627,-0.4326829225998109,0.10329305420252763,0.003445413277322798
503958000000,328,503958000000,FR_wheel_link,-0.03832698891476098,0.13985708161954655,0.03941287048586211,0.0015028806564484428,0.0010044058569036345,-0.0017336477436498063
503959000000,329,503959000000,FR_wheel_link,-2.976031115087966,-5.428463405293372,11.292508686773962,-0.6037050600550015,0.2960938807582625,0.0026773233179692123
503960000000,330,503960000000,FR_wheel_link,0.1908200808411722,0.05375371749847441,0.5134272185082231,-0.015612432473994811,-0.0007708499353079176,-0.01018449538980392
503961000000,331,503961000000,FR_wheel_link,-3.7689098476613703,-7.543683214385147,17.664199044305946,-0.8351755523016617,0.36469063589056205,0.004181180077997053
503962000000,332,503962000000,FR_wheel_link,0.113675092087033,0.3239375982223786,1.5485179441897163,-0.0005479480709058397,0.010584896797910026,-0.00433405876771545
503963000000,333,503963000000,FR_wheel_link,-2.099594833149684,-8.359642920401896,21.17783863806539,-0.9067960420976006,0.2278042292053798,-0.006213698110361959
503964000000,334,503964000000,FR_wheel_link,0.14225594449010653,0.09399454788872147,1.197431349017305,-0.012501295780982455,0.0026176679601283923,-0.004468700661710101
503965000000,335,503965000000,FR_wheel_link,-2.092385780450795,-8.286327492354067,20.278835971436237,-0.9131066841601971,0.21563467167684008,-0.00327397654425772
503966000000,336,503966000000,FR_wheel_link,0.13345804960134744,0.08349120984917256,1.141162729526874,-0.016290211493958925,0.0011951629527958158,-0.001758833994038578
503967000000,337,503967000000,FR_wheel_link,-1.510683032576065,-8.78139682682227,19.00704462816568,-0.971126267701527,0.14947142583855044,-1.4213667558521381e-05
503968000000,338,503968000000,FR_wheel_link,0.13866285382048965,-0.07126479116312974,0.6922961815219038,-0.028641555839085602,-0.002019360018876499,-0.004329891365547463
503969000000,339,503969000000,FR_wheel_link,-2.379567568410105,-7.990557908009364,16.97520459757822,-0.8928587359346343,0.2323979788472138,0.002551965219075039
503970000000,340,503970000000,FR_wheel_link,0.1996992779725481,-0.04799084086453786,0.7603509300345157,-0.027187151425384234,-0.003823927895580271,-0.003334128844679569
503971000000,341,503971000000,FR_wheel_link,-3.1732777637025995,-8.395400719194662,18.517104296044355,-0.9365355483782167,0.3037561881405176,0.004724315875780441
503972000000,342,503972000000,FR_wheel_link,0.13049832201537678,0.19381438443400273,1.3826387650936485,-0.013179945967573868,0.006135192704296424,-0.0019679389985149892
503973000000,343,503973000000,FR_wheel_link,-1.2321695772229786,-9.352355380546415,19.2702073335997,-1.0284245977495299,0.12332772570117662,0.0001000800912544092
503973000000,344,503974000000,FR_wheel_link,0.13627831349241823,-0.09937912416935635,0.6344284837458634,-0.03102762498937344,-0.0005672400407983492,-0.007442888640542207
503975000000,345,503975000000,FR_wheel_link,-2.201492757728161,-7.810728256244609,16.453446065213768,-0.8776066810745415,0.21607642180073533,0.0012355032359880544
503976000000,346,503976000000,FR_wheel_link,-0.6884800433389645,-4.371883099701008,12.411305320830934,-0.523511608745334,0.07597120728703102,0.0015901051174051911
503977000000,347,503977000000,FR_wheel_link,-1.2513765927873386,-5.425006077504584,7.007454229973096,-0.612095275487913,0.1278463322547855,0.0016208976831776425
503978000000,348,503978000000,FR_wheel_link,-1.148260816299132,-5.724404516734273,8.12403062391068,-0.6458785466804974,0.12025170288781539,-7.146432025741112e-06
503979000000,349,503979000000,FR_wheel_link,-1.1240432202386588,-5.837844176179715,8.41182375466208,-0.6602657748363978,0.11819449404648918,-0.0006779993104552226
503980000000,350,503980000000,FR_wheel_link,-1.105286896366,-5.82904391772899,8.464874305645505,-0.6595992078601345,0.11594962052845548,-0.0006825039927376222
503981000000,351,503981000000,FR_wheel_link,-0.8199471787914719,-3.2506140514232795,14.761789618559417,-0.39548487982507097,0.08456467559919986,-0.0017094550278684145
503982000000,352,503982000000,FR_wheel_link,-0.9484806613678193,-3.732605385045114,7.709918245101704,-0.42560728494294664,0.099822737076244,-0.0004920507359160338
503983000000,353,503983000000,FR_wheel_link,-1.0138802208704274,-4.836346218814773,6.833655785593876,-0.5466097726969162,0.10738706895711092,-0.0004989505698253516
503984000000,354,503984000000,FR_wheel_link,-0.8225433398834759,-3.0454365360541678,13.269055179008994,-0.3683566133036173,0.08491704189025934,-0.0015223132298618144
503985000000,355,503985000000,FR_wheel_link,-0.8230120941431447,-3.4362149748010116,8.212923496803782,-0.3948571967254202,0.08817356590497114,-0.0007453678304605721
503986000000,356,503986000000,FR_wheel_link,-0.9439751315186031,-4.614284146953856,6.701359051776873,-0.5221476526547565,0.0981461862807517,-0.00013977641369018745
503987000000,357,503987000000,FR_wheel_link,-0.7668082541915985,-2.799428514163475,13.384339659611348,-0.3418068866008488,0.078420677894006,-0.0013520972964077872
503988000000,358,503988000000,FR_wheel_link,-0.7846301644419811,-3.2411108454283597,8.217632465241575,-0.3730027387922029,0.08462781062374816,-0.0009199373264172049
503989000000,359,503989000000,FR_wheel_link,-0.9221071198318149,-4.504474142079699,6.617323883252887,-0.5094095268182993,0.09572376892412321,-0.00013258193308583743
503990000000,360,503990000000,FR_wheel_link,-0.7424768840258996,-2.648509281582567,13.578646638416782,-0.3257163548694635,0.0757605899112368,-0.001317472237762591
503991000000,361,503991000000,FR_wheel_link,-0.7799154805330337,-3.1473185795001823,8.17363424998608,-0.36248425295840314,0.08414061769205411,-0.0008042783422996282
503992000000,362,503992000000,FR_wheel_link,-0.9248121234198432,-4.443815597241688,6.6201278215549015,-0.5023115850873883,0.09615267074910266,-0.00024260891601809303
503993000000,363,503993000000,FR_wheel_link,-0.736443421726003,-2.574896255253926,13.686143322397905,-0.3177826598681158,0.07526932366483381,-0.0013416449297575517
503994000000,364,503994000000,FR_wheel_link,-0.7795070856925888,-3.0901344249951745,8.184247736487587,-0.3561917220443901,0.08414741622484839,-0.0007124883692334015
503995000000,365,503995000000,FR_wheel_link,-0.9328206947436257,-4.405739437979165,6.635466663050625,-0.49787051337596533,0.09712233747422208,-0.00033455542053076326
