%time,field.header.seq,field.header.stamp,field.header.frame_id,field.name0,field.name1,field.name2,field.name3,field.position0,field.position1,field.position2,field.position3,field.velocity0,field.velocity1,field.velocity2,field.velocity3,field.effort0,field.effort1,field.effort2,field.effort3
503635000000,3943,503630000000,,BL_TO_BASELINK,BR_TO_BASELINK,FL_TO_BASELINK,FR_TO_BASELINK,-0.00932333026958787,0.03959602523546479,-0.1207204836142779,-0.15884007517433663,-0.024980858367836496,-0.00010757683385514277,-0.00030059205611724857,-0.0371346480433553,0.0,0.0,0.0,0.0
503635000000,3944,503631000000,,BL_TO_BASELINK,BR_TO_BASELINK,FL_TO_BASELINK,FR_TO_BASELINK,-0.009315592363562608,0.039594710552226076,-0.12072183770391653,-0.15890230583818,0.00783073197614598,-0.0013088082879915072,-0.001349719184521106,-0.06220874114592956,0.0,0.0,0.0,0.0
503635000000,3945,503632000000,,BL_TO_BASELINK,BR_TO_BASELINK,FL_TO_BASELINK,FR_TO_BASELINK,-0.00935483372892687,0.039595146716094654,-0.12072154685936898,-0.15895209763161322,-0.03926285135923644,0.0004361752314352048,0.0002893596193840921,-0.049780133504379175,0.0,0.0,0.0,0.0
503636000000,3946,503633000000,,BL_TO_BASELINK,BR_TO_BASELINK,FL_TO_BASELINK,FR_TO_BASELINK,-0.00935493222788164,0.03959479726764581,-0.12083272855357041,-0.15895881763242858,-9.869905757993458e-05,-0.000349491886581052,-0.11117297060101265,-0.006845924179781514,0.0,0.0,0.0,0.0
503636000000,3947,503634000000,,BL_TO_BASELINK,BR_TO_BASELINK,FL_TO_BASELINK,FR_TO_BASELINK,-0.009354932121484971,0.039594797265166015,-0.12083272302053949,-0.15895880905561466,-2.381949373853054e-09,-6.105968612668544e-10,7.097147967233264e-08,-6.393045320560176e-08,0.0,0.0,0.0,0.0
503636000000,3948,503635000000,,BL_TO_BASELINK,BR_TO_BASELINK,FL_TO_BASELINK,FR_TO_BASELINK,-0.009450673887864802,0.03959917271984903,-0.12084194826835137,-0.1590530551174707,-0.09597404922198714,0.00448630576813148,-0.008384010816590945,-0.09437914545409243,0.0,0.0,0.0,0.0
503636000000,3949,503636000000,,BL_TO_BASELINK,BR_TO_BASELINK,FL_TO_BASELINK,FR_TO_BASELINK,-0.009450669559584846,0.039599172717053044,-0.12084194344149157,-0.15905304574053147,9.42604663767277e-09,-7.974281616973666e-10,-4.686876110653049e-08,5.6631041895835454e-08,0.0,0.0,0.0,0.0
503637000000,3950,503637000000,,BL_TO_BASELINK,BR_TO_BASELINK,FL_TO_BASELINK,FR_TO_BASELINK,-0.009437146237394778,0.039596923731468614,-0.12094664892368368,-0.15905314033541273,0.013697196494374331,-0.0022488445900615086,-0.10469027740866949,-0.00010065547493764504,0.0,0.0,0.0,0.0
503638000000,3951,503638000000,,BL_TO_BASELINK,BR_TO_BASELINK,FL_TO_BASELINK,FR_TO_BASELINK,-0.009457994733524266,0.039597381495881656,-0.12094649062088969,-0.15912312010977558,-0.02107948427909003,0.00045793789927495165,0.00014695138089467624,-0.06997201296427133,0.0,0.0,0.0,0.0
503639000000,3952,503639000000,,BL_TO_BASELINK,BR_TO_BASELINK,FL_TO_BASELINK,FR_TO_BASELINK,-0.00945807003985788,0.03959700630981633,-0.12106706611777973,-0.15912870217032804,-0.0001140605958484843,-0.00037539661234226897,-0.12056825549247203,-0.005679668149297188,0.0,0.0,0.0,0.0
503640000000,3953,503640000000,,BL_TO_BASELINK,BR_TO_BASELINK,FL_TO_BASELINK,FR_TO_BASELINK,-0.009458145675425023,0.03959675487980352,-0.12106758532553208,-0.15923994902422045,-0.00010021414567768817,-0.00025143018877133924,-0.0005352486396755845,-0.11123268733898307,0.0,0.0,0.0,0.0
503641000000,3954,503641000000,,BL_TO_BASELINK,BR_TO_BASELINK,FL_TO_BASELINK,FR_TO_BASELINK,-0.009533959170934914,0.039595565559822354,-0.12115274061885906,-0.1593186417380359,-0.07585505774493963,-0.0011886179342704053,-0.08516470780428721,-0.07870309685115653,0.0,0.0,0.0,0.0
503642000000,3955,503642000000,,BL_TO_BASELINK,BR_TO_BASELINK,FL_TO_BASELINK,FR_TO_BASELINK,-0.009521496575108479,0.03959357291832877,-0.12115475625550154,-0.15939317054559332,0.012638466143994472,-0.001992731559805278,-0.0020270427458055195,-0.07451784117009433,0.0,0.0,0.0,0.0
503643000000,3956,503643000000,,BL_TO_BASELINK,BR_TO_BASELINK,FL_TO_BASELINK,FR_TO_BASELINK,-0.009521091155131778,0.03959459826657774,-0.12125894445699537,-0.15948063947554303,0.00039649913687245415,0.0010227047098319078,-0.10410747951723291,-0.0874476779498728,0.0,0.0,0.0,0.0
503644000000,3957,503644000000,,BL_TO_BASELINK,BR_TO_BASELINK,FL_TO_BASELINK,FR_TO_BASELINK,-0.009521160507913073,0.03959435192226035,-0.121259399784865,-0.15956207146835943,-7.483210175899917e-05,-0.0002463357289530163,-0.0004640888594238035,-0.08141824859729259,0.0,0.0,0.0,0.0
503645000000,3958,503645000000,,BL_TO_BASELINK,BR_TO_BASELINK,FL_TO_BASELINK,FR_TO_BASELINK,-0.009571258320243636,0.039592633529639265,-0.12132047605927099,-0.15962274045006275,-0.050118571836357914,-0.0017180756509378465,-0.061085128574900366,-0.060678642076330634,0.0,0.0,0.0,0.0
503646000000,3959,503646000000,,BL_TO_BASELINK,BR_TO_BASELINK,FL_TO_BASELINK,FR_TO_BASELINK,-0.009614265830962587,0.03959093851301265,-0.12132212723823699,-0.15967882117823073,-0.042987715787266206,-0.0016943632944558355,-0.0016570298500347032,-0.05607445904438618,0.0,0.0,0.0,0.0
503646000000,3960,503647000000,,BL_TO_BASELINK,BR_TO_BASELINK,FL_TO_BASELINK,FR_TO_BASELINK,-0.00961440620317422,0.03959052649068173,-0.12142423366989874,-0.1596898263043176,-0.0001427351169825085,-0.0004122911445649108,-0.10210275504346134,-0.011165151427420868,0.0,0.0,0.0,0.0
503646000000,3961,503648000000,,BL_TO_BASELINK,BR_TO_BASELINK,FL_TO_BASELINK,FR_TO_BASELINK,-0.009662950765066292,0.03959106509763721,-0.12142389287494382,-0.15974930957390576,-0.04853867395854472,0.0005386047700681167,0.0003304231606633401,-0.05948044155911447,0.0,0.0,0.0,0.0
503649000000,3962,503649000000,,BL_TO_BASELINK,BR_TO_BASELINK,FL_TO_BASELINK,FR_TO_BASELINK,-0.009663069351117493,0.039590615123779926,-0.12148972960313742,-0.15981910710849867,-0.00012313562961941988,-0.000449981333258406,-0.06581993945074516,-0.06981194387363351,0.0,0.0,0.0,0.0
503650000000,3963,503650000000,,BL_TO_BASELINK,BR_TO_BASELINK,FL_TO_BASELINK,FR_TO_BASELINK,-0.009663138750942046,0.03959038603808196,-0.12149015734298274,-0.15989351072128066,-7.229930179158614e-05,-0.00022908101028173457,-0.00043855425828511624,-0.07439531123550863,0.0,0.0,0.0,0.0
503651000000,3964,503651000000,,BL_TO_BASELINK,BR_TO_BASELINK,FL_TO_BASELINK,FR_TO_BASELINK,-0.009715293305410988,0.03958985911839541,-0.12154870419401576,-0.1599450414030823,-0.052167821126240105,-0.0005261806937953712,-0.05855709702683268,-0.05154122113000397,0.0,0.0,0.0,0.0
503652000000,3965,503652000000,,BL_TO_BASELINK,BR_TO_BASELINK,FL_TO_BASELINK,FR_TO_BASELINK,-0.009757281104058713,0.03958862570511279,-0.1215499054001441,-0.15999595759376284,-0.04198609345029066,-0.0012334219547472242,-0.0012101341635737013,-0.05090936251438552,0.0,0.0,0.0,0.0
503653000000,3966,503653000000,,BL_TO_BASELINK,BR_TO_BASELINK,FL_TO_BASELINK,FR_TO_BASELINK,-0.009757507956405398,0.0395880871085712,-0.12164484995856917,-0.16000767294680251,-0.00022722669106458454,-0.0005391130704606346,-0.09495296906187933,-0.011830715943566657,0.0,0.0,0.0,0.0
503654000000,3967,503654000000,,BL_TO_BASELINK,BR_TO_BASELINK,FL_TO_BASELINK,FR_TO_BASELINK,-0.009796458899924865,0.03958881355700772,-0.12164430367154999,-0.16005798349693912,-0.03894696128644786,0.0007265455008082788,0.0005360799278901311,-0.05030744221841571,0.0,0.0,0.0,0.0
503655000000,3968,503655000000,,BL_TO_BASELINK,BR_TO_BASELINK,FL_TO_BASELINK,FR_TO_BASELINK,-0.009796569046369719,0.039588401904713244,-0.1217045732314066,-0.16012577822702312,-0.0001125095310952548,-0.00041168460828182405,-0.06025505383522036,-0.06781544548768632,0.0,0.0,0.0,0.0
503656000000,3969,503656000000,,BL_TO_BASELINK,BR_TO_BASELINK,FL_TO_BASELINK,FR_TO_BASELINK,-0.009796639041595334,0.03958817434792916,-0.1217049976347635,-0.16019943014952176,-7.149250062647369e-05,-0.00022755466414869918,-0.0004346511437301106,-0.07364382470083346,0.0,0.0,0.0,0.0
503656000000,3970,503657000000,,BL_TO_BASELINK,BR_TO_BASELINK,FL_TO_BASELINK,FR_TO_BASELINK,-0.009840617476306157,0.039587666370084484,-0.12175415195348549,-0.16024598903779008,-0.04398867693173142,-0.0005071381981436238,-0.049162451987784794,-0.046564540438144196,0.0,0.0,0.0,0.0
503658000000,3971,503658000000,,BL_TO_BASELINK,BR_TO_BASELINK,FL_TO_BASELINK,FR_TO_BASELINK,-0.009871756259026476,0.03958657442881819,-0.12175524290767115,-0.16029803936682896,-0.031077887383150975,-0.0010918994828792612,-0.0010986496969191944,-0.052046891005151454,0.0,0.0,0.0,0.0
503659000000,3972,503659000000,,BL_TO_BASELINK,BR_TO_BASELINK,FL_TO_BASELINK,FR_TO_BASELINK,-0.009872140171897748,0.03958593880813144,-0.12185282350244364,-0.1602986521601686,-0.000389806737503471,-0.0006406763551833512,-0.09761686617003125,-0.00030175522603403254,0.0,0.0,0.0,0.0
503659000000,3973,503660000000,,BL_TO_BASELINK,BR_TO_BASELINK,FL_TO_BASELINK,FR_TO_BASELINK,-0.009893880860929904,0.03958595150093469,-0.12185281426673633,-0.1602986532627817,-0.0217342562604143,1.2948746737746764e-05,3.670615532219701e-07,-1.0356236062478152e-05,0.0,0.0,0.0,0.0
503661000000,3974,503661000000,,BL_TO_BASELINK,BR_TO_BASELINK,FL_TO_BASELINK,FR_TO_BASELINK,-0.009894078226232672,0.039585251493645224,-0.12199156865473881,-0.1604526279788132,-0.0001889657177816806,-0.0006539637625201794,-0.13450250135866776,-0.14112352912933096,0.0,0.0,0.0,0.0
503662000000,3975,503662000000,,BL_TO_BASELINK,BR_TO_BASELINK,FL_TO_BASELINK,FR_TO_BASELINK,-0.009917789484982897,0.03958522635927242,-0.12199177155705243,-0.16048566427988753,-0.026339263141530674,-5.608961204640189e-05,-0.0002420360015122948,-0.03558438851093555,0.0,0.0,0.0,0.0
503663000000,3976,503663000000,,BL_TO_BASELINK,BR_TO_BASELINK,FL_TO_BASELINK,FR_TO_BASELINK,-0.009911201633436839,0.03958437374179713,-0.12199271075476226,-0.16054649870843463,0.006673423009117106,-0.0008524044004570904,-0.0009417040256595281,-0.06081186748118554,0.0,0.0,0.0,0.0
503664000000,3977,503664000000,,BL_TO_BASELINK,BR_TO_BASELINK,FL_TO_BASELINK,FR_TO_BASELINK,-0.00995352594311516,0.0395847140442962,-0.1219925056788922,-0.1605963661182095,-0.04232275970775409,0.00034029859769983684,0.00020340129183759117,-0.04985591011354745,0.0,0.0,0.0,0.0
503664000000,3978,503665000000,,BL_TO_BASELINK,BR_TO_BASELINK,FL_TO_BASELINK,FR_TO_BASELINK,-0.009953672616442866,0.039584270380346176,-0.12209436346460922,-0.16061035665847356,-0.00014958077487649962,-0.0004438866303658421,-0.10186406244869618,-0.014184931256405256,0.0,0.0,0.0,0.0
503666000000,3979,503666000000,,BL_TO_BASELINK,BR_TO_BASELINK,FL_TO_BASELINK,FR_TO_BASELINK,-0.009953750349569468,0.039584058660520505,-0.12209479622515307,-0.16070432561942738,-7.943884501969076e-05,-0.00021171767210706807,-0.000437144163244519,-0.09395309688088566,0.0,0.0,0.0,0.0
503667000000,3980,503667000000,,BL_TO_BASELINK,BR_TO_BASELINK,FL_TO_BASELINK,FR_TO_BASELINK,-0.010001758400913552,0.039583486628795406,-0.12214979146524119,-0.16075375111454804,-0.04801530261866484,-0.0005713102774834444,-0.05500305583906217,-0.04943019419231438,0.0,0.0,0.0,0.0
503668000000,3981,503668000000,,BL_TO_BASELINK,BR_TO_BASELINK,FL_TO_BASELINK,FR_TO_BASELINK,-0.009992472984365897,0.03958199588170341,-0.12215131173777483,-0.1608206680145159,0.009408687389958858,-0.00149062656651245,-0.0015238419099992268,-0.0669044302044602,0.0,0.0,0.0,0.0
503669000000,3982,503669000000,,BL_TO_BASELINK,BR_TO_BASELINK,FL_TO_BASELINK,FR_TO_BASELINK,-0.009977582839899135,0.039579221043807955,-0.12227246675018666,-0.16081136046833233,0.014972265407447803,-0.0027945141620390954,-0.12119686438893747,0.009750968831496735,0.0,0.0,0.0,0.0
503670000000,3983,503670000000,,BL_TO_BASELINK,BR_TO_BASELINK,FL_TO_BASELINK,FR_TO_BASELINK,-0.00997904888657164,0.03957941742620097,-0.12227231082691237,-0.1608112649437059,-0.0014833664636515892,0.00019640188326725677,0.00015075028654067124,8.057884049486597e-05,0.0,0.0,0.0,0.0
503671000000,3984,503671000000,,BL_TO_BASELINK,BR_TO_BASELINK,FL_TO_BASELINK,FR_TO_BASELINK,-0.009979252767508662,0.039578690829693564,-0.12242075687835996,-0.16096497393964082,-0.00019868585818356987,-0.0006941442555772961,-0.14556861646896307,-0.1445802065130779,0.0,0.0,0.0,0.0
503673000000,3985,503673000000,,BL_TO_BASELINK,BR_TO_BASELINK,FL_TO_BASELINK,FR_TO_BASELINK,-0.010005346029680062,0.039577692251071106,-0.12242204958348157,-0.16107084712841857,0.005179070052816237,-0.0009312460647607698,-0.0010316975405248556,-0.06463385127980925,0.0,0.0,0.0,0.0
503674000000,3986,503674000000,,BL_TO_BASELINK,BR_TO_BASELINK,FL_TO_BASELINK,FR_TO_BASELINK,-0.010005478059789574,0.03957720429151035,-0.12249092658067351,-0.16114204054487846,-0.00013237701144563387,-0.0004879688005149409,-0.06887691217469637,-0.07120931614258666,0.0,0.0,0.0,0.0
503675000000,3987,503675000000,,BL_TO_BASELINK,BR_TO_BASELINK,FL_TO_BASELINK,FR_TO_BASELINK,-0.010005549549833681,0.039576975043678964,-0.12249136069809463,-0.1612197036828542,-7.172170690396447e-05,-0.000229243678449629,-0.00043676073869287685,-0.07765183672904787,0.0,0.0,0.0,0.0
503676000000,3988,503676000000,,BL_TO_BASELINK,BR_TO_BASELINK,FL_TO_BASELINK,FR_TO_BASELINK,-0.01006736390803109,0.03957601181186643,-0.12256282685364983,-0.16128585263370088,-0.06178314476354621,-0.0009624254088742724,-0.07147379492970517,-0.0661653713850306,0.0,0.0,0.0,0.0
503677000000,3989,503677000000,,BL_TO_BASELINK,BR_TO_BASELINK,FL_TO_BASELINK,FR_TO_BASELINK,-0.010110218193015719,0.039574476127756775,-0.12256436923409009,-0.16134191488264538,-0.04286668087979893,-0.001535167834449,-0.0015452089337777315,-0.05605825127285562,0.0,0.0,0.0,0.0
503677000000,3990,503678000000,,BL_TO_BASELINK,BR_TO_BASELINK,FL_TO_BASELINK,FR_TO_BASELINK,-0.010110669071084821,0.039573653355886584,-0.12266758262503696,-0.1613335223303478,-0.0004616190635894149,-0.0008222447377290061,-0.10324637012912558,0.008831592650132569,0.0,0.0,0.0,0.0
503679000000,3991,503679000000,,BL_TO_BASELINK,BR_TO_BASELINK,FL_TO_BASELINK,FR_TO_BASELINK,-0.010131289790211717,0.039573695738716275,-0.12266754817768355,-0.16133350802883228,-0.02060636437528323,4.254804063807266e-05,2.846693897296665e-05,3.7692167890318595e-06,0.0,0.0,0.0,0.0
503680000000,3992,503680000000,,BL_TO_BASELINK,BR_TO_BASELINK,FL_TO_BASELINK,FR_TO_BASELINK,-0.010131481950302224,0.039572990127360264,-0.1228070052393937,-0.16149046206101403,-0.00019279215776359798,-0.0006629890705617189,-0.13554581610638738,-0.14514296971038554,0.0,0.0,0.0,0.0
503681000000,3993,503681000000,,BL_TO_BASELINK,BR_TO_BASELINK,FL_TO_BASELINK,FR_TO_BASELINK,-0.01015565154235798,0.03957291363076276,-0.12280726932746067,-0.16152625760863693,-0.025572752544270386,-9.185913982828406e-05,-0.0002855464501747215,-0.03720190691731805,0.0,0.0,0.0,0.0
503682000000,3994,503682000000,,BL_TO_BASELINK,BR_TO_BASELINK,FL_TO_BASELINK,FR_TO_BASELINK,-0.010148076120358063,0.039571587104080486,-0.12280868639232256,-0.16158850890277954,0.007660175856457022,-0.001326031336446534,-0.001418672050263834,-0.062233172829053454,0.0,0.0,0.0,0.0
503683000000,3995,503683000000,,BL_TO_BASELINK,BR_TO_BASELINK,FL_TO_BASELINK,FR_TO_BASELINK,-0.01018795914170223,0.03957204222134347,-0.12280837548231105,-0.16163823107799935,-0.039895040921187126,0.0004551247239172086,0.00030955038557382505,-0.04971094844002023,0.0,0.0,0.0,0.0
503684000000,3996,503684000000,,BL_TO_BASELINK,BR_TO_BASELINK,FL_TO_BASELINK,FR_TO_BASELINK,-0.010188056845662707,0.039571692656992674,-0.12292129079138192,-0.16164434507316905,-9.856011444596413e-05,-0.0003495933790618709,-0.11290455760523828,-0.006231119858193607,0.0,0.0,0.0,0.0
503685000000,3997,503685000000,,BL_TO_BASELINK,BR_TO_BASELINK,FL_TO_BASELINK,FR_TO_BASELINK,-0.01018805632236397,0.039571692655319346,-0.12292128537644942,-0.1616443370674201,-5.237599198099074e-09,-4.243874140996695e-10,7.544063049258476e-08,-6.500102681453179e-08,0.0,0.0,0.0,0.0
503686000000,3998,503686000000,,BL_TO_BASELINK,BR_TO_BASELINK,FL_TO_BASELINK,FR_TO_BASELINK,-0.010283852254747039,0.039575277583480784,-0.12291211748557718,-0.1617428971096846,-0.09597038759489394,0.0036507922461423443,0.008689048446464408,-0.09869877709470451,0.0,0.0,0.0,0.0
503687000000,3999,503687000000,,BL_TO_BASELINK,BR_TO_BASELINK,FL_TO_BASELINK,FR_TO_BASELINK,-0.010283847285453618,0.03957527758048407,-0.12291211548516845,-0.16174288893047795,1.0410561213439196e-08,2.7311297667864665e-10,-4.296993846852892e-08,4.864958933273322e-08,0.0,0.0,0.0,0.0
503688000000,4000,503688000000,,BL_TO_BASELINK,BR_TO_BASELINK,FL_TO_BASELINK,FR_TO_BASELINK,-0.010269552717941721,0.03957289883995152,-0.12301792086361463,-0.1617429790545284,0.014478688511879402,-0.0023786147976743457,-0.10579532300529285,-9.541816581067368e-05,0.0,0.0,0.0,0.0
503689000000,4001,503689000000,,BL_TO_BASELINK,BR_TO_BASELINK,FL_TO_BASELINK,FR_TO_BASELINK,-0.01031040060124333,0.039573346030182144,-0.12301777811744863,-0.16181313497577499,-0.04108196863287325,0.00044736481173209,0.00013504061539051926,-0.0701488581816693,0.0,0.0,0.0,0.0
503690000000,4002,503690000000,,BL_TO_BASELINK,BR_TO_BASELINK,FL_TO_BASELINK,FR_TO_BASELINK,-0.010310479411105078,0.03957296601060012,-0.12313760600740764,-0.1618182609686034,-0.00011682086156794211,-0.00038019373461707466,-0.11982119316773818,-0.005210602846442727,0.0,0.0,0.0,0.0
503691000000,4003,503691000000,,BL_TO_BASELINK,BR_TO_BASELINK,FL_TO_BASELINK,FR_TO_BASELINK,-0.010310555938700006,0.03957271462336909,-0.12313812927281909,-0.16192924850925472,-0.00010064263156023788,-0.0002513877418630671,-0.0005358882022250926,-0.11097440347062684,0.0,0.0,0.0,0.0
503692000000,4004,503692000000,,BL_TO_BASELINK,BR_TO_BASELINK,FL_TO_BASELINK,FR_TO_BASELINK,-0.01038814659395193,0.039571534376478645,-0.12322419511682092,-0.16200897416349314,-0.07762993153004948,-0.0011796900810170027,-0.08607328964791006,-0.07973606720171916,0.0,0.0,0.0,0.0
503693000000,4005,503693000000,,BL_TO_BASELINK,BR_TO_BASELINK,FL_TO_BASELINK,FR_TO_BASELINK,-0.010375636672866229,0.03956953155221132,-0.12322622216535883,-0.1620832883098604,0.012688204141315877,-0.0020027120021099375,-0.0020359793251816544,-0.07430462222920106,0.0,0.0,0.0,0.0
503694000000,4006,503694000000,,BL_TO_BASELINK,BR_TO_BASELINK,FL_TO_BASELINK,FR_TO_BASELINK,-0.0103752359873166,0.03957055453450664,-0.12333330004552856,-0.16217266523982765,0.00039159110718605707,0.0010204348965944677,-0.10699302109943704,-0.08935479544032313,0.0,0.0,0.0,0.0
503695000000,4007,503695000000,,BL_TO_BASELINK,BR_TO_BASELINK,FL_TO_BASELINK,FR_TO_BASELINK,-0.010375305990859118,0.03957030728071942,-0.123333759447954,-0.16225443261768469,-7.553623235371024e-05,-0.00024724453847171576,-0.0004666242081646614,-0.08175411596658239,0.0,0.0,0.0,0.0
503696000000,4008,503696000000,,BL_TO_BASELINK,BR_TO_BASELINK,FL_TO_BASELINK,FR_TO_BASELINK,-0.010424605885640759,0.03956863493950813,-0.12339380316398518,-0.16231420165539667,-0.0493188755484961,-0.0016720164796179375,-0.06005130840688419,-0.059778529286581505,0.0,0.0,0.0,0.0
503697000000,4009,503697000000,,BL_TO_BASELINK,BR_TO_BASELINK,FL_TO_BASELINK,FR_TO_BASELINK,-0.01046878848182331,0.03956699880197512,-0.12339540176760622,-0.16237047654893821,-0.0441628105041309,-0.0016357307532758152,-0.0016036160158246354,-0.05626789746278772,0.0,0.0,0.0,0.0
503698000000,4010,503698000000,,BL_TO_BASELINK,BR_TO_BASELINK,FL_TO_BASELINK,FR_TO_BASELINK,-0.010468917599975924,0.039566601185322625,-0.12349891881696529,-0.16238128023037923,-0.00013162023032921646,-0.00039783365649725955,-0.10351387648802056,-0.0109664166373409,0.0,0.0,0.0,0.0
503699000000,4011,503699000000,,BL_TO_BASELINK,BR_TO_BASELINK,FL_TO_BASELINK,FR_TO_BASELINK,-0.010468996648036466,0.03956638964433701,-0.12349934906468896,-0.16247497162607694,-8.049641301392102e-05,-0.00021153243101720842,-0.00043965793805517475,-0.09367665484582119,0.0,0.0,0.0,0.0
503700000000,4012,503700000000,,BL_TO_BASELINK,BR_TO_BASELINK,FL_TO_BASELINK,FR_TO_BASELINK,-0.010512534589086187,0.039565915521384554,-0.12355054292002343,-0.1625192358349512,-0.043539202502535505,-0.0004734604746964195,-0.05119754750120092,-0.04427021685448344,0.0,0.0,0.0,0.0
503701000000,4013,503701000000,,BL_TO_BASELINK,BR_TO_BASELINK,FL_TO_BASELINK,FR_TO_BASELINK,-0.01050421648939448,0.03956457787753642,-0.1235519166207979,-0.16258617367359562,0.008433144686169972,-0.001337631544938541,-0.0013815076922417142,-0.06692519585766127,0.0,0.0,0.0,0.0
503702000000,4014,503702000000,,BL_TO_BASELINK,BR_TO_BASELINK,FL_TO_BASELINK,FR_TO_BASELINK,-0.010492104618220921,0.03956392070025494,-0.1236789878729283,-0.16261385022554187,0.012123920172941602,-0.0006468623013063772,-0.12697869692649058,-0.028157732089693792,0.0,0.0,0.0,0.0
503703000000,4015,503703000000,,BL_TO_BASELINK,BR_TO_BASELINK,FL_TO_BASELINK,FR_TO_BASELINK,-0.010544371624030546,0.03956470519789246,-0.12367840460707313,-0.1626692049337688,-0.05227168831580347,0.0007845283588362242,0.0005746531107241604,-0.05534641908227726,0.0,0.0,0.0,0.0
503704000000,4016,503704000000,,BL_TO_BASELINK,BR_TO_BASELINK,FL_TO_BASELINK,FR_TO_BASELINK,-0.010543898411176755,0.03956596921760891,-0.12376859452482947,-0.16275316668787987,0.0004722609108254814,0.0012611661408300466,-0.09010118868007735,-0.08394747559753857,0.0,0.0,0.0,0.0
503705000000,4017,503705000000,,BL_TO_BASELINK,BR_TO_BASELINK,FL_TO_BASELINK,FR_TO_BASELINK,-0.010543971186265821,0.03956573295425869,-0.12376903369392878,-0.16283111415054918,-7.28473924768748e-05,-0.00023623677856181996,-0.00044729480225581125,-0.0779367073165405,0.0,0.0,0.0,0.0
503706000000,4018,503706000000,,BL_TO_BASELINK,BR_TO_BASELINK,FL_TO_BASELINK,FR_TO_BASELINK,-0.010592942880860434,0.03956656291238847,-0.12382543050996375,-0.16288113010664595,-0.048951825021136264,0.000828663994099331,-0.05637139385471489,-0.050023996830333456,0.0,0.0,0.0,0.0
503707000000,4019,503707000000,,BL_TO_BASELINK,BR_TO_BASELINK,FL_TO_BASELINK,FR_TO_BASELINK,-0.010585635754427614,0.039565419858914375,-0.12382658270760416,-0.16293726640903827,0.007395005345616183,-0.001142988667378636,-0.001157991315765071,-0.05613095347212256,0.0,0.0,0.0,0.0
503708000000,4020,503708000000,,BL_TO_BASELINK,BR_TO_BASELINK,FL_TO_BASELINK,FR_TO_BASELINK,-0.01058613799736463,0.03956432406809629,-0.12393057798836082,-0.1629414879230957,-0.0005008786110981545,-0.0010866299265278427,-0.10401827392163492,-0.004158838115126528,0.0,0.0,0.0,0.0
503709000000,4021,503709000000,,BL_TO_BASELINK,BR_TO_BASELINK,FL_TO_BASELINK,FR_TO_BASELINK,-0.010605074361695443,0.039564254489381945,-0.12393063254389602,-0.16294151646788002,-0.018925113065310896,-7.160432634090858e-05,-6.46294927952526e-05,-4.6229087180459094e-05,0.0,0.0,0.0,0.0
503710000000,4022,503710000000,,BL_TO_BASELINK,BR_TO_BASELINK,FL_TO_BASELINK,FR_TO_BASELINK,-0.010605275945490433,0.039563531834699184,-0.12407423767795223,-0.16310061490072414,-0.00019623142719878833,-0.0006752754665198535,-0.13926799400940787,-0.1459270385057156,0.0,0.0,0.0,0.0
503711000000,4023,503711000000,,BL_TO_BASELINK,BR_TO_BASELINK,FL_TO_BASELINK,FR_TO_BASELINK,-0.01062972626336034,0.03956344604200712,-0.1240745121706599,-0.16313771896056295,-0.025999371821370774,-0.00010308526502523022,-0.00029900248751480243,-0.03860204094874634,0.0,0.0,0.0,0.0
503711000000,4024,503712000000,,BL_TO_BASELINK,BR_TO_BASELINK,FL_TO_BASELINK,FR_TO_BASELINK,-0.010621923347312823,0.03956209114156106,-0.12407592345554264,-0.1632013945953812,0.007902387327140218,-0.0013521863755933863,-0.0014102463762105805,-0.06365510281425486,0.0,0.0,0.0,0.0
503713000000,4025,503713000000,,BL_TO_BASELINK,BR_TO_BASELINK,FL_TO_BASELINK,FR_TO_BASELINK,-0.010661227399965334,0.039562529914665134,-0.12407563043934111,-0.16325224242369707,-0.039316567787831685,0.0004387824500002857,0.00029108046865677917,-0.05083621879198085,0.0,0.0,0.0,0.0
503714000000,4026,503714000000,,BL_TO_BASELINK,BR_TO_BASELINK,FL_TO_BASELINK,FR_TO_BASELINK,-0.010661327027585266,0.03956217629704284,-0.12418758946361486,-0.16325924800339386,-0.00010023515120603788,-0.0003536661497011914,-0.11194908292955318,-0.007138763949529659,0.0,0.0,0.0,0.0
503715000000,4027,503715000000,,BL_TO_BASELINK,BR_TO_BASELINK,FL_TO_BASELINK,FR_TO_BASELINK,-0.010661326668405913,0.03956217629407632,-0.12418758307975963,-0.16325923767741024,-4.606867758799593e-09,-1.1932236275435937e-09,7.538468030712786e-08,-7.048331163855837e-08,0.0,0.0,0.0,0.0
503716000000,4028,503716000000,,BL_TO_BASELINK,BR_TO_BASELINK,FL_TO_BASELINK,FR_TO_BASELINK,-0.010758928985091565,0.039569325885174145,-0.12410210795134446,-0.16334896845314084,-0.09754333642252086,0.007109874077366247,0.08773632874639643,-0.0896391603584156,0.0,0.0,0.0,0.0
503717000000,4029,503717000000,,BL_TO_BASELINK,BR_TO_BASELINK,FL_TO_BASELINK,FR_TO_BASELINK,-0.010759099020281049,0.03956886237128199,-0.1241854535758673,-0.16334817660748424,-0.00017702504718287472,-0.0004639102949286888,-0.08337357239062299,0.0007829705195937751,0.0,0.0,0.0,0.0
503718000000,4030,503718000000,,BL_TO_BASELINK,BR_TO_BASELINK,FL_TO_BASELINK,FR_TO_BASELINK,-0.010759094852698325,0.03956886236356549,-0.12418545332129494,-0.16334816996332435,-4.521858318687344e-08,3.1987401130639803e-09,-3.9573770265963204e-08,-2.2268390096995272e-07,0.0,0.0,0.0,0.0
503719000000,4031,503719000000,,BL_TO_BASELINK,BR_TO_BASELINK,FL_TO_BASELINK,FR_TO_BASELINK,-0.010759312107783359,0.039568106943895565,-0.12434130438522839,-0.16351267788271784,-0.00021996139777807205,-0.0007554301487358375,-0.1558589115940311,-0.1645273337299974,0.0,0.0,0.0,0.0
503720000000,4032,503720000000,,BL_TO_BASELINK,BR_TO_BASELINK,FL_TO_BASELINK,FR_TO_BASELINK,-0.01081664821540329,0.03956799001281208,-0.1243416934089483,-0.1635736796579188,-0.05733780626905016,-0.00011687601301515332,-0.00038904739022775636,-0.06100140998529473,0.0,0.0,0.0,0.0
503721000000,4033,503721000000,,BL_TO_BASELINK,BR_TO_BASELINK,FL_TO_BASELINK,FR_TO_BASELINK,-0.01081676068851678,0.03956754596954948,-0.12440893977982004,-0.16364608597404384,-0.00011802647873343161,-0.00044405946039456634,-0.0672514582896663,-0.07241476130472022,0.0,0.0,0.0,0.0
503722000000,4034,503722000000,,BL_TO_BASELINK,BR_TO_BASELINK,FL_TO_BASELINK,FR_TO_BASELINK,-0.010816833709627716,0.03956730761152283,-0.12440939940402718,-0.1637223046881644,-7.652919935999432e-05,-0.0002383557712852622,-0.0004599796772765362,-0.07621197913456502,0.0,0.0,0.0,0.0
503723000000,4035,503723000000,,BL_TO_BASELINK,BR_TO_BASELINK,FL_TO_BASELINK,FR_TO_BASELINK,-0.010817022069618432,0.039566716825233605,-0.1245393992161139,-0.16374307995687154,-0.00019083339639891506,-0.0005910676021480023,-0.1300211932693442,-0.021049423268962447,0.0,0.0,0.0,0.0
503724000000,4036,503724000000,,BL_TO_BASELINK,BR_TO_BASELINK,FL_TO_BASELINK,FR_TO_BASELINK,-0.010817102503024145,0.03956649953881364,-0.12453984650078365,-0.16383929526190677,-8.184529009791497e-05,-0.00021728729214865253,-0.0004491200268632936,-0.0962013017574577,0.0,0.0,0.0,0.0
503725000000,4037,503725000000,,BL_TO_BASELINK,BR_TO_BASELINK,FL_TO_BASELINK,FR_TO_BASELINK,-0.010881672232187611,0.0395658774458747,-0.12461498531320725,-0.16389338578590085,-0.06456790319666175,-0.0006216557280213225,-0.07515704077037763,-0.054096384869611915,0.0,0.0,0.0,0.0
503726000000,4038,503726000000,,BL_TO_BASELINK,BR_TO_BASELINK,FL_TO_BASELINK,FR_TO_BASELINK,-0.01087452798213473,0.03956473862088483,-0.124616169927525,-0.16395466871927766,0.007231896284142654,-0.001138740446188495,-0.0011861112663544386,-0.061272352071116865,0.0,0.0,0.0,0.0
503727000000,4039,503727000000,,BL_TO_BASELINK,BR_TO_BASELINK,FL_TO_BASELINK,FR_TO_BASELINK,-0.010874733684265614,0.03956415824064674,-0.12472897543447292,-0.163971832922865,-0.00021258066365002597,-0.0005807296027516128,-0.11282178793240663,-0.017366508593374744,0.0,0.0,0.0,0.0
503728000000,4040,503728000000,,BL_TO_BASELINK,BR_TO_BASELINK,FL_TO_BASELINK,FR_TO_BASELINK,-0.010874805240562502,0.039563953073185054,-0.12472939170788155,-0.16406279412406377,-7.586388855742796e-05,-0.00020516403809301385,-0.00041993772023973634,-0.09094565331232331,0.0,0.0,0.0,0.0
503729000000,4041,503729000000,,BL_TO_BASELINK,BR_TO_BASELINK,FL_TO_BASELINK,FR_TO_BASELINK,-0.010931128558394398,0.03956337395519416,-0.12479609733897679,-0.16411661292226398,-0.05627946915249779,-0.000578298940615625,-0.06671538418577402,-0.05382843106598004,0.0,0.0,0.0,0.0
503730000000,4042,503730000000,,BL_TO_BASELINK,BR_TO_BASELINK,FL_TO_BASELINK,FR_TO_BASELINK,-0.010923755539016256,0.03956219497950375,-0.12479732551364098,-0.1641795020963137,0.007454861698753774,-0.0011788934464245053,-0.0012313781716403842,-0.06287905508361766,0.0,0.0,0.0,0.0
503731000000,4043,503731000000,,BL_TO_BASELINK,BR_TO_BASELINK,FL_TO_BASELINK,FR_TO_BASELINK,-0.010923984535230247,0.03956157173008368,-0.12490880211026845,-0.16419502652806983,-0.000247242975749927,-0.0006239272395157144,-0.11149267789166363,-0.015687075138589947,0.0,0.0,0.0,0.0
503732000000,4044,503732000000,,BL_TO_BASELINK,BR_TO_BASELINK,FL_TO_BASELINK,FR_TO_BASELINK,-0.01092404941378966,0.03956136415287492,-0.12490922030194351,-0.16428706977095686,-7.646160925109738e-05,-0.0002075708182612858,-0.00042398437030180883,-0.09202680904834794,0.0,0.0,0.0,0.0
503733000000,4045,503733000000,,BL_TO_BASELINK,BR_TO_BASELINK,FL_TO_BASELINK,FR_TO_BASELINK,-0.010976967790645276,0.03956076327386615,-0.12497239942792415,-0.16433960979674467,-0.052861161801898496,-0.0006000783409233837,-0.06318535639682715,-0.05255078154676439,0.0,0.0,0.0,0.0
503734000000,4046,503734000000,,BL_TO_BASELINK,BR_TO_BASELINK,FL_TO_BASELINK,FR_TO_BASELINK,-0.010777049656827131,0.039760452064395935,-0.12477302334811391,-0.16427771557902648,0.19988768480975666,0.19968877835285953,0.19937102468319562,0.061922632830131226,0.0,0.0,0.0,0.0
503735000000,4047,503735000000,,BL_TO_BASELINK,BR_TO_BASELINK,FL_TO_BASELINK,FR_TO_BASELINK,-0.010377380781989132,0.040159324259252394,-0.12467792843170145,-0.16390619400719508,0.399509095590854,0.3986420976173263,0.09231074291882153,0.37848212393280983,0.0,0.0,0.0,0.0
503736000000,4048,503736000000,,BL_TO_BASELINK,BR_TO_BASELINK,FL_TO_BASELINK,FR_TO_BASELINK,-0.009777368663191233,0.04075932423869233,-0.1240779098506426,-0.16330618345125458,0.5999999503039013,0.5999999993494239,0.5999999429699697,0.6000001681049562,0.0,0.0,0.0,0.0
503737000000,4049,503737000000,,BL_TO_BASELINK,BR_TO_BASELINK,FL_TO_BASELINK,FR_TO_BASELINK,-0.0089778913940739,0.041557488356611216,-0.12366047876485542,-0.1628697223796962,0.799467260120542,0.7981612688287296,0.4174915903252997,0.4361300140509891,0.0,0.0,0.0,0.0
503738000000,4050,503738000000,,BL_TO_BASELINK,BR_TO_BASELINK,FL_TO_BASELINK,FR_TO_BASELINK,-0.00804536681461343,0.04248973685200852,-0.12272851526500883,-0.16198172273709321,0.9325193254776063,0.9322485822367864,0.9319461792285233,0.887408533698566,0.0,0.0,0.0,0.0
503739000000,4051,503739000000,,BL_TO_BASELINK,BR_TO_BASELINK,FL_TO_BASELINK,FR_TO_BASELINK,-0.0071131148142864475,0.04342103156311161,-0.12217007850000883,-0.16104752206701267,0.9308972371964815,0.9288780935352169,0.5236742643383193,0.9399584570718158,0.0,0.0,0.0,0.0
503740000000,4052,503740000000,,BL_TO_BASELINK,BR_TO_BASELINK,FL_TO_BASELINK,FR_TO_BASELINK,-0.0061805872149331975,0.044353318627469385,-0.12123800613079094,-0.160156713296721,0.9325250468395048,0.9322871395904465,0.9319827450190704,0.8902357729702626,0.0,0.0,0.0,0.0
503741000000,4053,503741000000,,BL_TO_BASELINK,BR_TO_BASELINK,FL_TO_BASELINK,FR_TO_BASELINK,-0.0052482778690272625,0.045284805272597595,-0.1205499368800691,-0.1592227945438882,0.9323077275298394,0.9314866535375836,0.6882221765475076,0.9339007668556851,0.0,0.0,0.0,0.0
503742000000,4054,503742000000,,BL_TO_BASELINK,BR_TO_BASELINK,FL_TO_BASELINK,FR_TO_BASELINK,-0.0043158491241444,0.0462169451698502,-0.11961822319028936,-0.15850199121372466,0.9324268301818179,0.9321417932872214,0.9315952626899671,0.7220059761214906,0.0,0.0,0.0,0.0
503743000000,4055,503743000000,,BL_TO_BASELINK,BR_TO_BASELINK,FL_TO_BASELINK,FR_TO_BASELINK,-0.0033835084271700566,0.0471485059126886,-0.11885828836536483,-0.15761184663428462,0.9323399383406256,0.9315605750890475,0.7599740706529337,0.8894843005289665,0.0,0.0,0.0,0.0
503744000000,4056,503744000000,,BL_TO_BASELINK,BR_TO_BASELINK,FL_TO_BASELINK,FR_TO_BASELINK,-0.0024509782070047947,0.04808087799405225,-0.11792607742066163,-0.15678944985630938,0.9325298421031593,0.9323721177583619,0.9321142749768576,0.8224214519372456,0.0,0.0,0.0,0.0
503745000000,4057,503745000000,,BL_TO_BASELINK,BR_TO_BASELINK,FL_TO_BASELINK,FR_TO_BASELINK,-0.0015176254817230728,0.049015661118414044,-0.11718362663052151,-0.15581635232643531,0.9333500458896046,0.9347765277590866,0.742622285689282,0.9726097160238308,0.0,0.0,0.0,0.0
503746000000,4058,503746000000,,BL_TO_BASELINK,BR_TO_BASELINK,FL_TO_BASELINK,FR_TO_BASELINK,-0.0005850068612165416,0.04994828124064998,-0.11625093866644143,-0.15488370290185927,0.9326201360044715,0.9326201571793549,0.9326189549420961,0.9326213912007186,0.0,0.0,0.0,0.0
503748000000,4059,503747000000,,BL_TO_BASELINK,BR_TO_BASELINK,FL_TO_BASELINK,FR_TO_BASELINK,0.00034733973398193285,0.05088022036563711,-0.11531936307591195,-0.154104845219611,0.9323380291844215,0.9319370825364964,0.9315276974695041,0.7788745317096237,0.0,0.0,0.0,0.0
503748000000,4060,503748000000,,BL_TO_BASELINK,BR_TO_BASELINK,FL_TO_BASELINK,FR_TO_BASELINK,0.0012797140505735882,0.05181192369399401,-0.1145321480496575,-0.15325465148281214,0.9323774084988996,0.9317033300307624,0.787236239310151,0.8501624058099475,0.0,0.0,0.0,0.0
503749000000,4061,503749000000,,BL_TO_BASELINK,BR_TO_BASELINK,FL_TO_BASELINK,FR_TO_BASELINK,0.0022122587028121643,0.052744298348016194,-0.11359995269331513,-0.15240803005484782,0.9325451213767135,0.932374692083109,0.9321558813347917,0.8466377473746025,0.0,0.0,0.0,0.0
503750000000,4062,503750000000,,BL_TO_BASELINK,BR_TO_BASELINK,FL_TO_BASELINK,FR_TO_BASELINK,0.003144692268851834,0.05367621775876952,-0.11278279484512854,-0.15153995004956133,0.9324337232897519,0.9319194193300371,0.8171872454192775,0.8680461259099477,0.0,0.0,0.0,0.0
503751000000,4063,503751000000,,BL_TO_BASELINK,BR_TO_BASELINK,FL_TO_BASELINK,FR_TO_BASELINK,0.004077247767446224,0.054608630037713546,-0.11185053241724141,-0.15068069739114165,0.9325555911174814,0.9324123183886301,0.9322242037699754,0.8592613242816853,0.0,0.0,0.0,0.0
503752000000,4064,503752000000,,BL_TO_BASELINK,BR_TO_BASELINK,FL_TO_BASELINK,FR_TO_BASELINK,0.0050096990013761555,0.05554061596943516,-0.11102322492555317,-0.14980672692732888,0.932451287896261,0.9319859445856853,0.8273353091291957,0.8739407489583464,0.0,0.0,0.0,0.0
503753000000,4065,503753000000,,BL_TO_BASELINK,BR_TO_BASELINK,FL_TO_BASELINK,FR_TO_BASELINK,0.0059422580777317435,0.056473040093915294,-0.11009094195447577,-0.1489440017971413,0.932559126837826,0.9324241658242481,0.9322463183807108,0.8627338961118918,0.0,0.0,0.0,0.0
503754000000,4066,503754000000,,BL_TO_BASELINK,BR_TO_BASELINK,FL_TO_BASELINK,FR_TO_BASELINK,0.00687471187572708,0.057405037962006134,-0.1092616431264899,-0.1480686765571777,0.93245383679687,0.9319978830980875,0.829327358348048,0.8752965827946899,0.0,0.0,0.0,0.0
503755000000,4067,503755000000,,BL_TO_BASELINK,BR_TO_BASELINK,FL_TO_BASELINK,FR_TO_BASELINK,0.007807271374212554,0.058337466372307745,-0.10832935529775778,-0.14720427580624484,0.9325595419291284,0.932428454033492,0.9322519321478284,0.8644089570817193,0.0,0.0,0.0,0.0
503760000000,4068,503756000000,,BL_TO_BASELINK,BR_TO_BASELINK,FL_TO_BASELINK,FR_TO_BASELINK,0.008739729751416014,0.05926947831130924,-0.10749772557494897,-0.14632854517233973,0.9324584140182399,0.9320119574769682,0.8316530517299606,0.8757072339931126,0.0,0.0,0.0,0.0
503760000000,4069,503757000000,,BL_TO_BASELINK,BR_TO_BASELINK,FL_TO_BASELINK,FR_TO_BASELINK,0.009672289164035952,0.06020190368212752,-0.10656544366141496,-0.1454647279998138,0.9325594561635725,0.9324254165513965,0.9322484211929138,0.8638272768835642,0.0,0.0,0.0,0.0
503760000000,4070,503759000000,,BL_TO_BASELINK,BR_TO_BASELINK,FL_TO_BASELINK,FR_TO_BASELINK,0.011537953241565369,0.06206821319710265,-0.10482177697393968,-0.143740140323259,0.932555927509478,0.9324147456017313,0.9322273452502942,0.8633418639759636,0.0,0.0,0.0,0.0
503760000000,4071,503760000000,,BL_TO_BASELINK,BR_TO_BASELINK,FL_TO_BASELINK,FR_TO_BASELINK,0.012470397558061563,0.06300018301949795,-0.10400438450577631,-0.14286843097984292,0.9324443618658769,0.9319698629533782,0.8174006653056524,0.8716947219680606,0.0,0.0,0.0,0.0
503761000000,4072,503761000000,,BL_TO_BASELINK,BR_TO_BASELINK,FL_TO_BASELINK,FR_TO_BASELINK,0.013402953671330486,0.06393258753779474,-0.10307214077519422,-0.14200908306725069,0.9325561606129014,0.9324045665742718,0.9322170700224002,0.8593627576485643,0.0,0.0,0.0,0.0
503762000000,4073,503762000000,,BL_TO_BASELINK,BR_TO_BASELINK,FL_TO_BASELINK,FR_TO_BASELINK,0.01433517195238565,0.06486424282822156,-0.10230579463970191,-0.141096750355568,0.9322178764132256,0.9316553066435185,0.7663386528780399,0.9121285313001214,0.0,0.0,0.0,0.0
503765000000,4074,503763000000,,BL_TO_BASELINK,BR_TO_BASELINK,FL_TO_BASELINK,FR_TO_BASELINK,0.015267718902643779,0.0657966637026215,-0.10137355232760115,-0.1402529606328402,0.9325470030408063,0.932420928807865,0.932211050157093,0.8438073192703226,0.0,0.0,0.0,0.0
503765000000,4075,503764000000,,BL_TO_BASELINK,BR_TO_BASELINK,FL_TO_BASELINK,FR_TO_BASELINK,0.016200144105797065,0.06672853288471714,-0.10057011368615587,-0.13938573043785052,0.9324252501470092,0.9318692111510765,0.8034244056188848,0.8672104836145367,0.0,0.0,0.0,0.0
503765000000,4076,503765000000,,BL_TO_BASELINK,BR_TO_BASELINK,FL_TO_BASELINK,FR_TO_BASELINK,0.017132695057446412,0.06766092385695366,-0.09963789638160758,-0.13852760757690863,0.9325510048717056,0.9323910273100217,0.9321883655725736,0.8581356097322224,0.0,0.0,0.0,0.0
503766000000,4077,503766000000,,BL_TO_BASELINK,BR_TO_BASELINK,FL_TO_BASELINK,FR_TO_BASELINK,0.018066766930744826,0.06859748846157654,-0.09890154147854702,-0.1375753556081074,0.9340577926924354,0.9365117531567272,0.7366292761971509,0.9530288569758953,0.0,0.0,0.0,0.0
503767000000,4078,503767000000,,BL_TO_BASELINK,BR_TO_BASELINK,FL_TO_BASELINK,FR_TO_BASELINK,0.01899938702907633,0.06953010856296693,-0.09796888481383892,-0.13664272095554608,0.9326201755576665,0.9326201650596362,0.9326189860364653,0.9326210819513642,0.0,0.0,0.0,0.0
503768000000,4079,503768000000,,BL_TO_BASELINK,BR_TO_BASELINK,FL_TO_BASELINK,FR_TO_BASELINK,0.019931876825953765,0.07046238605147614,-0.09703694082562375,-0.13585723756405432,0.9324898188906511,0.9322774464875051,0.9319190675507913,0.7855040305740808,0.0,0.0,0.0,0.0
503769000000,4080,503769000000,,BL_TO_BASELINK,BR_TO_BASELINK,FL_TO_BASELINK,FR_TO_BASELINK,0.020864260982851768,0.07139410389341183,-0.09625454014085122,-0.13499636473525367,0.9323841758153196,0.9317177491536108,0.7824219308159351,0.8608414934804949,0.0,0.0,0.0,0.0
503770000000,4081,503770000000,,BL_TO_BASELINK,BR_TO_BASELINK,FL_TO_BASELINK,FR_TO_BASELINK,0.021796809050368182,0.07232649508520606,-0.09532233366953413,-0.13414028512552623,0.9325481349779634,0.9323912568384853,0.932180234519093,0.8560913080574457,0.0,0.0,0.0,0.0
503771000000,4082,503771000000,,BL_TO_BASELINK,BR_TO_BASELINK,FL_TO_BASELINK,FR_TO_BASELINK,0.02272924128096232,0.07325840344243417,-0.09451206292235881,-0.1332621316613798,0.9324322894367016,0.9319083890556971,0.8103003133977545,0.8781232774365498,0.0,0.0,0.0,0.0
503772000000,4083,503772000000,,BL_TO_BASELINK,BR_TO_BASELINK,FL_TO_BASELINK,FR_TO_BASELINK,0.023661800202262384,0.07419083406862548,-0.09357978152863211,-0.13239442272329605,0.9325589876727468,0.9324306929747156,0.9322515877642082,0.8677157513196827,0.0,0.0,0.0,0.0
503773000000,4084,503773000000,,BL_TO_BASELINK,BR_TO_BASELINK,FL_TO_BASELINK,FR_TO_BASELINK,0.02459424949588218,0.0751228067923746,-0.09275965235861605,-0.131511293550715,0.9324493533192113,0.9319727606666438,0.8201581239494556,0.8831044385776085,0.0,0.0,0.0,0.0
503774000000,4085,503774000000,,BL_TO_BASELINK,BR_TO_BASELINK,FL_TO_BASELINK,FR_TO_BASELINK,0.025526811696336082,0.07605524746568104,-0.09182734953058969,-0.13064101769260184,0.9325622680649449,0.9324407425372554,0.932271107894356,0.8702830984109945,0.0,0.0,0.0,0.0
503775000000,4086,503775000000,,BL_TO_BASELINK,BR_TO_BASELINK,FL_TO_BASELINK,FR_TO_BASELINK,0.026459263744719408,0.0769872328511223,-0.09100233820740566,-0.12975743401808604,0.932452110509417,0.9319854268523738,0.8250562321208011,0.8835607764900889,0.0,0.0,0.0,0.0
503776000000,4087,503776000000,,BL_TO_BASELINK,BR_TO_BASELINK,FL_TO_BASELINK,FR_TO_BASELINK,0.027391826022132193,0.07791967525400345,-0.09007003185582452,-0.12888632801896005,0.9325623475816577,0.9324424753191706,0.932273050414334,0.8711128427477901,0.0,0.0,0.0,0.0
503777000000,4088,503777000000,,BL_TO_BASELINK,BR_TO_BASELINK,FL_TO_BASELINK,FR_TO_BASELINK,0.028324283297626707,0.07885167760708622,-0.08924371213860738,-0.12800322063046465,0.9324573400602504,0.9320023977314692,0.8263442766282677,0.8830888278274999,0.0,0.0,0.0,0.0
503777000000,4089,503778000000,,BL_TO_BASELINK,BR_TO_BASELINK,FL_TO_BASELINK,FR_TO_BASELINK,0.029256845162997536,0.07978411450427991,-0.0883114138161476,-0.12713340280136443,0.932561938095406,0.9324369723679268,0.9322660071315982,0.8698261586840556,0.0,0.0,0.0,0.0
503779000000,4090,503779000000,,BL_TO_BASELINK,BR_TO_BASELINK,FL_TO_BASELINK,FR_TO_BASELINK,0.030189909157497752,0.08071792480444984,-0.0875146624448977,-0.12627142253505586,0.933063425069437,0.9338089687556912,0.7968496467204109,0.8619886108044355,0.0,0.0,0.0,0.0
503780000000,4091,503780000000,,BL_TO_BASELINK,BR_TO_BASELINK,FL_TO_BASELINK,FR_TO_BASELINK,0.031122463385113264,0.08165033665142829,-0.08658241544726142,-0.1254025151440219,0.9325543041826114,0.9324119215522029,0.9322174427382518,0.8689152607148066,0.0,0.0,0.0,0.0
503781000000,4092,503781000000,,BL_TO_BASELINK,BR_TO_BASELINK,FL_TO_BASELINK,FR_TO_BASELINK,0.03205491667957183,0.08258233659504999,-0.08577736739611552,-0.1245277118268282,0.9324533705343638,0.9320000163047808,0.8050569667796069,0.8747933303040112,0.0,0.0,0.0,0.0
503782000000,4093,503782000000,,BL_TO_BASELINK,BR_TO_BASELINK,FL_TO_BASELINK,FR_TO_BASELINK,0.03298747298170923,0.08351473802615139,-0.08484512994133997,-0.1236654484887314,0.9325563813621649,0.9324015104050045,0.9322127764971994,0.8622781859518294,0.0,0.0,0.0,0.0
503783000000,4094,503783000000,,BL_TO_BASELINK,BR_TO_BASELINK,FL_TO_BASELINK,FR_TO_BASELINK,0.03391728532881455,0.08443961795375188,-0.08386098875083103,-0.12298281925487142,0.929880956745979,0.9250615774746929,0.9868664679286558,0.6827295445814241,0.0,0.0,0.0,0.0
503784000000,4095,503784000000,,BL_TO_BASELINK,BR_TO_BASELINK,FL_TO_BASELINK,FR_TO_BASELINK,0.0348499059881604,0.08537224190284842,-0.08292818165512994,-0.12205013476253868,0.9326208084038965,0.9326241406900602,0.9328104595842885,0.9326175332943226,0.0,0.0,0.0,0.0
503785000000,4096,503785000000,,BL_TO_BASELINK,BR_TO_BASELINK,FL_TO_BASELINK,FR_TO_BASELINK,0.0357825260299629,0.08630486194234344,-0.08199556107834916,-0.12111747073398416,0.9326201722818507,0.9326201788031365,0.9326202383452173,0.932620986659151,0.0,0.0,0.0,0.0
503786000000,4097,503786000000,,BL_TO_BASELINK,BR_TO_BASELINK,FL_TO_BASELINK,FR_TO_BASELINK,0.03671476075421598,0.0872361405664055,-0.08128955875161381,-0.12037752250326061,0.9322347809996021,0.9312784835650085,0.7059747112183519,0.7399389578406642,0.0,0.0,0.0,0.0
503787000000,4098,503787000000,,BL_TO_BASELINK,BR_TO_BASELINK,FL_TO_BASELINK,FR_TO_BASELINK,0.03764738081112107,0.08816876062169055,-0.08035693746676653,-0.1194448704614599,0.9326201687650112,0.9326201740822255,0.9326202628647645,0.9326207846093474,0.0,0.0,0.0,0.0
503788000000,4099,503788000000,,BL_TO_BASELINK,BR_TO_BASELINK,FL_TO_BASELINK,FR_TO_BASELINK,0.0385787988475208,0.08909907403644013,-0.07968504685127087,-0.11874132411608329,0.931406348905358,0.9302578411825698,0.6717838565143991,0.7035034509989405,0.0,0.0,0.0,0.0
503790000000,4100,503789000000,,BL_TO_BASELINK,BR_TO_BASELINK,FL_TO_BASELINK,FR_TO_BASELINK,0.039511418897430595,0.09003169408336475,-0.07875241614445905,-0.11780866237505627,0.9326201671568808,0.9326201693986395,0.9326204388354772,0.9326208746083414,0.0,0.0,0.0,0.0
503791000000,4101,503791000000,,BL_TO_BASELINK,BR_TO_BASELINK,FL_TO_BASELINK,FR_TO_BASELINK,0.04137631971009359,0.09189579580337259,-0.07710924881689873,-0.11613244712623683,0.9326201664167164,0.9326201698676333,0.9326202880137803,0.9326205130900592,0.0,0.0,0.0,0.0
503792000000,4102,503792000000,,BL_TO_BASELINK,BR_TO_BASELINK,FL_TO_BASELINK,FR_TO_BASELINK,0.04230854364525083,0.09282705031709781,-0.07641573581862016,-0.11541360346176965,0.932184631057008,0.9311686263373147,0.6915701723540738,0.718373538192846,0.0,0.0,0.0,0.0
503793000000,4103,503793000000,,BL_TO_BASELINK,BR_TO_BASELINK,FL_TO_BASELINK,FR_TO_BASELINK,0.0432411636915635,0.09375967036041555,-0.07548310679416392,-0.11448096057907442,0.9326201638674421,0.9326201627438989,0.9326203462085729,0.932620578023108,0.0,0.0,0.0,0.0
503794000000,4104,503794000000,,BL_TO_BASELINK,BR_TO_BASELINK,FL_TO_BASELINK,FR_TO_BASELINK,0.04417344127084544,0.09469126170218001,-0.07478436594164961,-0.11354682638393765,0.9322772179910698,0.9315906668585849,0.6986965231079594,0.9341215692696089,0.0,0.0,0.0,0.0
503795000000,4105,503795000000,,BL_TO_BASELINK,BR_TO_BASELINK,FL_TO_BASELINK,FR_TO_BASELINK,0.04510580030884981,0.09562326740157179,-0.0738530193501381,-0.11284935395732631,0.9323591034427658,0.9320057215888684,0.9313421953081936,0.6975059130022095,0.0,0.0,0.0,0.0
503796000000,4106,503796000000,,BL_TO_BASELINK,BR_TO_BASELINK,FL_TO_BASELINK,FR_TO_BASELINK,0.04603818706601892,0.09655500928627703,-0.07307394421785052,-0.11191572025867647,0.9323868511353053,0.931741929691571,0.7791041172543941,0.93360166355844,0.0,0.0,0.0,0.0
503797000000,4107,503797000000,,BL_TO_BASELINK,BR_TO_BASELINK,FL_TO_BASELINK,FR_TO_BASELINK,0.04697186465090919,0.0974897154450014,-0.07213729943215696,-0.11117339910518442,0.9336755811393045,0.9347016419810212,0.9366107408780735,0.7425129521952063,0.0,0.0,0.0,0.0
503798000000,4108,503798000000,,BL_TO_BASELINK,BR_TO_BASELINK,FL_TO_BASELINK,FR_TO_BASELINK,0.047905461565763474,0.09842503321778207,-0.07138410134454265,-0.11024496463628441,0.9335948903499186,0.935311561457875,0.7533972535102846,0.9284040857743477,0.0,0.0,0.0,0.0
503799000000,4109,503799000000,,BL_TO_BASELINK,BR_TO_BASELINK,FL_TO_BASELINK,FR_TO_BASELINK,0.0488380816023577,0.09935765325476975,-0.07045143586537517,-0.10931231900618599,0.9326201635130866,0.9326201643064631,0.9326210113506233,0.9326193665928827,0.0,0.0,0.0,0.0
503800000000,4110,503800000000,,BL_TO_BASELINK,BR_TO_BASELINK,FL_TO_BASELINK,FR_TO_BASELINK,0.04977104108021457,0.10029076450362684,-0.06967911056806031,-0.1085466043911838,0.9329585728321506,0.933108953330809,0.7723210021083626,0.7657726875149311,0.0,0.0,0.0,0.0
503801000000,4111,503801000000,,BL_TO_BASELINK,BR_TO_BASELINK,FL_TO_BASELINK,FR_TO_BASELINK,0.05070366112002045,0.1012233845431858,-0.06874646505326609,-0.10761396443031312,0.9326201620966845,0.9326201617978829,0.9326202752759197,0.9326200568830558,0.0,0.0,0.0,0.0
503802000000,4112,503802000000,,BL_TO_BASELINK,BR_TO_BASELINK,FL_TO_BASELINK,FR_TO_BASELINK,0.051636111913052396,0.1021553499653054,-0.06799191293047624,-0.10683820370693731,0.9324507001871799,0.9319650391193943,0.7545523497096024,0.7757008803022144,0.0,0.0,0.0,0.0
503803000000,4113,503803000000,,BL_TO_BASELINK,BR_TO_BASELINK,FL_TO_BASELINK,FR_TO_BASELINK,0.052568731948424485,0.10308797000056558,-0.06705926986046773,-0.10590557490105557,0.9326201643473305,0.9326201643941856,0.9326200100088167,0.93262027919789,0.0,0.0,0.0,0.0
503804000000,4114,503804000000,,BL_TO_BASELINK,BR_TO_BASELINK,FL_TO_BASELINK,FR_TO_BASELINK,0.05350078370622846,0.10401918585398384,-0.06615299042364509,-0.10515984255412025,0.9320497407183554,0.9312124781041846,0.9061186903266476,0.7456777272895501,0.0,0.0,0.0,0.0
503805000000,4115,503805000000,,BL_TO_BASELINK,BR_TO_BASELINK,FL_TO_BASELINK,FR_TO_BASELINK,0.054433403733995966,0.10495180588089337,-0.065220362414812,-0.104227212715295,0.9326201631748725,0.9326201619168202,0.9326201242552697,0.932620241987221,0.0,0.0,0.0,0.0
503806000000,4116,503806000000,,BL_TO_BASELINK,BR_TO_BASELINK,FL_TO_BASELINK,FR_TO_BASELINK,0.05536577129055864,0.10588355233681757,-0.06447797040855008,-0.10333849126660155,0.9323676259858505,0.9317464595341028,0.7423896455678277,0.8881951599095268,0.0,0.0,0.0,0.0
503806000000,4117,503807000000,,BL_TO_BASELINK,BR_TO_BASELINK,FL_TO_BASELINK,FR_TO_BASELINK,0.056298391314869356,0.10681617236117091,-0.06354534007410617,-0.10240586806853713,0.9326201645565934,0.9326201652129622,0.9326200784426237,0.9326202193418247,0.0,0.0,0.0,0.0
503808000000,4118,503808000000,,BL_TO_BASELINK,BR_TO_BASELINK,FL_TO_BASELINK,FR_TO_BASELINK,0.057230766755097306,0.10774797504694877,-0.06264661191752818,-0.10166953810295887,0.932375459567429,0.9318026628705767,0.8983222520878947,0.7363244709346219,0.0,0.0,0.0,0.0
503809000000,4119,503809000000,,BL_TO_BASELINK,BR_TO_BASELINK,FL_TO_BASELINK,FR_TO_BASELINK,0.05816338677140909,0.10868059506218763,-0.061713990628735615,-0.10073691203920632,0.9326201636990705,0.932620162209277,0.9326201260955723,0.9326202990254225,0.0,0.0,0.0,0.0
503810000000,4120,503810000000,,BL_TO_BASELINK,BR_TO_BASELINK,FL_TO_BASELINK,FR_TO_BASELINK,0.05909571357074128,0.10961232557938771,-0.060987857706948034,-0.0998578099115015,0.9323280765656499,0.9317324427877279,0.7261277671290929,0.8785126762641291,0.0,0.0,0.0,0.0
503811000000,4121,503811000000,,BL_TO_BASELINK,BR_TO_BASELINK,FL_TO_BASELINK,FR_TO_BASELINK,0.06002833358270987,0.11054494559148154,-0.06005522985970391,-0.09892518964386365,0.9326201642775283,0.9326201648203788,0.9326201699079879,0.9326201566962058,0.0,0.0,0.0,0.0
503812000000,4122,503812000000,,BL_TO_BASELINK,BR_TO_BASELINK,FL_TO_BASELINK,FR_TO_BASELINK,0.060960695064082415,0.11147668861857252,-0.0591594497206156,-0.09820908611255774,0.9323615506461855,0.9317430758115535,0.895335483642088,0.7160938220909835,0.0,0.0,0.0,0.0
503813000000,4123,503813000000,,BL_TO_BASELINK,BR_TO_BASELINK,FL_TO_BASELINK,FR_TO_BASELINK,0.061893315068273225,0.11240930862153142,-0.0582268294222823,-0.09727646351327301,0.932620164187792,0.9326201622391652,0.932620149588054,0.93262026293438,0.0,0.0,0.0,0.0
503814000000,4124,503814000000,,BL_TO_BASELINK,BR_TO_BASELINK,FL_TO_BASELINK,FR_TO_BASELINK,0.06282571920642877,0.11334114064734635,-0.05752034681120577,-0.09634292920905096,0.9324042907673825,0.931832142481227,0.7065748509765607,0.9335327118946903,0.0,0.0,0.0,0.0
503815000000,4125,503815000000,,BL_TO_BASELINK,BR_TO_BASELINK,FL_TO_BASELINK,FR_TO_BASELINK,0.06390319752485052,0.11427633137514359,-0.05658537710470135,-0.09530482565617415,0.9760251134438851,0.9340694606635277,0.9336904722449286,0.9353274227588765,0.0,0.0,0.0,0.0
503816000000,4126,503816000000,,BL_TO_BASELINK,BR_TO_BASELINK,FL_TO_BASELINK,FR_TO_BASELINK,0.06483576098077393,0.11520895144522125,-0.05565273319504804,-0.0943721671359512,0.9326204456267125,0.9326201687997381,0.9326204565813719,0.9326207045495343,0.0,0.0,0.0,0.0
503817000000,4127,503817000000,,BL_TO_BASELINK,BR_TO_BASELINK,FL_TO_BASELINK,FR_TO_BASELINK,0.06576834537342169,0.11614157151530069,-0.0547200975965918,-0.09343952217531548,0.9326203895477564,0.9326201679335648,0.9326203985287485,0.932620597326874,0.0,0.0,0.0,0.0
503818000000,4128,503818000000,,BL_TO_BASELINK,BR_TO_BASELINK,FL_TO_BASELINK,FR_TO_BASELINK,0.06670955002909462,0.11707477245621245,-0.05378704746403695,-0.09251405930499601,0.9412177816532998,0.9332010427402163,0.9330404776751948,0.9254606247358987,0.0,0.0,0.0,0.0
503819000000,4129,503819000000,,BL_TO_BASELINK,BR_TO_BASELINK,FL_TO_BASELINK,FR_TO_BASELINK,0.06764215248191174,0.11800739253504222,-0.052854420739787855,-0.0915814237628565,0.9326202030490114,0.9326201655991516,0.9326202155933007,0.9326202863632614,0.0,0.0,0.0,0.0
503821000000,4130,503820000000,,BL_TO_BASELINK,BR_TO_BASELINK,FL_TO_BASELINK,FR_TO_BASELINK,0.06855732028997874,0.1189406353274931,-0.05192129775260668,-0.0906725594973361,0.91518679155996,0.933242916246241,0.9331189201582161,0.90884684252584,0.0,0.0,0.0,0.0
503821000000,4131,503821000000,,BL_TO_BASELINK,BR_TO_BASELINK,FL_TO_BASELINK,FR_TO_BASELINK,0.06948993679884907,0.11987325540959226,-0.050988674815386936,-0.0897399353072661,0.9326201640429592,0.9326201646000754,0.932620170507817,0.9326201774266172,0.0,0.0,0.0,0.0
503822000000,4132,503822000000,,BL_TO_BASELINK,BR_TO_BASELINK,FL_TO_BASELINK,FR_TO_BASELINK,0.07037936377129927,0.12080553847930542,-0.05005639996518951,-0.08884980686295751,0.8894112762890073,0.932282581083114,0.9322625049659135,0.8901099823518581,0.0,0.0,0.0,0.0
503823000000,4133,503823000000,,BL_TO_BASELINK,BR_TO_BASELINK,FL_TO_BASELINK,FR_TO_BASELINK,0.07131198385197113,0.12173815856720349,-0.04912377870242768,-0.08791718677133264,0.9326201652780626,0.9326201643276216,0.9326201567076309,0.9326201637694421,0.0,0.0,0.0,0.0
503824000000,4134,503824000000,,BL_TO_BASELINK,BR_TO_BASELINK,FL_TO_BASELINK,FR_TO_BASELINK,0.07224452293531947,0.12267049943096353,-0.04819165579938556,-0.08706653138881215,0.9325391698818856,0.9323409442681733,0.9321221770238883,0.8506688219562071,0.0,0.0,0.0,0.0
503825000000,4135,503825000000,,BL_TO_BASELINK,BR_TO_BASELINK,FL_TO_BASELINK,FR_TO_BASELINK,0.07318865284547282,0.12360313502336329,-0.047259037738615284,-0.08613391796821901,0.9441245156031213,0.9326356778014464,0.9326176252783511,0.9326069676262421,0.0,0.0,0.0,0.0
503826000000,4136,503826000000,,BL_TO_BASELINK,BR_TO_BASELINK,FL_TO_BASELINK,FR_TO_BASELINK,0.0741211415229408,0.12453530960145809,-0.046327209900415944,-0.08538775966931667,0.9325102577404358,0.9322610655837921,0.9319871963252225,0.7902970829193564,0.0,0.0,0.0,0.0
503827000000,4137,503827000000,,BL_TO_BASELINK,BR_TO_BASELINK,FL_TO_BASELINK,FR_TO_BASELINK,0.07509717041750008,0.12546776492830336,-0.045394761661116334,-0.08445519962419201,0.9301731183882793,0.9327460258768056,0.9327146625599044,0.9326691660129903,0.0,0.0,0.0,0.0
503828000000,4138,503828000000,,BL_TO_BASELINK,BR_TO_BASELINK,FL_TO_BASELINK,FR_TO_BASELINK,0.07602964985955207,0.1263999126688784,-0.04446296051901655,-0.08372195171652574,0.9325203949513218,0.9322586931466063,0.9320034122435918,0.7850395399471795,0.0,0.0,0.0,0.0
503829000000,4139,503829000000,,BL_TO_BASELINK,BR_TO_BASELINK,FL_TO_BASELINK,FR_TO_BASELINK,0.07699470342695758,0.12733245388352366,-0.04353043673552026,-0.08278924058791404,0.9257671154552244,0.93279099940133,0.9327527164974343,0.9326927530231738,0.0,0.0,0.0,0.0
503830000000,4140,503830000000,,BL_TO_BASELINK,BR_TO_BASELINK,FL_TO_BASELINK,FR_TO_BASELINK,0.07792717851749664,0.12826460223132052,-0.042598625038590576,-0.08205659993662184,0.9325204638886226,0.9322435263020286,0.9319862973484344,0.7774864305429323,0.0,0.0,0.0,0.0
503831000000,4141,503831000000,,BL_TO_BASELINK,BR_TO_BASELINK,FL_TO_BASELINK,FR_TO_BASELINK,0.07888318033843955,0.12919720241643518,-0.04166604753481451,-0.08112375130264216,0.9240009596756897,0.9328041999685233,0.9327644609364872,0.9327004476065023,0.0,0.0,0.0,0.0
503832000000,4142,503832000000,,BL_TO_BASELINK,BR_TO_BASELINK,FL_TO_BASELINK,FR_TO_BASELINK,0.07981565304447358,0.13012934897266337,-0.040734236368271226,-0.08039224315440396,0.9325176523780402,0.9322294966200897,0.9319639254326869,0.7712262731134273,0.0,0.0,0.0,0.0
503833000000,4143,503833000000,,BL_TO_BASELINK,BR_TO_BASELINK,FL_TO_BASELINK,FR_TO_BASELINK,0.08076627707493422,0.13106197937221786,-0.039801630450895686,-0.0794592894942614,0.923248376529868,0.9328053244747481,0.9327661928163035,0.9327020824081107,0.0,0.0,0.0,0.0
503834000000,4144,503834000000,,BL_TO_BASELINK,BR_TO_BASELINK,FL_TO_BASELINK,FR_TO_BASELINK,0.08169874939275168,0.13199412316104375,-0.038869824537888675,-0.07872910689241763,0.9325145463461975,0.9322190577972002,0.9319446983464131,0.766713993411959,0.0,0.0,0.0,0.0
503835000000,4145,503835000000,,BL_TO_BASELINK,BR_TO_BASELINK,FL_TO_BASELINK,FR_TO_BASELINK,0.08264630571531484,0.13292676861630515,-0.03793720399950207,-0.07779607619792728,0.9230561137730083,0.932801766403478,0.9327638395662116,0.9327011240093004,0.0,0.0,0.0,0.0
503836000000,4146,503836000000,,BL_TO_BASELINK,BR_TO_BASELINK,FL_TO_BASELINK,FR_TO_BASELINK,0.08357858803566565,0.13385828958936052,-0.037227977844522364,-0.0770894898209935,0.9323652366136502,0.9317458328617149,0.7510045627598284,0.7459096045156577,0.0,0.0,0.0,0.0
503837000000,4147,503837000000,,BL_TO_BASELINK,BR_TO_BASELINK,FL_TO_BASELINK,FR_TO_BASELINK,0.0845111949066526,0.1347909096810982,-0.036295342805185093,-0.07615667808611093,0.9326200364496088,0.9326201665047066,0.9326200492523342,0.9326208075125886,0.0,0.0,0.0,0.0
503838000000,4148,503838000000,,BL_TO_BASELINK,BR_TO_BASELINK,FL_TO_BASELINK,FR_TO_BASELINK,0.08544367491384719,0.13572304033343663,-0.035528756427707364,-0.07522339563792446,0.9324884882036315,0.9321307217172125,0.7668307153214241,0.933157980053847,0.0,0.0,0.0,0.0
503839000000,4149,503839000000,,BL_TO_BASELINK,BR_TO_BASELINK,FL_TO_BASELINK,FR_TO_BASELINK,0.0863760884132132,0.1366551651620549,-0.03459706585446831,-0.0744901770134252,0.9324187145410244,0.9321248808946695,0.9315963997843458,0.7333304737249624,0.0,0.0,0.0,0.0
503840000000,4150,503840000000,,BL_TO_BASELINK,BR_TO_BASELINK,FL_TO_BASELINK,FR_TO_BASELINK,0.08730849773750471,0.13758702454546423,-0.03388313981894164,-0.07355655511326908,0.932412764437761,0.9318593119941002,0.714226115233163,0.9334993172671235,0.0,0.0,0.0,0.0
503841000000,4151,503841000000,,BL_TO_BASELINK,BR_TO_BASELINK,FL_TO_BASELINK,FR_TO_BASELINK,0.08824111575694893,0.1385196446261867,-0.032950347102360666,-0.0726238565915045,0.9326202556377655,0.932620162967527,0.9326207036260885,0.9326196328956826,0.0,0.0,0.0,0.0
503842000000,4152,503842000000,,BL_TO_BASELINK,BR_TO_BASELINK,FL_TO_BASELINK,FR_TO_BASELINK,0.08909271324597423,0.13944934149848986,-0.03211909359432319,-0.07181015069059793,0.8515868890341153,0.9296970274347692,0.8312326571294258,0.813710807693367,0.0,0.0,0.0,0.0
503843000000,4153,503843000000,,BL_TO_BASELINK,BR_TO_BASELINK,FL_TO_BASELINK,FR_TO_BASELINK,0.09002533329226292,0.1403819615887114,-0.031186362383980537,-0.07087747730408012,0.9326201758816035,0.9326201611529663,0.9326204148747053,0.9326199790634445,0.0,0.0,0.0,0.0
503844000000,4154,503844000000,,BL_TO_BASELINK,BR_TO_BASELINK,FL_TO_BASELINK,FR_TO_BASELINK,0.0909578238723654,0.14131410011479772,-0.030420844171414885,-0.06994429646170897,0.9324907018756159,0.9321385839250419,0.7659524430398923,0.9331458447561741,0.0,0.0,0.0,0.0
503845000000,4155,503845000000,,BL_TO_BASELINK,BR_TO_BASELINK,FL_TO_BASELINK,FR_TO_BASELINK,0.0918902457641142,0.14224622202328163,-0.029489025581521666,-0.06914301581690996,0.9324219759476267,0.9321219772068516,0.9315964222777173,0.8013172508482769,0.0,0.0,0.0,0.0
503846000000,4156,503846000000,,BL_TO_BASELINK,BR_TO_BASELINK,FL_TO_BASELINK,FR_TO_BASELINK,0.09282270684855831,0.1431782607598313,-0.028733220992806174,-0.06820968931470173,0.932461140037377,0.9320386923290179,0.7561738714131027,0.9332870041008591,0.0,0.0,0.0,0.0
503847000000,4157,503847000000,,BL_TO_BASELINK,BR_TO_BASELINK,FL_TO_BASELINK,FR_TO_BASELINK,0.09375668912136348,0.14411465009201052,-0.02779518083395427,-0.06750125338640434,0.9339608422822793,0.9363247696382201,0.9376643286154331,0.7088600325052068,0.0,0.0,0.0,0.0
503848000000,4158,503848000000,,BL_TO_BASELINK,BR_TO_BASELINK,FL_TO_BASELINK,FR_TO_BASELINK,0.09463933803762625,0.14504725171745125,-0.026862655601233243,-0.06662883636341022,0.869039264419885,0.9324875274300246,0.9322240951664025,0.8602454705779499,0.0,0.0,0.0,0.0
503849000000,4159,503849000000,,BL_TO_BASELINK,BR_TO_BASELINK,FL_TO_BASELINK,FR_TO_BASELINK,0.095571867701997,0.14597950611837351,-0.02602051699248431,-0.06569580512715767,0.9325301217733367,0.9322552528061029,0.8424780717055026,0.9329653530054828,0.0,0.0,0.0,0.0
503850000000,4160,503850000000,,BL_TO_BASELINK,BR_TO_BASELINK,FL_TO_BASELINK,FR_TO_BASELINK,0.09650393315995043,0.146910904224967,-0.025089402699573604,-0.06490696156076137,0.9320651712822756,0.931395858764248,0.9308910572048631,0.7888776565233016,0.0,0.0,0.0,0.0
503851000000,4161,503851000000,,BL_TO_BASELINK,BR_TO_BASELINK,FL_TO_BASELINK,FR_TO_BASELINK,0.09743643460465723,0.14784304965594686,-0.024262408644882605,-0.06397380566821731,0.9325015839728248,0.9321454612279133,0.8273094830615058,0.9330915417589628,0.0,0.0,0.0,0.0
