%time,field.header.seq,field.header.stamp,field.header.frame_id,field.wrench.force.x,field.wrench.force.y,field.wrench.force.z,field.wrench.torque.x,field.wrench.torque.y,field.wrench.torque.z
310493000000,0,310485000000,FR_wheel_link,-2.459582962712681,-0.8664102464270613,6.821952057228998,0.10518110367363302,0.25073659943770765,0.06419850670146107
310493000000,1,310486000000,FR_wheel_link,0.08310257272276979,0.04719107546679772,0.0393119349693634,0.0022795743347766855,-0.008470858102509148,-0.00036839351861889767
310493000000,2,310487000000,FR_wheel_link,-3.598810149374038,-1.5532184733117198,10.341668561564074,0.13917966844184643,0.3627699072013077,0.09076572638314073
310493000000,3,310488000000,FR_wheel_link,0.09252291812922632,0.029603240319693348,0.0878153216180554,0.0018970014884821293,-0.005243813107120325,0.0010850130986741013
310493000000,4,310489000000,FR_wheel_link,-2.6086024464214908,-1.0978755824392012,7.547396594020861,0.10670372201364905,0.26211291046658264,0.06525667737456087
310493000000,5,310490000000,FR_wheel_link,0.03442349867859782,0.03473189691758212,0.03812030267203089,0.0015232729042224573,-0.003982585554848313,0.001336012760586655
310493000000,6,310491000000,FR_wheel_link,-3.6727040822238557,-1.4861734888922549,9.812316975923945,0.12916681292509052,0.3739149462901133,0.09406709733222719
310493000000,7,310492000000,FR_wheel_link,0.0480286324683966,0.030213308316714125,0.0720021768836979,0.0016471503238745804,-0.00286969722591639,0.001861162074030483
310493000000,8,310493000000,FR_wheel_link,-3.023101946573969,-1.2113119801945784,8.166756974924205,0.11150316697369582,0.3069741650734316,0.07694644477322277
310494000000,9,310494000000,FR_wheel_link,0.010756839218486075,0.03819421779495489,0.04438873430006715,0.001704405502921948,-0.0021568761079596133,0.0019643692137072673
310495000000,10,310495000000,FR_wheel_link,-2.6809281935173246,-1.1043088848221576,6.728237861597438,0.0861659050233913,0.27585884996306825,0.06865103985600984
310496000000,11,310496000000,FR_wheel_link,-0.08048709550374838,0.026908065148488574,-0.023055999750738812,0.0013777276939448383,0.0032552813243798156,0.002571382821855098
310497000000,12,310497000000,FR_wheel_link,-2.205996206089542,-0.6051629462396161,4.808698877812606,0.07384742459118686,0.22910180132701166,0.06084440489506473
310498000000,13,310498000000,FR_wheel_link,-0.08962594675739519,0.035321978295132,0.004540297502204793,0.0036114724830625116,0.010208058703724465,0.002565341327638017
310499000000,14,310499000000,FR_wheel_link,-0.3517588464079147,-1.023816335020998,10.06874769104,0.17828030798217584,0.03617229461746756,0.005564341210780294
310500000000,15,310500000000,FR_wheel_link,-1.049467891097316,0.2203241102815954,1.4847623309266647,0.06348280256998508,0.11349578816711006,0.020295270955144048
310501000000,16,310501000000,FR_wheel_link,-0.3593428105298871,-1.1319530078682898,8.697073664530677,-0.12103301719712728,0.029494143341649896,0.0007726585674735516
310502000000,17,310502000000,FR_wheel_link,-2.4213608364036423,-0.4213086625434497,5.283320429168193,-0.04578241454854118,0.2622023119184557,0.003069017590987679
310503000000,18,310503000000,FR_wheel_link,0.0399670683478776,0.08501823529477351,-0.043478249694461686,0.0006522466588904604,-0.01286353187740944,-0.0018562959443014534
310504000000,19,310504000000,FR_wheel_link,-4.588448879289426,-1.643058172490091,11.96797212294725,0.15758021851465936,0.46962467768887106,0.09550255203123884
310505000000,20,310505000000,FR_wheel_link,0.0007736927740556815,0.011268793026370528,0.09108164888367952,0.0015631012318042044,0.003112267538688886,0.00244645714531303
310506000000,21,310506000000,FR_wheel_link,-4.235106554608677,-1.4505586723263542,7.844469128193359,0.06954987249066676,0.4483386037760652,0.11240420623240172
310507000000,22,310507000000,FR_wheel_link,-0.14644716616516287,-0.9245714858288326,6.76026546283154,-0.09846817106114053,0.0037844912800341726,0.0006538547121778052
310508000000,23,310508000000,FR_wheel_link,-0.03726258670081205,0.014211515516486452,-0.04596574307935602,0.0009658536014292815,0.002895984986615308,-6.433626133935358e-05
310509000000,24,310509000000,FR_wheel_link,-1.5819745162225094,-1.6110893289036157,13.559341620114164,0.181806548571625,0.1646408294077619,0.029297209470754777
310510000000,25,310510000000,FR_wheel_link,-0.05918840000401531,0.01185261416510528,0.001698839803578556,-0.00013375777303919087,0.0061400261978926144,0.0007172007650147668
310511000000,26,310511000000,FR_wheel_link,-0.5597425326919433,0.06056588015737158,5.439880609011371,0.0032539335162678085,0.05576782798955868,0.0008576562263598953
310512000000,27,310512000000,FR_wheel_link,0.0025350828337795048,0.07260138564829312,0.1719873984710117,0.007790790391183647,-0.0011929734955419978,-0.0009790701768807347
310513000000,28,310513000000,FR_wheel_link,-2.338170066334696,-2.820362228092628,9.869884177264552,-0.05930854065642977,0.25097383623796593,0.04019123462668285
310514000000,29,310514000000,FR_wheel_link,-0.006861394327362838,0.04206098075957992,0.20052373228253212,0.004310451143442067,0.0011071769092667837,-0.0014074435555843144
310515000000,30,310515000000,FR_wheel_link,-0.4718384544257933,-3.893641796428488,5.7776787466561625,-0.31188075742876603,0.04652619247678962,0.0050213861699747175
310516000000,31,310516000000,FR_wheel_link,-0.012460746316803738,0.23009808186892744,0.29993603806823205,0.026067752735674177,0.0007277272568826637,-0.00024008807681438087
310517000000,32,310517000000,FR_wheel_link,-0.3926274931056305,-7.5134835994871665,11.508750211706138,-0.5888434951918889,0.03939210821474815,0.005884927245507378
310518000000,33,310518000000,FR_wheel_link,-0.07626530683655601,1.4342892066102482,4.594800440188663,0.2699914049275489,0.015118992157599752,0.0014141983021269517
310519000000,34,310519000000,FR_wheel_link,0.01598471083375992,0.0636903605340318,-0.04800251750926097,0.0049895523289446905,-0.002151507236829584,-0.0006644859038187669
310520000000,35,310520000000,FR_wheel_link,-0.1011375694344223,-1.923629291282288,10.83498008181173,0.11207789671905614,0.006325641400580525,0.003117091434611616
310521000000,36,310521000000,FR_wheel_link,-0.09351314652526593,0.4598747841381657,0.6904478613163232,0.06838483144217798,0.004640461034809055,0.0025318150814461664
310522000000,37,310522000000,FR_wheel_link,-0.005732708518955206,0.015944829795905707,-0.023759998473942237,0.0006690592752701621,0.0005242101229888804,0.00018326522056982526
310523000000,38,310523000000,FR_wheel_link,-0.14199581913911213,-1.5349224471296306,12.89857297759039,0.20876835671831406,0.014956973221645502,0.0038446334173838684
310524000000,39,310524000000,FR_wheel_link,-0.001102889491003746,0.021573435453704624,-0.02656056819272235,0.0014673228972799644,-9.201631582137857e-07,2.5836349772401494e-05
310525000000,40,310525000000,FR_wheel_link,-0.28113209813990997,-0.009314235902305665,0.07029965553387628,0.00920785605962329,0.030430367121393614,0.007660967952266739
310526000000,41,310526000000,FR_wheel_link,0.0283007404303122,0.09866976154143357,0.25774017778624464,0.010300219115386623,-0.007163835570664747,0.00024891304670850194
310527000000,42,310527000000,FR_wheel_link,-1.8628939144403063,-2.4056291622950297,8.001278763479569,-0.06469987800354422,0.19713289300721032,0.030498281547211587
310528000000,43,310528000000,FR_wheel_link,-0.031413030329091596,0.012129425848255417,-0.0338719040946026,-0.004419718128175824,0.00479915736490452,0.0006955513906900214
310529000000,44,310529000000,FR_wheel_link,-0.0006047825775906887,0.11620262815676571,-0.6225266839838499,0.006194959645434947,-0.008597976975627912,-0.0008303193568080418
310530000000,45,310530000000,FR_wheel_link,-0.004433724882604353,-0.005280234283190121,-0.011375060757673798,-0.00017056099362779272,-7.10598841547226e-05,-7.76631149718014e-05
310531000000,46,310531000000,FR_wheel_link,-0.8858111498041882,-1.7302697728565561,11.804474582443552,0.15981489178328181,0.09356400806855333,0.023092992747148083
310532000000,47,310532000000,FR_wheel_link,-0.22763583495667997,-0.287332331310365,3.197765524589311,0.058469821244096803,0.02775694527113487,0.00701271647590587
310533000000,48,310533000000,FR_wheel_link,0.07517087114332928,-0.09397889522858724,-0.31621702584941475,-0.00903905035726381,-0.004899686185050704,-0.0016509193585236373
310534000000,49,310534000000,FR_wheel_link,-0.7245516544422211,-0.7770057344106853,14.220795841097852,0.30674400604294416,0.06820572331745549,0.019184841538274863
310535000000,50,310535000000,FR_wheel_link,-0.029872826121936202,0.05160800594909558,0.0288230899264013,0.006453490780677258,0.004038346773293842,0.0008928246109342593
310536000000,51,310536000000,FR_wheel_link,0.6712963718568034,-3.4985286317418223,13.46684238777783,0.018097977695870106,-0.06310236981694978,-0.019522795014863713
310537000000,52,310537000000,FR_wheel_link,-0.5454725636601222,-2.1199738799675245,2.751888671299549,-0.14644040252492593,0.046995833453394004,0.014285535823308881
310538000000,53,310538000000,FR_wheel_link,-0.14080030253936937,1.7633665950113613,5.262960929115438,0.3346430692455769,0.015435800800794536,0.0044751415856300976
310539000000,54,310539000000,FR_wheel_link,0.015628384673158878,0.05684347306015624,-0.05026028015221236,0.006264758163942126,-0.0007018637653445736,-0.00031649645031141336
310540000000,55,310540000000,FR_wheel_link,-0.5232649710541403,-2.7694487178646905,12.178427574212321,0.058472338265806056,0.056877413092573124,0.013925322688444092
310541000000,56,310541000000,FR_wheel_link,0.02261309178397851,-0.8479016396596105,0.5122510581058576,-0.074237430936238,-0.0016331078889742143,5.617034759556839e-05
310541000000,57,310542000000,FR_wheel_link,-0.10619616921291485,0.2852765035760813,-0.7298463639189415,0.013188145610400602,-0.0011810056753186644,0.0032077720624657338
310543000000,58,310543000000,FR_wheel_link,0.00016981915894673084,-0.015379370613424384,-0.01919643606942115,-0.00043294164202679506,-4.085340320966648e-05,-5.804063423629948e-05
310544000000,59,310544000000,FR_wheel_link,-0.2815825217959057,-2.2645797386990165,10.972717069143732,0.08562322347581507,0.03505637696300811,0.006737031312019551
310545000000,60,310545000000,FR_wheel_link,0.1782527753940258,-0.3214628232362291,3.3498867860965333,0.0568824065498979,-0.017607507731859533,-0.004767215234787013
310546000000,61,310546000000,FR_wheel_link,-0.05072157522502651,0.10577141011807105,-0.14664417046648168,0.010057031653723354,0.006669551837381011,-0.000262675506798872
310547000000,62,310547000000,FR_wheel_link,1.1192254912605077,-4.262346978117149,17.795343915389704,0.06123246235314987,-0.11866611127213898,-0.028659456008110904
310548000000,63,310548000000,FR_wheel_link,0.02015310208680145,-0.8753892216538866,1.245083938933152,-0.06553935975615872,-0.007648695671687715,-0.00048608596189269655
310549000000,64,310549000000,FR_wheel_link,-1.3120432047903055,0.9014667185539466,8.197064482085619,0.32672129438379516,0.14171981454922936,0.03557369286955251
310550000000,65,310550000000,FR_wheel_link,-0.014082558912030417,0.06976159008440347,-0.05170760804657525,0.005535834454253607,0.002394714520822793,0.0005296389240099519
310551000000,66,310551000000,FR_wheel_link,0.20576769541858145,-2.3415028336222417,11.651841399421308,0.09346950761034296,-0.018129351202353768,-0.00521558629085582
310552000000,67,310552000000,FR_wheel_link,0.043390653879755846,0.2582969728380077,0.7642919614418118,0.047106622101343795,-0.007528672700866574,-0.0016960648742415842
310553000000,68,310553000000,FR_wheel_link,-0.0010400898982959933,0.011528291818411016,-0.0091588339701564,0.0010396588882444777,4.51341420747623e-05,-3.284647677686648e-05
310554000000,69,310554000000,FR_wheel_link,-0.06311974620287665,-1.6859703829317925,13.322202727530668,0.20399661659798982,0.007968417283855061,0.001829042880714637
310555000000,70,310555000000,FR_wheel_link,0.004279716575767525,0.015334409482479794,-0.014843155289894112,0.001230062799373037,-0.0005309632968796561,-0.00012280754355131082
310556000000,71,310556000000,FR_wheel_link,0.011144784504530348,-0.322344206932736,4.474323629838067,0.09686500696525903,-0.0015476594474576862,-0.0004737470069224169
310557000000,72,310557000000,FR_wheel_link,0.0010786228037527239,0.009737395529390097,-0.011064599234808327,0.0006719089064462064,-0.00011062416863845075,-8.106061589049034e-06
310558000000,73,310558000000,FR_wheel_link,-0.04663518855720833,-1.714940276200263,13.251124060474483,0.19829668320763225,0.005764643704621205,0.0014548461646061758
310559000000,74,310559000000,FR_wheel_link,0.005032306887882914,0.013091215224001848,-0.01442617066303589,0.0010559711009213728,-0.0006360508359680165,-0.00014835323466187865
310560000000,75,310560000000,FR_wheel_link,0.011998572290200694,-0.3486873787567756,4.6029535254847955,0.09736313839862361,-0.0018462559679858486,-0.00048447138031301886
310561000000,76,310561000000,FR_wheel_link,0.001241814465901577,0.009152340681218188,-0.010587988086631151,0.0006688478735947238,-0.00012705513584415675,-1.6515240610807412e-05
310562000000,77,310562000000,FR_wheel_link,-0.03462214188529319,-1.7129524291948452,13.123372896206979,0.19481074402825452,0.004443945856548918,0.001123940744704781
310563000000,78,310563000000,FR_wheel_link,0.005571555873066481,0.01213298475359922,-0.014191760040184008,0.00098407829971985,-0.0007010860245329864,-0.0001687746681669375
310564000000,79,310564000000,FR_wheel_link,0.007604359284208014,-0.36139710252180784,4.773429195412354,0.10080789300486594,-0.001421929643210439,-0.00037519258183856306
310565000000,80,310565000000,FR_wheel_link,0.0013494975086627238,0.0091945094999345,-0.010653382261210471,0.0006887606145831549,-0.00013495272172794415,-2.0463014894844087e-05
310566000000,81,310566000000,FR_wheel_link,-0.02181557465638441,-1.695797369497625,12.912875251376033,0.1906206563703871,0.003057678725747496,0.0007722318581772614
310567000000,82,310567000000,FR_wheel_link,0.006087474432205918,0.01143109969126709,-0.014083975867044752,0.0009204254103198788,-0.0007645528784355254,-0.00018706755281869733
310568000000,83,310568000000,FR_wheel_link,-0.0024629903239131883,-0.3829285950986739,5.040064439021967,0.10608591491933522,-0.00035835366176467355,-0.00010139560464121949
310569000000,84,310569000000,FR_wheel_link,0.0013959028815349833,0.009461003168691947,-0.01084173704924625,0.00071740862438809,-0.00013569780588155813,-2.1287906390724728e-05
310570000000,85,310570000000,FR_wheel_link,-0.0071857180049828065,-1.658824939584822,12.579498778076522,0.18506322012387144,0.0014925868692303756,0.00036767395672148746
310571000000,86,310571000000,FR_wheel_link,0.006655291182285006,0.01075794171172833,-0.014064096054524442,0.000849376092370391,-0.0008371334592078257,-0.00020613944661196254
310572000000,87,310572000000,FR_wheel_link,-0.017684539292438153,-0.4258554428952371,5.4609519367258486,0.11346022639535591,0.001282310503989504,0.0003252245692388215
310573000000,88,310573000000,FR_wheel_link,0.0014063775855558674,0.009870179802565847,-0.011097641332841537,0.0007538973270868797,-0.0001315800063483453,-2.0301081346214162e-05
310574000000,89,310574000000,FR_wheel_link,0.01201321951270443,-1.5932048697928949,12.058617407280723,0.17718341777946567,-0.0005942822979075201,-0.0001593093512888616
310575000000,90,310575000000,FR_wheel_link,0.007240401634707519,0.010200152647228697,-0.01419287381550899,0.0007843878731499738,-0.0009103687885429261,-0.00022667939354007515
310576000000,91,310576000000,FR_wheel_link,-0.026321144355883144,-0.5014238875324725,6.113104159963158,0.12387902082992025,0.002251242910170416,0.0005786798613884373
310577000000,92,310577000000,FR_wheel_link,0.0003009631203158544,0.005873581573230038,0.0036517082769916675,0.0008371796376536121,-3.584988536099861e-05,8.702616601910934e-06
310578000000,93,310578000000,FR_wheel_link,0.051537644488181565,-1.4185927290349156,10.95299965573587,0.16450116274331678,-0.004810517214691084,-0.001234093486850737
310579000000,94,310579000000,FR_wheel_link,-0.17781449820028858,-0.5102028256029326,1.0952767090655897,-0.01989084623602622,0.016100449887604038,0.004363081070960053
310580000000,95,310580000000,FR_wheel_link,0.18985010475843322,0.19745781455058503,4.8284340221488735,0.15976580057284914,-0.02031112215616121,-0.0047550307274026845
310581000000,96,310581000000,FR_wheel_link,0.0007979312289593605,0.03683146594397289,-0.04503510600621452,0.002024820286980765,-0.0005902439483179683,-0.00012652997684545298
310582000000,97,310582000000,FR_wheel_link,-0.3078748100152761,-2.1400813201506246,12.914415873160145,0.14546931454476808,0.03411099950030889,0.008010725854973165
310583000000,98,310583000000,FR_wheel_link,0.02815504740198806,0.16572077467412633,0.5655948189054542,0.03359417289806583,-0.0025225566651991,-0.0006516019659138625
310584000000,99,310584000000,FR_wheel_link,0.0011782938508653898,0.004780114805513014,-0.008079144051672265,0.00030864665117634726,-0.00014002402635116408,-3.588395115020801e-05
310585000000,100,310585000000,FR_wheel_link,-0.06987226421750829,-1.798053368763268,13.63531876390532,0.19994412595608443,0.008045688598770613,0.0020490107849508656
310586000000,101,310586000000,FR_wheel_link,0.0041951348859661595,0.011359417165600802,-0.012433347400772392,0.0009463654769607147,-0.0005431249207736857,-0.0001292791355111653
310587000000,102,310587000000,FR_wheel_link,-0.0005304156536154758,0.0706211764222392,0.024581058984082464,0.010918061533372,-1.6698985287047597e-05,-8.386580990489477e-05
310588000000,103,310588000000,FR_wheel_link,0.32002164907366704,-7.720683641434965,10.985716166710395,-0.5018941958934511,-0.02978980883366686,-0.00480745204070366
310589000000,104,310589000000,FR_wheel_link,0.13217409217643766,2.4777672419594694,4.1689044898038965,0.3626914825086466,-0.017166058121621284,-0.0032313915965237025
310590000000,105,310590000000,FR_wheel_link,0.018829071019224344,0.004436303181449975,-0.3551867378358277,0.0006874696847796308,-0.004115510409209447,0.00021192965796353066
310591000000,106,310591000000,FR_wheel_link,-0.5599628628834507,-0.7066588229491391,6.894402959670815,0.12375613269935654,0.05679214372941944,0.01495858501535505
310592000000,107,310592000000,FR_wheel_link,-2.235660420579573,-0.7582823532344753,3.6202901647203665,0.02799969467308373,0.23936535481892457,0.059550759393764634
310593000000,108,310593000000,FR_wheel_link,0.19328308696908278,0.02583659320510829,0.009529801116878883,-0.00043707548801136145,-0.019228462055970785,-0.0021698174431888087
310594000000,109,310594000000,FR_wheel_link,-3.5404381329437875,-1.8400688345741298,11.90382548809843,0.15124890754364978,0.347265088527701,0.08699965201477375
310595000000,110,310595000000,FR_wheel_link,0.09487910063550277,0.0006957000554275843,0.09910821237981457,0.0003204129257927227,-0.0013158581848015606,0.0017877517005043249
310596000000,111,310596000000,FR_wheel_link,-3.303482860739947,-0.9748334356822432,6.737116124300812,0.09206241147957099,0.34678793476054715,0.0877419288003136
310597000000,112,310597000000,FR_wheel_link,0.0775914881018187,0.030732850325253414,-0.047341276157574254,0.00018617578126991276,-0.012226207403870567,-0.000588621319300801
310598000000,113,310598000000,FR_wheel_link,-3.37157933363207,-1.4433551647391942,10.004453832884105,0.13835496595377622,0.33738252527938956,0.08450818431308256
310599000000,114,310599000000,FR_wheel_link,0.09466142225833,0.019280300508645085,0.02551102454973835,0.0006263041711700829,-0.006228630882170664,0.0009244907552008112
310600000000,115,310600000000,FR_wheel_link,-2.317924877512165,-0.8163208947715057,6.789912777031234,0.1129430583870606,0.2318667087221474,0.057540900342086705
310601000000,116,310601000000,FR_wheel_link,0.04087788305335524,0.027788369423224744,-0.03672350646181717,0.00032930204181913215,-0.005646727819257598,0.001049237914851106
310602000000,117,310602000000,FR_wheel_link,-3.554119728011355,-1.3198701522796046,9.502460002617372,0.13634954139916375,0.3611661686227526,0.09071683073237866
310603000000,118,310603000000,FR_wheel_link,0.051579709247021065,0.01820473599567877,0.010576618679452867,0.0006158138135612846,-0.0031891142566289393,0.001721324212990441
310604000000,119,310604000000,FR_wheel_link,-2.8659995950640362,-0.9809617221465696,7.6274226370007785,0.1186043285153454,0.2910265819593437,0.0728449966440774
310605000000,120,310605000000,FR_wheel_link,0.021819324897643707,0.024288856777326413,-0.024475168035096834,0.0005202833877479787,-0.003154944672814773,0.0016751246925125916
310606000000,121,310606000000,FR_wheel_link,-3.579259290231074,-1.2639747227754017,9.235540181372421,0.13441849830311345,0.36547146992498986,0.0918940297864865
310607000000,122,310607000000,FR_wheel_link,0.028865295909758556,0.019864760889745262,0.0019996615101480187,0.0006728771265544421,-0.0019381871530500577,0.002054095933266889
310608000000,123,310608000000,FR_wheel_link,-3.128076930861356,-1.0587978427793987,8.049928648507509,0.12228400601982882,0.3192227750672347,0.08010194254018276
310609000000,124,310609000000,FR_wheel_link,0.012190860513609859,0.023850223089361647,-0.020733889234360547,0.0006272798284731842,-0.0021380050399957174,0.001952578367876504
310610000000,125,310610000000,FR_wheel_link,-3.5384311072416694,-1.2244653166117223,9.012205550063065,0.13215626147648682,0.36188909734319274,0.09102414494877019
310611000000,126,310611000000,FR_wheel_link,0.016853794240452708,0.02161763641806118,-0.005268233584965701,0.0007287290126298701,-0.001505714757311706,0.0021525875499778186
310612000000,127,310612000000,FR_wheel_link,-3.249139936541766,-1.1004486028406475,8.270318092283475,0.12413795591552826,0.33213503022292923,0.08343268909174667
310613000000,128,310613000000,FR_wheel_link,0.007478194204583689,0.02424958944548819,-0.019328392304614753,0.0007135090440403481,-0.0017221394422598474,0.0020578394903742526
310614000000,129,310614000000,FR_wheel_link,-3.493305396499077,-1.1988784012252047,8.854878493255134,0.13042150245116618,0.35746837986697755,0.08990708685929061
310615000000,130,310615000000,FR_wheel_link,0.010585940329771846,0.022933249682035035,-0.009639948725125469,0.0007753389538754396,-0.0013716727776205081,0.0021679688224017714
310616000000,131,310616000000,FR_wheel_link,-3.308775776884563,-1.129299714993628,8.396343481321404,0.12471023160347355,0.33841201050825814,0.08505623180000683
310617000000,132,310617000000,FR_wheel_link,0.0050953749735844385,0.024741987358748517,-0.017951382332902374,0.0007783095556368749,-0.0015308352596444651,0.0021042533829958034
310618000000,133,310618000000,FR_wheel_link,-3.460343332269675,-1.1858855254582188,8.758173396604873,0.12908877392234144,0.35415163233849783,0.08906927087843547
310619000000,134,310619000000,FR_wheel_link,0.00679338864962687,0.024008646761109028,-0.011626841592522107,0.0008195548079768612,-0.0013108132543948386,0.0021731784932653006
310620000000,135,310620000000,FR_wheel_link,-3.342713011653809,-1.1426127226126903,8.473999111466808,0.1255730063273406,0.34198318004409173,0.08597429432303581
310621000000,136,310621000000,FR_wheel_link,0.003911515822354779,0.02505808133344821,-0.01616791339140885,0.0008254174105353077,-0.0014185385251025118,0.0021255254198241226
310622000000,137,310622000000,FR_wheel_link,-3.4419476442662873,-1.1806840054324543,8.704908197641673,0.12818954413265923,0.35230131714517693,0.08859702189150194
310623000000,138,310623000000,FR_wheel_link,0.004743671337061089,0.024611364944119574,-0.01185286191860573,0.0008471228843232508,-0.0012721109857872785,0.002172664617396769
310624000000,139,310624000000,FR_wheel_link,-3.3708649786718623,-1.1554564151323583,8.531284351008033,0.12590648518312803,0.34496106601503446,0.08673513313574584
310625000000,140,310625000000,FR_wheel_link,0.0031549162245149984,0.025317387113334006,-0.014264043204286347,0.0008519569673350096,-0.001360072367986317,0.002141483891746583
310626000000,141,310626000000,FR_wheel_link,-3.4307034727491876,-1.180699363601549,8.677368473032766,0.12743917989553924,0.35114930538899225,0.08831057244391124
310627000000,142,310627000000,FR_wheel_link,0.0035802140435592664,0.02506725240542717,-0.011150228218896429,0.0008715561087887689,-0.0012534759541503076,0.0021736457028878387
310628000000,143,310628000000,FR_wheel_link,-3.3860437204209495,-1.166384946813696,8.570174088632914,0.1258598118658738,0.34652988468209533,0.0871462342813828
310629000000,144,310629000000,FR_wheel_link,0.0027176035037070963,0.02522596924988753,-0.012196225100902373,0.0008868796824763692,-0.0013044788734517185,0.002148921959086076
310630000000,145,310630000000,FR_wheel_link,-3.41845894389894,-1.1790500254769087,8.646162022480999,0.12652063795007773,0.3498681971148327,0.08800362910499337
310631000000,146,310631000000,FR_wheel_link,0.003054244845448372,0.022498816556582105,-0.009717026534179616,0.0009091454718623275,-0.0012289639319793546,0.0021503839598389645
310632000000,147,310632000000,FR_wheel_link,-3.4906915849379883,-1.0899344854783208,8.581460392998391,0.13023524097142902,0.3588677746620487,0.08550007414798268
310633000000,148,310633000000,FR_wheel_link,-0.2288012179438872,-0.8685735395918257,5.669831417819018,-0.09309533716801768,0.02371186763834145,0.0034275590987092033
310634000000,149,310634000000,FR_wheel_link,-1.6471079008415326,-2.1990835857805986,4.978009353317691,-0.2312211525912086,0.17129150436683224,0.0021536023212924754
310635000000,150,310635000000,FR_wheel_link,-0.2454120149362959,0.2659906691527712,-0.7028984397522028,0.008144812438625405,0.0077489715590788565,0.0039318317304454795
310636000000,151,310636000000,FR_wheel_link,0.0129222689936596,-0.013552931377085296,-0.02247718240042428,-0.00043686675356687844,-0.0015786346556475239,-0.0003205413023735342
310637000000,152,310637000000,FR_wheel_link,-1.2256278846823367,-2.6057381159462873,10.620316335080945,0.03897824982560139,0.1387138841209856,0.03160596370383765
310638000000,153,310638000000,FR_wheel_link,-1.1798305744733182,-1.5167078467308082,1.9697020504656617,-0.10330979288817776,0.1238697115407851,0.031299712921753334
310639000000,154,310639000000,FR_wheel_link,-1.6598423230801707,1.5527292778203472,5.650451596429701,0.32684806822538987,0.17174898838783803,0.044245799384081304
310640000000,155,310640000000,FR_wheel_link,-0.05185277044682443,0.07332084574323697,-0.05747196936518045,0.005713861844809283,0.005178734321350651,0.0015932726307753213
310641000000,156,310641000000,FR_wheel_link,-0.758719082555833,-2.6316134188115172,11.691073396017632,0.060340572287637645,0.07932573922240553,0.020378876083274804
310642000000,157,310642000000,FR_wheel_link,-0.6829209179956411,-0.9670781084730199,1.0350016670460889,-0.07336980907784593,0.0686610126572351,0.018063331745671728
310643000000,158,310643000000,FR_wheel_link,-1.1614352367571357,0.8236288903145416,5.311358301439696,0.23965295836660622,0.11889964836565609,0.030691439799086843
310644000000,159,310644000000,FR_wheel_link,-0.03618011371387998,0.050367862624871244,-0.04378377477473176,0.003721480095860617,0.003468403401665938,0.001073622251537453
310645000000,160,310645000000,FR_wheel_link,-0.5398581055526375,-2.2815265713993567,12.23296786924011,0.11325924712522362,0.055909004793738816,0.014397852929158066
310646000000,161,310646000000,FR_wheel_link,-0.45678588985781954,-2.796587130658696,2.4940171474647497,-0.309141075270293,0.04607009285849974,0.011967093816747666
310647000000,162,310647000000,FR_wheel_link,-0.9602602496420053,-18.3712455405261,20.488038745706884,-2.107754142621777,0.10035440040940985,0.002335583868696683
310649000000,163,310648000000,FR_wheel_link,-0.034430753077396584,-0.3461228794811618,0.39122088815878797,-0.09555052841358042,0.00269195359882637,-0.0008140357131277676
310649000000,164,310649000000,FR_wheel_link,-0.3395233874034724,-17.435421372433762,21.629727687041278,-1.9254559175353756,0.03725737914672854,0.0007143368841904957
310649000000,165,310650000000,FR_wheel_link,-0.0217978816111459,-0.72402866304442,0.2734928576651864,-0.06910176058010935,0.001298384502019468,-0.0007838970180420368
310651000000,166,310651000000,FR_wheel_link,0.004820152077658034,0.03604133988582314,-0.010789383239275715,-5.20135906871749e-05,-0.00042483783014647084,-3.9126476398331e-05
310652000000,167,310652000000,FR_wheel_link,-0.19163458922970456,-16.619450825357607,21.061348440877502,-1.835021967230253,0.021050773483577576,0.0006807116523346228
310653000000,168,310653000000,FR_wheel_link,-0.013628934591511366,-0.6756238225977405,0.2585122312132924,-0.06523858315947627,0.0005103668221929611,-0.0007049587481731051
310654000000,169,310654000000,FR_wheel_link,0.003131062363117501,0.0436615495721117,-0.011866384519848462,-7.199496569910776e-05,-0.00025589057839797735,4.1381285765859636e-06
310655000000,170,310655000000,FR_wheel_link,-0.10564844250264555,-16.043816673021013,20.55256402332829,-1.7709923371000873,0.012008268414054314,0.0006052191337149725
310656000000,171,310656000000,FR_wheel_link,-0.008252496110693203,-0.6428913167050034,0.2484698275454569,-0.0626919547517467,-1.0111756100842986e-05,-0.0006570808702795531
310657000000,172,310657000000,FR_wheel_link,0.002041482257390075,0.04662525934037934,-0.012253376851746696,-8.033766452048733e-05,-0.0001473299654371366,2.5336468816788443e-05
310658000000,173,310658000000,FR_wheel_link,-0.048913939180476304,-15.65789233815735,20.21332610088273,-1.727899903119168,0.005982932407548806,0.0005679217963466462
310659000000,174,310659000000,FR_wheel_link,-0.004004209988785597,0.2601903394429073,1.2391620715741092,0.001474240152348258,-0.00025678768381154636,-0.000710522698972257
310660000000,175,310660000000,FR_wheel_link,-0.05320123539813883,-7.890350766398802,13.580976331194778,-0.8461884989775242,0.005858920229492557,0.00027044800885741584
310661000000,176,310661000000,FR_wheel_link,0.006109813715978187,-0.013807186190686981,0.3780461544149682,-0.008305129345752286,-0.0005317280023203273,-0.0007678202332169872
310662000000,177,310662000000,FR_wheel_link,-0.06112718091357888,-4.530811315724329,8.393093798871586,-0.48514711712279757,0.008524673183484405,-0.0008917467255999617
310663000000,178,310663000000,FR_wheel_link,0.0014909021999278706,0.21090253152935837,0.178716150634394,0.010210450711228914,-0.0015172996297505433,0.0008145908188274159
310664000000,179,310664000000,FR_wheel_link,-0.20649264477227722,-5.86386608663642,11.061306849904392,-0.6240573607746914,0.021735836974806123,0.0002999246246773599
310665000000,180,310665000000,FR_wheel_link,0.03342963875858168,0.07468864867546447,0.44079306488616593,0.0019382594183580677,-0.0015937050214369453,-0.0006264303550491456
310666000000,181,310666000000,FR_wheel_link,-0.12425841118974396,-5.161635323480018,9.185308994361746,-0.554716560652124,0.01113270962715493,0.0006723490342529019
310667000000,182,310667000000,FR_wheel_link,0.01682967811722882,0.15575302331543522,0.4003237236054083,0.012685229210599369,-0.0011401593533023452,-0.00022563150629633486
310668000000,183,310668000000,FR_wheel_link,-0.08515856145862523,-5.494133232489862,10.244136162021622,-0.5833582175244311,0.007990478704071012,0.0004492427270097162
310669000000,184,310669000000,FR_wheel_link,0.00137286764663456,0.2724531838864502,0.6554325422202212,0.026707042053246397,-0.00034697233961586903,9.530576493883422e-05
310670000000,185,310670000000,FR_wheel_link,-0.055270652080444974,-1.3540616941293708,9.168455171225824,-0.12194557382867284,0.005228969711301696,0.0002655260313866235
310671000000,186,310671000000,FR_wheel_link,0.0020359738319414263,-0.000555518279582601,-0.0337166222797995,-0.0017450633816782168,-0.00023529938813150606,-5.04422727673273e-06
310672000000,187,310672000000,FR_wheel_link,-0.13388874488687041,1.172020692180872,6.232182958390112,0.13038471851558647,0.01082197845576412,0.0019635770884320826
310673000000,188,310673000000,FR_wheel_link,-0.03854615884138628,-0.006920005302106438,-0.20204011633682503,0.00803878233791779,0.001038774803227184,0.00023207176780539685
310674000000,189,310674000000,FR_wheel_link,-0.11624030975526135,-2.0338735877361565,8.875228151645134,-0.21848401847389975,0.016933379512298792,-0.0018326292850521714
310675000000,190,310675000000,FR_wheel_link,-0.0016375036474849784,-0.048519839381391906,0.004242870665014365,-0.00554020854060249,0.0002481944647647962,-8.390895747612315e-05
310676000000,191,310676000000,FR_wheel_link,-0.12376295247687091,-0.5756220835725652,11.102433125579706,-0.06506008682327678,0.013914634068815625,0.00014884188569734422
310677000000,192,310677000000,FR_wheel_link,-0.04018770083569958,-0.6529340958510973,1.8660718333847905,-0.07007282429039557,0.004218843608348848,-5.957919821240445e-05
310678000000,193,310678000000,FR_wheel_link,-0.0008842620415778068,-0.01809764418955894,0.0032675709775349866,-0.0021078039215666074,3.7882163658218184e-05,-2.737556285837949e-05
310679000000,194,310679000000,FR_wheel_link,-0.1000202907256663,-1.705892843471366,15.272486537439734,-0.1886886033916247,0.011473069978019359,0.00015800340608430327
310680000000,195,310680000000,FR_wheel_link,0.00264385976775934,-0.019684618014420483,-0.00032335029734682297,-0.002337451924480226,-0.0003780129914293837,-1.8382167877086426e-05
310681000000,196,310681000000,FR_wheel_link,-0.012002392783341321,-0.8208033994825074,5.430370574486283,-0.09184027880662035,0.0007228970635770671,7.430135442487503e-05
310682000000,197,310682000000,FR_wheel_link,0.0008873498294885209,-0.011345188197897893,0.0003777594482905894,-0.0013788681650186,-0.00015705976150010107,-1.6914330688404717e-05
310683000000,198,310683000000,FR_wheel_link,-0.07247569423491362,-1.5721446204585074,15.156307577249258,-0.17367594035844294,0.008401036513761102,0.000123231414758355
310684000000,199,310684000000,FR_wheel_link,0.004008197775100226,-0.014917486333499255,-0.000962148744979933,-0.0017851100079343785,-0.0005352248988564601,-1.7834411070437756e-05
310685000000,200,310685000000,FR_wheel_link,0.0051710547758901625,-0.6908350561788905,5.482236032357432,-0.07735273108700091,-0.0011595493715337941,3.7476704916026014e-05
310686000000,201,310686000000,FR_wheel_link,0.0015879240185311598,-0.007191857813084926,-0.001114012883394393,-0.0009064639698873931,-0.00022367644197176286,-1.3051251672759214e-05
310687000000,202,310687000000,FR_wheel_link,-0.054648653943916145,-1.4765560456227,14.95320415092211,-0.16274010982653334,0.006490762976741009,7.199094762584272e-05
310688000000,203,310688000000,FR_wheel_link,0.004842772613863676,-0.01255415492198142,-0.0015823466104678873,-0.0014970454916462947,-0.0006314360907833727,-1.765594563002909e-05
310689000000,204,310689000000,FR_wheel_link,0.005675719575597677,-0.6141599634748285,5.667139687581685,-0.0686896502400268,-0.001186477997006359,3.3142356252244876e-05
310690000000,205,310690000000,FR_wheel_link,0.0018231444942374438,-0.005007351212043621,-0.0017866210135416651,-0.0006470944821488053,-0.00024099723981608928,-1.0757549877522144e-05
310691000000,206,310691000000,FR_wheel_link,-0.037794979138996904,-1.405623725122973,14.623881613597428,-0.1545874400039115,0.004671801605247083,3.0238979436256407e-05
310692000000,207,310692000000,FR_wheel_link,0.005496339085966206,-0.011774648365702271,-0.0017435932750583048,-0.0013889978627935424,-0.0007104675822930405,-1.7977193213716535e-05
310693000000,208,310693000000,FR_wheel_link,-0.006454748003571635,-0.5733713723036412,6.0633905885031245,-0.063982074422574,0.00019264191559216438,5.3813876135839905e-05
310694000000,209,310694000000,FR_wheel_link,0.0018348343023384989,-0.003823001885848709,-0.0020001226663675024,-0.0005023438989613518,-0.0002349238290412136,-9.451000047617888e-06
310695000000,210,310695000000,FR_wheel_link,-0.016102668316386445,-1.3390343330067982,14.044908215582037,-0.14698714420728637,0.0023050245640912656,-1.9369555823283206e-05
310696000000,211,310696000000,FR_wheel_link,0.0062339087549862894,-0.011953604596266378,-0.0016679190220997462,-0.0013947226701644631,-0.0008049245613688148,-1.8378319085985403e-05
310697000000,212,310697000000,FR_wheel_link,-0.03337067069491628,-0.5564774888817293,6.822901489849832,-0.06199104612148899,0.0030892094539177774,9.953186720632167e-05
310698000000,213,310698000000,FR_wheel_link,-0.024130789558970182,0.06903609478973194,-0.030856702392921754,0.006231551696742527,0.003923579217187864,-0.00042977966932165965
310699000000,214,310699000000,FR_wheel_link,0.6684917143905628,-2.170166566982149,11.964378153516689,-0.2378343772514757,-0.07275511087318512,-0.00046670073044751824
310700000000,215,310700000000,FR_wheel_link,0.0302713087049106,-0.04814284327509592,0.013262839790615856,-0.005165159135728071,-0.004000093991445308,-6.297693140543661e-05
310701000000,216,310701000000,FR_wheel_link,-0.5497744538440579,0.08466023629789629,9.384035415556788,0.007280575644599352,0.05729385207713183,0.0018847380946403842
310702000000,217,310702000000,FR_wheel_link,-0.463457776388783,-0.22962255240546975,6.348966878383176,-0.017503292492369454,0.05352151970667198,-7.272607621341959e-05
310703000000,218,310703000000,FR_wheel_link,0.1314231823017291,-0.1276582844966899,-0.3825320618145128,-0.01134290604635451,-0.0075617024296152965,-0.0030800005478840518
310704000000,219,310704000000,FR_wheel_link,-1.3619956363589811,0.40408344989924183,18.631230003175208,0.04638837789856157,0.14445993595454462,0.0028733557202733247
310705000000,220,310705000000,FR_wheel_link,-0.33591299854031803,-0.3415984505525987,4.160859702465705,-0.035104764764764845,0.03556008745496916,0.0008128358598605732
310706000000,221,310706000000,FR_wheel_link,0.1768771873860078,-0.24158455549778052,-0.5083699155547424,-0.01739398026120401,-0.010305174842738794,-0.002371469041808609
310707000000,222,310707000000,FR_wheel_link,-0.7405544493094035,0.290774121392967,11.675699832107117,0.014463559118224983,0.0633939507222321,0.004286471072851336
310708000000,223,310708000000,FR_wheel_link,-0.1084091338902379,-1.043126635956201,3.997075078749495,-0.10904571749494416,0.011848140893651724,-0.001072116976590399
310709000000,224,310709000000,FR_wheel_link,-0.013255731332190056,-0.020496144857213735,0.013794431566535871,-0.0017779485225556985,0.0011941769327131475,-2.4368910892662696e-06
310710000000,225,310710000000,FR_wheel_link,0.03543239230399771,-1.7297492065145044,15.921374655893583,-0.18995847869572294,-0.00492844114042963,-9.864103969359213e-05
310711000000,226,310711000000,FR_wheel_link,-0.018516884092276777,0.00980370350775825,0.04589341640493129,-0.0007100166225863338,9.97455359911887e-05,6.29689188778137e-05
310712000000,227,310712000000,FR_wheel_link,-0.22949180140255893,-4.187949646152586,6.187492616175963,-0.45604026901563205,0.022533768419454838,0.0005010470954096702
310713000000,228,310713000000,FR_wheel_link,-0.005681865405331657,0.18995334193924762,0.35912099185144397,0.02346885552511901,0.0005894029612026033,-0.00010159337498406618
310714000000,229,310714000000,FR_wheel_link,-0.20411758143378606,-3.1333521936765174,14.127266605594581,-0.32920737510625947,0.022511201897582107,1.2473398888630586e-05
310715000000,230,310715000000,FR_wheel_link,-0.004440245810828066,-0.1027270219908183,0.017430510807151092,-0.009167997557084175,0.00023831235162965895,-0.00010648325796704142
310716000000,231,310716000000,FR_wheel_link,0.0038561757379258713,0.2807058291232031,0.3080957005206005,0.03003521046479416,-0.0003364746571660059,0.00010496696773954067
310717000000,232,310717000000,FR_wheel_link,-0.14246144904201258,-3.350864845903019,14.751970766288931,-0.35640166616365243,0.015342892074346878,0.0001339685336088988
310718000000,233,310718000000,FR_wheel_link,-0.0015192691729591287,-0.09321438554617485,0.05665222361605357,-0.008932364697552478,-4.049112937316039e-05,-0.0001057418431102118
310719000000,234,310719000000,FR_wheel_link,-0.07302128660093835,1.2051545093714549,6.442679763839769,0.12916224650152663,0.006966382854736296,0.0001978981085121756
310720000000,235,310720000000,FR_wheel_link,-0.09270177274089104,-0.7444605511872003,3.7366194861526933,-0.07925467802007681,0.009364073682161899,0.0001809319104233259
310721000000,236,310721000000,FR_wheel_link,-0.00393808760316281,-0.016785535956133645,0.01284473232425493,-0.002059031296813299,0.0003504198905431786,-2.924012102299791e-05
310722000000,237,310722000000,FR_wheel_link,-0.12661109881067117,-1.4447366836782545,15.84608429178329,-0.15711243896288588,0.014603153690143478,3.388402720002989e-05
310723000000,238,310723000000,FR_wheel_link,0.00041819505911439145,-0.019240171678202966,0.014859164995659497,-0.002276897887077292,-0.00019968798309213048,-2.5132189291380506e-05
310724000000,239,310724000000,FR_wheel_link,-0.40017250872805304,-0.5851825505278614,10.45202945530073,-0.05801341663985515,0.0440763413244096,0.000655303470216358
310725000000,240,310725000000,FR_wheel_link,0.009962812067457442,0.03286340187610118,-0.6552718856710052,-0.002125888961387597,-0.0015748768861966447,-0.0005194555718130026
310726000000,241,310726000000,FR_wheel_link,-1.1961274494924934,-2.398604158158051,5.33147672602107,-0.25506325097687815,0.11848155672694537,0.0032518966920898154
310727000000,242,310727000000,FR_wheel_link,-0.028594011073087927,0.0805430759237042,-0.9395766804068401,0.001655424616027697,0.0002977997823770493,-0.0005241185846244183
310728000000,243,310728000000,FR_wheel_link,0.011046393561879093,-0.03587710471923192,-0.25652860145097695,-0.001363349612150218,0.0003708124694270111,-0.0020066470212736945
310729000000,244,310729000000,FR_wheel_link,-2.258424654763455,-3.3924002359285974,6.9600152364313175,-0.3597329588196286,0.23434452585115292,0.003935042701656034
310730000000,245,310730000000,FR_wheel_link,-0.053016539533654365,0.07869065837972344,-0.7953607778799539,0.0012774065283828984,0.0023376339592682013,8.46611459984247e-05
310731000000,246,310731000000,FR_wheel_link,0.005259974686011935,-0.0007959036901232194,-0.01612260300893683,-0.00015682853473411796,-0.0003772586184470151,-0.00023120110775263705
310732000000,247,310732000000,FR_wheel_link,-1.3188222300425394,-1.5660050855200285,7.553222118528545,-0.1736887505257493,0.15165264419020877,5.557740304134978e-05
310733000000,248,310733000000,FR_wheel_link,-0.0326509325735533,-0.02247272328663879,0.02180458384070671,-0.0024861281929031242,0.003867060774238402,-4.4141464433958505e-05
310734000000,249,310734000000,FR_wheel_link,-0.19316659433660227,-1.074833046872772,11.233224699061319,-0.11640706604647785,0.023297536179507968,-0.00047934533936055956
310735000000,250,310735000000,FR_wheel_link,-0.0059993532358857855,-0.01914139266326827,-0.005046195374828135,-0.002404010270050817,0.0004442767454916315,-1.4097368767658343e-05
310736000000,251,310736000000,FR_wheel_link,-0.23614586918186736,-0.6361582947924239,9.32342629826054,-0.06914721809458337,0.02465268109395094,0.00038779592439398537
310737000000,252,310737000000,FR_wheel_link,-0.009610905383936306,-0.002411904646973151,-0.005092305098798133,-0.0005322817065790128,0.000975922835471364,8.293539896264865e-06
310738000000,253,310738000000,FR_wheel_link,-0.09942226527281196,-0.9167412540561971,11.105107033354555,-0.09816460925129274,0.010754263954191025,2.1155126968952757e-05
310739000000,254,310739000000,FR_wheel_link,-0.000794045987611122,-0.012817574277936093,-0.0010893389675947528,-0.001574387846948808,-0.00012771868871151653,-5.701555325203626e-06
310740000000,255,310740000000,FR_wheel_link,-0.1440931219087298,-0.5848357434135368,9.192800146555545,-0.06298838300957071,0.014843489430402278,0.00027633039620828057
310741000000,256,310741000000,FR_wheel_link,-0.004229437461380785,-0.0013555102405227734,-0.006422643026617952,-0.00034453044598943723,0.00038798457345881225,4.476125976833957e-06
310742000000,257,310742000000,FR_wheel_link,-0.056400502083762634,-0.8098172120614971,11.08988122433519,-0.08614061999264178,0.006157977887113254,8.392387721861782e-06
310743000000,258,310743000000,FR_wheel_link,0.001754570710582594,-0.009293127019582284,-0.0017926546533614132,-0.001131889879781539,-0.00036894263917373193,-7.833221461821649e-06
310744000000,259,310744000000,FR_wheel_link,-0.08977996035640076,-0.5677555365288648,9.164276405336905,-0.06067412034452087,0.00920287084077282,0.0001760474234869011
310745000000,260,310745000000,FR_wheel_link,-0.0011861935806704246,-0.0015813427639064493,-0.005746929351191533,-0.00031692659640764054,5.7866524737047526e-05,-1.2981209668811167e-07
310746000000,261,310746000000,FR_wheel_link,-0.037103182190376845,-0.7396991119471164,11.078958934214214,-0.07824307005929833,0.004147070960555752,8.339605741800448e-07
310747000000,262,310747000000,FR_wheel_link,0.0030249510871959073,-0.00731373071486792,-0.0021653397402994386,-0.0008855533576780657,-0.00047847843694631275,-9.218732675925195e-06
310748000000,263,310748000000,FR_wheel_link,-0.05660758959426055,-0.5560957926915552,9.151229070448748,-0.059073968231766,0.005790628099864034,0.00011567246747731857
310749000000,264,310749000000,FR_wheel_link,0.0006783721452466686,-0.002017658770879596,-0.00511807336205643,-0.00033494787455381635,-0.00014482719979748974,-3.508486262744566e-06
310750000000,265,310750000000,FR_wheel_link,-0.02796521899147152,-0.6874288217251596,11.069831481338689,-0.0723214871982065,0.003208771786639119,9.984551119238878e-07
310751000000,266,310751000000,FR_wheel_link,0.003693926991745755,-0.006053167113473273,-0.002398901769593025,-0.0007326250834897343,-0.0005312118885319934,-9.981716829627559e-06
310752000000,267,310752000000,FR_wheel_link,-0.034862428855939445,-0.5435983678108808,9.140763305038805,-0.057419719760110816,0.003568105573364389,7.121233058933775e-05
310753000000,268,310753000000,FR_wheel_link,0.0019194894531434114,-0.0024006064259129265,-0.0047215965940519185,-0.0003612537241482276,-0.00028311055784408575,-5.11534708110015e-06
310754000000,269,310754000000,FR_wheel_link,-0.023188142196617446,-0.6448057862296587,11.058016948775483,-0.06746560451443243,0.0027029478313864426,9.479917682680627e-06
310755000000,270,310755000000,FR_wheel_link,0.00406310043017742,-0.0051641590814205515,-0.0026065706989150165,-0.0006280831838062672,-0.0005578552462354438,-1.0366233288385644e-05
310756000000,271,310756000000,FR_wheel_link,-0.019803006859104508,-0.5285119689066501,9.130034932657857,-0.05550553971998225,0.0020240092221437823,3.9963429650195044e-05
310757000000,272,310757000000,FR_wheel_link,0.002762329341465541,-0.002653447678027879,-0.004519911095695447,-0.00038045841188807694,-0.0003787290118122845,-6.0587996194469885e-06
310758000000,273,310758000000,FR_wheel_link,-0.020819041733847847,-0.6075139810780638,11.043229990471504,-0.0631794897289914,0.002446360064315933,1.629384510245718e-05
310759000000,274,310759000000,FR_wheel_link,0.004271180495021933,-0.004513920453222599,-0.0027948457583603496,-0.0005534893350463745,-0.0005718918624335686,-1.0296173736573994e-05
310760000000,275,310760000000,FR_wheel_link,-0.009276080551710269,-0.5111172355407277,9.119618819512416,-0.053353889647995194,0.0009415069617431803,1.8232555131705335e-05
310761000000,276,310761000000,FR_wheel_link,0.0033497442735911354,-0.0028021030278242917,-0.004426695073299057,-0.00039192961446096915,-0.00044689066522748966,-6.45911672594524e-06
310762000000,277,310762000000,FR_wheel_link,-0.01962704561332302,-0.5738503261929266,11.026588304901182,-0.059286301057697284,0.002305621124003708,2.4060931374501056e-05
310763000000,278,310763000000,FR_wheel_link,0.004376860947729518,-0.00400987830221617,-0.0029593215663161793,-0.0004963809046477733,-0.0005773368277235829,-1.0218379248625003e-05
310764000000,279,310764000000,FR_wheel_link,-0.0019664451556814008,-0.4919441688062024,9.109931257505288,-0.051012743285106285,0.00019475791159901317,6.217255967185207e-07
310765000000,280,310765000000,FR_wheel_link,0.003763768015128061,-0.0028699267749158638,-0.004396584164055859,-0.00039640965540147085,-0.0004961390963854657,-6.44857828199903e-06
310766000000,281,310766000000,FR_wheel_link,-0.019147379342955958,-0.5425905138131885,11.008864804308665,-0.05565064736082041,0.002238978608164122,3.136460342263444e-05
310767000000,282,310767000000,FR_wheel_link,0.004428275001569009,-0.003607788023225296,-0.003103197176536326,-0.00045115587581878654,-0.0005788948025582121,-1.0013616644407532e-05
310768000000,283,310768000000,FR_wheel_link,0.003177125875116125,-0.471516707299312,9.101040850698531,-0.04854175086690111,-0.0003294601252857444,-1.2200375465212022e-05
310769000000,284,310769000000,FR_wheel_link,0.004057160008061458,-0.0028710776581145694,-0.0044105961684450514,-0.00039447443424398226,-0.0005317704301119161,-6.264657179140034e-06
310770000000,285,310770000000,FR_wheel_link,-0.01905764026426472,-0.5129240751571638,10.990387373179889,-0.05218325879824649,0.002215876105495245,3.7259185377050804e-05
310771000000,286,310771000000,FR_wheel_link,0.004450275606663544,-0.0032738034017843224,-0.003231401540667316,-0.0004136938208076114,-0.0005785847668835103,-9.749274330785237e-06
310772000000,287,310772000000,FR_wheel_link,0.007049984320470365,-0.4502399881775174,9.092647890178151,-0.04598819723239541,-0.0007311167543638812,-1.9418621028642532e-05
310773000000,288,310773000000,FR_wheel_link,0.004252003082861647,-0.0028099823060065265,-0.0044549253820882085,-0.0003859761390424458,-0.0005552270741559928,-6.311356136908314e-06
310774000000,289,310774000000,FR_wheel_link,-0.019317117300239113,-0.4843180507845268,10.971439207092939,-0.04882292873268539,0.0022373737752087973,4.0210058297357416e-05
310775000000,290,310775000000,FR_wheel_link,0.004450128664996952,-0.0029862129818762056,-0.003345711833863397,-0.0003812157041395367,-0.0005765484580766219,-9.524429649014543e-06
310776000000,291,310776000000,FR_wheel_link,0.009846868967579248,-0.4282752574063727,9.084763462453827,-0.04336076551520578,-0.0010197823003384216,-2.5023210065423685e-05
310777000000,292,310777000000,FR_wheel_link,0.004388712512401745,-0.002717223988284432,-0.004512118415546908,-0.0003741670368165532,-0.0005719557758835946,-6.270833437207419e-06
310778000000,293,310778000000,FR_wheel_link,-0.019662342478026996,-0.45654487266657573,10.952182389288758,-0.0455507837732792,0.002269689902605912,4.237815143634061e-05
310779000000,294,310779000000,FR_wheel_link,0.0044419135365477164,-0.002733502122933391,-0.003450927418683178,-0.00035253564175797213,-0.0005742922931808656,-9.272670575329435e-06
310780000000,295,310780000000,FR_wheel_link,0.011920914483755601,-0.4058349953951627,9.077234627027838,-0.040682992468671,-0.001233490920332781,-2.9175328891984635e-05
310781000000,296,310781000000,FR_wheel_link,0.00448695477555844,-0.002602220194067013,-0.004577827036212796,-0.00036003714143697136,-0.00058421808264502,-6.156165489562911e-06
310782000000,297,310782000000,FR_wheel_link,-0.019996056580934753,-0.4293759926229999,10.932693398848475,-0.04234293491707849,0.0023017976648007084,4.3990057010484025e-05
310783000000,298,310783000000,FR_wheel_link,0.004431802222128182,-0.0025050552498990454,-0.0035506914516372605,-0.0003264962711131777,-0.0005723156277894691,-9.005406806923345e-06
310784000000,299,310784000000,FR_wheel_link,0.013496009034194763,-0.3830582997557383,9.069938765438515,-0.03796952940456717,-0.0013955817517646051,-3.2293916736759926e-05
310785000000,300,310785000000,FR_wheel_link,0.004559066172446317,-0.002471137189489826,-0.004649221665538204,-0.000344216123623172,-0.0005934091784743412,-5.992563911915909e-06
310786000000,301,310786000000,FR_wheel_link,-0.020234338606238588,-0.40265740757041246,10.912987838234645,-0.039184170187034136,0.002322993259247877,4.563129204706622e-05
310787000000,302,310787000000,FR_wheel_link,0.004420017688676314,-0.0022915324537694784,-0.00364699877351895,-0.00030196498345949304,-0.0005703566744588193,-8.789918798611612e-06
310788000000,303,310788000000,FR_wheel_link,0.014697660814001588,-0.36003993811169993,9.062802137042146,-0.03522956598843554,-0.0015181131581664291,-3.4990475685221826e-05
310789000000,304,310789000000,FR_wheel_link,0.004611922264512234,-0.0023282000745758384,-0.004723815053086425,-0.00032710412519074963,-0.0006002657758341869,-5.815656551288284e-06
310790000000,305,310790000000,FR_wheel_link,-0.020391762993885485,-0.3762755465649301,10.893152228470587,-0.03606175397633247,0.002335602646968817,4.7092704027285135e-05
310791000000,306,310791000000,FR_wheel_link,0.004407815394433364,-0.002088356251188848,-0.00374123913581005,-0.00027851306543937124,-0.0005684713886622127,-8.62379947899049e-06
310792000000,307,310792000000,FR_wheel_link,0.015589648427514619,-0.3368704006059577,9.055804191704365,-0.03247153788290361,-0.001606005459998842,-3.8079081776790945e-05
310793000000,308,310793000000,FR_wheel_link,0.0046541291636188935,-0.0021798518250724873,-0.004800494848430105,-0.00030947556298396807,-0.0006059970693692433,-5.539342035123551e-06
310794000000,309,310794000000,FR_wheel_link,-0.020457085682448545,-0.3501549191356268,10.873231468451275,-0.032968310680611505,0.002337671781370354,4.8744955963821306e-05
310795000000,310,310795000000,FR_wheel_link,0.004398630742324157,-0.0018933227038614316,-0.003835513168099891,-0.0002559447100573852,-0.0005671315847600236,-8.446220435015827e-06
310796000000,311,310796000000,FR_wheel_link,0.01623008158315223,-0.3135890277264821,9.04889970118055,-0.029699309196152827,-0.0016648866896704518,-4.1775563476501494e-05
310797000000,312,310797000000,FR_wheel_link,0.004693041117486096,-0.0020301024526244785,-0.00487874561178981,-0.0002918488338344737,-0.0006116101015705019,-5.106678924573907e-06
310798000000,313,310798000000,FR_wheel_link,-0.020398868151837224,-0.32423918119733813,10.853242327757966,-0.029898668688432144,0.0023247654671285293,5.0974771033226595e-05
310799000000,314,310799000000,FR_wheel_link,0.0043941369124166135,-0.0017035410822122074,-0.00393124649069778,-0.00023398939947874624,-0.0005665150201035296,-8.244300790869213e-06
310800000000,315,310800000000,FR_wheel_link,0.016800421353784505,-0.2902186796722772,9.041870736943348,-0.026919467235746296,-0.0017197801940386788,-4.401453017942817e-05
310801000000,316,310801000000,FR_wheel_link,0.004721341124932414,-0.0018721553693051176,-0.004959876843152062,-0.0002731937590707731,-0.0006156704165327855,-4.790201002215918e-06
310802000000,317,310802000000,FR_wheel_link,-0.02031616990862039,-0.29847304103806926,10.833261301602816,-0.026843582691673994,0.0023112568168343847,5.233177238168227e-05
310803000000,318,310803000000,FR_wheel_link,0.004390734992537374,-0.001517519259451004,-0.004026743690355781,-0.0002123682310546875,-0.0005660360270169239,-8.082118775105214e-06
310804000000,319,310804000000,FR_wheel_link,0.017317954745650673,-0.26682456489298173,9.034746954319967,-0.024137924395737923,-0.0017708471911070224,-4.5606409827877753e-05
310805000000,320,310805000000,FR_wheel_link,0.0047403446929344525,-0.0017085673355267076,-0.005042275343549374,-0.00025383022846736246,-0.0006183800947223174,-4.5681651909465296e-06
310806000000,321,310806000000,FR_wheel_link,-0.020236575355124027,-0.2728453957675202,10.813327947342055,-0.023802208556686737,0.0022997477514658713,5.3051665464305965e-05
310807000000,322,310807000000,FR_wheel_link,0.004387180212182816,-0.0013349782013578543,-0.004121847010584797,-0.00019103682500027283,-0.0005655504890345362,-7.945404529421407e-06
310808000000,323,310808000000,FR_wheel_link,0.01775127082184363,-0.2434186290363109,9.027551996333186,-0.021354614422213238,-0.0018128273576052036,-4.7161513005257514e-05
310809000000,324,310809000000,FR_wheel_link,0.004755210235062155,-0.0015439051623175092,-0.0051250915210120165,-0.0002343017914479262,-0.0006205751511852266,-4.345586307996779e-06
310810000000,325,310810000000,FR_wheel_link,-0.02013398486004379,-0.24735147226922957,10.79344923141365,-0.020775281687340136,0.002285994923807824,5.368300554387818e-05
310811000000,326,310811000000,FR_wheel_link,0.004384523602839715,-0.0011553550388579336,-0.0042172139316546875,-0.00016997930913542668,-0.0005652153974682699,-7.811141582463735e-06
310812000000,327,310812000000,FR_wheel_link,0.018129924830706877,-0.2200119646295997,9.020252630611386,-0.01857096146990077,-0.0018491499361284586,-4.860846804547971e-05
310813000000,328,310813000000,FR_wheel_link,0.004767449199752901,-0.0013785288753003439,-0.005208675421306131,-0.00021466864036078702,-0.0006224480266298127,-4.118594704586446e-06
310814000000,329,310814000000,FR_wheel_link,-0.020009111076132992,-0.2219731636940827,10.773629701604934,-0.017760919677281797,0.002269946420023807,5.4270196436151024e-05
310815000000,330,310815000000,FR_wheel_link,0.004382790944151974,-0.0009777676543838974,-0.0043131098622523414,-0.00014910963504824188,-0.0005650219459318271,-7.67863896114626e-06
310816000000,331,310816000000,FR_wheel_link,0.018446085178712195,-0.19655838191997616,9.01279003507677,-0.01578050923418097,-0.001877746590361345,-5.044390420711486e-05
310817000000,332,310817000000,FR_wheel_link,0.004780272437230714,-0.001216032572687426,-0.005292075906686266,-0.00019539966502076233,-0.0006245087874682822,-3.829709706246189e-06
310818000000,333,310818000000,FR_wheel_link,-0.019844677701330787,-0.1967272942616539,10.753903368679739,-0.01476189921565805,0.002248894271567861,5.5153233529549606e-05
310819000000,334,310819000000,FR_wheel_link,0.004382672208639816,-0.0008026137707919907,-0.0044089893167055605,-0.0001285080505744549,-0.0005650705133350578,-7.5349270497113804e-06
310820000000,335,310820000000,FR_wheel_link,0.01872420172541033,-0.17308759860413908,9.005176347656844,-0.012987195462229975,-0.001901771164985695,-5.246703203019271e-05
310821000000,336,310821000000,FR_wheel_link,0.004793736970546298,-0.001055634966902246,-0.005375381029841667,-0.00017640590239965655,-0.0006267254018316723,-3.4974337980035022e-06
310822000000,337,310822000000,FR_wheel_link,-0.019647953990047026,-0.17159933711422737,10.734277423884462,-0.011776418455811443,0.0022238527075804557,5.624251360092113e-05
310823000000,338,310823000000,FR_wheel_link,0.004383900835419004,-0.0006292283611638244,-0.004504829674210118,-0.00010810244547042062,-0.0005653102926990893,-7.385217791917617e-06
310824000000,339,310824000000,FR_wheel_link,0.018941722286951825,-0.1496190806441147,8.99746888577715,-0.010193021893442827,-0.0019181737734262998,-5.4784044880460936e-05
310825000000,340,310825000000,FR_wheel_link,0.004809423938118684,-0.0008972124853588135,-0.005459000670111418,-0.0001576798380595977,-0.0006293180677052521,-3.114301279733701e-06
310826000000,341,310826000000,FR_wheel_link,-0.01940533498418112,-0.14657420556233622,10.714725922540717,-0.008802908741340078,0.0021930836806819897,5.7583759466050366e-05
310827000000,342,310827000000,FR_wheel_link,0.004387078246045299,-0.0004569427465940059,-0.004601480811666541,-8.782555502956347e-05,-0.0005658164518016826,-7.228273527016059e-06
310828000000,343,310828000000,FR_wheel_link,0.019192075022893183,-0.12623021960041417,8.98964971949954,-0.00740909281308615,-0.0019399568274486403,-5.6438532151436175e-05
310829000000,344,310829000000,FR_wheel_link,0.004822263849713336,-0.0007346573064021493,-0.005545775178372112,-0.00013838925088499382,-0.0006314154526218863,-2.799381115887433e-06
310830000000,345,310830000000,FR_wheel_link,-0.019171605422136948,-0.12159709426196069,10.695225180158612,-0.005833550770895754,0.0021643199270957934,5.8496341031591025e-05
310831000000,346,310831000000,FR_wheel_link,0.00439005362837126,-0.0002838983298828437,-0.004699238389611443,-6.741435282838158e-05,-0.0005662642281434613,-7.0912384105839184e-06
310832000000,347,310832000000,FR_wheel_link,0.019481668943993915,-0.10290862362022865,8.981689410843423,-0.00463368926245191,-0.001967713939754795,-5.751704573621294e-05
310833000000,348,310833000000,FR_wheel_link,0.004830066708724647,-0.0005670137395711391,-0.0056355322768885975,-0.00011846236395738489,-0.0006326853745660304,-2.581926591635815e-06
310834000000,349,310834000000,FR_wheel_link,-0.018980340904413237,-0.09666508009028672,10.675780114702901,-0.002867627803326044,0.0021416067695043633,5.8877238947659604e-05
310835000000,350,310835000000,FR_wheel_link,0.004391339556142779,-0.00011045803601086831,-0.0047977415002799515,-4.68632547184052e-05,-0.0005664712899822673,-6.974492604051325e-06
