%time,field.header.seq,field.header.stamp,field.header.frame_id,field.wrench.force.x,field.wrench.force.y,field.wrench.force.z,field.wrench.torque.x,field.wrench.torque.y,field.wrench.torque.z
310493000000,0,310485000000,BL_wheel_link,0.027082976583953255,-0.014970258075982883,0.016352803819759027,-4.003092207611716e-05,-0.0007705762325833518,-0.0018065017673653608
310493000000,1,310486000000,BL_wheel_link,3.028870302470004,1.1748476283953233,9.595854410451604,0.12860603004725105,-0.3169103193143354,0.005988877379423297
310493000000,2,310487000000,BL_wheel_link,-0.13756678561367744,0.02889923823401981,0.07680422010868894,-6.887544112035687e-05,0.0038693613254405755,-0.005063236824152749
310493000000,3,310488000000,BL_wheel_link,3.688503265464648,1.3586882724232043,12.529623620909392,0.1507827875779766,-0.3815804934201149,0.007749585982681074
310493000000,4,310489000000,BL_wheel_link,-0.07043766572151039,0.03741447184947237,0.10695368300965943,0.0005439919995289886,-0.0022166338077051714,-0.004036500916587626
310493000000,5,310490000000,BL_wheel_link,3.0072824249629297,1.2003780835435507,9.72720724018271,0.1338033027096607,-0.31256182035675617,0.006533885021215036
310493000000,6,310491000000,BL_wheel_link,-0.08299558735800011,0.030589319286556827,0.03213823715495801,0.0005003993410672476,0.0030352922981121138,-0.004421364053061337
310493000000,7,310492000000,BL_wheel_link,3.5446498443918077,1.3595176739478252,11.770364694829077,0.15154573742605804,-0.36718953423848505,0.007609224485918475
310493000000,8,310493000000,BL_wheel_link,-0.04951330409223339,0.03438657900015897,0.06558725074717149,0.0007108024168832595,-0.0012522377447941014,-0.003962133421676642
310494000000,9,310494000000,BL_wheel_link,3.1611212441549235,1.224831955655283,10.124451147547793,0.136565128106874,-0.32892541025797706,0.0068185022053929775
310495000000,10,310495000000,BL_wheel_link,-0.009868972663869316,0.009833533688315483,-0.3483585511258283,0.00028226061046458947,-0.003817976688762423,-0.0037565302125764956
310496000000,11,310496000000,BL_wheel_link,2.263712530864294,0.8645819520267933,5.852122355449888,0.09778688870659587,-0.23919127722311814,0.0044435202510617056
310497000000,12,310497000000,BL_wheel_link,0.17087582928559258,-0.09693623789941906,-0.6816884468980516,0.0016100231651726056,-0.0027713777871045523,0.001016978475368025
310498000000,13,310498000000,BL_wheel_link,-0.011121809905331641,-0.0034263682197568667,-0.00603338155736312,-0.00011530848839043236,0.0013707170945445543,-0.0001415729319341524
310499000000,14,310499000000,BL_wheel_link,1.5923195241276427,1.7102552959531683,16.22506771501819,0.1856777237979015,-0.17382030962689934,0.0014830230070314024
310499000000,15,310500000000,BL_wheel_link,0.03604502603358572,0.03533238087559142,-0.026961566654496314,0.0006757723812245757,-0.007200815182797061,-0.0023671961502974986
310501000000,16,310501000000,BL_wheel_link,1.17784566224859,1.0130576738688946,10.510097018858012,0.10502219234800757,-0.13247828108228912,0.001363442324575371
310502000000,17,310502000000,BL_wheel_link,-0.00738200850315433,0.016576294417675233,-0.07730299982657499,0.0020104964464362036,0.005442723751402497,-0.001933736383801648
310503000000,18,310503000000,BL_wheel_link,4.363670230762208,1.4653360045929993,14.434268513996907,0.16879994229713982,-0.45477753433180246,0.010883597000542667
310504000000,19,310504000000,BL_wheel_link,-0.16547642386066314,0.06908310118437479,0.07233158758525741,7.791939453852042e-05,0.0035725895516306246,-0.007021062653180669
310505000000,20,310505000000,BL_wheel_link,2.117855852465058,1.1296345356822273,8.532486263120543,0.1287862208124076,-0.2125849228946134,0.005871285175633339
310506000000,21,310506000000,BL_wheel_link,0.09400050219666943,0.029746355227683974,-0.17387517153605292,-0.0001335184088226953,-0.0011530687788774215,-0.0030368264909294107
310507000000,22,310507000000,BL_wheel_link,3.176492766264604,1.258282024389923,13.151898373529317,0.13169092615445363,-0.3478048568363869,0.003991345695680885
310508000000,23,310508000000,BL_wheel_link,0.06311366517766105,0.0258892648830117,0.0457760920155004,0.0022991428661032027,-0.006836138967966855,4.0141462746318776e-05
310509000000,24,310509000000,BL_wheel_link,0.1105325135375487,1.705743566723573,12.975283683082084,0.18834267515946335,-0.008269028514378898,-0.00014778166964387793
310510000000,25,310510000000,BL_wheel_link,0.02137020893432625,0.0041661330013262,-0.012889273575778489,0.0010054087061745454,-0.0019018982294834218,6.692737200036715e-05
310511000000,26,310511000000,BL_wheel_link,0.8117651225547927,1.228317257419043,9.336015860670816,0.14133907121805014,-0.08257142328037467,0.002596547329114538
310512000000,27,310512000000,BL_wheel_link,1.5755895537549318,1.775230508301621,3.8424249276946076,0.18548584867378243,-0.16893209339756587,0.0016229040479741718
310513000000,28,310513000000,BL_wheel_link,0.009221881885558666,-0.09130700680630234,-0.6096319403440094,-0.007871570997191856,0.0007199552608122537,-0.0030596942722859646
310514000000,29,310514000000,BL_wheel_link,1.8540428691283062,2.4412593906668727,5.262471922848377,0.25569801079291227,-0.19122952738389715,0.0033497890793449253
310515000000,30,310515000000,BL_wheel_link,0.030003490572691714,-0.010492412644058405,0.08746487374594276,-0.008480226418421393,-0.005790110113450526,-0.00013392641494406961
310516000000,31,310516000000,BL_wheel_link,0.6334858403508672,7.434279411065266,12.790677704617687,0.7938361057119393,-0.06896993358876133,0.0005294413673017663
310517000000,32,310517000000,BL_wheel_link,0.037604363727402314,-0.07662757046503864,0.4983540827449187,-0.010903967246794318,-0.0036504592908484386,7.332791489905576e-05
310518000000,33,310518000000,BL_wheel_link,0.16287243131211918,3.718440206159414,11.239200252022616,0.38896390799145153,-0.02086944167008543,-0.0018728401636584114
310519000000,34,310519000000,BL_wheel_link,0.018611948203963512,0.10395842290596655,-0.006853019386612254,0.011710774384409544,-0.0023551502636574577,-0.00013133406021312516
310520000000,35,310520000000,BL_wheel_link,0.19957197964684176,1.4065050646442274,11.332174829163726,0.16119679573783657,-0.01773518058393212,0.0016294141836904474
310521000000,36,310521000000,BL_wheel_link,0.3760705264909366,0.9411805042405548,3.0904028804676518,0.10837266531755364,-0.038563738859102074,0.0015227703202003529
310522000000,37,310522000000,BL_wheel_link,0.022485905745466203,0.0185925756039772,0.012283985916805963,0.002526844564635231,-0.0024273316499059663,-1.5934591733667675e-06
310523000000,38,310523000000,BL_wheel_link,0.23647725932038688,2.1895696458146636,15.851599207370658,0.23978240799534453,-0.024796429559713597,0.00022174339100398903
310524000000,39,310524000000,BL_wheel_link,0.021233056387509722,0.021884235314465584,0.01398855916777703,0.002779778568320638,-0.002343528419156313,-8.011942548116322e-07
310525000000,40,310525000000,BL_wheel_link,-0.0021838071671568507,-0.07314064823577471,-0.5987831407027978,-0.001105912971818793,0.0015636376210477437,-0.0002532060107623884
310526000000,41,310526000000,BL_wheel_link,2.867710121361025,4.3684053485038845,7.7120118110003695,0.46779905552191536,-0.299796851884471,0.005244582470412166
310527000000,42,310527000000,BL_wheel_link,-0.0295447063075382,-0.05464153425168171,-0.6873341286870658,-0.0035698396655010184,0.00022015278681632134,-0.003506970685786504
310528000000,43,310528000000,BL_wheel_link,0.002862517854605556,0.0003935180857259026,-0.025296172803707415,0.00039706827999294174,0.000293858495405499,-1.8648944890308956e-05
310529000000,44,310529000000,BL_wheel_link,1.3720138343061008,2.0225290350118255,9.527260677813404,0.2299608136551627,-0.14995287525605866,0.0033502204134727175
310530000000,45,310530000000,BL_wheel_link,0.04945638198337386,0.029009975138829025,0.05217798554714158,0.0024998296278038352,-0.005481325827689059,-2.1207790871361936e-05
310531000000,46,310531000000,BL_wheel_link,-0.46703398180335154,1.228120640136393,9.486221853376412,0.13360376750419875,0.049457576674252414,-0.002052090921827937
310532000000,47,310532000000,BL_wheel_link,0.14264298881069085,0.8642365147335095,4.462681015820097,0.0917903134851498,-0.012460043275300009,0.00016756043139394566
310533000000,48,310533000000,BL_wheel_link,0.0536742846521934,-0.08953089366462216,-0.03778481276251096,-0.007611248151193933,-0.006617107639694422,0.00011316460509037439
310534000000,49,310534000000,BL_wheel_link,-0.4981211661363273,3.2565440353959323,17.265518529027958,0.3519586189466435,0.056361658414406296,0.00025224464022912925
310535000000,50,310535000000,BL_wheel_link,-0.0032598985731006045,0.05773094198620091,0.06573904528416859,0.005958689009842485,0.0011874964736605853,-3.0123203187521407e-05
310536000000,51,310536000000,BL_wheel_link,1.2043784884333444,-0.6873644599103231,13.610366851184567,-0.08831619937369933,-0.13893331659556593,-0.0015300992148770591
310537000000,52,310537000000,BL_wheel_link,-0.0071879092510519615,-0.058665944302804085,0.13986110477694338,-0.004093421389466745,0.003617017102335222,0.0017058924630144396
310538000000,53,310538000000,BL_wheel_link,0.17318579019081703,3.099239277674283,14.347392088907924,0.3415469668769951,-0.015311998005562197,0.0006679384002708658
310539000000,54,310539000000,BL_wheel_link,0.01428982527603494,0.059147476391029505,0.014102920581736471,0.007518069086210604,-0.0015115072655503428,0.0001725914748986245
310540000000,55,310540000000,BL_wheel_link,-0.5991438050665121,-0.8011596292702106,7.040680365885234,-0.08735553894593544,0.06456321218897512,-0.0016208300767929812
310541000000,56,310541000000,BL_wheel_link,0.012801478348260663,-0.049196768974808416,-0.09860860821353357,-0.005230343553417564,0.00046007188508573565,0.0005622750217378071
310541000000,57,310542000000,BL_wheel_link,0.4251882668184167,2.710739629944877,6.756091993111641,0.30963131686242173,-0.0400234740467161,0.003843230686769532
310543000000,58,310543000000,BL_wheel_link,0.01857351161547826,0.05452123803444704,0.05592059906870985,0.005114776088771661,-0.0018030368334872125,-4.693386660942302e-05
310544000000,59,310544000000,BL_wheel_link,0.02489853803098255,0.36332827535211887,9.254002780768749,0.037461706078430634,-0.005774926749927253,-0.001736568708214271
310545000000,60,310545000000,BL_wheel_link,0.5384658439918559,0.6591744852652284,5.042986547093733,0.06672282127366495,-0.06000637430476375,-0.00019722775053910899
310546000000,61,310546000000,BL_wheel_link,-0.10528846207734778,0.11637407881903687,-0.2908899795502055,0.010238577351959278,0.005459797895229244,-0.0026103585000887544
310547000000,62,310547000000,BL_wheel_link,1.053724435535573,0.9054703050929528,20.646890454820618,0.09973028244391123,-0.10811639167685684,0.004255001551269667
310548000000,63,310548000000,BL_wheel_link,0.042898620374945746,-0.05767775627879693,0.20260330355632022,-0.0055205812082074176,-0.0025301178461758123,0.001047901216879831
310549000000,64,310549000000,BL_wheel_link,-1.1482962526551581,4.031098958544856,11.170547760007985,0.433614255477218,0.12551916703462923,-0.0024911573059639407
310550000000,65,310550000000,BL_wheel_link,-0.0014935871211135213,0.04945417190920029,0.012466660844987336,0.0048713777264556045,0.000323527622999993,-0.00017177546058510962
310551000000,66,310551000000,BL_wheel_link,0.3408283005090115,0.6743233795799368,12.308459933592555,0.07384452615969034,-0.03670726185431456,3.144445243205265e-05
310552000000,67,310552000000,BL_wheel_link,0.26866481530748487,0.5527968680345585,2.1477475523720315,0.060917162726477674,-0.030106745798100538,0.00040892680995331887
310553000000,68,310553000000,BL_wheel_link,0.0100187424826785,0.006454071334870224,0.006960919816830775,0.0006454064039595165,-0.0011488434733608712,-3.448705589646309e-05
310554000000,69,310554000000,BL_wheel_link,0.061755914024971784,1.8674089442761184,15.601780229059248,0.2029671300863543,-0.0061802587302096645,-0.00015016567913591359
310555000000,70,310555000000,BL_wheel_link,0.011293814414995865,0.011569093094330532,0.010661759992869183,0.001188466462381209,-0.0012545467909043369,-1.3259609137640097e-07
310556000000,71,310556000000,BL_wheel_link,0.15891358775508452,0.8695676523956263,5.905351452654127,0.09657942649147656,-0.017437183167242694,7.481307985618359e-05
310557000000,72,310557000000,BL_wheel_link,0.006668722867113196,0.006872732242174427,0.008760922470174253,0.0006665737966575087,-0.0006642047984240335,-1.4870464682984168e-06
310558000000,73,310558000000,BL_wheel_link,0.02603394773420179,1.8305830934021674,15.44672446457733,0.19922768491364753,-0.0019668293641151714,1.3530125314508019e-05
310559000000,74,310559000000,BL_wheel_link,0.009235960405064605,0.01024363598151365,0.009021585412151999,0.0010971312082689126,-0.0010396755646276115,4.473704095511033e-06
310560000000,75,310560000000,BL_wheel_link,0.10768750778203529,0.8864866416648796,6.005196779559902,0.09837430782965247,-0.011891541211607527,8.838499852986507e-05
310561000000,76,310561000000,BL_wheel_link,0.005048657078321089,0.006627545567198923,0.00841526060141721,0.0006607923093170568,-0.0004932171205379759,-2.251649576532282e-06
310562000000,77,310562000000,BL_wheel_link,0.013597688498710563,1.7983406907638915,15.2883261045523,0.1956795839382653,-0.0007137678448162082,1.858154846006601e-05
310563000000,78,310563000000,BL_wheel_link,0.008336131199019419,0.009474972175142132,0.008563509105519094,0.0010254043551326203,-0.0009591596396756578,3.354936559847288e-06
310564000000,79,310564000000,BL_wheel_link,0.06986677861563208,0.9218431171071944,6.19057348388023,0.10216537596862289,-0.007899510875436791,4.6873086243810836e-05
310565000000,80,310565000000,BL_wheel_link,0.003990607760655585,0.006834864481140482,0.008499052527530828,0.0006845751828732653,-0.00037772498227087967,-3.0002048657742426e-06
310566000000,81,310566000000,BL_wheel_link,0.010296422862738963,1.7609717044238307,15.05616654319262,0.19160191105207852,-0.00043669547638742833,2.8315357357168765e-05
310567000000,82,310567000000,BL_wheel_link,0.007882159914362235,0.008912515352439544,0.00829082827866479,0.0009678827281755246,-0.0009235332718440965,2.80512331953947e-06
310568000000,83,310568000000,BL_wheel_link,0.038405427275776366,0.9710399786248072,6.476253543263678,0.10749561712358721,-0.004516356206897274,8.321103677458532e-06
310569000000,84,310569000000,BL_wheel_link,0.0032678554738066936,0.007196902633685478,0.008755092696154317,0.0007188710197364191,-0.00029596516129477217,-3.5232899019415926e-06
310570000000,85,310570000000,BL_wheel_link,0.01503320071310133,1.7114038204938158,14.703668686876354,0.18620841492336454,-0.0010395538276292329,4.0412143596643574e-05
310571000000,86,310571000000,BL_wheel_link,0.007727974296245888,0.00837742034882666,0.008013335361670095,0.000912715672461227,-0.0009186786656976345,3.231019074858653e-06
310572000000,87,310572000000,BL_wheel_link,0.006903367471021682,1.0382603657630103,6.909940345845425,0.11478045383767091,-0.001059962178054339,-2.7150379982630636e-05
310573000000,88,310573000000,BL_wheel_link,0.0027707492226757315,0.007638635289342385,0.009125359577090437,0.000759143655846784,-0.00023769237888033302,-3.9121279719354125e-06
310574000000,89,310574000000,BL_wheel_link,0.027073093187517987,1.6434900139486865,14.165869685733162,0.1788715480145792,-0.00241623618472165,7.311364758453643e-05
310575000000,90,310575000000,BL_wheel_link,0.007922036294604789,0.007745540793507966,0.007701528640106385,0.0008466161919598829,-0.0009565773738539742,2.7669639900040128e-06
310576000000,91,310576000000,BL_wheel_link,-0.026003241990350315,1.129077766399665,7.568961396425998,0.12464963679147925,0.0025421733909492213,-5.2791393369628974e-05
310577000000,92,310577000000,BL_wheel_link,0.0018567899685193844,0.0076054207875623815,0.012172291331049901,0.0007359711122042721,-0.00014318256013838354,-1.1520972279317533e-05
310578000000,93,310578000000,BL_wheel_link,0.06403272653900088,1.5489747177305653,13.186452114228958,0.16888404547206118,-0.006503074042900436,0.00014841785086615133
310579000000,94,310579000000,BL_wheel_link,-0.010905394439425656,-0.02857002571982814,0.1042753426245744,-0.0017321392065599356,0.0004922159058157703,3.8936781292323306e-05
310580000000,95,310580000000,BL_wheel_link,0.1892024014644155,1.5433251533031678,9.451072914113091,0.17115704122345157,-0.0188179173699402,0.0010484727661222706
310581000000,96,310581000000,BL_wheel_link,0.012152408158731517,0.012325466559207078,0.005611858104744187,0.001473562146867153,-0.002010758498856357,-0.00021187414605399312
310582000000,97,310582000000,BL_wheel_link,-0.20999517439272083,1.0295072066193036,12.162309377963354,0.10992673929432038,0.021563230755437573,-0.0011464645080357582
310583000000,98,310583000000,BL_wheel_link,0.08379283837414275,0.374820893381435,1.7623707556139052,0.04123023677233133,-0.008785164505472579,0.00018230907363945482
310584000000,99,310584000000,BL_wheel_link,0.0037953905372560687,0.004448609015125636,0.005921546543291098,0.00040958032193831373,-0.0003976229674258728,1.1352872797128859e-06
310585000000,100,310585000000,BL_wheel_link,-0.040732209590822424,1.8618022392485611,15.74949834129952,0.20220190023829765,0.005058444651512278,-5.257648407253201e-05
310586000000,101,310586000000,BL_wheel_link,0.005881679825433244,0.01071731463158834,0.009612945964142531,0.0011026000448081182,-0.0006662463820144281,4.564988537872213e-06
310587000000,102,310587000000,BL_wheel_link,0.04166154307757407,2.9530583696119876,4.7018717606873155,0.318027268499299,-0.005329215361697431,-4.099666330728895e-05
310588000000,103,310588000000,BL_wheel_link,-0.036079125163737104,-0.05897531987588429,0.21525341736531284,-0.02218515002031345,-0.0012354718518168798,-0.0016541195390168447
310589000000,104,310589000000,BL_wheel_link,-0.23439502157136619,4.362501780434715,14.736961920821782,0.469911522416678,0.026918014620772486,0.0009141105794218298
310590000000,105,310590000000,BL_wheel_link,0.059932615187754085,-0.060531989656639675,0.14279324582517366,0.0034756317771381714,-0.002646885953721019,0.001623228243956783
310591000000,106,310591000000,BL_wheel_link,-1.0258861516642657,1.3599568130801538,5.326940496589854,0.15073608724017126,0.11053854917703838,-0.0013392528350474368
310592000000,107,310592000000,BL_wheel_link,-0.04728262468783743,0.026501102396038156,-0.08561189445521873,0.000504309063795362,0.007523908168721794,-0.002688907437788505
310593000000,108,310593000000,BL_wheel_link,4.083191538827937,1.4525606417938848,13.506818159795088,0.16200701362160685,-0.42533620708553993,0.0086621605246962
310594000000,109,310594000000,BL_wheel_link,-0.22912294569220823,0.05286278708060782,0.14931195990949706,0.001465983924645608,0.007242370654251048,-0.005482983727745096
310595000000,110,310595000000,BL_wheel_link,2.1088783883356927,1.0188238379163912,8.807840144585134,0.11533955783235506,-0.2106730750461652,0.005551753941931613
310596000000,111,310596000000,BL_wheel_link,0.04783230549517443,0.02548230790982255,-0.13154894610285583,0.0016044520127526704,-4.855239524269047e-06,-0.002916518304452698
310597000000,112,310597000000,BL_wheel_link,3.254082398785905,1.1287816059519309,9.931104620180095,0.12737009699135898,-0.3414744406676468,0.006972947872275772
310598000000,113,310598000000,BL_wheel_link,-0.1432346576609149,0.04541410645298891,0.048038129962754965,0.0012440193301149673,0.003914761607158968,-0.004839221002586769
310599000000,114,310599000000,BL_wheel_link,3.5640361123147004,1.2569942680325472,12.03004990361227,0.1413088603528636,-0.3686496338730163,0.007707275156521669
310600000000,115,310600000000,BL_wheel_link,-0.07421075481940902,0.04872549318036229,0.055867222448291204,0.0016615400675762705,-0.002118663998526586,-0.003895684629106198
310601000000,116,310601000000,BL_wheel_link,3.0689599739631603,1.0960895801423163,9.723794516073665,0.12413003724945511,-0.31959876915545293,0.006781710645285269
310602000000,117,310602000000,BL_wheel_link,-0.09277417721107482,0.044150287248263254,-0.016999173845628494,0.0014429121053208787,0.003288367612319857,-0.004528424090717818
310603000000,118,310603000000,BL_wheel_link,3.389188335064591,1.2087715316991579,11.193715228932133,0.13644240836455893,-0.3509351746530461,0.007393952878363139
310604000000,119,310604000000,BL_wheel_link,-0.054326483308399766,0.045888115735668325,0.00353594026719298,0.0016348253359057241,-0.0006771240715547072,-0.0039226876365946175
310605000000,120,310605000000,BL_wheel_link,3.1223229501901133,1.0889303375200416,9.874182101315627,0.12345810880920738,-0.3249364252983089,0.006836161823998237
310606000000,121,310606000000,BL_wheel_link,-0.06760428682817396,0.04340073358730781,-0.03295288050587996,0.0015065112367653706,0.0023739617467883395,-0.004355363787107644
310607000000,122,310607000000,BL_wheel_link,3.3345062075886016,1.1768066089251936,10.812769079189222,0.1330712655430479,-0.34587046080111356,0.007267453030613964
310608000000,123,310608000000,BL_wheel_link,-0.04462949105590789,0.044417188916853055,-0.016787322793508967,0.0015979216615198974,-0.00023829095831915076,-0.003979039248465243
310609000000,124,310609000000,BL_wheel_link,3.1996955448708646,1.1080602801452772,10.05737422380542,0.1255488954458285,-0.3331256325120446,0.00694348977482081
310610000000,125,310610000000,BL_wheel_link,-0.05287076428604618,0.042508874011196594,-0.03569934012540347,0.0015098902456823834,0.0014816547166848317,-0.0042336432693471406
310611000000,126,310611000000,BL_wheel_link,3.337497188093754,1.1624297165972572,10.641694510257139,0.13146078853522863,-0.3468613816909959,0.007212054066054278
310612000000,127,310612000000,BL_wheel_link,-0.039042089018731345,0.043019055229958005,-0.02387598235578641,0.001544582921984416,-0.00020265804539942606,-0.004002489862409823
310613000000,128,310613000000,BL_wheel_link,3.267760877415846,1.123171375815713,10.206874968914764,0.1271171249728696,-0.3404697731907533,0.007021448984148314
310614000000,129,310614000000,BL_wheel_link,-0.044475258656864275,0.041867130037171386,-0.03375348133814337,0.0014814197124024102,0.0007863738223047314,-0.00416849687055905
310615000000,130,310615000000,BL_wheel_link,3.352751687296032,1.1571969817359415,10.563492303332458,0.13079564161055104,-0.3489654885515046,0.007183024140819862
310616000000,131,310616000000,BL_wheel_link,-0.036031512939752645,0.04193798054911008,-0.025462147322596985,0.0014955380488587287,-0.0002585124885270128,-0.004013227500341382
310617000000,132,310617000000,BL_wheel_link,3.3161410457117193,1.1361784785692781,10.315643377511957,0.12845242290382286,-0.3456990956592585,0.007075482070210366
310618000000,133,310618000000,BL_wheel_link,-0.03937039105933406,0.0412224070914687,-0.03090082798456688,0.001445181048121812,0.0003175349561916509,-0.004125299606771933
310619000000,134,310619000000,BL_wheel_link,3.3653049395313244,1.1573759152121432,10.524939116543315,0.13073579034786478,-0.3506032285899976,0.007169677838456629
310620000000,135,310620000000,BL_wheel_link,-0.03435120434111977,0.04098922739701435,-0.025216952328855437,0.0014439526923738706,-0.000312343560552559,-0.00402535394977637
310621000000,136,310621000000,BL_wheel_link,3.3476076370148284,1.145914381626674,10.388509846391845,0.12942576616894522,-0.3491031495013347,0.007105182055750348
310622000000,137,310622000000,BL_wheel_link,-0.036498913015954815,0.04076147050889011,-0.028186372606340698,0.0014077685506667702,2.873941351430523e-05,-0.004105252836298974
310623000000,138,310623000000,BL_wheel_link,3.372242417906479,1.1586458619757827,10.502882636045769,0.13079662428126107,-0.3515187840030649,0.007157041382250517
310624000000,139,310624000000,BL_wheel_link,-0.0332713603713423,0.04049047217456839,-0.02476905283100801,0.0014058882086915132,-0.00034146337945850294,-0.0040384815819713565
310625000000,140,310625000000,BL_wheel_link,3.3652660964757617,1.1538754063692591,10.432981977345356,0.13023779767945826,-0.35100055889085696,0.007126464126762854
310626000000,141,310626000000,BL_wheel_link,-0.03469605501355123,0.040287559235808124,-0.02587232682062242,0.001380350142533509,-0.0001371552547558408,-0.004085698757830592
310627000000,142,310627000000,BL_wheel_link,3.37810593939794,1.1620547144165274,10.498245770682132,0.13111137723545307,-0.3522362480460715,0.007154165048390775
310628000000,143,310628000000,BL_wheel_link,-0.032526480938477105,0.04003127062082762,-0.023789004800052388,0.0013813541107727068,-0.0003606819158040274,-0.004036487187493558
310629000000,144,310629000000,BL_wheel_link,3.376240507553613,1.1588497771475912,10.459248847002526,0.1307242557558219,-0.35218830899175807,0.007132616422831716
310630000000,145,310630000000,BL_wheel_link,-0.03333349553260012,0.040704373742389964,-0.026370338050174583,0.0014301254251388945,-0.0002450223791309329,-0.004057678763837933
310631000000,146,310631000000,BL_wheel_link,3.381574280904288,1.1530909278105592,10.474728919413707,0.13012401952800567,-0.3527271098487173,0.0071281018945967365
310632000000,147,310632000000,BL_wheel_link,-0.03364829686422002,0.04545562424980645,-0.03519261214742907,0.0014877746478185164,-0.00048002349966134593,-0.004296693836359687
310633000000,148,310633000000,BL_wheel_link,2.341449492813116,1.3939020249709166,12.985636962970894,0.15231253896274097,-0.24215554364492017,0.005399493982189352
310634000000,149,310634000000,BL_wheel_link,0.05793966696154684,-0.08836766459276808,0.3096916793375761,-0.008051594914050374,-0.008367096980833651,-0.0008785668728792306
310635000000,150,310635000000,BL_wheel_link,1.6664648394435793,2.875359719836127,8.8583969470851,0.3290519635889937,-0.17087106190740883,0.006287201081580822
310636000000,151,310636000000,BL_wheel_link,0.07990888328307431,0.047351075164350616,0.07435285222578536,0.004102911201544266,-0.008482208658901296,-2.3988458313241577e-05
310637000000,152,310637000000,BL_wheel_link,1.8173678139854441,-1.523813009201151,6.161146299731588,-0.17472154019463673,-0.19891671440163325,-0.0024780295545715316
310638000000,153,310638000000,BL_wheel_link,0.038570951379471065,-0.005459573360788815,-0.07106363445333011,-0.006019724882202,-0.005174609396381078,-0.0008147552294957353
310639000000,154,310639000000,BL_wheel_link,0.5679169064731013,3.0915632943250624,12.868635065093638,0.3416024536351727,-0.057837459925686785,0.00048523757025698455
310640000000,155,310640000000,BL_wheel_link,0.04231952447650952,0.07306828441968102,0.05552736411784519,0.007142221204703373,-0.004015324011556109,1.9478639672381943e-05
310641000000,156,310641000000,BL_wheel_link,0.7749145061974786,0.0917025807017091,9.615516775628528,0.0103750529555242,-0.08094929046896644,0.0004927507458319753
310642000000,157,310642000000,BL_wheel_link,0.03772083498290377,-0.016904349862095002,-0.01603251272892774,-0.0034419149632459174,-0.003399471451390584,0.0003620186507429689
310643000000,158,310643000000,BL_wheel_link,0.3941353415596968,2.328696027652622,10.70360249716979,0.2567316063813066,-0.041143263403285474,0.0004241320949994311
310644000000,159,310644000000,BL_wheel_link,0.02996617495155383,0.04835848112465966,0.03771534931162265,0.004816315974131033,-0.0029377424663213077,1.7404425444596485e-05
310645000000,160,310645000000,BL_wheel_link,0.3120376337373398,0.917139530314953,12.08523745034303,0.10104184453053643,-0.03245063795822083,0.00023766144798766008
310646000000,161,310646000000,BL_wheel_link,0.018350646693679973,0.2585824450658092,-0.4693525087440892,-0.05562746322003652,-0.0026096239428781815,1.1456584905856669e-05
310647000000,162,310647000000,BL_wheel_link,0.016353048353885756,0.871584878493448,-1.6946825669653505,-0.057938903786362454,0.0006597813897859928,0.0006123530080470415
310649000000,163,310648000000,BL_wheel_link,-0.004362792591555484,0.10708910571421955,-0.21084584792072703,-0.05619736410059779,0.0004551919973043612,3.393667826943041e-05
310649000000,164,310649000000,BL_wheel_link,0.005085291431492795,0.42836918503962634,-1.0423109139300952,-0.019216098518347383,-0.00020424865351595367,-1.8005732778273862e-05
310649000000,165,310650000000,BL_wheel_link,-0.003334258435110193,0.09714498365158601,-0.14280771338032178,0.0038437573355712676,0.0003438218026906316,5.835776664273782e-05
310651000000,166,310651000000,BL_wheel_link,-0.0017872648759126655,-0.0028488759256402787,0.0017205167332721666,-5.201526328087874e-05,0.00018927864257120092,-4.511435538609026e-06
310652000000,167,310652000000,BL_wheel_link,-0.003135572928936136,0.36735323263186814,-0.9260409335285158,-0.02058818082020361,8.381818961259364e-05,-9.625975984395435e-05
310653000000,168,310653000000,BL_wheel_link,-0.0021103829690314164,0.09088230568961633,-0.1340520229675077,0.0036079075494091033,0.00021847796252741334,5.4986142068980425e-05
310654000000,169,310654000000,BL_wheel_link,-0.0008899644492787455,-0.00338214648994133,0.0026438952585500614,-7.199597930384172e-05,9.394703164195442e-05,-4.390064466639406e-06
310655000000,170,310655000000,BL_wheel_link,-0.0022472373171690766,0.32824324834288127,-0.8607582830524463,-0.021293387215553412,4.875984171553962e-06,-0.00010551631840560196
310656000000,171,310656000000,BL_wheel_link,-0.0014755647140859357,0.08650594147990003,-0.12833205356621963,0.0034511875581750098,0.0001539604260154797,5.3819532182968965e-05
310657000000,172,310657000000,BL_wheel_link,-0.0004318886544978291,-0.003666474562248227,0.003004872270715695,-8.033815172673997e-05,4.522585581879463e-05,-4.1316678707883025e-06
310658000000,173,310658000000,BL_wheel_link,-0.0013988697145227691,0.3018179879139308,-0.817748792256956,-0.021752808239372614,-3.841677792617844e-05,-9.176339461620638e-05
310659000000,174,310659000000,BL_wheel_link,-0.006742925976505457,6.672836856604801,14.821965860587275,0.6795632742624568,-0.0004252333740703818,-7.614677984478285e-05
310660000000,175,310660000000,BL_wheel_link,0.010690796553488119,-0.1618161274846567,0.38094950954898293,-0.020646685752260956,-0.0005481116547334512,-8.300126707648736e-05
310661000000,176,310661000000,BL_wheel_link,0.19496551630651507,2.522532468239788,5.276231808302867,0.26073793135376466,-0.022658219009694114,-0.00012722748349106144
310662000000,177,310662000000,BL_wheel_link,-0.024302259174793454,-0.17335751974656632,0.22109082486211942,-0.0194192702921515,0.0004958480001140742,-0.0007168146767159728
310663000000,178,310663000000,BL_wheel_link,0.02685821781434133,6.157528259405485,11.044994817567972,0.6502080082636309,-0.0018006310666489735,0.00047319511341773195
310664000000,179,310664000000,BL_wheel_link,-0.025330071967955413,-0.11377355185563658,0.4397903658513448,-0.011472701460885339,0.0013572133068878729,-0.0007332857877143159
310665000000,180,310665000000,BL_wheel_link,0.165470924513185,3.5769825276971154,7.321910140530549,0.3766762529711833,-0.01576932649152224,0.0006342510960647127
310666000000,181,310666000000,BL_wheel_link,-0.017147674493043125,-0.09053253382201834,0.2713214762038722,-0.011355564492007997,0.0005738167681325238,-0.00028451531472158223
310667000000,182,310667000000,BL_wheel_link,0.09435196709489549,6.025100838687559,10.749621701893485,0.6421307964303886,-0.008913965048000603,0.0005834224014666821
310668000000,183,310668000000,BL_wheel_link,-0.005000252294908413,-0.12791626373555778,0.43146181421239516,-0.010645460151777891,0.0003027762379847442,-0.00021322177917068783
310669000000,184,310669000000,BL_wheel_link,-0.04236338101499156,8.638852517892472,12.581095305961233,0.5099907438360146,0.00501441618042444,-0.0009223698298708318
310670000000,185,310670000000,BL_wheel_link,0.05199324784157137,2.8912131607984057,7.772675544664353,0.11405046347063873,-0.004025281746120941,0.001272660382212288
310671000000,186,310671000000,BL_wheel_link,0.007260666634588586,0.03799121367236986,0.011590103848517259,0.005345132710613181,-0.0005802541089965998,0.00016350423237919764
310672000000,187,310672000000,BL_wheel_link,0.003216889617216969,4.383413880976114,11.96347709084318,0.13206236142363093,0.004220950219434264,0.0007145878337084122
310673000000,188,310673000000,BL_wheel_link,0.24965910433348004,2.730678517478907,2.4070471427841373,0.2290291382996944,-0.026559508812947327,0.007133545286302527
310674000000,189,310674000000,BL_wheel_link,0.22578427339933363,-0.2533815980021658,4.349402919513907,-0.15549238867041376,-0.02755944886785587,0.0051897656321142896
310675000000,190,310675000000,BL_wheel_link,0.003552771891960419,-0.039715457011267,-0.04517730425244837,-0.0015446808099790943,-0.0007926092404805104,0.00019295002550169383
310676000000,191,310676000000,BL_wheel_link,-0.04613147360385458,2.800390235881852,11.420836525521633,-0.035809148918610874,0.005456303723258608,-0.001386640621951826
310677000000,192,310677000000,BL_wheel_link,0.1082257775475741,0.16587670619117637,0.8864618792891402,-0.006774819663977756,-0.011683075518826953,0.0028860686357062536
310678000000,193,310678000000,BL_wheel_link,0.0031182906771372145,-0.004036772317114469,-0.008053600233773365,0.0005520278229581696,-0.0003847504215608924,0.0001062435469903251
310679000000,194,310679000000,BL_wheel_link,-0.03590164724844798,2.0182971016984297,12.36830132259376,-0.14423774033666628,0.004826753785769732,-0.0012037766541430454
310680000000,195,310680000000,BL_wheel_link,0.004866274444745408,-0.011598047048646663,-0.013232511879231938,-0.00039893073794772217,-0.0006812105697539233,0.00018058493347077463
310681000000,196,310681000000,BL_wheel_link,0.05552958717398073,0.6934848468824945,4.253687164226983,-0.05181792633170879,-0.00602803489585241,0.0016026150131746501
310682000000,197,310682000000,BL_wheel_link,0.002689022232866408,-0.004053644622652736,-0.0064961765458051565,6.159476670735126e-05,-0.00035168835801399,9.582179289438608e-05
310683000000,198,310683000000,BL_wheel_link,-0.03267415377186169,2.002467841179305,12.40436628447556,-0.14638812510060797,0.004369464245682364,-0.001086021345277955
310684000000,199,310684000000,BL_wheel_link,0.00503220090658063,-0.011175496417348597,-0.010593740212858103,-0.0007281631082807357,-0.0007066984297011024,0.00018400352295961172
310685000000,200,310685000000,BL_wheel_link,0.04720120004982814,0.7218903144166254,4.449659195928607,-0.05396669116234561,-0.005319302479206696,0.0014012734694733378
310686000000,201,310686000000,BL_wheel_link,0.0025084768822068895,-0.003039330371299586,-0.00439628880188153,-0.00010053690783562253,-0.000330086415034751,8.728321745510825e-05
310687000000,202,310687000000,BL_wheel_link,-0.02641572764476995,1.9930650990721999,12.331550495162544,-0.1447704376152146,0.0035889250494362704,-0.0009119257728639434
310688000000,203,310688000000,BL_wheel_link,0.005168789905635851,-0.010928220721449883,-0.00927472727099487,-0.0008654167761517926,-0.0007267842218715209,0.00018783234608109634
310689000000,204,310689000000,BL_wheel_link,0.03243784889671068,0.7873312446819822,4.702888373167562,-0.053893086685545474,-0.0038152290903038233,0.001006213510608434
310690000000,205,310690000000,BL_wheel_link,0.0022508099554416836,-0.002327329688475594,-0.0032046125150581835,-0.00015023571438579913,-0.00029642627820555085,7.72722609442583e-05
310691000000,206,310691000000,BL_wheel_link,-0.01634129225141846,1.9595803633668163,12.11380726171717,-0.14160804454071635,0.0024497816534358777,-0.0006356633702818863
310692000000,207,310692000000,BL_wheel_link,0.005392515257407335,-0.011169112061823186,-0.008710173298198693,-0.0009608688173562628,-0.0007581013118246391,0.00019557970275347535
310693000000,208,310693000000,BL_wheel_link,0.01158204143342454,0.894489998632154,5.098153026780162,-0.05355725530093894,-0.0015803923702200464,0.0004313106949879952
310694000000,209,310694000000,BL_wheel_link,0.00199296239736206,-0.001843251064684495,-0.0025154648994357345,-0.00015880961728619394,-0.0002619784823283838,6.773651057365917e-05
310695000000,210,310695000000,BL_wheel_link,0.0016105754334679635,1.8777196350993914,11.663157712426257,-0.1369654281001565,0.00046875661500419386,-0.00014227220813073949
310696000000,211,310696000000,BL_wheel_link,0.005809004973233274,-0.011813187524649233,-0.008561648248144052,-0.0010581600162746928,-0.0008141178658853575,0.0002105537849996987
310697000000,212,310697000000,BL_wheel_link,-0.018147959435853955,0.9528254233583555,5.803504685768261,-0.06764178729597294,0.0017495033910827746,-0.0009086084074382135
310698000000,213,310698000000,BL_wheel_link,-0.07192372072556161,0.06395747542388992,-0.26938024609503747,0.006753312527852326,0.003676769696675546,-0.001193092694735229
310699000000,214,310699000000,BL_wheel_link,0.6922120982590236,0.36438390354426614,9.594200131828389,-0.22903488882959214,-0.06761446182403019,0.018273196699525807
310700000000,215,310700000000,BL_wheel_link,0.031425293738644146,-0.050898338313211826,-0.01508398186139213,-0.005035051640890721,-0.004103353895280725,0.0010502357371177935
310701000000,216,310701000000,BL_wheel_link,-0.5421414234992495,2.4838507108326713,8.406064714458791,0.020302695997748057,0.05822551097463012,-0.014136547302901613
310702000000,217,310702000000,BL_wheel_link,-0.26254905519784744,1.200836524670345,5.686304116796907,-0.027649900007232227,0.028891722458238865,-0.008011623361629283
310703000000,218,310703000000,BL_wheel_link,0.055762463948347406,-0.12456132025102173,-0.17368279038957418,-0.012043832168675382,-0.008458874765839118,0.00012002786932458707
310704000000,219,310704000000,BL_wheel_link,-1.167720012267522,4.5837671393416395,16.38353785339772,0.015623623925050269,0.11933431969627188,-0.030593785557345887
310705000000,220,310705000000,BL_wheel_link,-0.5028984975627575,0.7929768497169564,3.382273979953934,-0.005483779581367016,0.05703629264710138,-0.013978056397510395
310706000000,221,310706000000,BL_wheel_link,0.12744727783142515,-0.2465629032626638,-0.08746422318531726,-0.01637215238723535,-0.009915001882104651,0.0011124367437893327
310707000000,222,310707000000,BL_wheel_link,-0.597353093458571,3.4077755929891937,11.50358388447207,0.020085848516883664,0.05734741064605154,-0.01194885039020233
310708000000,223,310708000000,BL_wheel_link,0.13182719815031954,-0.44822607665788616,2.590327297087291,-0.11779996932121647,-0.01623931030715553,0.003187908207612298
310709000000,224,310709000000,BL_wheel_link,-0.0075717283995382165,-0.021510806146407616,-0.01148209775080054,-0.0015761766668794025,0.0005854731715960109,-0.0001356670255337225
310710000000,225,310710000000,BL_wheel_link,0.1811449159253312,1.84303466859292,13.479905857821132,-0.1908866839253233,-0.018932999555005433,0.00501254656554098
310711000000,226,310711000000,BL_wheel_link,-0.013779301480614787,0.011594896925067119,-0.05193864299013677,-0.000908791850406767,-0.0005855764390685031,0.00012440850155964346
310712000000,227,310712000000,BL_wheel_link,-0.0040709681051808505,-0.018257235854233597,-0.09810256559431674,-0.011514463226734415,-0.000142908837408911,0.00027955995691435453
310713000000,228,310713000000,BL_wheel_link,-0.03449643793879216,7.059710454761782,9.50926407014318,0.4506670066797232,0.0030469312029239243,-0.0007641072772028129
310714000000,229,310714000000,BL_wheel_link,-0.04147200835498388,-1.7050227438686585,4.174683790370167,-0.2825296291030714,0.003784169996688861,-0.001317758370126671
310715000000,230,310715000000,BL_wheel_link,0.005739250026272362,-0.07984728332799475,-0.03358704841928804,-0.007829190550600171,0.00027858627915098666,-7.610638937239458e-06
310716000000,231,310716000000,BL_wheel_link,-0.02380999831784148,6.648901396905294,9.002291842931582,0.4237364929652268,0.0021961458615562144,-0.0004691315766925664
310717000000,232,310717000000,BL_wheel_link,-0.009353740447897484,-1.9804315496173899,4.25028757645251,-0.31887858141972764,0.0019007233936952231,-0.0006606868165608699
310718000000,233,310718000000,BL_wheel_link,-0.002202481251020754,-0.08585162118826402,-0.0561048677360154,-0.0061628550997746105,-0.00015365050452261026,0.00011500160616121899
310719000000,234,310719000000,BL_wheel_link,-0.04110878960358437,3.530311860287097,10.754695777311317,0.06474980025854501,0.004280871353167018,-0.0008778321141280005
310720000000,235,310720000000,BL_wheel_link,0.036962094742410356,0.01320514902675979,1.8315289926186187,-0.047280858230660215,-0.004057150988134533,0.0010144659604903866
310721000000,236,310721000000,BL_wheel_link,-9.074925514301489e-05,-0.014232542006150506,-0.011424201532700556,-0.0008089183085139257,-0.0001801935528689694,4.039361608897806e-05
310722000000,237,310722000000,BL_wheel_link,-0.056904788648552446,2.20673336129601,12.970406202289471,-0.1380876258529188,0.006536189511726224,-0.0017916261130007402
310723000000,238,310723000000,BL_wheel_link,0.0036385541531476656,-0.01581382058740659,-0.006862812122597106,-0.0013788550848715395,-0.0005789829894364733,0.00014814268780753852
310724000000,239,310724000000,BL_wheel_link,-0.26309966086068776,1.8772964209462044,9.398371264755317,-0.061173509685189004,0.029482265498596102,-0.007426129689532406
310725000000,240,310725000000,BL_wheel_link,0.0027559154135007786,-0.11932288318594124,-0.702102913901003,-0.0020416008092160654,-0.002283378448390492,0.0002328912649388638
310726000000,241,310726000000,BL_wheel_link,-0.06664018788334393,-0.0924384677081604,0.32263148573933725,-0.008483631480796802,0.006898575878667027,-6.258528073395993e-05
310727000000,242,310727000000,BL_wheel_link,1.0533709057345533,2.4478569317204144,5.989103072857628,0.05386954685059056,-0.11174961074853988,0.025969545716460197
310728000000,243,310728000000,BL_wheel_link,-0.02650588213324165,-0.12711725359680037,-0.17980094158159515,0.00337375722522583,-0.002278887300849664,0.0017492345048319563
310729000000,244,310729000000,BL_wheel_link,-0.05149576394845716,-0.087920148920364,0.33502129502204986,-0.010033258607411444,0.007525710822732785,-0.0005474217384447757
310730000000,245,310730000000,BL_wheel_link,0.9412793002353199,2.3344897826457083,6.234302242678501,0.05670198855933125,-0.09425686470880756,0.02521376215909892
310731000000,246,310731000000,BL_wheel_link,0.023119284049101227,-0.0034310768541328486,0.005278221959947719,-0.0005640735735298277,-0.00317007452692066,0.0006339223472446882
310732000000,247,310732000000,BL_wheel_link,-0.006141409190474388,-0.07134347759418087,-0.8136494488884265,-0.004841248430098602,0.004616186317274076,-0.00283181435575176
310733000000,248,310733000000,BL_wheel_link,0.001003883829170483,0.002014794040558535,-0.008825644754116648,0.00011374402414291353,6.836649695164326e-05,-5.946885364233651e-05
310734000000,249,310734000000,BL_wheel_link,0.13153514328415714,1.6166121277839614,9.692340176185725,-0.10891797869005349,-0.012961627591170002,0.002829699786948102
310735000000,250,310735000000,BL_wheel_link,0.009201681354004296,-0.014832878226701717,-0.014750844704496153,-0.0011632141266726137,-0.0012405921057218106,0.0003107297311428129
310736000000,251,310736000000,BL_wheel_link,-0.03888596200180783,1.6506238294239648,8.086979806215952,-0.056728504537888726,0.0042790131608403505,-0.000981632692192384
310737000000,252,310737000000,BL_wheel_link,0.0030005898905090954,0.003054975777951477,-0.002474193293000553,0.0003355771804623214,-0.00036038072860478646,8.484860020239905e-05
310738000000,253,310738000000,BL_wheel_link,0.0768627882426474,1.7268854060439998,9.522547423639923,-0.08818806199740668,-0.007631940378361819,0.0019605727620618098
310739000000,254,310739000000,BL_wheel_link,0.008091875749955152,-0.008330701655670576,-0.005296410108967696,-0.000807850963951635,-0.0010452744108777373,0.0002691430700258222
310740000000,255,310740000000,BL_wheel_link,-0.027457084011365842,1.6253817825294299,8.045365541697524,-0.05743300799288754,0.002982501277375571,-0.0006594504418233275
310741000000,256,310741000000,BL_wheel_link,0.00315569113763909,0.0015059659673534568,-0.0024988534889615072,0.00019326652478035786,-0.00040120476982843033,9.82476243776204e-05
310742000000,257,310742000000,BL_wheel_link,0.052319008141565905,1.811301717508349,9.641390179027598,-0.08215885947719122,-0.005141358124013042,0.0013272093983995002
310743000000,258,310743000000,BL_wheel_link,0.00705534208027587,-0.006503029679356625,-0.003399553628014105,-0.0006594807461450642,-0.0009152178356880447,0.0002348505346200911
310744000000,259,310744000000,BL_wheel_link,-0.022764819908657842,1.605907405019664,8.032265610133742,-0.05871176502973057,0.0023996826191652505,-0.0005518784781310276
310745000000,260,310745000000,BL_wheel_link,0.003216328522717102,-0.00010300459424422654,-0.0025161820119230377,2.9949240128862176e-05,-0.000422707904808069,0.00010467582292068232
310746000000,261,310746000000,BL_wheel_link,0.03176046718200858,1.866582795524117,9.694081062761287,-0.07755865105740048,-0.0030349298440287857,0.0007795538991199913
310747000000,262,310747000000,BL_wheel_link,0.006171824702161354,-0.005549350058520648,-0.002669060427870815,-0.000570793479966808,-0.0008055367188978118,0.00020604079075897357
310748000000,263,310748000000,BL_wheel_link,-0.01842268410947333,1.5956593776900023,8.023007850981362,-0.0592155842962822,0.001934973002433248,-0.00045599007459058716
310749000000,264,310749000000,BL_wheel_link,0.0032995894747714417,-0.0013122311433947482,-0.0026534482455980468,-9.142840704623082e-05,-0.0004420303572134455,0.0001100761696666993
310750000000,265,310750000000,BL_wheel_link,0.01707258021154471,1.910829126355892,9.726522591373872,-0.07357332496734967,-0.0015171477786848316,0.00038576044591029477
310751000000,266,310751000000,BL_wheel_link,0.005551385684301634,-0.004855697427929098,-0.0022430745538104175,-0.0005044955819029666,-0.000727383891015288,0.0001855104832106995
310752000000,267,310752000000,BL_wheel_link,-0.014007486642678955,1.5961146574159482,8.02451675184886,-0.05893575682892548,0.0014628807740178038,-0.0003537218693423041
310753000000,268,310753000000,BL_wheel_link,0.0034086488843839383,-0.0020509992606430848,-0.0027188571459742573,-0.0001663698193030386,-0.0004597786907450009,0.00011543680193340782
310754000000,269,310754000000,BL_wheel_link,0.006665825145130589,1.9498530315159746,9.750480721357723,-0.06987165576323308,-0.00042814002332106554,0.00010998625399301644
310755000000,270,310755000000,BL_wheel_link,0.0051450141727461905,-0.004277547277176305,-0.0019146992542544536,-0.00044941269117095863,-0.0006750899010964405,0.00017170820207674725
310756000000,271,310756000000,BL_wheel_link,-0.009726210496074441,1.6053322151368838,8.03547597289746,-0.05800275195673233,0.001005111516604599,-0.00024880728089474575
310757000000,272,310757000000,BL_wheel_link,0.0035476929272283903,-0.002474637509967023,-0.0027008998424620967,-0.00021076775619361862,-0.0004789155499930012,0.0001209445229774689
310758000000,273,310758000000,BL_wheel_link,-0.00035700881235895725,1.9852440010209016,9.769943941368428,-0.06641487530965193,0.00030147237725736706,-7.47787710357583e-05
310759000000,274,310759000000,BL_wheel_link,0.004866803665475412,-0.0037814422160690675,-0.0016443700065053694,-0.00040189226301658957,-0.0006382100706514469,0.0001621166451371514
310760000000,275,310760000000,BL_wheel_link,-0.006096382778263593,1.6205079089658834,8.0525667571758,-0.056613978029319195,0.0006179598119715719,-0.00015744681876689112
310761000000,276,310761000000,BL_wheel_link,0.003681765313147978,-0.0026831889430988976,-0.002613697277060723,-0.00023428139834100466,-0.0004957989875736044,0.00012582219474510897
310762000000,277,310762000000,BL_wheel_link,-0.005314674795717562,2.0179853210871705,9.786423346089231,-0.06313899943768525,0.0008187917812859794,-0.00020332185654144334
310763000000,278,310763000000,BL_wheel_link,0.004680234877551387,-0.0033695967275732624,-0.001412083750801121,-0.00036250880594169104,-0.0006129116615271213,0.00015544543274011416
310764000000,279,310764000000,BL_wheel_link,-0.00307553402107627,1.6393795546946346,8.073316544688753,-0.054945693777160465,0.0002903138181577921,-8.096743229821606e-05
310765000000,280,310765000000,BL_wheel_link,0.0037924694952271376,-0.0027469206904318895,-0.002483424431042577,-0.00024346370475722504,-0.0005087084539173556,0.00012967993624087156
310766000000,281,310766000000,BL_wheel_link,-0.008924159287272426,2.0487134752408256,9.800901950830651,-0.060011493001854474,0.0011971916881394697,-0.00029600708811904243
310767000000,282,310767000000,BL_wheel_link,0.004546080854666344,-0.0030161779718740397,-0.0012062486887538513,-0.0003286196663450636,-0.0005941783011235936,0.0001505405121738847
310768000000,283,310768000000,BL_wheel_link,-0.0008177506839007197,1.6608222850904888,8.09622427481194,-0.05306736584964815,4.506177102853898e-05,-2.3515448577668352e-05
310769000000,284,310769000000,BL_wheel_link,0.0038816504820154943,-0.0027220554580261115,-0.0023325291734839133,-0.0002436846051158209,-0.00051849524423204,0.00013264782678402707
310770000000,285,310770000000,BL_wheel_link,-0.01157928365160622,2.077937427008952,9.814085014655918,-0.05700326912568267,0.0014755211086315144,-0.00036384140483582697
310771000000,286,310771000000,BL_wheel_link,0.004447397425097352,-0.0027084578065992315,-0.0010182583877232753,-0.0002990584527186773,-0.0005799690785650974,0.00014684161617836965
310772000000,287,310772000000,BL_wheel_link,0.0007768253398961731,1.6842127074414768,8.120615536762164,-0.05101940652309822,-0.00012419472130398377,1.8325745655380267e-05
310773000000,288,310773000000,BL_wheel_link,0.00396253440625169,-0.002657107269727126,-0.0021741772735495634,-0.00023982451601139884,-0.000527457199084861,0.00013505167298650863
310774000000,289,310774000000,BL_wheel_link,-0.013501383935172005,2.105964595385158,9.826280884553809,-0.05409694809624305,0.0016729727226753965,-0.00041357299916502797
310775000000,290,310775000000,BL_wheel_link,0.004375375525984288,-0.0024384178251185052,-0.000844923959922045,-0.0002732236743902506,-0.0005692509588440265,0.00014400839863799826
310776000000,291,310776000000,BL_wheel_link,0.0019281995244289063,1.7088183189912522,8.145808645677166,-0.048867737945654,-0.0002475604097959177,4.856994546017394e-05
310777000000,292,310777000000,BL_wheel_link,0.004025622892773976,-0.00255153628434809,-0.002008066200644428,-0.00023185956328375528,-0.0005339763836151224,0.00013679621494057853
310778000000,293,310778000000,BL_wheel_link,-0.014957361336305914,2.133233217786125,9.83790685503644,-0.0512539289404607,0.001822240581861958,-0.00045130892216498097
310779000000,294,310779000000,BL_wheel_link,0.004320525084987693,-0.0021933167961432232,-0.0006814192331502536,-0.00024981975483025497,-0.0005607315090932447,0.00014177008138679278
310780000000,295,310780000000,BL_wheel_link,0.0027170876030596243,1.7342883064138643,8.17143330849607,-0.0466375031136351,-0.0003326963399169199,6.944896634590029e-05
310781000000,296,310781000000,BL_wheel_link,0.004073842331425532,-0.0024180522069227155,-0.0018378349016094193,-0.00022101554949195636,-0.0005384884922060742,0.00013801674020437043
310782000000,297,310782000000,BL_wheel_link,-0.016067104439982917,2.159991891739291,9.849237590780294,-0.048455965424677366,0.0019358571390160361,-0.00048006766163223184
310783000000,298,310783000000,BL_wheel_link,0.0042786145790518785,-0.0019663611765533004,-0.0005241455287255827,-0.0002282132047932676,-0.0005538763850003015,0.00013998192773534624
310784000000,299,310784000000,BL_wheel_link,0.0032277400362571173,1.7603724083457546,8.197256820195017,-0.044348300773247855,-0.00038861188335663857,8.313595884385621e-05
310785000000,300,310785000000,BL_wheel_link,0.004110515020718738,-0.0022657637003154775,-0.001665634642947009,-0.00020820822141835575,-0.000541469772809702,0.00013883739244091836
310786000000,301,310786000000,BL_wheel_link,-0.01692350450347169,2.1864674797340253,9.860489467888009,-0.045684200522081976,0.002024412229588131,-0.0005019924699632503
310787000000,302,310787000000,BL_wheel_link,0.004248798887826346,-0.001755681090167233,-0.00037122573720405603,-0.0002083496607935243,-0.0005486499225759149,0.0001385786274651666
310788000000,303,310788000000,BL_wheel_link,0.003536763085704019,1.7868724055331116,8.223104239146611,-0.04201684910729546,-0.0004241810618406614,9.145846092401501e-05
310789000000,304,310789000000,BL_wheel_link,0.004138782483943472,-0.0021020199256123885,-0.0014932599349947414,-0.00019419760670073277,-0.0005433744383382894,0.00013936030969598253
310790000000,305,310790000000,BL_wheel_link,-0.017582521761068372,2.2127582041781815,9.871746071060318,-0.042931770394566325,0.002092989114780013,-0.0005186831976216294
310791000000,306,310791000000,BL_wheel_link,0.00422847074047182,-0.0015571945463013364,-0.00022129912105164613,-0.000189736018836583,-0.0005447068063839625,0.0001374715900656172
310792000000,307,310792000000,BL_wheel_link,0.0037286501919019713,1.813592624076968,8.248818321934348,-0.03966122489855013,-0.00044981506964295834,9.638641487547368e-05
310793000000,308,310793000000,BL_wheel_link,0.004156575475353763,-0.0019248622982513065,-0.0013210398283805616,-0.0001787272560294892,-0.0005438289988471309,0.00013957094534000543
310794000000,309,310794000000,BL_wheel_link,-0.018113690453545023,2.238987386482256,9.883096341672523,-0.040187500849479904,0.0021496452621919534,-0.0005318627577071115
310795000000,310,310795000000,BL_wheel_link,0.004213501428140143,-0.0013639026301385318,-7.254351601153709e-05,-0.0001716763673085927,-0.0005414382797645497,0.00013655387144594726
310796000000,311,310796000000,BL_wheel_link,0.0038265288604723913,1.8404448634107742,8.27432191900746,-0.0372885356629652,-0.00046803782713862146,9.8445076285699e-05
310797000000,312,310797000000,BL_wheel_link,0.004162882572299107,-0.0017335432364179958,-0.0011484885675219915,-0.0001616667965436275,-0.0005426419544256197,0.0001394755032514584
310798000000,313,310798000000,BL_wheel_link,-0.0185679272434034,2.265251177039886,9.894625327967358,-0.03744271343488622,0.002200419418761813,-0.0005426917327853696
310799000000,314,310799000000,BL_wheel_link,0.004201955111904643,-0.0011729637884298773,7.63532845694889e-05,-0.00015386001518023738,-0.0005385862458727386,0.00013576914421870967
310800000000,315,310800000000,BL_wheel_link,0.0037572237322870666,1.8676255998104205,8.299735084451422,-0.034874853148116516,-0.00046586196563639764,9.655160609383136e-05
310801000000,316,310801000000,BL_wheel_link,0.004170220684555337,-0.001547024882381646,-0.0009801536844169117,-0.00014507930569934051,-0.0005417803597264346,0.0001393568524736912
310802000000,317,310802000000,BL_wheel_link,-0.018891772601559095,2.291448242879221,9.90624569174605,-0.03470997052705551,0.002235828697531413,-0.0005503481495418166
310803000000,318,310803000000,BL_wheel_link,0.004195624479048515,-0.000987820004578795,0.00022435834400854346,-0.0001367100148767696,-0.0005364473478819699,0.00013514030260450738
310804000000,319,310804000000,BL_wheel_link,0.0036141019332773805,1.8950027335271111,8.325022439027004,-0.032435649071654034,-0.000455064367710692,9.296552863535977e-05
310805000000,320,310805000000,BL_wheel_link,0.004178379116643699,-0.0013642229220163357,-0.0008151999456407161,-0.00012883395423620445,-0.0005411637625709451,0.0001392144238043882
310806000000,321,310806000000,BL_wheel_link,-0.019124116567834627,2.317619693140566,9.917917850394513,-0.031983519711632054,0.0022605052513336534,-0.0005558366949656109
310807000000,322,310807000000,BL_wheel_link,0.004192942731825745,-0.0008062770562229539,0.00037101619739225646,-0.00012000369623173846,-0.0005347937973424524,0.00013461851967839798
310808000000,323,310808000000,BL_wheel_link,0.0034287574210295733,1.9225064675492516,8.35013810082271,-0.029978605377590797,-0.00044010179452057203,8.821187712187905e-05
310809000000,324,310809000000,BL_wheel_link,0.004184699077325399,-0.0011797741484190383,-0.0006520763350096926,-0.00011241969728244974,-0.0005403147373268903,0.00013900777544689812
310810000000,325,310810000000,BL_wheel_link,-0.019305782622254755,2.3438273520311483,9.92966611271925,-0.02925611717466179,0.0022799739515792575,-0.0005600064032426625
310811000000,326,310811000000,BL_wheel_link,0.004192414946599941,-0.0006261612928442999,0.0005168382008913614,-0.00010349028215858592,-0.0005334090156681935,0.0001341664912500399
310812000000,327,310812000000,BL_wheel_link,0.0032087397687038774,1.950131291423099,8.375090139243367,-0.02750414804514924,-0.0004215091621447571,8.25436380341653e-05
310813000000,328,310813000000,BL_wheel_link,0.004189473446498282,-0.000993911334359512,-0.0004905655653990026,-9.584755766557495e-05,-0.0005392688100376641,0.00013875078706946297
310814000000,329,310814000000,BL_wheel_link,-0.01945031815042152,2.3700898766756597,9.941495460059306,-0.02652582115205619,0.0022956724361585966,-0.0005631941784143919
310815000000,330,310815000000,BL_wheel_link,0.004193498808081972,-0.0004469111242266696,0.0006620702744314431,-8.710268856234446e-05,-0.0005322256635741328,0.00013376693638426264
310816000000,331,310816000000,BL_wheel_link,0.0029866690574598103,1.9778815855908611,8.399925383274198,-0.025013863692372486,-0.00040387978016027953,7.664830218979569e-05
310817000000,332,310817000000,BL_wheel_link,0.00419034880652676,-0.0008054949533348181,-0.00033136588165716803,-7.892327560739746e-05,-0.0005376660027850353,0.00013840207908764445
310818000000,333,310818000000,BL_wheel_link,-0.019586915692974077,2.396412400438901,9.953387742389882,-0.023790879103033923,0.0023114707174587443,-0.0005660405435311056
310819000000,334,310819000000,BL_wheel_link,0.004194978158881592,-0.00026853006925158033,0.0008064008099909914,-7.080390185265493e-05,-0.0005310844081784924,0.00013339044950779825
310820000000,335,310820000000,BL_wheel_link,0.002754467285626867,2.0057378829909274,8.424626514571044,-0.022508946191382818,-0.00038581438952400024,7.039701752780314e-05
310821000000,336,310821000000,BL_wheel_link,0.004188173613714999,-0.0006157723081936154,-0.00017430221396270445,-6.178722076007753e-05,-0.0005356414860380781,0.00013798174688947908
310822000000,337,310822000000,BL_wheel_link,-0.019719178532896404,2.4227946888886556,9.965339957086508,-0.021051458867237544,0.0023274742394957196,-0.0005686790639494362
310823000000,338,310823000000,BL_wheel_link,0.004196683086782427,-9.111653566782432e-05,0.0009499193056086047,-5.460712485381159e-05,-0.0005299726930770801,0.000133029243029152
310824000000,339,310824000000,BL_wheel_link,0.002497862528331766,2.033653831256487,8.44913515626024,-0.019993174609782557,-0.00036583718564393885,6.328092595050287e-05
310825000000,340,310825000000,BL_wheel_link,0.004183600419387672,-0.0004234822349036405,-1.7927821875771104e-05,-4.434971969687794e-05,-0.0005332586623172571,0.00013751296817649756
310826000000,341,310826000000,BL_wheel_link,-0.019843500007697516,2.4492620558639033,9.977387207935402,-0.018305620172813585,0.0023432985099173693,-0.0005709513324245069
310827000000,342,310827000000,BL_wheel_link,0.004198867317071517,8.612875982060544e-05,0.0010933050621298752,-3.8444480818229456e-05,-0.0005289176481894386,0.00013269110921077188
310828000000,343,310828000000,BL_wheel_link,0.002205435598694014,2.061653378465114,8.473471234472255,-0.017462462123046755,-0.00034062511782604043,5.550210617553957e-05
310829000000,344,310829000000,BL_wheel_link,0.004181496753277044,-0.00023360868688732152,0.0001371685183286598,-2.7223356436200843e-05,-0.0005312882991458347,0.00013709135581449583
310830000000,345,310830000000,BL_wheel_link,-0.019935678852341314,2.4758025339534115,9.989518424533196,-0.015555909180092283,0.002354703828126606,-0.0005725240801742633
310831000000,346,310831000000,BL_wheel_link,0.004202351534253971,0.0002631207632719752,0.0012368601653858604,-2.23661012864902e-05,-0.0005280474083236696,0.00013238423777814725
310832000000,347,310832000000,BL_wheel_link,0.001897985629644296,2.089760889898789,8.49768369100086,-0.014915615331256966,-0.00031260972797532313,4.760918261664717e-05
310833000000,348,310833000000,BL_wheel_link,0.004182831842343799,-4.744712548292449e-05,0.000290546392132509,-1.0497787809433955e-05,-0.000529885223869999,0.00013673035348629327
310834000000,349,310834000000,BL_wheel_link,-0.019998803497513738,2.5024124095973463,10.001684882991315,-0.01280175585507824,0.002361818385240093,-0.0005735757446663504
310835000000,350,310835000000,BL_wheel_link,0.0042069738177432205,0.0004402949908502291,0.0013799877118905904,-6.331991216113367e-06,-0.0005273321889176936,0.00013209936788873586
