%time,field.header.seq,field.header.stamp,field.header.frame_id,field.wrench.force.x,field.wrench.force.y,field.wrench.force.z,field.wrench.torque.x,field.wrench.torque.y,field.wrench.torque.z
310493000000,0,310485000000,BR_wheel_link,-3.0610067068145073,0.8592553645461032,7.891752805327096,0.0944548251260285,0.3242865955548941,-0.0047415385605897075
310493000000,1,310486000000,BR_wheel_link,0.11846731789188795,0.045263841081733355,-0.062473558441845316,0.00234169061617577,-0.00960733175866373,0.0034488957362979198
310493000000,2,310487000000,BR_wheel_link,-3.310554104202144,1.3012796247948675,11.87350864822696,0.14837579981247892,0.337881968269527,-0.00812997200906187
310493000000,3,310488000000,BR_wheel_link,0.12571063658296566,0.0461944759526959,0.027020208841262508,0.0014384368674676233,-0.005396091960117844,0.004609373552009236
310493000000,4,310489000000,BR_wheel_link,-2.3721523441447063,1.0585517573573495,8.884445099045603,0.12075340767624528,0.23973199998598513,-0.006279122357087512
310493000000,5,310490000000,BR_wheel_link,0.07864094216794734,0.03918531011307416,-0.021297810878149855,0.0012466295496301434,-0.0032548790823105117,0.003958482066233255
310493000000,6,310491000000,BR_wheel_link,-3.505868412841633,1.2533499833984056,11.36658796681423,0.14125804338873507,0.3633279760870061,-0.007709971662303824
310493000000,7,310492000000,BR_wheel_link,0.0870367081348402,0.04423591103135649,0.018922014173330948,0.001224300842531693,-0.002068552501232823,0.004567121869798843
310493000000,8,310493000000,BR_wheel_link,-2.858973849815727,1.119384648552736,9.573804543957156,0.12667992473455975,0.29426364608095273,-0.006677138675292018
310494000000,9,310494000000,BR_wheel_link,0.057178865351993256,0.0449055646308829,-0.023578312092044074,0.0014980732082868463,-0.0011370814783222766,0.004079136100328118
310495000000,10,310495000000,BR_wheel_link,-2.5234372643287912,1.3489649111237128,14.069976337896394,0.1473376187489582,0.2605925175914361,-0.006170681701026319
310496000000,11,310496000000,BR_wheel_link,-0.04721062245655456,0.0129780350945212,-0.060294236250068266,0.0013330515773348356,0.004892251035148074,0.002395250156242481
310497000000,12,310497000000,BR_wheel_link,-3.507605592523578,1.484891414283923,14.560879302135387,0.1503870145564745,0.38487792281338457,-0.0024242980657477433
310498000000,13,310498000000,BR_wheel_link,-0.06242534049295616,0.04025702099914743,0.06076374487969543,0.0037799568108084743,0.006588097288981096,-0.00012136500452437805
310499000000,14,310499000000,BR_wheel_link,0.028253172233691465,1.2475312389263817,10.561142901711131,0.14178779507427894,-0.008684893796127954,9.04166859101795e-05
310499000000,15,310500000000,BR_wheel_link,-0.7898353995307564,0.4142456959119432,2.7655247593828904,0.05063253173257394,0.07970712859549146,-0.0031970624755369406
310501000000,16,310501000000,BR_wheel_link,-0.10488231506374386,-0.06043563345506606,-0.6619314408615732,0.0006442951230474142,0.0029248164307795013,0.00020334255045899392
310502000000,17,310502000000,BR_wheel_link,-2.3973645160005486,0.6947188484562025,5.748369799460951,0.07827081688490897,0.25714780360259865,-0.004163450938066123
310503000000,18,310503000000,BR_wheel_link,0.168001516129787,0.06704228800492305,-0.0655282012184637,0.0002491674452086686,-0.011768969288567677,0.007162690641751321
310504000000,19,310504000000,BR_wheel_link,-3.7571554020092193,1.5974812834075125,14.28601054101702,0.1832386554620819,0.38144232889433405,-0.010499067896806262
310505000000,20,310505000000,BR_wheel_link,0.02704895702870302,0.03500376577044461,0.0467436370356608,0.0014557546054178622,0.0040648456119241425,0.0033864427929161355
310506000000,21,310506000000,BR_wheel_link,-3.5436158973936345,0.8035584814740838,8.342791048794208,0.08858447654541943,0.3869906136034505,-0.005668949092078381
310507000000,22,310507000000,BR_wheel_link,-0.12482662832568091,-0.050456316993718144,-0.5861418009404791,0.0005665058978632665,0.0005009795268148115,0.001053649782024314
310508000000,23,310508000000,BR_wheel_link,0.0013367338337974097,-0.005183291696127529,-0.011524381981062964,3.52863132370595e-05,-0.0010148574350761542,-7.842311906804726e-05
310509000000,24,310509000000,BR_wheel_link,-1.2036385223412889,1.4296541260510376,14.67917156379414,0.15884816767661894,0.13024015389363683,-0.0013836596453771282
310510000000,25,310510000000,BR_wheel_link,-0.05478796031638262,0.0009273500100051,0.018799729621778154,0.00024978809151149524,0.006065409922204546,-5.897114182384054e-06
310511000000,26,310511000000,BR_wheel_link,-0.4447853651567926,1.081257240278594,6.323329225623889,0.1195120337641985,0.0499917188461067,0.001461782106596746
310512000000,27,310512000000,BR_wheel_link,0.0034483326736034756,0.06404854775563086,-0.23350732659724363,0.007831195035796793,-0.003085966177885852,0.00010351151736878889
310513000000,28,310513000000,BR_wheel_link,-2.1499313492224172,-0.08548730086660626,18.085833151450228,-0.010542872619998948,0.23292567573509704,-0.004783926044776703
310514000000,29,310514000000,BR_wheel_link,-0.015101223256045687,0.04490837689069702,-0.22677167387486238,0.003812042289359072,0.0008890131436551406,0.0013665630086906963
310515000000,30,310515000000,BR_wheel_link,-0.028585899346150113,-0.08358514960389568,0.0031136670848915643,-0.014530951664691245,9.526715846685727e-06,-0.00015173355188609905
310516000000,31,310516000000,BR_wheel_link,-0.21996776392461054,7.055522401621099,11.830176233833326,0.7545409909836325,0.02232169905770211,-0.0004972422019867592
310517000000,32,310517000000,BR_wheel_link,-0.024372622005905346,-0.08516683912318056,0.44848445079959853,-0.012303844379379435,0.0014437900630778976,0.00029577163387873093
310518000000,33,310518000000,BR_wheel_link,-0.5640699625889187,2.643290257597249,7.367781410070238,0.2886868265513882,0.05606210143033924,-0.002622972675524012
310519000000,34,310519000000,BR_wheel_link,-0.024180776391151237,0.05577718222940381,0.022534071620662025,0.007838242731826315,0.002009847179766233,-7.404710133956157e-05
310520000000,35,310520000000,BR_wheel_link,-0.3463795432569987,0.9343169908541691,10.447449862556821,0.10446378976023583,0.03975227589612626,0.001083774119977873
310521000000,36,310521000000,BR_wheel_link,-0.32454313333104307,0.8195402636576867,3.0503292299862004,0.08988467923706621,0.035697391580472235,0.0008847841421831785
310522000000,37,310522000000,BR_wheel_link,-0.01225600977224349,0.016839219182146634,0.011613830475111582,0.0021593115328182397,0.0010387650819660068,-1.9947970451997025e-05
310523000000,38,310523000000,BR_wheel_link,-0.22195754352319375,1.7939098653049794,15.906980245259383,0.19767796600736462,0.0237477660580982,-0.00022618912093313112
310524000000,39,310524000000,BR_wheel_link,-0.006515054869422472,0.020515114071075206,0.0123258554139743,0.002504361076159878,0.0004032667913777644,-1.174469855405828e-05
310525000000,40,310525000000,BR_wheel_link,-0.473957317483022,0.8644416914395436,10.596197919241849,0.08846674138522921,0.05148945669161023,-0.0006840726787668452
310526000000,41,310526000000,BR_wheel_link,0.0878770340214253,0.09437917809352747,-0.33194114495745713,0.011063919455774899,-0.006358264309203605,0.0026134318683084254
310527000000,42,310527000000,BR_wheel_link,-1.3724960506760282,0.47947934756701116,20.226687250149915,0.053916710669420054,0.14109046791482976,-0.004706301138214558
310528000000,43,310528000000,BR_wheel_link,-0.04433998612345363,-0.014940571991504495,0.07165131351056314,-0.002647182040259651,0.005321314648906675,2.001562529588461e-05
310529000000,44,310529000000,BR_wheel_link,1.5767110376582907,2.6135108724700236,10.672178550902634,0.28033586863505633,-0.1709881709688105,0.0035121161254396127
310530000000,45,310530000000,BR_wheel_link,0.017316338981324765,0.022328142883869244,-0.019885767720497806,0.0025649080222765104,-0.002536797322864049,-6.182537730666397e-05
310531000000,46,310531000000,BR_wheel_link,-0.854071796060362,1.320439324002314,14.500563023451258,0.1467493256584296,0.09026301040909497,-0.0024345298269810977
310532000000,47,310532000000,BR_wheel_link,0.006400297323488678,-0.02683749716939804,-0.15183643194582502,0.0010339663616967473,0.0020478230175485857,5.2959535244865376e-05
310533000000,48,310533000000,BR_wheel_link,0.04438904578156258,-0.10112836319751041,0.30683880968477634,-0.00921206589863556,-0.005724235639751569,0.00010869476274067452
310534000000,49,310534000000,BR_wheel_link,-0.8195942146058287,2.457547440184178,12.974114197227031,0.26651758548682436,0.09024703156437165,-0.00019473295910505325
310535000000,50,310535000000,BR_wheel_link,-0.0200265309327347,0.054709432072002705,-0.00811403077691167,0.006503501675706929,0.0029465447199678047,0.00012875035985062438
310536000000,51,310536000000,BR_wheel_link,-0.06424339201438746,-0.20133005780761032,-0.6083372566926064,-0.010846262941612292,-0.005277101770660568,-0.002675204224328048
310537000000,52,310537000000,BR_wheel_link,-0.010120704331415377,0.03059202870002384,-0.13757469831988112,-0.003111227685902727,0.0039059183646880627,0.0016682416935053217
310538000000,53,310538000000,BR_wheel_link,0.018831877987337958,2.831999336510201,13.72266744461121,0.31173515550188013,0.0009807360509122062,0.0004714303002640948
310539000000,54,310539000000,BR_wheel_link,0.004992222525627812,0.06106851160725056,0.044135800393371546,0.0066634075254740485,-0.000531312117326418,0.0002229292994769576
310540000000,55,310540000000,BR_wheel_link,-0.6487152239759739,-0.274084170395576,9.00989664311529,-0.028037565807488455,0.06944154725573701,-0.001648594020943821
310541000000,56,310541000000,BR_wheel_link,0.007921460336305558,-0.030463583959396856,0.07929514625471883,-0.006538201294922017,0.001365939148244928,0.0005278607297166787
310541000000,57,310542000000,BR_wheel_link,0.3926014710071752,3.7498204686319734,17.124816087793466,0.39210947928888434,-0.036156903971173396,0.003770348449742589
310543000000,58,310543000000,BR_wheel_link,0.009216655645975933,0.09100099202649918,0.012158995018653576,0.008956700292998946,-0.0013232306827572159,-1.7432971185383026e-06
310544000000,59,310544000000,BR_wheel_link,-0.03227501344784903,0.3337212415508009,10.8991476106675,0.04297683964494829,-0.00019658629604298172,-0.001938930470839427
310545000000,60,310545000000,BR_wheel_link,-0.008704336478501077,-0.01958988328801277,-0.31994124086197223,0.0015923315940710638,-0.0016522605528955566,-0.000525553415983603
310546000000,61,310546000000,BR_wheel_link,-1.905019004788245,3.2956565382591676,6.432567433313272,0.35210196131687205,0.19541421986185883,-0.00432112576977019
310547000000,62,310547000000,BR_wheel_link,-0.0010076729483875237,-0.11513707686846655,-0.7343994927651631,-0.004161095440305584,-0.0002355448571272263,0.0021262255234698046
310548000000,63,310548000000,BR_wheel_link,0.029579947377176556,0.04540220278782154,-0.07131345071803177,-0.0015129152733976481,0.001184276622155451,0.002103945995421159
310549000000,64,310549000000,BR_wheel_link,-0.9851083217887848,2.8480089875198122,9.99231778548751,0.3179091375972799,0.10884693961570531,-0.002428181171917032
310550000000,65,310550000000,BR_wheel_link,-0.026559336740174737,0.06935067052388028,0.0826897956756315,0.006725886425337273,0.002549791087579508,-2.6337889648456163e-05
310551000000,66,310551000000,BR_wheel_link,0.07948190910172068,0.5368126687770811,10.681307753541569,0.06240992523978658,-0.009237834539826642,-0.00015159301128317106
310552000000,67,310552000000,BR_wheel_link,-0.3077609374725189,0.7020167182821799,2.569276989644992,0.07594536840186296,0.03112131515219699,-0.00017645295567655017
310553000000,68,310553000000,BR_wheel_link,-0.008937266683096846,0.011384476362275664,0.004414490867267135,0.0016526318255464837,0.0007096993260812685,-4.0528721871032895e-05
310554000000,69,310554000000,BR_wheel_link,-0.18783279093365843,1.5802854477844552,15.463025369102825,0.17403407880717162,0.020282605187361726,-0.00038158760982587883
310555000000,70,310555000000,BR_wheel_link,-0.0033753256209430294,0.013931093587105347,0.005620072948530902,0.0016505380894129631,0.00021730342002446013,1.5841348850232455e-07
310556000000,71,310556000000,BR_wheel_link,-0.19920309963052704,0.8398635663687847,5.882007348727367,0.09398160951845862,0.020476339058117892,-0.0002617826182100819
310557000000,72,310557000000,BR_wheel_link,-0.00561214609467561,0.008350464281968702,0.006556133520000228,0.0009775318399900309,0.000514173989250254,3.092398995597101e-06
310558000000,73,310558000000,BR_wheel_link,-0.1358520032686295,1.4970234105417102,15.323396593808798,0.16429440384185917,0.015212798116152202,-0.00013989236124516068
310559000000,74,310559000000,BR_wheel_link,-0.0003241462484724893,0.010766480388567383,0.004654811871898368,0.00127202734168964,-0.00010864525660848102,4.543407844231069e-06
310560000000,75,310560000000,BR_wheel_link,-0.12911526014204694,0.7986261922450836,5.993564793026638,0.08924791168771803,0.013206976520043476,-0.00013897250182389798
310561000000,76,310561000000,BR_wheel_link,-0.0030660213290345656,0.007330019211467238,0.006162414690972773,0.0008267871452626773,0.0002470785584942379,4.133929040756923e-06
310562000000,77,310562000000,BR_wheel_link,-0.092124749571346,1.448126933860576,15.125938860437936,0.15888427805327512,0.010528183030199818,-8.364871306717361e-05
310563000000,78,310563000000,BR_wheel_link,0.0020386095170381994,0.009361013316362281,0.003688246292619732,0.0011038048899936737,-0.00037316661651107697,3.740452921017913e-06
310564000000,79,310564000000,BR_wheel_link,-0.08517220369290901,0.8004662135216498,6.2053037325820934,0.08947148317019762,0.00856944635741579,-0.00010664239862804506
310565000000,80,310565000000,BR_wheel_link,-0.001485472855020465,0.00716309833155268,0.006339194377049569,0.0007785636831426736,8.215017595499452e-05,5.9123643851161005e-06
310566000000,81,310566000000,BR_wheel_link,-0.05950188665473934,1.4036018118758489,14.848207414479104,0.15400172551886715,0.007009104375638163,-4.054569965157019e-05
310567000000,82,310567000000,BR_wheel_link,0.003680101443415627,0.008408560407422497,0.002823062706571594,0.000995281923922538,-0.0005571639087739067,3.4037743741160803e-06
310568000000,83,310568000000,BR_wheel_link,-0.06586008271101855,0.8230077172202646,6.536329850533901,0.09197154240541865,0.006595492298778078,-9.919620644431582e-05
310569000000,84,310569000000,BR_wheel_link,-0.0005376089006357442,0.007343033893018309,0.006736311683668084,0.0007757540586755625,-1.5604999790211908e-05,7.882388708983163e-06
310570000000,85,310570000000,BR_wheel_link,-0.03171648216345518,1.3538979979192507,14.441821371726853,0.14859194994224922,0.003970286994309612,-6.518313936403109e-06
310571000000,86,310571000000,BR_wheel_link,0.004879176973403676,0.007543550217566595,0.0018949734889521345,0.0009038121325480615,-0.00069178998419444,3.625364716196792e-06
310572000000,87,310572000000,BR_wheel_link,-0.06250369065676574,0.8602097891469637,7.033719908108821,0.09604773317670572,0.006372689367598072,-0.00010255349244653883
310573000000,88,310573000000,BR_wheel_link,1.4620525289746742e-05,0.007717280628370007,0.007257565877130251,0.0007979472639212763,-7.26038769504963e-05,9.807760191140508e-06
310574000000,89,310574000000,BR_wheel_link,-0.004787565410562478,1.29053023007382,13.836570591527542,0.14168305330577108,0.001019250263031163,4.101667467101562e-05
310575000000,90,310575000000,BR_wheel_link,0.005949435676790653,0.006769344980096642,0.000799644820439916,0.0008304018616411935,-0.0008181647000377131,2.3215461986913904e-06
310576000000,91,310576000000,BR_wheel_link,-0.07399573925455379,0.9174878713532555,7.7800228551989505,0.1022424958201443,0.007706318336176132,-0.00010519310035310605
310577000000,92,310577000000,BR_wheel_link,-0.00023625600192541028,0.007461521029230355,0.007330937826583402,0.0008104924753478539,-5.194592796167079e-05,2.1095590182244115e-06
310578000000,93,310578000000,BR_wheel_link,0.04420157937990217,1.239703005666117,13.09530730929091,0.13594682587272727,-0.004323431427809117,0.00012974458805515397
310579000000,94,310579000000,BR_wheel_link,-0.012407170007900307,-0.026902389098245588,-0.0024202139288206186,-0.0017239742718269115,0.0005683193405784314,3.6302843165135346e-05
310580000000,95,310580000000,BR_wheel_link,0.19167410464458287,1.415582900642867,8.170135413199343,0.15484494035525784,-0.019322762740348373,0.0010464397257870803
310581000000,96,310581000000,BR_wheel_link,0.01352191163978475,0.016474990316597903,-0.01312582192453696,0.0025311606026329507,-0.0018418496220594675,-0.0002064136485808244
310582000000,97,310582000000,BR_wheel_link,-0.23112022235700694,0.8139116822062961,12.714803300527642,0.09135792194236005,0.02369650719921076,-0.001159172493752592
310583000000,98,310583000000,BR_wheel_link,0.0775080348190036,0.2509620844560228,1.5742607711160472,0.02787663996885928,-0.007950997091494638,0.00016607408043453164
310584000000,99,310584000000,BR_wheel_link,0.0025820399117925446,0.003020059825584986,0.0017822975670714401,0.0003584885780204534,-0.00035794235796371876,1.5695059435131137e-06
310585000000,100,310585000000,BR_wheel_link,-0.05639494954388652,1.4685332145775603,15.57467962775846,0.1609342478456275,0.006778367452565236,-7.365710054853928e-05
310586000000,101,310586000000,BR_wheel_link,0.0048055567552250525,0.008893773977090019,0.003813686744277973,0.000998974937356037,-0.0006397817016880805,1.1329983920032906e-05
310587000000,102,310587000000,BR_wheel_link,0.05443522295267734,2.886204892346378,4.547488023350213,0.3115636832876459,-0.0061967169072082474,-0.00013461792641035567
310588000000,103,310588000000,BR_wheel_link,-0.04056716683293199,-0.13698635493649222,0.2694141294982072,-0.022336094988239463,-0.0013763116302547775,-0.001560041061764203
310589000000,104,310589000000,BR_wheel_link,-0.23278996066126803,3.8783673955699705,13.925967381298605,0.4136598885541299,0.027148631910700837,0.0008117679459044156
310590000000,105,310590000000,BR_wheel_link,0.05677317081575996,0.002363241176118689,0.3495612889434385,0.0025948261283146186,-0.0027265725225850126,0.001785452720980567
310591000000,106,310591000000,BR_wheel_link,-0.5332846361597056,1.5128731850174264,10.765206726593206,0.1625234359926481,0.05874199673708645,-0.0009286499848996744
310592000000,107,310592000000,BR_wheel_link,-1.4862263048866073,0.47397772207401906,3.875533304718059,0.05786607424416033,0.159103879740948,-0.004001789021693949
310593000000,108,310593000000,BR_wheel_link,0.2227535109148994,0.03212047629791901,-0.012044031830977558,0.00013001482101236662,-0.01776652695169484,0.0052081760515869146
310594000000,109,310594000000,BR_wheel_link,-3.4870936316967707,1.6524563191030277,14.170962076112394,0.18449092299335593,0.3499862796795447,-0.008637123650556064
310595000000,110,310595000000,BR_wheel_link,0.11527247873579195,0.036607359326138296,0.14293219753243497,0.0007388146782183493,-0.00016609161631238735,0.0038169161140272803
310596000000,111,310596000000,BR_wheel_link,-3.442786129698017,1.1940297364577153,8.568751500800461,0.13186879317315325,0.36771997274227,-0.0062168502118443115
310597000000,112,310597000000,BR_wheel_link,0.11810662788275644,0.03063782740887256,0.004774699681712349,0.00035623126602780947,-0.010414286557576502,0.00422648285168344
310598000000,113,310598000000,BR_wheel_link,-3.338794570869873,1.4733005187093688,12.259267122483665,0.1646664802825082,0.3402402660594676,-0.007933487266942015
310599000000,114,310599000000,BR_wheel_link,0.11809191794896685,0.034713952784229625,0.07403613813574188,0.0005657852966529531,-0.004811199666497161,0.004670884118212446
310600000000,115,310600000000,BR_wheel_link,-2.313927154315084,1.1630119283116984,8.838917714466794,0.13085656397841558,0.23333449542863882,-0.006082218613386314
310601000000,116,310601000000,BR_wheel_link,0.0772993505893722,0.02703095868994242,0.019970084831920507,0.00033006843534298403,-0.0036264626309190145,0.0041497181707018434
310602000000,117,310602000000,BR_wheel_link,-3.5878198857730283,1.455263632934015,11.857168844322901,0.16202473462829878,0.37121654165526763,-0.007891599855206747
310603000000,118,310603000000,BR_wheel_link,0.07767490111153744,0.031664938826602394,0.07899911914265273,0.0003901259482322819,-0.0012717955671771347,0.004488227066110689
310604000000,119,310604000000,BR_wheel_link,-2.9108930235983164,1.2572162434243819,9.78805464019175,0.14037574377272793,0.29986813886535385,-0.0066847894378389405
310605000000,120,310605000000,BR_wheel_link,0.05447500283002312,0.02819498322544317,0.04269457673176396,0.0003364692739002854,-0.0009586352231087161,0.004146120282807569
310606000000,121,310606000000,BR_wheel_link,-3.6461167032619914,1.436203331952255,11.588850781730212,0.15970100090585845,0.3790858100389965,-0.0077943624179730745
310607000000,122,310607000000,BR_wheel_link,0.05672594818168284,0.03105799404071227,0.07157463683864018,0.00037842823339657164,0.00024356411330342804,0.004395716188805843
310608000000,123,310608000000,BR_wheel_link,-3.1908184476203476,1.307436097378783,10.25936579510057,0.1456661042324256,0.330851866615479,-0.0070127668755707185
310609000000,124,310609000000,BR_wheel_link,0.04346143077360565,0.02872317164214953,0.0467463013227955,0.00036557185398593386,0.0001782863845848474,0.0041782419742088265
310610000000,125,310610000000,BR_wheel_link,-3.622344052293196,1.41395041435305,11.335042165564015,0.15718730552603102,0.37722583976669966,-0.007665011696039967
310611000000,126,310611000000,BR_wheel_link,0.0454003065902385,0.03059671934828924,0.06225477817699333,0.0004060533234902581,0.0007701316794562248,0.0043286885326489655
310612000000,127,310612000000,BR_wheel_link,-3.3252546559081546,1.3320831827135495,10.491911942139746,0.14828882731503587,0.3456504989488712,-0.007168926592849293
310613000000,128,310613000000,BR_wheel_link,0.03793215073045409,0.029178634278891478,0.045709824702941514,0.0004141115808769548,0.0006014668418705303,0.004192102373516328
310614000000,129,310614000000,BR_wheel_link,-3.580044246027326,1.3959984946134891,11.143552474915287,0.15525414572604768,0.372943203452416,-0.007569585329374005
310615000000,130,310615000000,BR_wheel_link,0.039346359410247195,0.030318188590385486,0.05434275341909222,0.0004416463771277563,0.0009202066663733015,0.0042808789067643686
310616000000,131,310616000000,BR_wheel_link,-3.3907783719674516,1.3454983720096094,10.610073784349785,0.14973269556049587,0.3528175643823561,-0.007245285517274211
310617000000,132,310617000000,BR_wheel_link,0.03523227074469812,0.02959320238638756,0.04352971891792812,0.00046023775357576744,0.0007647416108453793,0.0042012951786999314
310618000000,133,310618000000,BR_wheel_link,-3.5457285686537285,1.3812157837853485,11.01096560990464,0.15367776493964913,0.36938550808140597,-0.0075001422137877085
310619000000,134,310619000000,BR_wheel_link,0.036084484797265566,0.030370245007953232,0.048281484956247595,0.00048161405190138743,0.0009555475770661291,0.004253454196110095
310620000000,135,310620000000,BR_wheel_link,-3.427658341751175,1.3496048242676686,10.676813050966569,0.15022501624717144,0.35682638865453564,-0.007294469756900141
310621000000,136,310621000000,BR_wheel_link,0.03384954444041017,0.029908041806796973,0.04138997391325916,0.000497304254031724,0.0008294529846611089,0.004202057417931963
310622000000,137,310622000000,BR_wheel_link,-3.5211036288389552,1.3701329480266873,10.925744619797769,0.15252443573272312,0.3667962040975127,-0.007460404785909477
310623000000,138,310623000000,BR_wheel_link,0.034262168568326486,0.030425410764360963,0.043966339084908955,0.0005079893515205696,0.000968119884091037,0.004232954516625603
310624000000,139,310624000000,BR_wheel_link,-3.4492011021983053,1.3488554143266815,10.715192568776473,0.15019655391898803,0.359180184971381,-0.00732923645972917
310625000000,140,310625000000,BR_wheel_link,0.03316833991667403,0.030217126043534187,0.03936153550156617,0.0005183410473115564,0.0008695730486354842,0.004207124986427463
310626000000,141,310626000000,BR_wheel_link,-3.5048828709000057,1.3603253968702917,10.867048496248048,0.1514848331563013,0.36510566145081574,-0.007427652483639422
310627000000,142,310627000000,BR_wheel_link,0.03341125439900272,0.030606289079922813,0.04071194977131781,0.000531376657262484,0.0009624305557683564,0.00422399545294114
310628000000,143,310628000000,BR_wheel_link,-3.4604653865356636,1.3454042082535234,10.732739857600212,0.14983079299138144,0.36042354090864365,-0.007338683301316306
310629000000,144,310629000000,BR_wheel_link,0.03277844647598342,0.03040160787594976,0.037802120663872445,0.0005446773818527043,0.0008844056234864138,0.0042031275832921135
310630000000,145,310630000000,BR_wheel_link,-3.492757958216583,1.3533421043736964,10.831133511573519,0.15062013992663417,0.36384771179134434,-0.007388900112483089
310631000000,146,310631000000,BR_wheel_link,0.03264832374734036,0.029508130857868152,0.04065473564585681,0.0005238153703520209,0.0009342600364306118,0.00419348484633363
310632000000,147,310632000000,BR_wheel_link,-3.4692571387990143,1.3371025909353829,10.851081682302805,0.14961956830918297,0.3611069233831958,-0.007606098367941152
310633000000,148,310633000000,BR_wheel_link,-0.007767884033494991,-0.0044015483508241075,-0.3103084178925777,0.0004990577238143927,0.005874467781318738,0.0033638277283874933
310634000000,149,310634000000,BR_wheel_link,-0.0608972218204463,-0.14626058498711128,-0.06934347664689283,-0.008937551548997493,0.0038757834912748037,-0.0010572150544185296
310635000000,150,310635000000,BR_wheel_link,-0.4690848586986141,4.269769611459,18.094966466396464,0.4434006996469603,0.05485175183710362,0.004308842837144707
310636000000,151,310636000000,BR_wheel_link,-0.052360303847538835,0.10780933695731235,-0.009798432470817044,0.010772274371735027,0.004876492125685498,-0.00011794952346191218
310637000000,152,310637000000,BR_wheel_link,-1.730094274898321,-0.9791537110427636,8.247725978260767,-0.09813551471469165,0.17501282527555168,-0.005621008718081498
310638000000,153,310638000000,BR_wheel_link,-0.06423154022682466,-0.03431110927593683,-0.06046470987323431,-0.005120233299440236,0.005853486819543523,-0.0010526786971034744
310639000000,154,310639000000,BR_wheel_link,-0.8326851817567594,2.83520658622386,13.024700367448974,0.31488585383381196,0.09034640353789575,-0.0008592642608134106
310640000000,155,310640000000,BR_wheel_link,-0.043336100803313855,0.06717803317683665,0.052783720442890515,0.006740869262658469,0.004459070327124353,2.617649749170202e-05
310641000000,156,310641000000,BR_wheel_link,-0.8720789509722181,-0.11936641581554376,9.400126712597523,-0.01039802957440883,0.0928351735725565,-0.000962735774661005
310642000000,157,310642000000,BR_wheel_link,-0.02942131777831013,-0.010475147535133345,-0.024525859568376458,-0.00427042856120062,0.0035708150880274605,0.00024099228316563275
310643000000,158,310643000000,BR_wheel_link,-0.46140135992614656,2.1276542325859173,10.264562768861756,0.23565429154399112,0.049372912197088614,-0.00039995180389326614
310644000000,159,310644000000,BR_wheel_link,-0.024484532521060684,0.04314105355036102,0.025449223698348473,0.004488183177576685,0.0024799053027453892,1.985301624790425e-05
310645000000,160,310645000000,BR_wheel_link,-0.3805318937989365,0.6900596940634148,11.488713381902619,0.07776774461133772,0.04049989826658932,-0.0003758564857377957
310646000000,161,310646000000,BR_wheel_link,-0.022341414184674016,0.25184836937055866,-0.4818997108895183,-0.05601916865478165,0.0018203751111423882,-6.112831586154917e-05
310647000000,162,310647000000,BR_wheel_link,0.025083276856184784,0.903395097821531,-1.7122086271328942,-0.05773197223659659,-0.00027732768836445545,0.0005794113298842988
310649000000,163,310648000000,BR_wheel_link,0.0023718084990274986,0.10438540218153038,-0.20644140850645631,-0.05642820842538483,-0.0001871899299335362,9.854850051827166e-05
310649000000,164,310649000000,BR_wheel_link,0.010785747464919851,0.4321378697068145,-1.017572773635649,-0.01894857533332859,-0.0008397871559531451,-7.223451576481947e-05
310649000000,165,310650000000,BR_wheel_link,0.0008328913051114239,0.09486639027452246,-0.13914042154955927,0.003576237330131577,-3.425255577173536e-05,0.00012717508068588583
310651000000,166,310651000000,BR_wheel_link,0.0017305476859229788,-0.0026702626110068186,0.001860627544586399,-5.20140125253335e-05,-0.00017838342093944883,-4.643729826259697e-06
310652000000,167,310652000000,BR_wheel_link,-0.00012806838523618557,0.3672466849784184,-0.9294425776439071,-0.02033584910226111,-0.0002718619186950281,-0.0001485398694920293
310653000000,168,310653000000,BR_wheel_link,-7.160206254236974e-05,0.08877792147314999,-0.13077725172986363,0.003355576835910614,5.7401798094065026e-05,0.00011831627947041758
310654000000,169,310654000000,BR_wheel_link,0.0009182137049812347,-0.0032065027650561924,0.0025850346667464358,-7.199540691693731e-05,-9.682616244324422e-05,-5.99660458662335e-06
310655000000,170,310655000000,BR_wheel_link,-0.0006209288861224471,0.32752853567239953,-0.8638315898659515,-0.021051300369292605,-0.00020686144725790218,-0.00015664915738846708
310656000000,171,310656000000,BR_wheel_link,-0.0005244083291129156,0.08455101719828294,-0.1253369967600432,0.003209101179292066,0.00010314533260841079,0.0001131402834460285
310657000000,172,310657000000,BR_wheel_link,0.0005007310044756755,-0.0034986960587042835,0.0028512968438846507,-8.033789921861554e-05,-5.4879486939731295e-05,-6.693372978551114e-06
310658000000,173,310658000000,BR_wheel_link,-0.0004798817145188352,0.3016062252749562,-0.8204138362956697,-0.02151744506148148,-0.00017604613681320252,-0.00014208568782903946
310659000000,174,310659000000,BR_wheel_link,-0.0040665792886686826,6.74328856422153,14.876144201276633,0.6876077346683732,0.00020597501655925175,-0.00020925785440104334
310660000000,175,310660000000,BR_wheel_link,0.0004931753729121976,-0.16233504319198228,0.3750976105212912,-0.02048942257013394,-0.0006407994472992733,0.0001362260907047762
310661000000,176,310661000000,BR_wheel_link,0.14963077825318585,2.3196163357914616,4.481909100977862,0.24183961438080623,-0.017484805866684265,-0.00022343695786470444
310662000000,177,310662000000,BR_wheel_link,-0.018863146319331503,-0.2066038171070405,0.14234161812862392,-0.019977619390365232,0.0005329316032990241,-0.00046705164034445006
310663000000,178,310663000000,BR_wheel_link,0.009966382870820216,5.815794527258757,10.308331791281,0.6136617706554347,-0.0001974184234700227,1.5437333740076043e-05
310664000000,179,310664000000,BR_wheel_link,-0.03440974709436467,-0.15754513794123973,0.31530141432608433,-0.01248486342793567,0.0012936698625640216,-0.0005118086368549069
310665000000,180,310665000000,BR_wheel_link,0.16531835212456572,3.097827076752346,5.335782914940531,0.32578544358796613,-0.015106843549762062,0.0005243071101822883
310666000000,181,310666000000,BR_wheel_link,-0.0227733828652601,-0.12096552396627584,0.12835325324142408,-0.012884739309753302,0.0005925947768204997,-0.00017189104038194038
310667000000,182,310667000000,BR_wheel_link,0.10239564700590323,5.654175343948742,9.563970372687784,0.6018095096156297,-0.00874919810598604,0.00038747007965234
310668000000,183,310668000000,BR_wheel_link,-0.01346967017694232,-0.14915656870043026,0.34930323925541024,-0.011782970249996269,0.0001504158210591744,3.1875683854017818e-06
310669000000,184,310669000000,BR_wheel_link,-0.015623934027943357,8.553168277668233,12.404590309249208,0.5041477300014975,0.0033975575298430447,-0.0007784225251690437
310670000000,185,310670000000,BR_wheel_link,0.023576969008848283,2.6652397202634814,8.50077427728476,0.07108465809697083,-0.001920862062580105,0.0009632541935551211
310671000000,186,310671000000,BR_wheel_link,0.003637535429189489,0.0342420480456659,0.014158380223803627,0.004985648578328812,-0.0005480100057162394,0.00022738929996587198
310672000000,187,310672000000,BR_wheel_link,0.007105625691185281,4.297256561057394,12.5536777012044,0.09803857666100659,0.004312799372055518,0.0006038274965809986
310673000000,188,310673000000,BR_wheel_link,0.13745814286699612,2.0404678741767786,2.147655945464157,0.1643077481190813,-0.015111406374983536,0.004212314091633053
310674000000,189,310674000000,BR_wheel_link,0.21245894909538723,-0.10608546919532152,5.860863539178609,-0.17082125027069767,-0.02674372523441168,0.005010613682258367
310675000000,190,310675000000,BR_wheel_link,0.0042136973716771315,-0.03395910681556294,-0.01806035955746113,-0.0016896204710152316,-0.000632218626254032,9.056707181520065e-05
310676000000,191,310676000000,BR_wheel_link,-0.05226174790048321,2.6022665389380983,12.289581681459982,-0.0791365544917967,0.006315402387441084,-0.0016498809426696353
310677000000,192,310677000000,BR_wheel_link,0.06307721451882717,0.11125378263859319,1.1550068304769936,-0.018725096727545215,-0.0072439422180428665,0.0017628253617414887
310678000000,193,310678000000,BR_wheel_link,0.0026015677042711574,-0.007962957960020525,-0.008165498187548411,0.0003113015134571244,-0.0002924771819392905,7.824286714823804e-05
310679000000,194,310679000000,BR_wheel_link,-0.04561055280885438,1.8037943343583862,13.552538290624337,-0.19757470015356932,0.005828099078704312,-0.0014598946490424671
310680000000,195,310680000000,BR_wheel_link,0.00463909744484805,-0.012876928485709834,-0.008336239152627142,-0.0006504715369788879,-0.000602839193148104,0.00014449027100235065
310681000000,196,310681000000,BR_wheel_link,0.04551508406580968,0.5767607521956284,4.646056738027264,-0.07434598364242283,-0.004996324747058805,0.0013361013924018607
310682000000,197,310682000000,BR_wheel_link,0.0023828223146512444,-0.006148141782588686,-0.005553840901291827,-0.00013095521270904998,-0.0002927544545530335,7.20775373965212e-05
310683000000,198,310683000000,BR_wheel_link,-0.03933787899390709,1.78805379745604,13.475912392866434,-0.19674864210967058,0.005035856170578054,-0.0012481291402880637
310684000000,199,310684000000,BR_wheel_link,0.0049436301102572505,-0.011754287067066273,-0.007933763993860482,-0.000877449673473498,-0.0006553112653790291,0.00015405260126382704
310685000000,200,310685000000,BR_wheel_link,0.04062476653282881,0.6173982461085492,4.84145913982127,-0.0751713141905364,-0.004649398291540464,0.0012331209917771692
310686000000,201,310686000000,BR_wheel_link,0.002283909677166001,-0.004200973944886055,-0.004081404442996943,-0.00021305580340071618,-0.00029426226058816357,6.899633502483593e-05
310687000000,202,310687000000,BR_wheel_link,-0.03091469456785264,1.782785748414849,13.328800354139661,-0.19259018241665826,0.004026122395067045,-0.0010113553067081598
310688000000,203,310688000000,BR_wheel_link,0.005175763790635754,-0.011118884806754369,-0.007644021910767476,-0.0009575316491279772,-0.0006922886764414376,0.00016187495805471626
310689000000,204,310689000000,BR_wheel_link,0.02802438082922817,0.6889468838538135,5.129277342240986,-0.07539182033686845,-0.0033682846752478676,0.0008970157688391886
310690000000,205,310690000000,BR_wheel_link,0.002081313948020889,-0.0029422460498684986,-0.0030091338121996207,-0.00021784169324048157,-0.0002750721239390403,6.333085844038437e-05
310691000000,206,310691000000,BR_wheel_link,-0.019498254242759815,1.750106170524806,13.026500711044621,-0.1869823400671654,0.0027455598438920624,-0.0006964465460324523
310692000000,207,310692000000,BR_wheel_link,0.005483506145388063,-0.01128186317277022,-0.007950496747789422,-0.0010220622265043216,-0.0007335325421797774,0.00017135852776798677
310693000000,208,310693000000,BR_wheel_link,0.007447935210345842,0.7951899393818979,5.5983578792273905,-0.07716088643504378,-0.0011599334743903397,0.0003287909785137796
310694000000,209,310694000000,BR_wheel_link,0.0018595058712181992,-0.0021014040896582555,-0.0021913489076154247,-0.00020097313072073227,-0.00024974354750455604,5.7012039443323745e-05
310695000000,210,310695000000,BR_wheel_link,-0.000739850360906484,1.6668757607352545,12.458145993182766,-0.17921608967332042,0.0006780703288991239,-0.0001788582521453308
310696000000,211,310696000000,BR_wheel_link,0.005977561936705148,-0.012124091221633583,-0.008834159642205389,-0.001107578385826918,-0.0007950526263475093,0.0001862885593080462
310697000000,212,310697000000,BR_wheel_link,-0.002253364359909376,0.9358490145075652,6.337171882405522,-0.08331013789634824,-0.00013840209267425128,6.079600746704524e-05
310698000000,213,310698000000,BR_wheel_link,-1.0691222103645677,2.084664891369834,3.4671279838275018,0.11547854393009614,0.10590523608021439,-0.028299344689397023
310699000000,214,310699000000,BR_wheel_link,0.7533082868181257,-1.0974347560555642,5.523496135224768,-0.272033904885689,-0.07431615076527048,0.02014920831043806
310700000000,215,310700000000,BR_wheel_link,0.024743951128889177,-0.06054261798540877,-0.06140615372442973,-0.0044013578531788685,-0.0031260172240529308,0.0007070258448486887
310701000000,216,310701000000,BR_wheel_link,-0.662377135113772,2.8775366677079806,11.622132951274326,-0.0315426309068419,0.07066231521405379,-0.01739114559763123
310702000000,217,310702000000,BR_wheel_link,0.0019381999750211357,-0.06898322639541378,-0.2527997483131012,0.0021770217786238493,0.001688670894077552,-0.0008962471012860791
310703000000,218,310703000000,BR_wheel_link,0.06336287853769215,-0.11805878109909938,0.4097569586217293,-0.012178150443804643,-0.00912492173617003,0.00039214188481929865
310704000000,219,310704000000,BR_wheel_link,-1.3011485457717191,2.5342655093988915,7.934329576318007,0.022406932760847074,0.1331788987580911,-0.03431856818500963
310705000000,220,310705000000,BR_wheel_link,0.023270664834165643,-0.05456280677479058,-0.19633791331365114,0.00021097432869600035,0.003098472650201709,4.856682772435171e-05
310706000000,221,310706000000,BR_wheel_link,0.1392466497086407,-0.1768762988216912,0.6126139158825331,-0.016389229856296737,-0.011235386231552612,0.0013774561395309664
310707000000,222,310707000000,BR_wheel_link,-0.623763182127337,3.126274960610524,11.80713816737452,-0.03643395727266667,0.05997175744596762,-0.012515043797674569
310708000000,223,310708000000,BR_wheel_link,-0.02459654332515092,-0.06589915707382035,-0.10551243603108436,-0.00035009592394457463,-0.0002250288231319139,-0.0009252216214105956
310709000000,224,310709000000,BR_wheel_link,0.00026499175940719865,-0.0003308733565504257,-0.006727862396963384,0.00011506739042538103,-0.00015073783726504307,2.7881234532158633e-05
310710000000,225,310710000000,BR_wheel_link,0.1668779234153839,1.0177450604550378,10.401792295802283,-0.19363993867018364,-0.01767042573755262,0.004727164998154654
310711000000,226,310711000000,BR_wheel_link,0.009207346696816098,0.14915801971485937,0.6512397764087267,-0.005236650621005406,-0.0027007984022489255,0.0006200410313102553
310712000000,227,310712000000,BR_wheel_link,-0.003578957625430593,-0.004981077421255152,-0.09304664532349131,-0.011379057751944166,-0.00022036241292794579,0.0002865459977692832
310713000000,228,310713000000,BR_wheel_link,0.008647907032600021,7.077124418797227,9.40715020006416,0.4552502259704918,-0.00036395693339795433,-6.317837258339388e-05
310714000000,229,310714000000,BR_wheel_link,-0.06645970956146521,-1.7687134956661414,4.536311164817906,-0.2990111175281171,0.005901612459194967,-0.0019754535442264697
310715000000,230,310715000000,BR_wheel_link,0.00015235449361104621,-0.0931103236881693,-0.03194114203924149,-0.007117603950302692,7.441183014227932e-05,0.000420057393312926
310716000000,231,310716000000,BR_wheel_link,0.016262635947745453,6.601442730276101,8.886880783097366,0.4215148485244997,-0.0009342676750803867,0.0001408033085797305
310717000000,232,310717000000,BR_wheel_link,-0.0495957681844698,-2.143881250027952,4.648421923273016,-0.34593025873257305,0.004507594335318951,-0.001001486181856075
310718000000,233,310718000000,BR_wheel_link,0.0010828353382040248,-0.09021667317299573,-0.062411879573706926,-0.005966142583179264,-6.222122339368766e-05,-7.261549415091582e-06
310719000000,234,310719000000,BR_wheel_link,-0.030499394877981388,3.2966064104061097,10.468022600014669,0.04732851237875997,0.003578157376165193,-0.0007642949074511732
310720000000,235,310720000000,BR_wheel_link,0.029363725147353987,0.07431255733483305,2.4437945619019614,-0.05731091353005752,-0.0036957051255250197,0.0009778177905518045
310721000000,236,310721000000,BR_wheel_link,0.0011148477294770209,-0.012398665353848788,-0.015392067830476093,-0.0004907384425689498,-0.0001589223030920178,4.8393729603688984e-08
310722000000,237,310722000000,BR_wheel_link,-0.06126639721148255,1.8870257589220183,13.042700163298159,-0.17225798170814524,0.006934207924267608,-0.0018889750969414076
310723000000,238,310723000000,BR_wheel_link,0.004721296412666162,-0.018219443727166947,-0.02129612605338328,-0.0011193273404002124,-0.0005573690845565711,0.00011254939544985096
310724000000,239,310724000000,BR_wheel_link,-0.22350200391424052,0.09995713909458856,0.10168144753078717,0.0015397665892538613,0.02544934546233219,-0.006359361994410549
310725000000,240,310725000000,BR_wheel_link,0.36396323157451727,1.5560392911458172,9.812415706263861,-0.10620736594275972,-0.039083258135373104,0.00974637765135039
310726000000,241,310726000000,BR_wheel_link,-0.04706474837162855,-0.10967581028732701,-0.11728238453986509,-0.009997794434536434,0.0049186750135384325,0.00043423904596039055
310727000000,242,310727000000,BR_wheel_link,1.1952561332254275,4.959787982903379,19.31763793598064,-0.023146726765123745,-0.12695352240897406,0.029159313228367276
310728000000,243,310728000000,BR_wheel_link,0.5919075996839929,0.43251712604184644,2.537058608510025,-0.017901350955647946,-0.06465349422021087,0.01870646091625269
310729000000,244,310729000000,BR_wheel_link,-0.03651453927989569,-0.11670555936431051,-0.14026401184468967,-0.010611798359620643,0.006005673692963828,-0.00017453317945722712
310730000000,245,310730000000,BR_wheel_link,1.0954948653434256,4.717775618097839,18.075362090204795,-0.012865031195861116,-0.10974908325428201,0.029254453953757167
310731000000,246,310731000000,BR_wheel_link,0.02451358345078758,0.02577396925336263,0.01310824139810499,0.002140481757337975,-0.003634461409198952,0.0007176358242987933
310732000000,247,310732000000,BR_wheel_link,-1.243722433790486,0.8291463176051179,12.703235475081573,-0.2645654010401525,0.13082624529115053,-0.03559495452573064
310733000000,248,310733000000,BR_wheel_link,-0.004235612273443218,-0.011493307474485953,0.011851944654515438,-0.0015839445805176913,0.0006319707003985979,-0.00019780494925270811
310734000000,249,310734000000,BR_wheel_link,0.16916180361171823,1.423423133403162,10.203362523157523,-0.13861242005839297,-0.016823026808108873,0.003852348312955425
310735000000,250,310735000000,BR_wheel_link,0.010750353779628978,-0.018499560170231102,-0.009951787093647932,-0.001624291944942263,-0.0013535412029676071,0.00031081964193355643
310736000000,251,310736000000,BR_wheel_link,-0.020967140575393676,1.5163781581294156,8.697480128184175,-0.08756894389960054,0.0024537493684181713,-0.0005077335128362496
310737000000,252,310737000000,BR_wheel_link,0.003999640702098349,-0.0008323449067766675,-0.002470413941148125,4.136105371791965e-05,-0.00045674592955649806,0.00010844301049226093
310738000000,253,310738000000,BR_wheel_link,0.09896579086827072,1.4263784089008933,9.704642110265967,-0.12330200239968982,-0.009909835646238215,0.0025686721834198255
310739000000,254,310739000000,BR_wheel_link,0.009109471837558539,-0.013669863908383479,-0.011422137205412387,-0.001118017955187652,-0.0011163376448084085,0.0002663506198308507
310740000000,255,310740000000,BR_wheel_link,-0.014880227152923562,1.5159501457859197,8.651221403387325,-0.08545115273955357,0.0017013624314757506,-0.00032430499791058227
310741000000,256,310741000000,BR_wheel_link,0.003760751762955162,-0.0006366947256468399,-0.001812105711465437,-2.360428978326128e-06,-0.00046390203498220103,0.000112053151943286
310742000000,257,310742000000,BR_wheel_link,0.05906272011434915,1.547942612413451,9.852669300916125,-0.1144020128047003,-0.005846025977968236,0.0015251904231749047
310743000000,258,310743000000,BR_wheel_link,0.007707781573507678,-0.010340855120319173,-0.00948772509406026,-0.0008389604119316129,-0.000960784845469069,0.00022934420301893115
310744000000,259,310744000000,BR_wheel_link,-0.006815712121889365,1.5000598261006464,8.569168392287203,-0.08426205604274513,0.0007688936564546372,-0.00012427360373859476
310745000000,260,310745000000,BR_wheel_link,0.0036306660300426553,-0.0014949787582878248,-0.0026369669107002814,-8.050690009512779e-05,-0.0004616874434066239,0.00011073547801905018
310746000000,261,310746000000,BR_wheel_link,0.035424677066375206,1.628693600058206,9.963332780956732,-0.10878385097116204,-0.0034219423465320776,0.000893466040025867
310747000000,262,310747000000,BR_wheel_link,0.006602713185193107,-0.008316990486189254,-0.008018604008167418,-0.000673221455849328,-0.0008344176055455553,0.00019874040830004735
310748000000,263,310748000000,BR_wheel_link,-0.004857780186643614,1.4911785919805036,8.512754380910893,-0.08320470612030414,0.0005431983882262101,-8.90747463328374e-05
310749000000,264,310749000000,BR_wheel_link,0.0036041341327415185,-0.0023209908615880867,-0.0033838247252789702,-0.00014902134068357358,-0.0004655002999093066,0.00011076118219487329
310750000000,265,310750000000,BR_wheel_link,0.018772691711873624,1.6896617333379256,10.041032575646193,-0.10432715616290317,-0.0017012485549457515,0.00044576545269944253
310751000000,266,310751000000,BR_wheel_link,0.005840881385086173,-0.006961964794020885,-0.006986655611434067,-0.0005614455565099175,-0.0007456420466140787,0.00017721153007741255
310752000000,267,310752000000,BR_wheel_link,-0.0019596612926294455,1.4907744475157216,8.475589211149412,-0.08184863361235065,0.0002232648132644056,-2.5426588219747203e-05
310753000000,268,310753000000,BR_wheel_link,0.0036444473994934118,-0.00295331922386168,-0.003933148380464099,-0.00020063292569825805,-0.0004733536279886515,0.00011259799490923097
310754000000,269,310754000000,BR_wheel_link,0.00710308720826788,1.7391929925667142,10.096152871485016,-0.10043889491617197,-0.0004811793127253603,0.00013501976476697778
310755000000,270,310755000000,BR_wheel_link,0.005340250535108961,-0.005982691593923162,-0.006245842577985028,-0.0004793262675063502,-0.0006867431819051994,0.0001629633228640644
310756000000,271,310756000000,BR_wheel_link,0.0013485723527222697,1.4976529645705197,8.453381205050459,-0.08017734521843037,-0.0001365434080936455,5.464550313577982e-05
310757000000,272,310757000000,BR_wheel_link,0.003737872946303223,-0.00338122442881147,-0.004330060003141859,-0.0002335588386818373,-0.0004862861620797989,0.00011581485215958092
310758000000,273,310758000000,BR_wheel_link,-0.0007298547796907386,1.7814185481752316,10.135467057225217,-0.0968539956437468,0.00033299146793260796,-7.244792786778684e-05
310759000000,274,310759000000,BR_wheel_link,0.0049985311984169604,-0.005261684242340251,-0.00569653042051754,-0.0004181614162961052,-0.0006457824871390813,0.00015327430109267963
310760000000,275,310760000000,BR_wheel_link,0.0043558803176772165,1.5099690891474005,8.442428118446003,-0.07827019836032328,-0.0004606030699290726,0.00012999965102641542
310761000000,276,310761000000,BR_wheel_link,0.0038401908814476495,-0.0036544961505741947,-0.0045973326491147255,-0.00025359580195407776,-0.0004993408539947155,0.0001192434442834719
310762000000,277,310762000000,BR_wheel_link,-0.006218693918690349,1.8183619310225974,10.16376549470455,-0.09350690701929537,0.0009062043805620161,-0.00021608648728519127
310763000000,278,310763000000,BR_wheel_link,0.0047680286429158045,-0.0047077004259951215,-0.005283025896464928,-0.00037013035820995197,-0.0006180153662485778,0.0001466876666052621
310764000000,279,310764000000,BR_wheel_link,0.006977023647058491,1.5261771860232924,8.439481486154275,-0.07618751275761872,-0.0007473210894381523,0.00019606256539251224
310765000000,280,310765000000,BR_wheel_link,0.00392788302599704,-0.003812053609397873,-0.004759300748858908,-0.00026437681459473187,-0.000509929634895064,0.00012222644741260877
310766000000,281,310766000000,BR_wheel_link,-0.010184969172113114,1.8516463403175414,10.184429330520816,-0.09032238151414446,0.0013225020229138966,-0.00031908831810731466
310767000000,282,310767000000,BR_wheel_link,0.004602976850081538,-0.004273093907934822,-0.00496041771866455,-0.00033183264585170616,-0.0005978150958156407,0.0001419780723190458
310768000000,283,310768000000,BR_wheel_link,0.008977230756938376,1.5451638796833942,8.44243515487214,-0.07398870146230051,-0.0009658117260098404,0.0002466639804054693
310769000000,284,310769000000,BR_wheel_link,0.003999774218015539,-0.0038820067026106046,-0.004848120672598993,-0.00026771494703165883,-0.0005183463815127495,0.000124694256641334
310770000000,285,310770000000,BR_wheel_link,-0.013086704336374771,1.88239686264621,10.199674882497378,-0.08724484259676084,0.0016273286328790766,-0.00039420208341502274
310771000000,286,310771000000,BR_wheel_link,0.0044818862578874805,-0.003920612739351549,-0.004702486107869242,-0.00030021531767496657,-0.0005827703381229947,0.00013853166488306132
310772000000,287,310772000000,BR_wheel_link,0.010402269825930838,1.5660776368131903,8.449568110758793,-0.07171705486220663,-0.0011170515239631155,0.00028386610471145015
310773000000,288,310773000000,BR_wheel_link,0.004066754940702742,-0.003877459926554213,-0.004891501977425743,-0.0002640332194081325,-0.0005265557792763269,0.00012682341104077697
310774000000,289,310774000000,BR_wheel_link,-0.015183227771715633,1.9114191423186462,10.211103624240897,-0.08423228850989538,0.0018438053264363892,-0.00044921149224187235
310775000000,290,310775000000,BR_wheel_link,0.0043929082724110105,-0.0036245661603695554,-0.004489473885986056,-0.00027303566453039033,-0.0005716182157391725,0.00013597445418512942
310776000000,291,310776000000,BR_wheel_link,0.01144208081491273,1.5884819656624523,8.459700684581485,-0.06937562856423814,-0.0012281762156818572,0.0003109112544975939
310777000000,292,310777000000,BR_wheel_link,0.004118157817680907,-0.0038295700042294744,-0.004894135183562038,-0.00025689999045218847,-0.0005327081480618533,0.00012846406777761553
310778000000,293,310778000000,BR_wheel_link,-0.016770690833110086,1.9391392289123222,10.219801361578417,-0.08127700624816865,0.002007619693738393,-0.0004910216571080313
310779000000,294,310779000000,BR_wheel_link,0.0043248083296625285,-0.0033714549269570804,-0.004309804716596109,-0.0002493469145097356,-0.000562910915914362,0.00013402235584936554
310780000000,295,310780000000,BR_wheel_link,0.012156588378798409,1.6119563614482657,8.471928287138866,-0.06698316834445815,-0.0013047843916913274,0.0003295106542219011
310781000000,296,310781000000,BR_wheel_link,0.00415613734942567,-0.0037512387007137015,-0.004867946144273455,-0.00024740236775188735,-0.000537096197352276,0.00012969643667992047
310782000000,297,310782000000,BR_wheel_link,-0.017985219288002178,1.9659305569401453,10.226523083618163,-0.07836230075776672,0.0021329866740612863,-0.0005230989397667973
310783000000,298,310783000000,BR_wheel_link,0.004272074857430281,-0.003148817231792181,-0.0041553390141202805,-0.00022812021424099634,-0.0005560226739507245,0.0001325212843749678
310784000000,299,310784000000,BR_wheel_link,0.012616204427105673,1.6362141723469519,8.485597906387156,-0.06455065366118728,-0.0013545061873504905,0.0003414914214077377
310785000000,300,310785000000,BR_wheel_link,0.004183496118618935,-0.0036509857316995337,-0.004821593354206441,-0.00023620757876077183,-0.0005401068378674169,0.0001306071403108058
310786000000,301,310786000000,BR_wheel_link,-0.018930178398856412,1.992056764249147,10.231822387556239,-0.07547772802741622,0.002231596113566315,-0.0005478751367846011
310787000000,302,310787000000,BR_wheel_link,0.004232945341335826,-0.002945889696241606,-0.004020915359604796,-0.0002082931445917121,-0.0005508644402647126,0.00013139733753940848
310788000000,303,310788000000,BR_wheel_link,0.012888128900857823,1.6610565378070312,8.50024065884697,-0.06208448269800791,-0.0013852744227879172,0.00034844692601260875
310789000000,304,310789000000,BR_wheel_link,0.004203037134122019,-0.0035346032427625153,-0.004761323121638101,-0.00022372857964145403,-0.0005421381702316893,0.000131271872974704
310790000000,305,310790000000,BR_wheel_link,-0.01966746722304345,2.0177184337966807,10.236104254525785,-0.07261337395751939,0.0023091481208443385,-0.0005671177637035889
310791000000,306,310791000000,BR_wheel_link,0.004204277041360268,-0.00275681525671646,-0.00390162394028501,-0.00018947547478803266,-0.0005470541061569337,0.00013056091756896698
310792000000,307,310792000000,BR_wheel_link,0.013052261026812275,1.6863077604369705,8.51546961891104,-0.0595907882506641,-0.0014070562045177446,0.00035222964887531455
310793000000,308,310793000000,BR_wheel_link,0.00421258074683536,-0.0034089622992306075,-0.004688342411925549,-0.0002107450030769885,-0.0005427749936433104,0.00013166843705200137
310794000000,309,310794000000,BR_wheel_link,-0.020271169389802775,2.043061499096716,10.23969076708807,-0.06976386855630425,0.0023741679948360646,-0.0005826808686612865
310795000000,310,310795000000,BR_wheel_link,0.004181643218984164,-0.002578318415350764,-0.003792744302897436,-0.0001714914342492727,-0.0005439566755626615,0.00012991076757387293
310796000000,311,310796000000,BR_wheel_link,0.01312915613097921,1.7118771611959627,8.531055147702041,-0.057072130213461796,-0.0014221305528061003,0.0003532998753990649
310797000000,312,310797000000,BR_wheel_link,0.004211051473052165,-0.0032786404486748787,-0.004604577818834862,-0.0001977732314593428,-0.0005417993247073591,0.00013179698188867803
310798000000,313,310798000000,BR_wheel_link,-0.020795255898617877,2.068190025483897,10.242799895569327,-0.06692539711555347,0.00243301131813086,-0.0005958125383747836
310799000000,314,310799000000,BR_wheel_link,0.0041628825406650255,-0.002406899422466277,-0.003691861962094849,-0.0001540817623599112,-0.0005412992558113546,0.00012939239374333425
310800000000,315,310800000000,BR_wheel_link,0.01304103518058434,1.7377314529489252,8.546975959988462,-0.054535232153445176,-0.0014170279587367267,0.00035047662303302395
310801000000,316,310801000000,BR_wheel_link,0.004210766906136854,-0.003140111134804979,-0.004521283831644324,-0.0001837478165467569,-0.0005411728018923334,0.00013190671112911476
310802000000,317,310802000000,BR_wheel_link,-0.02118537196572073,2.0931749568769833,10.245494225129764,-0.06408914110888742,0.0024761156946181227,-0.0006056650685628704
310803000000,318,310803000000,BR_wheel_link,0.004149591162270751,-0.002240702192136503,-0.0035986481118142023,-0.00013698210261265956,-0.0005393724224874744,0.00012902231218108037
310804000000,319,310804000000,BR_wheel_link,0.01287968049279938,1.7637522907676741,8.562999565534838,-0.051984906614255054,-0.0014033625399241807,0.0003459766361852082
310805000000,320,310805000000,BR_wheel_link,0.004211424801235314,-0.0029955809848358755,-0.004438139221405968,-0.0001690013568361816,-0.000540806832449462,0.00013199562184547083
310806000000,321,310806000000,BR_wheel_link,-0.021481571885704036,2.1180618317717825,10.247919893679219,-0.06125478713278076,0.002508233302511061,-0.0006132771734479487
310807000000,322,310807000000,BR_wheel_link,0.004140128451056689,-0.0020787815918874002,-0.003510541223174452,-0.0001201557755205642,-0.0005379411415026343,0.0001287544759698429
310808000000,323,310808000000,BR_wheel_link,0.012676830599114472,1.789910573401353,8.579046338050816,-0.04942059128671867,-0.0013856125575292685,0.00034032526064313196
310809000000,324,310809000000,BR_wheel_link,0.004210371161825022,-0.0028490698858798518,-0.004353449156351462,-0.00015408516537211497,-0.0005402151695520387,0.00013202840061326548
310810000000,325,310810000000,BR_wheel_link,-0.021726141406474483,2.1428760850437603,10.250167079969714,-0.05842345553151492,0.0025350364415622443,-0.0006195398287284473
310811000000,326,310811000000,BR_wheel_link,0.004132966714009458,-0.001920325582680324,-0.0034263321593506007,-0.00010358717777352403,-0.0005367835628059727,0.00012855428654667196
310812000000,327,310812000000,BR_wheel_link,0.012439714309286075,1.8161804669003516,8.595055977306416,-0.04684349444242489,-0.0013642820782469923,0.00033376776223591133
310813000000,328,310813000000,BR_wheel_link,0.004207880409944447,-0.002701185534604087,-0.004268013631199052,-0.0001390561026916906,-0.0005394294933110243,0.00013201709270995666
310814000000,329,310814000000,BR_wheel_link,-0.021933045309290085,2.167648704506759,10.252291549651419,-0.05559354113007243,0.002558007108585176,-0.000624802846773482
310815000000,330,310815000000,BR_wheel_link,0.00412751860511341,-0.0017642463332788317,-0.0033453117099507316,-8.71923236796269e-05,-0.0005358301818361201,0.00012840529323065018
310816000000,331,310816000000,BR_wheel_link,0.012201330659739693,1.8426029609011507,8.6110099000511,-0.04424727526169857,-0.0013440235025538824,0.00032700404780604947
310817000000,332,310817000000,BR_wheel_link,0.004201744910836251,-0.0025557701627396006,-0.0041820741861812285,-0.00012437757984911708,-0.0005380803390523699,0.0001319210456371505
310818000000,333,310818000000,BR_wheel_link,-0.022132488352475308,2.1923679419868245,10.25431367619251,-0.05276784954086304,0.002581110246377919,-0.0006297328374470439
310819000000,334,310819000000,BR_wheel_link,0.0041226084369261244,-0.0016109558690078,-0.003267348042696788,-7.105100133655175e-05,-0.0005349174135197936,0.00012827833810740238
310820000000,335,310820000000,BR_wheel_link,0.011953236552094184,1.8691373571277938,8.62685960022782,-0.0416355904133653,-0.0013233983808026888,0.00031989671709746974
310821000000,336,310821000000,BR_wheel_link,0.004192775172850484,-0.002412222577529932,-0.004096429295543842,-0.00010996046939317534,-0.0005363029133106813,0.00013175809828159404
310822000000,337,310822000000,BR_wheel_link,-0.022328087920628036,2.2170540540748456,10.256259217947308,-0.04994475208698572,0.002604453943425446,-0.0006344643131578584
310823000000,338,310823000000,BR_wheel_link,0.004118039558742109,-0.0014596775488693013,-0.003192139021063455,-5.5093297020139484e-05,-0.0005340322470422872,0.00012816574456542097
310824000000,339,310824000000,BR_wheel_link,0.011680816132617754,1.8957624230742876,8.642590002966536,-0.03901016870718004,-0.0013008871427644634,0.0003119252755121478
310825000000,340,310825000000,BR_wheel_link,0.004181539636354902,-0.002270248582556268,-0.004010942281722318,-9.580239226655102e-05,-0.0005341628707397492,0.00013155228896646998
310826000000,341,310826000000,BR_wheel_link,-0.022516249531737205,2.241724567765817,10.258144246481738,-0.04712290651689604,0.0026276593978106326,-0.0006388408123243001
310827000000,342,310827000000,BR_wheel_link,0.004114024412879223,-0.0013097425318270197,-0.0031196180816880827,-3.925167800317076e-05,-0.0005332024719108998,0.0001280759854628892
310828000000,343,310828000000,BR_wheel_link,0.011371207787525896,1.922378809132677,8.658119422301116,-0.03638194034650114,-0.0012729985382013307,0.0003032566245717343
310829000000,344,310829000000,BR_wheel_link,0.0041727480836641516,-0.002124507739926608,-0.003928034692477571,-8.105979049457976e-05,-0.0005324380858522319,0.00013139148467144338
310830000000,345,310830000000,BR_wheel_link,-0.022671485498130348,2.266444000255417,10.260007737348174,-0.04429469807457913,0.00264636890664585,-0.0006424977204567513
310831000000,346,310831000000,BR_wheel_link,0.004111278608682424,-0.0011588708668886427,-0.0030488120210626414,-2.326957895550107e-05,-0.0005325599394451707,0.0001280176973297496
310832000000,347,310832000000,BR_wheel_link,0.011045118988448484,1.9489981652851969,8.673452591530664,-0.03374938732818228,-0.0012421507896721352,0.00029443712461341403
310833000000,348,310833000000,BR_wheel_link,0.0041673309486461195,-0.0019740155216549167,-0.003847862457399954,-6.566266423495016e-05,-0.0005312847482217658,0.0001312873233006166
310834000000,349,310834000000,BR_wheel_link,-0.02279656873426273,2.2912247217265094,10.261885308658032,-0.04145940214100239,0.00266068131774788,-0.0006456060746061146
310835000000,350,310835000000,BR_wheel_link,0.004109629250549188,-0.0010071100479612457,-0.0029786668471290098,-7.144537810307587e-06,-0.0005320746510281867,0.0001279825018640312
