%time,field.header.seq,field.header.stamp,field.header.frame_id,field.orientation.x,field.orientation.y,field.orientation.z,field.orientation.w,field.orientation_covariance0,field.orientation_covariance1,field.orientation_covariance2,field.orientation_covariance3,field.orientation_covariance4,field.orientation_covariance5,field.orientation_covariance6,field.orientation_covariance7,field.orientation_covariance8,field.angular_velocity.x,field.angular_velocity.y,field.angular_velocity.z,field.angular_velocity_covariance0,field.angular_velocity_covariance1,field.angular_velocity_covariance2,field.angular_velocity_covariance3,field.angular_velocity_covariance4,field.angular_velocity_covariance5,field.angular_velocity_covariance6,field.angular_velocity_covariance7,field.angular_velocity_covariance8,field.linear_acceleration.x,field.linear_acceleration.y,field.linear_acceleration.z,field.linear_acceleration_covariance0,field.linear_acceleration_covariance1,field.linear_acceleration_covariance2,field.linear_acceleration_covariance3,field.linear_acceleration_covariance4,field.linear_acceleration_covariance5,field.linear_acceleration_covariance6,field.linear_acceleration_covariance7,field.linear_acceleration_covariance8
310493000000,0,310484000000,base_link,-0.00031451848145726356,-7.046369934861808e-06,-0.0018218499716498384,0.999998290944117,0.0,0.0,0.0,0.0,0.0,0.0,0.0,0.0,0.0,0.0029198071957871924,-0.01947407620096728,-0.0019287098677993582,0.0,0.0,0.0,0.0,0.0,0.0,0.0,0.0,0.0,-2.746736729757281,-0.03567657561845166,7.386894850128817,0.0,0.0,0.0,0.0,0.0,0.0,0.0,0.0,0.0
310493000000,1,310485000000,base_link,-0.00031451848145726356,-7.046369934861808e-06,-0.0018218499716498384,0.999998290944117,0.0,0.0,0.0,0.0,0.0,0.0,0.0,0.0,0.0,0.0029198071957871924,-0.01947407620096728,-0.0019287098677993582,0.0,0.0,0.0,0.0,0.0,0.0,0.0,0.0,0.0,-2.746736729757281,-0.03567657561845166,7.386894850128817,0.0,0.0,0.0,0.0,0.0,0.0,0.0,0.0,0.0
310493000000,2,310487000000,base_link,-0.00031590541974983787,6.447188231102994e-06,-0.0018245669186828576,0.9999982855574098,0.0,0.0,0.0,0.0,0.0,0.0,0.0,0.0,0.0,-0.0015491208923936795,0.035378660672599184,-0.0017694879560182885,0.0,0.0,0.0,0.0,0.0,0.0,0.0,0.0,0.0,3.7723310588518078,-0.038133480357400024,11.537593245502693,0.0,0.0,0.0,0.0,0.0,0.0,0.0,0.0,0.0
310493000000,3,310488000000,base_link,-0.00031590541974983787,6.447188231102994e-06,-0.0018245669186828576,0.9999982855574098,0.0,0.0,0.0,0.0,0.0,0.0,0.0,0.0,0.0,-0.0015491208923936795,0.035378660672599184,-0.0017694879560182885,0.0,0.0,0.0,0.0,0.0,0.0,0.0,0.0,0.0,3.7723310588518078,-0.038133480357400024,11.537593245502693,0.0,0.0,0.0,0.0,0.0,0.0,0.0,0.0,0.0
310493000000,4,310489000000,base_link,-0.00031595398867114533,9.876505303444232e-06,-0.0018249885161327052,0.9999982847447529,0.0,0.0,0.0,0.0,0.0,0.0,0.0,0.0,0.0,-0.0013012225996460055,0.03236851671830319,-0.001547208649987118,0.0,0.0,0.0,0.0,0.0,0.0,0.0,0.0,0.0,3.056943560404424,0.07380227151797637,8.7876179855868,0.0,0.0,0.0,0.0,0.0,0.0,0.0,0.0,0.0
310493000000,5,310490000000,base_link,-0.0003153908482001383,-9.80193476537944e-06,-0.0018247136128276783,0.9999982854249132,0.0,0.0,0.0,0.0,0.0,0.0,0.0,0.0,0.0,0.001198039621324717,-0.03935584789038104,0.0005376425466426208,0.0,0.0,0.0,0.0,0.0,0.0,0.0,0.0,0.0,-3.656915792430028,-0.1130161760435001,10.686342835359222,0.0,0.0,0.0,0.0,0.0,0.0,0.0,0.0,0.0
310493000000,6,310491000000,base_link,-0.00031601202096579503,7.055849511983632e-06,-0.0018254215904203212,0.999998283959845,0.0,0.0,0.0,0.0,0.0,0.0,0.0,0.0,0.0,-0.001303867105294044,0.03371446195299997,-0.0014069160334694807,0.0,0.0,0.0,0.0,0.0,0.0,0.0,0.0,0.0,3.5951633656787902,0.021834958267602053,10.767541923900318,0.0,0.0,0.0,0.0,0.0,0.0,0.0,0.0,0.0
310493000000,7,310492000000,base_link,-0.0003154658494869754,-6.858947181502404e-06,-0.0018250124774543968,0.999998284880384,0.0,0.0,0.0,0.0,0.0,0.0,0.0,0.0,0.0,0.00114291262868162,-0.027828945473102773,0.0008106672549464414,0.0,0.0,0.0,0.0,0.0,0.0,0.0,0.0,0.0,-2.973830209865064,-0.04650617172309206,8.985559556365502,0.0,0.0,0.0,0.0,0.0,0.0,0.0,0.0,0.0
310494000000,8,310493000000,base_link,-0.0003154658494869754,-6.858947181502404e-06,-0.0018250124774543968,0.999998284880384,0.0,0.0,0.0,0.0,0.0,0.0,0.0,0.0,0.0,0.00114291262868162,-0.027828945473102773,0.0008106672549464414,0.0,0.0,0.0,0.0,0.0,0.0,0.0,0.0,0.0,-2.973830209865064,-0.04650617172309206,8.985559556365502,0.0,0.0,0.0,0.0,0.0,0.0,0.0,0.0,0.0
310495000000,9,310494000000,base_link,-0.00031519417025343367,-2.7390098067889566e-08,-0.0018250335741001197,0.9999982849510732,0.0,0.0,0.0,0.0,0.0,0.0,0.0,0.0,0.0,0.0024202297122814494,-0.018154838634091026,0.0015571890960595512,0.0,0.0,0.0,0.0,0.0,0.0,0.0,0.0,0.0,-2.671072518354054,-0.44942511386309025,13.323854035957883,0.0,0.0,0.0,0.0,0.0,0.0,0.0,0.0,0.0
310496000000,10,310495000000,base_link,-0.00031529191209175145,5.936668808040076e-06,-0.0018252874457520395,0.9999982844392817,0.0,0.0,0.0,0.0,0.0,0.0,0.0,0.0,0.0,-0.0002172828227003376,0.011928047782505885,-0.0005040596175729023,0.0,0.0,0.0,0.0,0.0,0.0,0.0,0.0,0.0,2.093518483421533,0.35257826026745065,5.239596345547039,0.0,0.0,0.0,0.0,0.0,0.0,0.0,0.0,0.0
310497000000,11,310496000000,base_link,-0.0003156972865357,1.388023188994327e-07,-0.0018280450558242794,0.9999982792917584,0.0,0.0,0.0,0.0,0.0,0.0,0.0,0.0,0.0,-0.0007895087451732331,-0.011595468255048761,-0.005518698361634837,0.0,0.0,0.0,0.0,0.0,0.0,0.0,0.0,0.0,-2.6710964110814643,-0.19452566242660818,13.754858351218708,0.0,0.0,0.0,0.0,0.0,0.0,0.0,0.0,0.0
310498000000,12,310497000000,base_link,-0.00031592512294887124,-5.35840359949645e-06,-0.0018306107530938849,0.9999982745119489,0.0,0.0,0.0,0.0,0.0,0.0,0.0,0.0,0.0,-0.00043557606776697564,-0.010993605940617488,-0.005134874154319801,0.0,0.0,0.0,0.0,0.0,0.0,0.0,0.0,0.0,-0.061162973167672774,0.0349570659602245,0.017544549831132628,0.0,0.0,0.0,0.0,0.0,0.0,0.0,0.0,0.0
310499000000,13,310498000000,base_link,-0.00031592512294887124,-5.35840359949645e-06,-0.0018306107530938849,0.9999982745119489,0.0,0.0,0.0,0.0,0.0,0.0,0.0,0.0,0.0,-0.00043557606776697564,-0.010993605940617488,-0.005134874154319801,0.0,0.0,0.0,0.0,0.0,0.0,0.0,0.0,0.0,-0.061162973167672774,0.0349570659602245,0.017544549831132628,0.0,0.0,0.0,0.0,0.0,0.0,0.0,0.0,0.0
310501000000,14,310500000000,base_link,-0.0003143385127487381,3.4923313037784095e-07,-0.0018302744685452668,0.999998275641787,0.0,0.0,0.0,0.0,0.0,0.0,0.0,0.0,0.0,0.0002606379608188888,0.0011934943868621626,0.0015049292367679552,0.0,0.0,0.0,0.0,0.0,0.0,0.0,0.0,0.0,1.2682882564148787,-0.13049733719503653,10.167685640572092,0.0,0.0,0.0,0.0,0.0,0.0,0.0,0.0,0.0
310502000000,15,310501000000,base_link,-0.0003145495268520491,-1.3002410110474936e-05,-0.0018289036059970986,0.9999982779990837,0.0,0.0,0.0,0.0,0.0,0.0,0.0,0.0,0.0,-0.00037315379239977935,-0.026704873447231735,0.002733344529842381,0.0,0.0,0.0,0.0,0.0,0.0,0.0,0.0,0.0,-2.3995147749091315,0.17046124116022912,5.45455014478353,0.0,0.0,0.0,0.0,0.0,0.0,0.0,0.0,0.0
310503000000,16,310502000000,base_link,-0.0003148467673875195,1.4758653431818795e-05,-0.00183090297515665,0.9999982742225063,0.0,0.0,0.0,0.0,0.0,0.0,0.0,0.0,0.0,-0.0006958437494430727,0.05552358495851005,-0.003980235565982976,0.0,0.0,0.0,0.0,0.0,0.0,0.0,0.0,0.0,5.015842781409792,-0.03763649874226883,13.3680728791503,0.0,0.0,0.0,0.0,0.0,0.0,0.0,0.0,0.0
310504000000,17,310503000000,base_link,-0.00031500430077994297,-3.951711454561975e-06,-0.0018300557530705186,0.9999982758248214,0.0,0.0,0.0,0.0,0.0,0.0,0.0,0.0,0.0,-0.000246355378513503,-0.03742607156256065,0.0016785763699264996,0.0,0.0,0.0,0.0,0.0,0.0,0.0,0.0,0.0,-4.289815314739859,-0.014880657478620767,13.304963029451061,0.0,0.0,0.0,0.0,0.0,0.0,0.0,0.0,0.0
310505000000,18,310504000000,base_link,-0.00031500430077994297,-3.951711454561975e-06,-0.0018300557530705186,0.9999982758248214,0.0,0.0,0.0,0.0,0.0,0.0,0.0,0.0,0.0,-0.000246355378513503,-0.03742607156256065,0.0016785763699264996,0.0,0.0,0.0,0.0,0.0,0.0,0.0,0.0,0.0,-4.289815314739859,-0.014880657478620767,13.304963029451061,0.0,0.0,0.0,0.0,0.0,0.0,0.0,0.0,0.0
310506000000,19,310505000000,base_link,-0.0003152604157165535,-1.9878021295228237e-06,-0.0018300251501634076,0.999998275805948,0.0,0.0,0.0,0.0,0.0,0.0,0.0,0.0,0.0,0.0016051326387759115,-0.016786496343628096,0.0018781044494596245,0.0,0.0,0.0,0.0,0.0,0.0,0.0,0.0,0.0,-3.7624776097380948,-0.250901384771651,7.946293239925354,0.0,0.0,0.0,0.0,0.0,0.0,0.0,0.0,0.0
310507000000,20,310506000000,base_link,-0.0003152604157165535,-1.9878021295228237e-06,-0.0018300251501634076,0.999998275805948,0.0,0.0,0.0,0.0,0.0,0.0,0.0,0.0,0.0,0.0016051326387759115,-0.016786496343628096,0.0018781044494596245,0.0,0.0,0.0,0.0,0.0,0.0,0.0,0.0,0.0,-3.7624776097380948,-0.250901384771651,7.946293239925354,0.0,0.0,0.0,0.0,0.0,0.0,0.0,0.0,0.0
310509000000,21,310508000000,base_link,-0.00031364933647728467,1.6850784800910876e-06,-0.001827120275840789,0.9999982816248995,0.0,0.0,0.0,0.0,0.0,0.0,0.0,0.0,0.0,0.002187015610257748,-0.00687371419377471,0.0012143839930415087,0.0,0.0,0.0,0.0,0.0,0.0,0.0,0.0,0.0,-1.1036540480442787,0.043556930362137807,25.732193629897644,0.0,0.0,0.0,0.0,0.0,0.0,0.0,0.0,0.0
310510000000,22,310509000000,base_link,-0.00031239853578979624,-1.592252621967069e-06,-0.0018265708778620248,0.99999828302025,0.0,0.0,0.0,0.0,0.0,0.0,0.0,0.0,0.0,0.0025135722562617223,-0.006550424855520528,0.001096747518281946,0.0,0.0,0.0,0.0,0.0,0.0,0.0,0.0,0.0,-0.03288589427109242,0.02136612073110375,-0.004075339154427482,0.0,0.0,0.0,0.0,0.0,0.0,0.0,0.0,0.0
310511000000,23,310510000000,base_link,-0.00031389340851731626,1.2023758903008556e-06,-0.0018275111875155656,0.9999982808346931,0.0,0.0,0.0,0.0,0.0,0.0,0.0,0.0,0.0,-0.003002119237024432,0.005592818537577654,-0.0018776925160972028,0.0,0.0,0.0,0.0,0.0,0.0,0.0,0.0,0.0,0.7530280248562562,0.9312055197797241,13.797657129248682,0.0,0.0,0.0,0.0,0.0,0.0,0.0,0.0,0.0
310512000000,24,310511000000,base_link,-0.00032551145278870205,9.317641483096799e-06,-0.0018280228398062507,0.9999982761425006,0.0,0.0,0.0,0.0,0.0,0.0,0.0,0.0,0.0,-0.02326571243474205,0.01618835933807861,-0.0010182524186677932,0.0,0.0,0.0,0.0,0.0,0.0,0.0,0.0,0.0,0.8262462398394075,0.8046761719719694,1.9501984662250944,0.0,0.0,0.0,0.0,0.0,0.0,0.0,0.0,0.0
310513000000,25,310513000000,base_link,-0.0003112433708774772,-1.3038885515152285e-06,-0.0018259637666780755,0.9999982844896218,0.0,0.0,0.0,0.0,0.0,0.0,0.0,0.0,0.0,0.025778791790884114,-0.01641410107334194,0.0014312538490190605,0.0,0.0,0.0,0.0,0.0,0.0,0.0,0.0,0.0,-2.8208138255318405,-3.1196357314628775,21.507830526269842,0.0,0.0,0.0,0.0,0.0,0.0,0.0,0.0,0.0
310515000000,26,310515000000,base_link,-0.00029539217310239646,-5.518956478989511e-07,-0.001825306032270281,0.999998290499063,0.0,0.0,0.0,0.0,0.0,0.0,0.0,0.0,0.0,0.039348936854097336,-0.0003214411973607045,0.0006928094074050515,0.0,0.0,0.0,0.0,0.0,0.0,0.0,0.0,0.0,0.6010149558098032,-1.2048431958748196,4.5849213103585615,0.0,0.0,0.0,0.0,0.0,0.0,0.0,0.0,0.0
310517000000,27,310516000000,base_link,-0.00033074308215851126,3.830211276020315e-07,-0.001824753044934684,0.9999982804411176,0.0,0.0,0.0,0.0,0.0,0.0,0.0,0.0,0.0,-0.07070623994446507,0.0017404555346427469,0.0011064029183387265,0.0,0.0,0.0,0.0,0.0,0.0,0.0,0.0,0.0,0.21903762321844536,6.043684407796493,13.317811730896487,0.0,0.0,0.0,0.0,0.0,0.0,0.0,0.0,0.0
310519000000,28,310518000000,base_link,-0.000314812838791462,7.393348137190754e-07,-0.001815927235258407,0.9999983016488609,0.0,0.0,0.0,0.0,0.0,0.0,0.0,0.0,0.0,-0.012529171245377306,0.0004177318311164182,0.005916049806600049,0.0,0.0,0.0,0.0,0.0,0.0,0.0,0.0,0.0,0.0035401573549040622,0.08801500069744556,-0.03734495803451843,0.0,0.0,0.0,0.0,0.0,0.0,0.0,0.0,0.0
310520000000,29,310519000000,base_link,-0.000309802686008957,1.4261437928666446e-07,-0.0018147255979185507,0.9999983053952041,0.0,0.0,0.0,0.0,0.0,0.0,0.0,0.0,0.0,0.010014591889204685,-0.0011720752077991272,0.0024047963096886604,0.0,0.0,0.0,0.0,0.0,0.0,0.0,0.0,0.0,-0.007427512752706039,-0.6336654847225696,21.35040209526437,0.0,0.0,0.0,0.0,0.0,0.0,0.0,0.0,0.0
310521000000,30,310520000000,base_link,-0.00030940617658858466,-1.40299950579809e-07,-0.0018148926067937954,0.999998305214876,0.0,0.0,0.0,0.0,0.0,0.0,0.0,0.0,0.0,0.0007928947515100594,-0.0005636584267270122,-0.00033729900080987755,0.0,0.0,0.0,0.0,0.0,0.0,0.0,0.0,0.0,0.26868475414934123,0.9898595893195107,4.2019001268745955,0.0,0.0,0.0,0.0,0.0,0.0,0.0,0.0,0.0
310522000000,31,310521000000,base_link,-0.00030886367640089627,-4.531897362749537e-07,-0.001815048653188185,0.9999983050992689,0.0,0.0,0.0,0.0,0.0,0.0,0.0,0.0,0.0,0.0010861341439264139,-0.0006237127882647943,-0.00031228645176836756,0.0,0.0,0.0,0.0,0.0,0.0,0.0,0.0,0.0,0.008983826141184464,0.02637109275910432,-0.0021893994133428407,0.0,0.0,0.0,0.0,0.0,0.0,0.0,0.0,0.0
310522000000,32,310522000000,base_link,-0.00030886367640089627,-4.531897362749537e-07,-0.001815048653188185,0.9999983050992689,0.0,0.0,0.0,0.0,0.0,0.0,0.0,0.0,0.0,0.0010861341439264139,-0.0006237127882647943,-0.00031228645176836756,0.0,0.0,0.0,0.0,0.0,0.0,0.0,0.0,0.0,0.008983826141184464,0.02637109275910432,-0.0021893994133428407,0.0,0.0,0.0,0.0,0.0,0.0,0.0,0.0,0.0
310524000000,33,310524000000,base_link,-0.00030997525908994653,-2.6155016988387336e-07,-0.0018152411852595282,0.9999983044059174,0.0,0.0,0.0,0.0,0.0,0.0,0.0,0.0,0.0,-0.0007965808102137991,0.00012055436900647295,-0.0001861301090317003,0.0,0.0,0.0,0.0,0.0,0.0,0.0,0.0,0.0,0.008798346973515576,0.06263964400353085,14.530936609214631,0.0,0.0,0.0,0.0,0.0,0.0,0.0,0.0,0.0
310527000000,34,310526000000,base_link,-0.0003120942083578494,-2.3515999359428742e-06,-0.0018173074193507687,0.9999982999912643,0.0,0.0,0.0,0.0,0.0,0.0,0.0,0.0,0.0,0.016667766154581893,-0.014895081870740692,0.0005813931270417711,0.0,0.0,0.0,0.0,0.0,0.0,0.0,0.0,0.0,-2.190020282187138,-2.645636883693334,22.524314972094537,0.0,0.0,0.0,0.0,0.0,0.0,0.0,0.0,0.0
310528000000,35,310527000000,base_link,-0.0003120942083578494,-2.3515999359428742e-06,-0.0018173074193507687,0.9999982999912643,0.0,0.0,0.0,0.0,0.0,0.0,0.0,0.0,0.0,0.016667766154581893,-0.014895081870740692,0.0005813931270417711,0.0,0.0,0.0,0.0,0.0,0.0,0.0,0.0,0.0,-2.190020282187138,-2.645636883693334,22.524314972094537,0.0,0.0,0.0,0.0,0.0,0.0,0.0,0.0,0.0
310529000000,36,310528000000,base_link,-0.000307456894510963,-2.884992695564714e-06,-0.0018173835685687144,0.9999983012880069,0.0,0.0,0.0,0.0,0.0,0.0,0.0,0.0,0.0,-0.0052895891001749455,0.012854104524873476,-0.0009352094835809657,0.0,0.0,0.0,0.0,0.0,0.0,0.0,0.0,0.0,2.493496841194664,1.7851524574020725,15.960384497184346,0.0,0.0,0.0,0.0,0.0,0.0,0.0,0.0,0.0
310530000000,37,310529000000,base_link,-0.00030987172462108306,3.3408217545806193e-06,-0.001817813370813246,0.9999982997600058,0.0,0.0,0.0,0.0,0.0,0.0,0.0,0.0,0.0,-0.0048522848214539935,0.012443094686222025,-0.0008557663101022353,0.0,0.0,0.0,0.0,0.0,0.0,0.0,0.0,0.0,0.043108874262961526,0.029881160368158424,0.007830857951057979,0.0,0.0,0.0,0.0,0.0,0.0,0.0,0.0,0.0
310531000000,38,310530000000,base_link,-0.00030987172462108306,3.3408217545806193e-06,-0.001817813370813246,0.9999982997600058,0.0,0.0,0.0,0.0,0.0,0.0,0.0,0.0,0.0,-0.0048522848214539935,0.012443094686222025,-0.0008557663101022353,0.0,0.0,0.0,0.0,0.0,0.0,0.0,0.0,0.0,0.043108874262961526,0.029881160368158424,0.007830857951057979,0.0,0.0,0.0,0.0,0.0,0.0,0.0,0.0,0.0
310533000000,39,310532000000,base_link,-0.0003097231636464876,-1.5303831655149518e-06,-0.0018168889330732474,0.9999983014904699,0.0,0.0,0.0,0.0,0.0,0.0,0.0,0.0,0.0,-0.0008846166394842289,-0.000611761301622957,0.0013471774800816567,0.0,0.0,0.0,0.0,0.0,0.0,0.0,0.0,0.0,-0.7436857585810926,-0.08598839047444753,13.177204432471196,0.0,0.0,0.0,0.0,0.0,0.0,0.0,0.0,0.0
310535000000,40,310534000000,base_link,-0.0003175201552446396,-4.267335428865021e-06,-0.0018166424541342413,0.9999982994850215,0.0,0.0,0.0,0.0,0.0,0.0,0.0,0.0,0.0,-0.01890392375669212,-0.007866828530079454,-0.0012693505943796037,0.0,0.0,0.0,0.0,0.0,0.0,0.0,0.0,0.0,-0.03383100262848313,0.11039238867975022,-0.020943645665425947,0.0,0.0,0.0,0.0,0.0,0.0,0.0,0.0,0.0
310536000000,41,310535000000,base_link,-0.0003175201552446396,-4.267335428865021e-06,-0.0018166424541342413,0.9999982994850215,0.0,0.0,0.0,0.0,0.0,0.0,0.0,0.0,0.0,-0.01890392375669212,-0.007866828530079454,-0.0012693505943796037,0.0,0.0,0.0,0.0,0.0,0.0,0.0,0.0,0.0,-0.03383100262848313,0.11039238867975022,-0.020943645665425947,0.0,0.0,0.0,0.0,0.0,0.0,0.0,0.0,0.0
310537000000,42,310536000000,base_link,-0.000309604051197449,-5.598253350632517e-07,-0.0018132373471304315,0.9999983081562395,0.0,0.0,0.0,0.0,0.0,0.0,0.0,0.0,0.0,0.015819875948679406,0.007443449795133636,0.006814146832198624,0.0,0.0,0.0,0.0,0.0,0.0,0.0,0.0,0.0,1.3384201435948908,-2.8300079722695943,16.300449398362694,0.0,0.0,0.0,0.0,0.0,0.0,0.0,0.0,0.0
310538000000,43,310537000000,base_link,-0.0003084701482830648,-2.9443846258289977e-07,-0.001811972653216873,0.9999983107991658,0.0,0.0,0.0,0.0,0.0,0.0,0.0,0.0,0.0,-0.02387252118389305,0.0058502998177902225,0.001162978910984412,0.0,0.0,0.0,0.0,0.0,0.0,0.0,0.0,0.0,0.24457548570272925,3.60080451321585,20.12685047630322,0.0,0.0,0.0,0.0,0.0,0.0,0.0,0.0,0.0
310539000000,44,310538000000,base_link,-0.0003186364098190561,2.4419802258126386e-06,-0.0018114938925435366,0.9999983084759457,0.0,0.0,0.0,0.0,0.0,0.0,0.0,0.0,0.0,-0.0203424065104166,0.00543569078847426,0.000959205503691581,0.0,0.0,0.0,0.0,0.0,0.0,0.0,0.0,0.0,0.03021143055477719,0.10901920255914696,0.0023193777875665234,0.0,0.0,0.0,0.0,0.0,0.0,0.0,0.0,0.0
310540000000,45,310539000000,base_link,-0.0003186364098190561,2.4419802258126386e-06,-0.0018114938925435366,0.9999983084759457,0.0,0.0,0.0,0.0,0.0,0.0,0.0,0.0,0.0,-0.0203424065104166,0.00543569078847426,0.000959205503691581,0.0,0.0,0.0,0.0,0.0,0.0,0.0,0.0,0.0,0.03021143055477719,0.10901920255914696,0.0023193777875665234,0.0,0.0,0.0,0.0,0.0,0.0,0.0,0.0,0.0
310541000000,46,310540000000,base_link,-0.0003110814558120802,-1.1289047953992967e-06,-0.0018104791864518113,0.999998312694661,0.0,0.0,0.0,0.0,0.0,0.0,0.0,0.0,0.0,0.015127570137193702,-0.007118182990125721,0.0020302266880241238,0.0,0.0,0.0,0.0,0.0,0.0,0.0,0.0,0.0,-1.0314312600586675,-2.705544537497176,18.891250345761595,0.0,0.0,0.0,0.0,0.0,0.0,0.0,0.0,0.0
310543000000,47,310542000000,base_link,-0.0003169751064800486,-6.937434376443219e-07,-0.001816222816616684,0.9999983004290464,0.0,0.0,0.0,0.0,0.0,0.0,0.0,0.0,0.0,-0.017643771090124025,0.0005760357266783203,-0.006408607780999912,0.0,0.0,0.0,0.0,0.0,0.0,0.0,0.0,0.0,0.004366484958347555,0.08524367443503388,0.0010515211619654963,0.0,0.0,0.0,0.0,0.0,0.0,0.0,0.0,0.0
310544000000,48,310544000000,base_link,-0.000309698213420112,-1.067057141709195e-06,-0.0018173251100057147,0.9999983007062175,0.0,0.0,0.0,0.0,0.0,0.0,0.0,0.0,0.0,0.014544952206004713,-0.000712350588907496,-0.0021958728684796248,0.0,0.0,0.0,0.0,0.0,0.0,0.0,0.0,0.0,-0.220162369882399,-1.8724591025543134,21.60554394952221,0.0,0.0,0.0,0.0,0.0,0.0,0.0,0.0,0.0
310547000000,49,310547000000,base_link,-0.00030991246421431057,1.2455843765374982e-06,-0.001815143501115177,0.9999983046019547,0.0,0.0,0.0,0.0,0.0,0.0,0.0,0.0,0.0,0.02464134523932786,0.01575862742398677,-0.0014571501834585155,0.0,0.0,0.0,0.0,0.0,0.0,0.0,0.0,0.0,1.868969492490088,-2.482925245492533,22.819435882267214,0.0,0.0,0.0,0.0,0.0,0.0,0.0,0.0,0.0
310550000000,50,310549000000,base_link,-0.0003132488759181876,-1.9022435707698372e-06,-0.0018193520510898333,0.9999982959133668,0.0,0.0,0.0,0.0,0.0,0.0,0.0,0.0,0.0,-0.015331901437205161,-0.00658071836165887,-0.001963141843577372,0.0,0.0,0.0,0.0,0.0,0.0,0.0,0.0,0.0,-0.020701772304064954,0.07932510563794767,0.019427391024359864,0.0,0.0,0.0,0.0,0.0,0.0,0.0,0.0,0.0
310551000000,51,310550000000,base_link,-0.00030674579367831397,-4.8539716481411254e-08,-0.0018194138370759216,0.9999982978187039,0.0,0.0,0.0,0.0,0.0,0.0,0.0,0.0,0.0,0.0129992506022643,0.0037319862505318336,-0.0001225696557359023,0.0,0.0,0.0,0.0,0.0,0.0,0.0,0.0,0.0,0.4510313610334349,-1.7304938604986109,23.949781975585232,0.0,0.0,0.0,0.0,0.0,0.0,0.0,0.0,0.0
310552000000,52,310551000000,base_link,-0.0003069392480480318,-2.2460921730122772e-07,-0.0018198655196732974,0.9999982969374188,0.0,0.0,0.0,0.0,0.0,0.0,0.0,0.0,0.0,-0.0003866074201790584,-0.0003525674044528247,-0.00090292899534941,0.0,0.0,0.0,0.0,0.0,0.0,0.0,0.0,0.0,0.09876199155283621,0.6660539636429378,3.2131703986535642,0.0,0.0,0.0,0.0,0.0,0.0,0.0,0.0,0.0
310553000000,53,310552000000,base_link,-0.0003069392480480318,-2.2460921730122772e-07,-0.0018198655196732974,0.9999982969374188,0.0,0.0,0.0,0.0,0.0,0.0,0.0,0.0,0.0,-0.0003866074201790584,-0.0003525674044528247,-0.00090292899534941,0.0,0.0,0.0,0.0,0.0,0.0,0.0,0.0,0.0,0.09876199155283621,0.6660539636429378,3.2131703986535642,0.0,0.0,0.0,0.0,0.0,0.0,0.0,0.0,0.0
310554000000,54,310553000000,base_link,-0.00030709103714547545,-2.3353974921060379e-07,-0.0018204330058005007,0.9999982958579038,0.0,0.0,0.0,0.0,0.0,0.0,0.0,0.0,0.0,-0.00024178796629918987,0.0003360318016121044,-0.00028628304841549153,0.0,0.0,0.0,0.0,0.0,0.0,0.0,0.0,0.0,-0.09504541835128051,-0.23684851639439028,28.875775358968752,0.0,0.0,0.0,0.0,0.0,0.0,0.0,0.0,0.0
310555000000,55,310554000000,base_link,-0.0003069957443762361,-1.1735327964154847e-07,-0.0018205741393536687,0.9999982956302488,0.0,0.0,0.0,0.0,0.0,0.0,0.0,0.0,0.0,0.00019016198858360416,0.000232806172938377,-0.00028219613903634366,0.0,0.0,0.0,0.0,0.0,0.0,0.0,0.0,0.0,0.009753665347939176,0.023303388732709564,-0.002168794205779534,0.0,0.0,0.0,0.0,0.0,0.0,0.0,0.0,0.0
310556000000,56,310556000000,base_link,-0.0003071096340607106,-3.1242808390708243e-07,-0.0018206541909983256,0.9999982954494934,0.0,0.0,0.0,0.0,0.0,0.0,0.0,0.0,0.0,-0.00022703381897035352,-0.0003905166865385197,-0.00016022705161700587,0.0,0.0,0.0,0.0,0.0,0.0,0.0,0.0,0.0,0.035559817697328126,0.3215235646082985,10.426720294471277,0.0,0.0,0.0,0.0,0.0,0.0,0.0,0.0,0.0
310557000000,57,310557000000,base_link,-0.0003071871288473594,-5.060356957218288e-07,-0.0018207331615174606,0.9999982952818302,0.0,0.0,0.0,0.0,0.0,0.0,0.0,0.0,0.0,-0.00015428447641748337,-0.00038744824090808014,-0.00015806024866793766,0.0,0.0,0.0,0.0,0.0,0.0,0.0,0.0,0.0,0.0027462796003252547,0.013673153882457604,-0.00025486081459291654,0.0,0.0,0.0,0.0,0.0,0.0,0.0,0.0,0.0
310559000000,58,310559000000,base_link,-0.0003072280730325012,-3.615387894768119e-07,-0.0018208376568660748,0.9999982950790506,0.0,0.0,0.0,0.0,0.0,0.0,0.0,0.0,0.0,-0.000335411941478565,-0.0004566980227381003,-0.00010326549285861203,0.0,0.0,0.0,0.0,0.0,0.0,0.0,0.0,0.0,0.031314340932100754,0.2953743002435147,10.64668790908735,0.0,0.0,0.0,0.0,0.0,0.0,0.0,0.0,0.0
310561000000,59,310560000000,base_link,-0.0003073623186687573,-5.89799599186397e-07,-0.0018208873391560004,0.999998294947224,0.0,0.0,0.0,0.0,0.0,0.0,0.0,0.0,0.0,-0.0002676596799257067,-0.00045697919261236854,-9.950504969961604e-05,0.0,0.0,0.0,0.0,0.0,0.0,0.0,0.0,0.0,0.002850181173108328,0.01285163510013857,-0.00031718329069541085,0.0,0.0,0.0,0.0,0.0,0.0,0.0,0.0,0.0
310562000000,60,310561000000,base_link,-0.0003073017040601232,-3.2216351268971675e-07,-0.0018208911022957704,0.9999982949591227,0.0,0.0,0.0,0.0,0.0,0.0,0.0,0.0,0.0,0.00012022056024132069,0.0005355639593719246,-7.759994220059533e-06,0.0,0.0,0.0,0.0,0.0,0.0,0.0,0.0,0.0,-0.06046794262571117,-0.3326121182719017,28.406083828477243,0.0,0.0,0.0,0.0,0.0,0.0,0.0,0.0,0.0
310563000000,61,310562000000,base_link,-0.0003070753483458174,-1.1675228724643448e-07,-0.001820900950234563,0.9999982950107696,0.0,0.0,0.0,0.0,0.0,0.0,0.0,0.0,0.0,0.0004519626191717647,0.00041165214123982136,-1.956955532399602e-05,0.0,0.0,0.0,0.0,0.0,0.0,0.0,0.0,0.0,0.01128467141460308,0.017893261848049652,-0.0026359123492607495,0.0,0.0,0.0,0.0,0.0,0.0,0.0,0.0,0.0
310564000000,62,310563000000,base_link,-0.0003073040119091381,-3.926143503435479e-07,-0.0018209379638924285,0.9999982948730572,0.0,0.0,0.0,0.0,0.0,0.0,0.0,0.0,0.0,-0.00045630489250721645,-0.0005525343907028179,-7.419446241508717e-05,0.0,0.0,0.0,0.0,0.0,0.0,0.0,0.0,0.0,0.021013768830886532,0.30020413642731886,10.998705871004416,0.0,0.0,0.0,0.0,0.0,0.0,0.0,0.0,0.0
310565000000,63,310564000000,base_link,-0.0003073040119091381,-3.926143503435479e-07,-0.0018209379638924285,0.9999982948730572,0.0,0.0,0.0,0.0,0.0,0.0,0.0,0.0,0.0,-0.0003879857205146708,-0.0005540738340203324,-6.856546598904788e-05,0.0,0.0,0.0,0.0,0.0,0.0,0.0,0.0,0.0,0.021013768830886532,0.30020413642731886,10.998705871004416,0.0,0.0,0.0,0.0,0.0,0.0,0.0,0.0,0.0
310566000000,64,310565000000,base_link,-0.00030735534681413545,-3.4089227224293965e-07,-0.001820963120793783,0.9999982948114899,0.0,0.0,0.0,0.0,0.0,0.0,0.0,0.0,0.0,0.00028509380502333764,0.0006574472993717238,1.853568847252128e-05,0.0,0.0,0.0,0.0,0.0,0.0,0.0,0.0,0.0,-0.037430453564894675,-0.35029307878388083,27.96469186676402,0.0,0.0,0.0,0.0,0.0,0.0,0.0,0.0,0.0
310567000000,65,310566000000,base_link,-0.00030735534681413545,-3.4089227224293965e-07,-0.001820963120793783,0.9999982948114899,0.0,0.0,0.0,0.0,0.0,0.0,0.0,0.0,0.0,0.00028509380502333764,0.0006574472993717238,1.853568847252128e-05,0.0,0.0,0.0,0.0,0.0,0.0,0.0,0.0,0.0,-0.037430453564894675,-0.35029307878388083,27.96469186676402,0.0,0.0,0.0,0.0,0.0,0.0,0.0,0.0,0.0
310568000000,66,310567000000,base_link,-0.00030735081626886003,-4.18320502105735e-07,-0.0018209888551733706,0.9999982947659911,0.0,0.0,0.0,0.0,0.0,0.0,0.0,0.0,0.0,-0.0005834096936403333,-0.0006782436736343429,-5.7808403043723626e-05,0.0,0.0,0.0,0.0,0.0,0.0,0.0,0.0,0.0,-0.00031554964376337153,0.3090921942857088,11.548078484468776,0.0,0.0,0.0,0.0,0.0,0.0,0.0,0.0,0.0
310569000000,67,310569000000,base_link,-0.00030760751202544727,-7.578523725647234e-07,-0.0018210141297482815,0.9999982946408377,0.0,0.0,0.0,0.0,0.0,0.0,0.0,0.0,0.0,-0.0005121541682954252,-0.0006799819269615387,-5.075801546275457e-05,0.0,0.0,0.0,0.0,0.0,0.0,0.0,0.0,0.0,0.002802058329578388,0.013612399105638377,-0.0002653480760095306,0.0,0.0,0.0,0.0,0.0,0.0,0.0,0.0,0.0
310571000000,68,310570000000,base_link,-0.00030702752747933845,-2.4923180827221017e-08,-0.0018209708354144723,0.9999982948982029,0.0,0.0,0.0,0.0,0.0,0.0,0.0,0.0,0.0,0.0007209334052245147,0.000661525217051554,3.60229143996833e-05,0.0,0.0,0.0,0.0,0.0,0.0,0.0,0.0,0.0,0.013098873184536132,0.015393421173146493,-0.0030947569009782683,0.0,0.0,0.0,0.0,0.0,0.0,0.0,0.0,0.0
310572000000,69,310571000000,base_link,-0.00030737889567036787,-4.457256827433533e-07,-0.0018209965439268136,0.9999982947433474,0.0,0.0,0.0,0.0,0.0,0.0,0.0,0.0,0.0,-0.0007012006834334608,-0.0008428673974330047,-5.167328392263612e-05,0.0,0.0,0.0,0.0,0.0,0.0,0.0,0.0,0.0,-0.03321869397839941,0.30977477640665535,12.397904951270295,0.0,0.0,0.0,0.0,0.0,0.0,0.0,0.0,0.0
310573000000,70,310572000000,base_link,-0.00030737889567036787,-4.457256827433533e-07,-0.0018209965439268136,0.9999982947433474,0.0,0.0,0.0,0.0,0.0,0.0,0.0,0.0,0.0,-0.0007012006834334608,-0.0008428673974330047,-5.167328392263612e-05,0.0,0.0,0.0,0.0,0.0,0.0,0.0,0.0,0.0,-0.03321869397839941,0.30977477640665535,12.397904951270295,0.0,0.0,0.0,0.0,0.0,0.0,0.0,0.0,0.0
310575000000,71,310574000000,base_link,-0.00030740955298853113,-3.6910986993326265e-07,-0.0018209931951166795,0.999998294740053,0.0,0.0,0.0,0.0,0.0,0.0,0.0,0.0,0.0,0.0005639411504276079,0.000997380374958731,4.972638131939624e-05,0.0,0.0,0.0,0.0,0.0,0.0,0.0,0.0,0.0,0.015056831042223008,-0.16970927696193222,13.114763617867585,0.0,0.0,0.0,0.0,0.0,0.0,0.0,0.0,0.0
310577000000,72,310576000000,base_link,-0.00030766973992400537,-1.1145996617779998e-06,-0.0018210767936312113,0.9999982945072459,0.0,0.0,0.0,0.0,0.0,0.0,0.0,0.0,0.0,-0.0005549504696397124,-0.0011948165306306445,-9.935990037306482e-05,0.0,0.0,0.0,0.0,0.0,0.0,0.0,0.0,0.0,0.0012578943403154718,0.01279436933016815,0.008284429796015402,0.0,0.0,0.0,0.0,0.0,0.0,0.0,0.0,0.0
310578000000,73,310578000000,base_link,-0.00030751886208807346,-3.020828510597185e-07,-0.0018210703416620185,0.9999982945659802,0.0,0.0,0.0,0.0,0.0,0.0,0.0,0.0,0.0,0.00029876475573565166,0.0016255700200314793,1.2083026391191391e-05,0.0,0.0,0.0,0.0,0.0,0.0,0.0,0.0,0.0,0.10984957065575288,-0.2934385604849629,24.563315900509707,0.0,0.0,0.0,0.0,0.0,0.0,0.0,0.0,0.0
310580000000,74,310579000000,base_link,-0.00030692317583171514,-5.04895159043011e-07,-0.0018222779261307062,0.9999982925490769,0.0,0.0,0.0,0.0,0.0,0.0,0.0,0.0,0.0,-0.00769578755591899,0.0033725102243610094,-0.0017154798287553634,0.0,0.0,0.0,0.0,0.0,0.0,0.0,0.0,0.0,0.4474073433612917,1.262494875347814,14.227010435807786,0.0,0.0,0.0,0.0,0.0,0.0,0.0,0.0,0.0
310581000000,75,310580000000,base_link,-0.0003104083637267973,1.171485218774411e-06,-0.0018230163148564376,0.9999982901269339,0.0,0.0,0.0,0.0,0.0,0.0,0.0,0.0,0.0,-0.006976475783001837,0.0033405063238265836,-0.001475751198296778,0.0,0.0,0.0,0.0,0.0,0.0,0.0,0.0,0.0,0.01625809839954485,0.035918204309378074,-0.03423563211753766,0.0,0.0,0.0,0.0,0.0,0.0,0.0,0.0,0.0
310582000000,76,310581000000,base_link,-0.0003104083637267973,1.171485218774411e-06,-0.0018230163148564376,0.9999982901269339,0.0,0.0,0.0,0.0,0.0,0.0,0.0,0.0,0.0,-0.006976475783001837,0.0033405063238265836,-0.001475751198296778,0.0,0.0,0.0,0.0,0.0,0.0,0.0,0.0,0.0,0.01625809839954485,0.035918204309378074,-0.03423563211753766,0.0,0.0,0.0,0.0,0.0,0.0,0.0,0.0,0.0
310584000000,77,310583000000,base_link,-0.0003076916613551086,-4.35451090524428e-07,-0.001822924312582964,0.9999982911348412,0.0,0.0,0.0,0.0,0.0,0.0,0.0,0.0,0.0,0.0001338112284906667,-7.03276584622509e-05,0.00014715085748961938,0.0,0.0,0.0,0.0,0.0,0.0,0.0,0.0,0.0,-0.18641577270054888,-0.41017261412952616,13.564844101735709,0.0,0.0,0.0,0.0,0.0,0.0,0.0,0.0,0.0
310585000000,78,310584000000,base_link,-0.0003076368536517447,-3.9608885422953393e-07,-0.0018227452413907559,0.9999982914781377,0.0,0.0,0.0,0.0,0.0,0.0,0.0,0.0,0.0,-7.003037778352014e-05,0.0001674481521297529,0.0002102396023437776,0.0,0.0,0.0,0.0,0.0,0.0,0.0,0.0,0.0,-0.10466065954997078,-0.3514927850493153,29.253183811718337,0.0,0.0,0.0,0.0,0.0,0.0,0.0,0.0,0.0
310586000000,79,310585000000,base_link,-0.0003075045567527622,-3.694609885561622e-07,-0.0018226466747895947,0.9999982916984959,0.0,0.0,0.0,0.0,0.0,0.0,0.0,0.0,0.0,0.00026449648793266337,5.3677282180776976e-05,0.00019714994745246385,0.0,0.0,0.0,0.0,0.0,0.0,0.0,0.0,0.0,0.010053303431047803,0.018687103795661006,-0.0019500062708672772,0.0,0.0,0.0,0.0,0.0,0.0,0.0,0.0,0.0
310587000000,80,310586000000,base_link,-0.0003075045567527622,-3.694609885561622e-07,-0.0018226466747895947,0.9999982916984959,0.0,0.0,0.0,0.0,0.0,0.0,0.0,0.0,0.0,0.00026449648793266337,5.3677282180776976e-05,0.00019714994745246385,0.0,0.0,0.0,0.0,0.0,0.0,0.0,0.0,0.0,0.010053303431047803,0.018687103795661006,-0.0019500062708672772,0.0,0.0,0.0,0.0,0.0,0.0,0.0,0.0,0.0
310588000000,81,310588000000,base_link,-0.00028610617079465674,4.250689710438703e-07,-0.0018203742764631898,0.9999983021888447,0.0,0.0,0.0,0.0,0.0,0.0,0.0,0.0,0.0,0.07224454507502515,0.0024540963307249242,0.004501518340604546,0.0,0.0,0.0,0.0,0.0,0.0,0.0,0.0,0.0,0.1570702125170551,-2.3177423588514316,8.8332892230261,0.0,0.0,0.0,0.0,0.0,0.0,0.0,0.0,0.0
310589000000,82,310589000000,base_link,-0.00030435306457643767,-1.5441794770706353e-07,-0.0018203182767802066,0.9999982969038295,0.0,0.0,0.0,0.0,0.0,0.0,0.0,0.0,0.0,-0.02965428637740545,-0.00031714986330986215,0.0015962129117940733,0.0,0.0,0.0,0.0,0.0,0.0,0.0,0.0,0.0,-0.06944110654701212,5.075100509546457,17.7869100377401,0.0,0.0,0.0,0.0,0.0,0.0,0.0,0.0,0.0
310591000000,83,310590000000,base_link,-0.000304021691985059,-3.5252525185030226e-07,-0.0018218614706891191,0.9999982941942792,0.0,0.0,0.0,0.0,0.0,0.0,0.0,0.0,0.0,-0.0028315758851812796,-0.011278593033963467,-0.0022005311841200126,0.0,0.0,0.0,0.0,0.0,0.0,0.0,0.0,0.0,-1.3771367750481072,0.48024466175281993,14.124989017734194,0.0,0.0,0.0,0.0,0.0,0.0,0.0,0.0,0.0
310592000000,84,310591000000,base_link,-0.000304021691985059,-3.5252525185030226e-07,-0.0018218614706891191,0.9999982941942792,0.0,0.0,0.0,0.0,0.0,0.0,0.0,0.0,0.0,-0.0028315758851812796,-0.011278593033963467,-0.0022005311841200126,0.0,0.0,0.0,0.0,0.0,0.0,0.0,0.0,0.0,-1.3771367750481072,0.48024466175281993,14.124989017734194,0.0,0.0,0.0,0.0,0.0,0.0,0.0,0.0,0.0
310593000000,85,310592000000,base_link,-0.0003039574921713096,-1.3533580442497985e-05,-0.0018209293814319574,0.9999982958199843,0.0,0.0,0.0,0.0,0.0,0.0,0.0,0.0,0.0,0.000176474568545956,-0.026362646062369106,0.0018558042547271829,0.0,0.0,0.0,0.0,0.0,0.0,0.0,0.0,0.0,-1.8644677339700246,-0.10885004910358775,3.689994478910525,0.0,0.0,0.0,0.0,0.0,0.0,0.0,0.0,0.0
310594000000,86,310594000000,base_link,-0.00030459007121722557,-7.416877398883554e-06,-0.0018205682774582632,0.9999982963490616,0.0,0.0,0.0,0.0,0.0,0.0,0.0,0.0,0.0,-0.001077670893004531,-0.04517764372304342,0.0008387373145566718,0.0,0.0,0.0,0.0,0.0,0.0,0.0,0.0,0.0,-3.728967130044746,-0.11602283046739459,13.315965304094675,0.0,0.0,0.0,0.0,0.0,0.0,0.0,0.0,0.0
310596000000,87,310595000000,base_link,-0.00030409961558771747,2.5341289288420722e-06,-0.0018207836992018625,0.9999982961304098,0.0,0.0,0.0,0.0,0.0,0.0,0.0,0.0,0.0,0.000944594431869706,0.019904641728513885,-0.00042498910494086835,0.0,0.0,0.0,0.0,0.0,0.0,0.0,0.0,0.0,2.330025895645647,-0.11450489131184625,8.435308620307334,0.0,0.0,0.0,0.0,0.0,0.0,0.0,0.0,0.0
310597000000,88,310596000000,base_link,-0.00030477864456365816,-7.342582391571439e-06,-0.0018198698040513797,0.9999982975635312,0.0,0.0,0.0,0.0,0.0,0.0,0.0,0.0,0.0,-0.001322098972719641,-0.019756898019294367,0.0018213956649380091,0.0,0.0,0.0,0.0,0.0,0.0,0.0,0.0,0.0,-3.3011454467490986,0.0839981461312139,7.621314443901738,0.0,0.0,0.0,0.0,0.0,0.0,0.0,0.0,0.0
310598000000,89,310597000000,base_link,-0.00030485619354366444,-1.1076712862068893e-05,-0.0018198716531182223,0.9999982975021379,0.0,0.0,0.0,0.0,0.0,0.0,0.0,0.0,0.0,-0.001087859893089986,-0.0448222023659466,0.0009074360502489208,0.0,0.0,0.0,0.0,0.0,0.0,0.0,0.0,0.0,-3.4795388329958845,-0.013182128472146294,11.302570659580553,0.0,0.0,0.0,0.0,0.0,0.0,0.0,0.0,0.0
310599000000,90,310598000000,base_link,-0.00030430870369637763,5.657594155706205e-06,-0.0018201874904544722,0.9999982971394021,0.0,0.0,0.0,0.0,0.0,0.0,0.0,0.0,0.0,0.0010338077468675323,0.03347149086152831,-0.0006230247313680717,0.0,0.0,0.0,0.0,0.0,0.0,0.0,0.0,0.0,3.7594045201744226,-0.16987332729157936,11.399162661038803,0.0,0.0,0.0,0.0,0.0,0.0,0.0,0.0,0.0
310600000000,91,310599000000,base_link,-0.00030504975305897016,-6.998626568480118e-06,-0.0018193137832268676,0.9999982984950653,0.0,0.0,0.0,0.0,0.0,0.0,0.0,0.0,0.0,-0.0014363139588428218,-0.025318112953909983,0.001737902116609234,0.0,0.0,0.0,0.0,0.0,0.0,0.0,0.0,0.0,-2.3663182853451303,0.1372762726903272,7.960995168748728,0.0,0.0,0.0,0.0,0.0,0.0,0.0,0.0,0.0
310601000000,92,310600000000,base_link,-0.00030504975305897016,-6.998626568480118e-06,-0.0018193137832268676,0.9999982984950653,0.0,0.0,0.0,0.0,0.0,0.0,0.0,0.0,0.0,-0.0014363139588428218,-0.025318112953909983,0.001737902116609234,0.0,0.0,0.0,0.0,0.0,0.0,0.0,0.0,0.0,-2.3663182853451303,0.1372762726903272,7.960995168748728,0.0,0.0,0.0,0.0,0.0,0.0,0.0,0.0,0.0
310602000000,93,310601000000,base_link,-0.00030510913772922947,-9.651584640421749e-06,-0.0018190153232473384,0.9999982989978108,0.0,0.0,0.0,0.0,0.0,0.0,0.0,0.0,0.0,-0.0015447153824269147,-0.03922638121760977,0.0013633956690374967,0.0,0.0,0.0,0.0,0.0,0.0,0.0,0.0,0.0,-3.6420934414756228,0.03678380423744026,10.788470189611834,0.0,0.0,0.0,0.0,0.0,0.0,0.0,0.0,0.0
310603000000,94,310602000000,base_link,-0.00030435159365409654,6.718531253375053e-06,-0.0018192718660720282,0.9999982987859761,0.0,0.0,0.0,0.0,0.0,0.0,0.0,0.0,0.0,0.0014554162733783009,0.032744205395036044,-0.0005036784859545903,0.0,0.0,0.0,0.0,0.0,0.0,0.0,0.0,0.0,3.541349157851507,-0.13214939937542136,10.606167355796495,0.0,0.0,0.0,0.0,0.0,0.0,0.0,0.0,0.0
310604000000,95,310603000000,base_link,-0.0003051622428983782,-7.083144557345353e-06,-0.001818406325782563,0.9999983001106897,0.0,0.0,0.0,0.0,0.0,0.0,0.0,0.0,0.0,-0.001571263035808988,-0.027608332299609704,0.001722748402190784,0.0,0.0,0.0,0.0,0.0,0.0,0.0,0.0,0.0,-2.920083938055268,0.10473166696299759,8.816354347070742,0.0,0.0,0.0,0.0,0.0,0.0,0.0,0.0,0.0
310605000000,96,310604000000,base_link,-0.0003051622428983782,-7.083144557345353e-06,-0.001818406325782563,0.9999983001106897,0.0,0.0,0.0,0.0,0.0,0.0,0.0,0.0,0.0,-0.001571263035808988,-0.027608332299609704,0.001722748402190784,0.0,0.0,0.0,0.0,0.0,0.0,0.0,0.0,0.0,-2.920083938055268,0.10473166696299759,8.816354347070742,0.0,0.0,0.0,0.0,0.0,0.0,0.0,0.0,0.0
310607000000,97,310606000000,base_link,-0.0003043992260150221,7.479156497103318e-06,-0.001818218882149032,0.9999983006811913,0.0,0.0,0.0,0.0,0.0,0.0,0.0,0.0,0.0,0.0014962444853415236,0.03225507363290514,-0.0005231350031636136,0.0,0.0,0.0,0.0,0.0,0.0,0.0,0.0,0.0,3.4635061135871408,-0.1090715238631779,10.219742065940622,0.0,0.0,0.0,0.0,0.0,0.0,0.0,0.0,0.0
310608000000,98,310607000000,base_link,-0.000305199028279877,-7.099858533268867e-06,-0.0018173610154118877,0.9999983019996009,0.0,0.0,0.0,0.0,0.0,0.0,0.0,0.0,0.0,-0.0015468118910347156,-0.029162787456938313,0.0017070144209938634,0.0,0.0,0.0,0.0,0.0,0.0,0.0,0.0,0.0,-3.181547093802392,0.0919936354233253,9.247398896445151,0.0,0.0,0.0,0.0,0.0,0.0,0.0,0.0,0.0
310609000000,99,310608000000,base_link,-0.00030441553242619736,9.166210786064731e-06,-0.0018176755604168266,0.9999983016499184,0.0,0.0,0.0,0.0,0.0,0.0,0.0,0.0,0.0,0.0015076462291092629,0.032536608039208145,-0.0006196737641151343,0.0,0.0,0.0,0.0,0.0,0.0,0.0,0.0,0.0,3.3181618834970137,-0.08251182400654591,9.467271535107653,0.0,0.0,0.0,0.0,0.0,0.0,0.0,0.0,0.0
310610000000,100,310609000000,base_link,-0.00030441553242619736,9.166210786064731e-06,-0.0018176755604168266,0.9999983016499184,0.0,0.0,0.0,0.0,0.0,0.0,0.0,0.0,0.0,0.0015076462291092629,0.032536608039208145,-0.0006196737641151343,0.0,0.0,0.0,0.0,0.0,0.0,0.0,0.0,0.0,3.3181618834970137,-0.08251182400654591,9.467271535107653,0.0,0.0,0.0,0.0,0.0,0.0,0.0,0.0,0.0
310611000000,101,310610000000,base_link,-0.0003052028422463469,-8.038217472245115e-06,-0.0018168941824176549,0.9999983028396309,0.0,0.0,0.0,0.0,0.0,0.0,0.0,0.0,0.0,-0.0015121784062836778,-0.03441316757527191,0.0015525054022813784,0.0,0.0,0.0,0.0,0.0,0.0,0.0,0.0,0.0,-3.6114159262574566,0.0628021391320858,10.257035838846337,0.0,0.0,0.0,0.0,0.0,0.0,0.0,0.0,0.0
310612000000,102,310611000000,base_link,-0.0003044481508892468,7.956344579798602e-06,-0.0018171947689988488,0.9999983025241551,0.0,0.0,0.0,0.0,0.0,0.0,0.0,0.0,0.0,0.0014511344162669569,0.031993150657032114,-0.0005916769076745105,0.0,0.0,0.0,0.0,0.0,0.0,0.0,0.0,0.0,3.4499697367540745,-0.09707088882305619,10.035939766991818,0.0,0.0,0.0,0.0,0.0,0.0,0.0,0.0,0.0
310613000000,103,310612000000,base_link,-0.00030521362516311245,-7.113629585818698e-06,-0.0018163855242363178,0.9999983037673948,0.0,0.0,0.0,0.0,0.0,0.0,0.0,0.0,0.0,-0.0014764127720963765,-0.030144167116626108,0.0016102919738568446,0.0,0.0,0.0,0.0,0.0,0.0,0.0,0.0,0.0,-3.304326516116328,0.08373039723995146,9.467870225004981,0.0,0.0,0.0,0.0,0.0,0.0,0.0,0.0,0.0
310614000000,104,310613000000,base_link,-0.0003052160407460207,-7.668390862342172e-06,-0.0018159624543673857,0.999998304530927,0.0,0.0,0.0,0.0,0.0,0.0,0.0,0.0,0.0,-0.0014322840506252384,-0.03335059760964433,0.0015140272181552413,0.0,0.0,0.0,0.0,0.0,0.0,0.0,0.0,0.0,-3.55958241333138,0.06658704020585827,10.081202117350497,0.0,0.0,0.0,0.0,0.0,0.0,0.0,0.0,0.0
310615000000,105,310614000000,base_link,-0.0003052160407460207,-7.668390862342172e-06,-0.0018159624543673857,0.999998304530927,0.0,0.0,0.0,0.0,0.0,0.0,0.0,0.0,0.0,-0.0014322840506252384,-0.03335059760964433,0.0015140272181552413,0.0,0.0,0.0,0.0,0.0,0.0,0.0,0.0,0.0,-3.55958241333138,0.06658704020585827,10.081202117350497,0.0,0.0,0.0,0.0,0.0,0.0,0.0,0.0,0.0
310617000000,106,310616000000,base_link,-0.00030452581344660255,8.926988212236717e-06,-0.0018158943124933122,0.999998304854655,0.0,0.0,0.0,0.0,0.0,0.0,0.0,0.0,0.0,0.0013354050734187537,0.03208515135907588,-0.0007242365031057342,0.0,0.0,0.0,0.0,0.0,0.0,0.0,0.0,0.0,3.4110955674364205,-0.07906270173056189,9.690156220230474,0.0,0.0,0.0,0.0,0.0,0.0,0.0,0.0,0.0
310618000000,107,310617000000,base_link,-0.00030522540439362916,-7.418506313337126e-06,-0.0018151612022693055,0.9999983059846792,0.0,0.0,0.0,0.0,0.0,0.0,0.0,0.0,0.0,-0.0013398766211014028,-0.032694931586356286,0.0014560116483402555,0.0,0.0,0.0,0.0,0.0,0.0,0.0,0.0,0.0,-3.5212482766741955,0.06607462233182906,9.966409687534595,0.0,0.0,0.0,0.0,0.0,0.0,0.0,0.0,0.0
310619000000,108,310618000000,base_link,-0.00030522540439362916,-7.418506313337126e-06,-0.0018151612022693055,0.9999983059846792,0.0,0.0,0.0,0.0,0.0,0.0,0.0,0.0,0.0,-0.0013398766211014028,-0.032694931586356286,0.0014560116483402555,0.0,0.0,0.0,0.0,0.0,0.0,0.0,0.0,0.0,-3.5212482766741955,0.06607462233182906,9.966409687534595,0.0,0.0,0.0,0.0,0.0,0.0,0.0,0.0,0.0
310620000000,109,310619000000,base_link,-0.0003045566522554765,8.48458923762773e-06,-0.0018155270671711327,0.9999983055159272,0.0,0.0,0.0,0.0,0.0,0.0,0.0,0.0,0.0,0.0012795964669896616,0.03181003350534937,-0.0007223552832188664,0.0,0.0,0.0,0.0,0.0,0.0,0.0,0.0,0.0,3.4569934997674547,-0.08261451050860112,9.889534637525998,0.0,0.0,0.0,0.0,0.0,0.0,0.0,0.0,0.0
310621000000,110,310620000000,base_link,-0.000305231639228949,-7.088617299888802e-06,-0.0018148028435614203,0.9999983066355848,0.0,0.0,0.0,0.0,0.0,0.0,0.0,0.0,0.0,-0.0012936111334773195,-0.031149897639931572,0.001440061752932003,0.0,0.0,0.0,0.0,0.0,0.0,0.0,0.0,0.0,-3.3987334178097517,0.07193939167686396,9.659254871861185,0.0,0.0,0.0,0.0,0.0,0.0,0.0,0.0,0.0
310623000000,111,310622000000,base_link,-0.0003046128790514754,8.653697764580665e-06,-0.0018148581825644646,0.9999983067115088,0.0,0.0,0.0,0.0,0.0,0.0,0.0,0.0,0.0,0.0011898378637426783,0.03177667112769463,-0.000755382203594646,0.0,0.0,0.0,0.0,0.0,0.0,0.0,0.0,0.0,3.4574008437586925,-0.07737731211032975,9.85471394062759,0.0,0.0,0.0,0.0,0.0,0.0,0.0,0.0,0.0
310624000000,112,310624000000,base_link,-0.00030524372458362326,-7.030471043255248e-06,-0.0018141453515723226,0.9999983078253105,0.0,0.0,0.0,0.0,0.0,0.0,0.0,0.0,0.0,-0.001204853788184884,-0.031372030585905854,0.001416277123072683,0.0,0.0,0.0,0.0,0.0,0.0,0.0,0.0,0.0,-3.422663555180346,0.06603836433028645,9.706047466558756,0.0,0.0,0.0,0.0,0.0,0.0,0.0,0.0,0.0
310626000000,113,310625000000,base_link,-0.0003052507306364825,-7.092071197386265e-06,-0.001813839980734406,0.9999983083766784,0.0,0.0,0.0,0.0,0.0,0.0,0.0,0.0,0.0,-0.0011632611815979863,-0.032071726908347274,0.001395310723015813,0.0,0.0,0.0,0.0,0.0,0.0,0.0,0.0,0.0,-3.4818831331405224,0.059714222158374214,9.854282563896708,0.0,0.0,0.0,0.0,0.0,0.0,0.0,0.0,0.0
310627000000,114,310626000000,base_link,-0.0003052507306364825,-7.092071197386265e-06,-0.001813839980734406,0.9999983083766784,0.0,0.0,0.0,0.0,0.0,0.0,0.0,0.0,0.0,-0.0011632611815979863,-0.032071726908347274,0.001395310723015813,0.0,0.0,0.0,0.0,0.0,0.0,0.0,0.0,0.0,-3.4818831331405224,0.059714222158374214,9.854282563896708,0.0,0.0,0.0,0.0,0.0,0.0,0.0,0.0,0.0
310629000000,115,310628000000,base_link,-0.00030527305804002277,-6.956384048676057e-06,-0.0018135497003039355,0.9999983088972969,0.0,0.0,0.0,0.0,0.0,0.0,0.0,0.0,0.0,-0.0011489097619647181,-0.03150578699455464,0.0013662473837423067,0.0,0.0,0.0,0.0,0.0,0.0,0.0,0.0,0.0,0.011587305982620564,-0.006320469374244429,9.785630774614551,0.0,0.0,0.0,0.0,0.0,0.0,0.0,0.0,0.0
310631000000,116,310630000000,base_link,-0.0003054062222098286,-6.950476090068679e-06,-0.0018132941358765728,0.9999983093201245,0.0,0.0,0.0,0.0,0.0,0.0,0.0,0.0,0.0,-0.0013510743044516096,-0.03190138207740672,0.0013247407280107895,0.0,0.0,0.0,0.0,0.0,0.0,0.0,0.0,0.0,-0.007311357505884023,-0.006549762413375675,9.808395692560733,0.0,0.0,0.0,0.0,0.0,0.0,0.0,0.0,0.0
310633000000,117,310632000000,base_link,-0.00030551001058748157,-6.674348214352766e-06,-0.001812699430608871,0.9999983103685031,0.0,0.0,0.0,0.0,0.0,0.0,0.0,0.0,0.0,-0.0014690625848684383,-0.031270700327330876,0.0019865262875058006,0.0,0.0,0.0,0.0,0.0,0.0,0.0,0.0,0.0,-0.013172908418013822,0.00674374870614897,9.810345818078673,0.0,0.0,0.0,0.0,0.0,0.0,0.0,0.0,0.0
310634000000,118,310634000000,base_link,-0.00028958200229805783,-4.1700416830877535e-07,-0.001812992736955541,0.9999983145982928,0.0,0.0,0.0,0.0,0.0,0.0,0.0,0.0,0.0,0.03030354748930705,-0.0031701981807419352,-0.00028467818206603934,0.0,0.0,0.0,0.0,0.0,0.0,0.0,0.0,0.0,-0.7985040668196093,-0.9578295379593639,2.5758199850229033,0.0,0.0,0.0,0.0,0.0,0.0,0.0,0.0,0.0
310636000000,119,310635000000,base_link,-0.000302271592065583,1.321073036717371e-07,-0.0018184112576646108,0.9999983010047394,0.0,0.0,0.0,0.0,0.0,0.0,0.0,0.0,0.0,-0.02538142923158545,0.00105554240047579,-0.010836077220517533,0.0,0.0,0.0,0.0,0.0,0.0,0.0,0.0,0.0,1.1310026151914803,3.13761430072623,19.75134527421949,0.0,0.0,0.0,0.0,0.0,0.0,0.0,0.0,0.0
310637000000,120,310636000000,base_link,-0.0003142871272717212,5.562813071771461e-07,-0.0018237785829515096,0.99999828752602,0.0,0.0,0.0,0.0,0.0,0.0,0.0,0.0,0.0,-0.024032578961593377,0.0008078929802506715,-0.010734428099494974,0.0,0.0,0.0,0.0,0.0,0.0,0.0,0.0,0.0,0.02105041877462203,0.08743669560329739,-0.002870404832084006,0.0,0.0,0.0,0.0,0.0,0.0,0.0,0.0,0.0
310639000000,121,310638000000,base_link,-0.00030274720442362524,1.4376155101038066e-06,-0.0018231590562133222,0.9999982922151014,0.0,0.0,0.0,0.0,0.0,0.0,0.0,0.0,0.0,-0.020539056975534528,-8.176795278049262e-05,0.0010254689325012627,0.0,0.0,0.0,0.0,0.0,0.0,0.0,0.0,0.0,-0.3465384054422115,3.6806795934671914,18.11473987658048,0.0,0.0,0.0,0.0,0.0,0.0,0.0,0.0,0.0
310640000000,122,310639000000,base_link,-0.0003121260614651443,1.4576733165043948e-06,-0.0018226416044487097,0.9999982902749278,0.0,0.0,0.0,0.0,0.0,0.0,0.0,0.0,0.0,-0.018757757849425283,5.603939416375866e-06,0.0010348798658962987,0.0,0.0,0.0,0.0,0.0,0.0,0.0,0.0,0.0,-0.007011293301108457,0.13262065893622155,-0.0072439547511180535,0.0,0.0,0.0,0.0,0.0,0.0,0.0,0.0,0.0
310641000000,123,310640000000,base_link,-0.0003121260614651443,1.4576733165043948e-06,-0.0018226416044487097,0.9999982902749278,0.0,0.0,0.0,0.0,0.0,0.0,0.0,0.0,0.0,-0.018757757849425283,5.603939416375866e-06,0.0010348798658962987,0.0,0.0,0.0,0.0,0.0,0.0,0.0,0.0,0.0,-0.007011293301108457,0.13262065893622155,-0.0072439547511180535,0.0,0.0,0.0,0.0,0.0,0.0,0.0,0.0,0.0
310643000000,124,310642000000,base_link,-0.0003024236258581729,1.2796777615157517e-06,-0.0018211733840298946,0.9999982959314573,0.0,0.0,0.0,0.0,0.0,0.0,0.0,0.0,0.0,-0.01237234680353344,-0.00015120165156224527,0.0006284538218935616,0.0,0.0,0.0,0.0,0.0,0.0,0.0,0.0,0.0,-0.06135775695736809,2.431768499709395,15.512818034328612,0.0,0.0,0.0,0.0,0.0,0.0,0.0,0.0,0.0
310644000000,125,310643000000,base_link,-0.00030803267052714967,1.202431546589632e-06,-0.0018208672927741605,0.9999982947769113,0.0,0.0,0.0,0.0,0.0,0.0,0.0,0.0,0.0,-0.011217790345956347,-0.00017510738781117453,0.0006121161853197649,0.0,0.0,0.0,0.0,0.0,0.0,0.0,0.0,0.0,0.0030019645218334937,0.08815140617390156,-0.014453256277757731,0.0,0.0,0.0,0.0,0.0,0.0,0.0,0.0,0.0
310645000000,126,310645000000,base_link,-0.00030310285980877244,1.178038749847589e-06,-0.0018204822569610544,0.9999982969843603,0.0,0.0,0.0,0.0,0.0,0.0,0.0,0.0,0.0,0.009859691468423346,-3.121405736485289e-05,0.0007692154378737778,0.0,0.0,0.0,0.0,0.0,0.0,0.0,0.0,0.0,-0.06064736272087794,-1.3414744245091803,23.83396645644185,0.0,0.0,0.0,0.0,0.0,0.0,0.0,0.0,0.0
310649000000,127,310647000000,base_link,-0.0003252084876239096,8.249329276985377e-07,-0.0018204724942111404,0.9999982900578667,0.0,0.0,0.0,0.0,0.0,0.0,0.0,0.0,0.0,-0.028594758939930305,-0.0006014279188495266,-0.0007273694215186864,0.0,0.0,0.0,0.0,0.0,0.0,0.0,0.0,0.0,-0.03242495062281887,-8.20057923602743,11.679036469089365,0.0,0.0,0.0,0.0,0.0,0.0,0.0,0.0,0.0
310649000000,128,310649000000,base_link,-0.00034006275465755555,1.5446592981029843e-06,-0.0018216606688339237,0.9999982829521983,0.0,0.0,0.0,0.0,0.0,0.0,0.0,0.0,0.0,0.0018219801866455549,0.0004851489552194065,-0.0007743195346427706,0.0,0.0,0.0,0.0,0.0,0.0,0.0,0.0,0.0,0.01289924377793612,-0.5748123143947561,0.22580488592401338,0.0,0.0,0.0,0.0,0.0,0.0,0.0,0.0,0.0
310651000000,129,310650000000,base_link,-0.00034006275465755555,1.5446592981029843e-06,-0.0018216606688339237,0.9999982829521983,0.0,0.0,0.0,0.0,0.0,0.0,0.0,0.0,0.0,0.0018219801866455549,0.0004851489552194065,-0.0007743195346427706,0.0,0.0,0.0,0.0,0.0,0.0,0.0,0.0,0.0,0.01289924377793612,-0.5748123143947561,0.22580488592401338,0.0,0.0,0.0,0.0,0.0,0.0,0.0,0.0,0.0
310652000000,130,310652000000,base_link,-0.000300150422168593,1.2927150915614574e-06,-0.001822082663166816,0.9999982949599573,0.0,0.0,0.0,0.0,0.0,0.0,0.0,0.0,0.0,0.06868305457463231,0.0007119190348546143,-0.0005124766871802996,0.0,0.0,0.0,0.0,0.0,0.0,0.0,0.0,0.0,0.002512271054246028,-6.664618873435305,11.070273847137738,0.0,0.0,0.0,0.0,0.0,0.0,0.0,0.0,0.0
310654000000,131,310653000000,base_link,-0.0002433124235262783,1.6221514584278742e-06,-0.0018227581681060736,0.9999983091731176,0.0,0.0,0.0,0.0,0.0,0.0,0.0,0.0,0.0,0.05695333669947305,0.00044247772510583495,-0.0006697500149120586,0.0,0.0,0.0,0.0,0.0,0.0,0.0,0.0,0.0,-0.0007067769133591908,0.03828179974860146,-0.014349284137814777,0.0,0.0,0.0,0.0,0.0,0.0,0.0,0.0,0.0
310655000000,132,310654000000,base_link,-0.00017632437746714684,1.1103776517345823e-06,-0.0018227593143627747,0.9999983232270756,0.0,0.0,0.0,0.0,0.0,0.0,0.0,0.0,0.0,0.12590600956647113,0.0006566661821763244,-0.00039673367043530414,0.0,0.0,0.0,0.0,0.0,0.0,0.0,0.0,0.0,0.000761962213912637,-12.932581029722497,21.608801679545103,0.0,0.0,0.0,0.0,0.0,0.0,0.0,0.0,0.0
310656000000,133,310655000000,base_link,-0.00017632437746714684,1.1103776517345823e-06,-0.0018227593143627747,0.9999983232270756,0.0,0.0,0.0,0.0,0.0,0.0,0.0,0.0,0.0,0.12590600956647113,0.0006566661821763244,-0.00039673367043530414,0.0,0.0,0.0,0.0,0.0,0.0,0.0,0.0,0.0,0.000761962213912637,-12.932581029722497,21.608801679545103,0.0,0.0,0.0,0.0,0.0,0.0,0.0,0.0,0.0
310658000000,134,310657000000,base_link,3.4631220559836766e-05,7.382403141629528e-07,-0.001823273694883759,0.9999983372352012,0.0,0.0,0.0,0.0,0.0,0.0,0.0,0.0,0.0,0.1851464600633654,0.0006297185351168283,-0.0003061098379936322,0.0,0.0,0.0,0.0,0.0,0.0,0.0,0.0,0.0,-0.00015430781157061937,-12.652623444078216,21.243587132553294,0.0,0.0,0.0,0.0,0.0,0.0,0.0,0.0,0.0
310659000000,135,310658000000,base_link,-2.0929084516449556e-07,1.395449041816801e-06,-0.0018235493412577708,0.9999983373315222,0.0,0.0,0.0,0.0,0.0,0.0,0.0,0.0,0.0,-0.026997066789780047,4.81621371321789e-05,-0.00019400500662229822,0.0,0.0,0.0,0.0,0.0,0.0,0.0,0.0,0.0,0.007520272300098874,5.220159749495284,16.761443140590238,0.0,0.0,0.0,0.0,0.0,0.0,0.0,0.0,0.0
310660000000,136,310659000000,base_link,5.1514362359938206e-05,6.128752405484632e-07,-0.0018233836631887052,0.9999983363075718,0.0,0.0,0.0,0.0,0.0,0.0,0.0,0.0,0.0,0.10282748259331165,-0.000262454791142844,-2.5130156043104407e-05,0.0,0.0,0.0,0.0,0.0,0.0,0.0,0.0,0.0,0.009694265351085177,-6.3821783516707615,14.791712061865727,0.0,0.0,0.0,0.0,0.0,0.0,0.0,0.0,0.0
310661000000,137,310660000000,base_link,7.052733920133901e-05,1.1924560801042729e-06,-0.0018229163522793987,0.9999983359988383,0.0,0.0,0.0,0.0,0.0,0.0,0.0,0.0,0.0,0.03802349026452604,0.0012286084232380106,0.0009340570655064554,0.0,0.0,0.0,0.0,0.0,0.0,0.0,0.0,0.0,0.1876784395012299,1.8312924478165284,5.503196124364654,0.0,0.0,0.0,0.0,0.0,0.0,0.0,0.0,0.0
310662000000,138,310661000000,base_link,0.00012598627867597238,-2.6172466221980713e-07,-0.0018215750630903773,0.99999833299445,0.0,0.0,0.0,0.0,0.0,0.0,0.0,0.0,0.0,0.11087260185583929,-0.002716209568769526,0.0027233698351173227,0.0,0.0,0.0,0.0,0.0,0.0,0.0,0.0,0.0,-0.020568292452297972,-3.8684628109253327,8.659510971730413,0.0,0.0,0.0,0.0,0.0,0.0,0.0,0.0,0.0
310663000000,139,310662000000,base_link,0.00012134120846862854,8.035652365810389e-07,-0.0018208207476692953,0.999998334942349,0.0,0.0,0.0,0.0,0.0,0.0,0.0,0.0,0.0,-0.009294864047706469,0.0021138663724359495,0.0015087888926581714,0.0,0.0,0.0,0.0,0.0,0.0,0.0,0.0,0.0,0.02142482027875194,4.804375347646334,11.524359425515506,0.0,0.0,0.0,0.0,0.0,0.0,0.0,0.0,0.0
310664000000,140,310663000000,base_link,0.00016956074438153522,-1.4905650710968783e-06,-0.0018196178581013993,0.9999983301174972,0.0,0.0,0.0,0.0,0.0,0.0,0.0,0.0,0.0,0.09644615706867704,-0.004412487864484447,0.002408279501121885,0.0,0.0,0.0,0.0,0.0,0.0,0.0,0.0,0.0,-0.20320667809637805,-4.626919791055619,11.203480629686036,0.0,0.0,0.0,0.0,0.0,0.0,0.0,0.0,0.0
310665000000,141,310664000000,base_link,0.00018071029302174619,5.518781100962688e-07,-0.001818440936306203,0.9999983303066295,0.0,0.0,0.0,0.0,0.0,0.0,0.0,0.0,0.0,0.022290570168245923,0.00412652019097475,0.0023522750790614918,0.0,0.0,0.0,0.0,0.0,0.0,0.0,0.0,0.0,0.2051699228013968,2.6340610062409984,7.03860140816169,0.0,0.0,0.0,0.0,0.0,0.0,0.0,0.0,0.0
310666000000,142,310665000000,base_link,0.00023084318443455714,-8.642275155641527e-07,-0.0018173520757690873,0.9999983219696473,0.0,0.0,0.0,0.0,0.0,0.0,0.0,0.0,0.0,0.10027160064399633,-0.0026495037174145792,0.002177850680602861,0.0,0.0,0.0,0.0,0.0,0.0,0.0,0.0,0.0,-0.1210815128121179,-4.073692989193985,9.178468669954622,0.0,0.0,0.0,0.0,0.0,0.0,0.0,0.0,0.0
310667000000,143,310666000000,base_link,0.00023084318443455714,-8.642275155641527e-07,-0.0018173520757690873,0.9999983219696473,0.0,0.0,0.0,0.0,0.0,0.0,0.0,0.0,0.0,0.10027160064399633,-0.0026495037174145792,0.002177850680602861,0.0,0.0,0.0,0.0,0.0,0.0,0.0,0.0,0.0,-0.1210815128121179,-4.073692989193985,9.178468669954622,0.0,0.0,0.0,0.0,0.0,0.0,0.0,0.0,0.0
310669000000,144,310668000000,base_link,0.0002582116926781902,-4.6151765789220134e-07,-0.0018152816048625613,0.9999983190381891,0.0,0.0,0.0,0.0,0.0,0.0,0.0,0.0,0.0,-0.04617991527092314,-5.720056352821569e-05,0.0008059484905918843,0.0,0.0,0.0,0.0,0.0,0.0,0.0,0.0,0.0,-0.02273854447409276,7.236747726771096,14.110477655110744,0.0,0.0,0.0,0.0,0.0,0.0,0.0,0.0,0.0
310670000000,145,310669000000,base_link,0.0002680106433162924,-3.9598966003413693e-07,-0.0018151181960471478,0.9999983167566197,0.0,0.0,0.0,0.0,0.0,0.0,0.0,0.0,0.0,0.019598452659604,0.00016675199844160937,0.0003262560624148056,0.0,0.0,0.0,0.0,0.0,0.0,0.0,0.0,0.0,0.012551381759581861,1.3599267230089624,18.074192601788383,0.0,0.0,0.0,0.0,0.0,0.0,0.0,0.0,0.0
310671000000,146,310670000000,base_link,0.00027782247678247125,-3.817295728325094e-07,-0.0018149517024777936,0.9999983143810011,0.0,0.0,0.0,0.0,0.0,0.0,0.0,0.0,0.0,0.01962358353964925,6.422864353785543e-05,0.00033296253968995875,0.0,0.0,0.0,0.0,0.0,0.0,0.0,0.0,0.0,0.008583207401709576,0.030524912033673406,-0.009880326994608168,0.0,0.0,0.0,0.0,0.0,0.0,0.0,0.0,0.0
310672000000,147,310671000000,base_link,0.00027782247678247125,-3.817295728325094e-07,-0.0018149517024777936,0.9999983143810011,0.0,0.0,0.0,0.0,0.0,0.0,0.0,0.0,0.0,0.01962358353964925,6.422864353785543e-05,0.00033296253968995875,0.0,0.0,0.0,0.0,0.0,0.0,0.0,0.0,0.0,0.008583207401709576,0.030524912033673406,-0.009880326994608168,0.0,0.0,0.0,0.0,0.0,0.0,0.0,0.0,0.0
310673000000,148,310672000000,base_link,0.0002548650908869645,-1.1040060442231653e-06,-0.0018188552343618612,0.9999983134026793,0.0,0.0,0.0,0.0,0.0,0.0,0.0,0.0,0.0,-0.02268618755560584,-0.0012235119191178947,-0.0042378946262197565,0.0,0.0,0.0,0.0,0.0,0.0,0.0,0.0,0.0,0.159315550200232,2.0069674587159088,2.3795379174069433,0.0,0.0,0.0,0.0,0.0,0.0,0.0,0.0,0.0
310674000000,149,310673000000,base_link,0.0002599058367945056,-1.012174142455459e-06,-0.0018187729870010013,0.9999983122549525,0.0,0.0,0.0,0.0,0.0,0.0,0.0,0.0,0.0,0.010080981968193741,0.0002019974999532215,0.00016366932971196243,0.0,0.0,0.0,0.0,0.0,0.0,0.0,0.0,0.0,0.12383623954237889,-1.9320864227398953,15.131479823509908,0.0,0.0,0.0,0.0,0.0,0.0,0.0,0.0,0.0
310675000000,150,310674000000,base_link,0.00026432191766174274,-9.106204084172645e-07,-0.0018186686270427203,0.999998311287334,0.0,0.0,0.0,0.0,0.0,0.0,0.0,0.0,0.0,0.008831778135987144,0.00021922506803015177,0.0002086543160391986,0.0,0.0,0.0,0.0,0.0,0.0,0.0,0.0,0.0,0.00393769762285202,-0.07875988678993782,-0.0047295815702916855,0.0,0.0,0.0,0.0,0.0,0.0,0.0,0.0,0.0
310676000000,151,310675000000,base_link,0.000257087424167674,-1.0377989727721357e-06,-0.001818573632112909,0.9999983133460396,0.0,0.0,0.0,0.0,0.0,0.0,0.0,0.0,0.0,-0.014468426737254451,-0.0002805842501001714,0.00018962220906453925,0.0,0.0,0.0,0.0,0.0,0.0,0.0,0.0,0.0,-0.15265013083332316,1.650636524025552,23.357797300344075,0.0,0.0,0.0,0.0,0.0,0.0,0.0,0.0,0.0
310677000000,152,310676000000,base_link,0.000257087424167674,-1.0377989727721357e-06,-0.001818573632112909,0.9999983133460396,0.0,0.0,0.0,0.0,0.0,0.0,0.0,0.0,0.0,-0.014468426737254451,-0.0002805842501001714,0.00018962220906453925,0.0,0.0,0.0,0.0,0.0,0.0,0.0,0.0,0.0,-0.15265013083332316,1.650636524025552,23.357797300344075,0.0,0.0,0.0,0.0,0.0,0.0,0.0,0.0,0.0
310679000000,153,310678000000,base_link,0.00025181238043717923,-1.062320515221909e-06,-0.0018178529845024052,0.9999983159985438,0.0,0.0,0.0,0.0,0.0,0.0,0.0,0.0,0.0,-0.0024852159993188523,0.0001552409855980158,0.0004063554444510413,0.0,0.0,0.0,0.0,0.0,0.0,0.0,0.0,0.0,-0.12508462111286534,-0.014166290400329365,28.870228651237305,0.0,0.0,0.0,0.0,0.0,0.0,0.0,0.0,0.0
310680000000,154,310679000000,base_link,0.0002502964702795836,-1.025453382666492e-06,-0.0018176526687461944,0.9999983167432839,0.0,0.0,0.0,0.0,0.0,0.0,0.0,0.0,0.0,-0.0030319491971292916,6.832362289099835e-05,0.00040061819897792685,0.0,0.0,0.0,0.0,0.0,0.0,0.0,0.0,0.0,0.00836238073618139,-0.028841997867762814,-0.001575508643476553,0.0,0.0,0.0,0.0,0.0,0.0,0.0,0.0,0.0
310681000000,155,310680000000,base_link,0.00024850186620959595,-1.100635190672897e-06,-0.0018174866958940235,0.9999983174924454,0.0,0.0,0.0,0.0,0.0,0.0,0.0,0.0,0.0,-0.0035889510421877107,-0.0001568064815074315,0.00033199215335785964,0.0,0.0,0.0,0.0,0.0,0.0,0.0,0.0,0.0,0.05203104107046899,-0.22495151492089369,10.231721198439288,0.0,0.0,0.0,0.0,0.0,0.0,0.0,0.0,0.0
310682000000,156,310681000000,base_link,0.00024660867640044536,-1.1883284696521952e-06,-0.0018173274507044682,0.9999983182504286,0.0,0.0,0.0,0.0,0.0,0.0,0.0,0.0,0.0,-0.0037860545111387555,-0.00018218881032947421,0.00031854034980701037,0.0,0.0,0.0,0.0,0.0,0.0,0.0,0.0,0.0,0.004289867222216666,-0.014366799291891389,-6.506317234844516e-05,0.0,0.0,0.0,0.0,0.0,0.0,0.0,0.0,0.0
310683000000,157,310682000000,base_link,0.0002455864503836446,-1.0755930191243213e-06,-0.001817224488719481,0.9999983186892347,0.0,0.0,0.0,0.0,0.0,0.0,0.0,0.0,0.0,-0.002044801256125388,0.00022186154839621045,0.0002058725397444719,0.0,0.0,0.0,0.0,0.0,0.0,0.0,0.0,0.0,-0.09695151009933096,0.016223470337288343,28.713217481361895,0.0,0.0,0.0,0.0,0.0,0.0,0.0,0.0,0.0
310684000000,158,310683000000,base_link,0.0002455864503836446,-1.0755930191243213e-06,-0.001817224488719481,0.9999983186892347,0.0,0.0,0.0,0.0,0.0,0.0,0.0,0.0,0.0,-0.002044801256125388,0.00022186154839621045,0.0002058725397444719,0.0,0.0,0.0,0.0,0.0,0.0,0.0,0.0,0.0,-0.09695151009933096,0.016223470337288343,28.713217481361895,0.0,0.0,0.0,0.0,0.0,0.0,0.0,0.0,0.0
310685000000,159,310684000000,base_link,0.00024432560424178176,-1.0124989060743696e-06,-0.0018171227424431619,0.9999983191830439,0.0,0.0,0.0,0.0,0.0,0.0,0.0,0.0,0.0,-0.0025219173799844565,0.00012165550904333528,0.00020346572742469478,0.0,0.0,0.0,0.0,0.0,0.0,0.0,0.0,0.0,0.009703291853056415,-0.024155360434555746,-0.0011723327825983176,0.0,0.0,0.0,0.0,0.0,0.0,0.0,0.0,0.0
310687000000,160,310686000000,base_link,0.00024069292239163007,-1.2512183124772572e-06,-0.0018169520863378496,0.9999983203738233,0.0,0.0,0.0,0.0,0.0,0.0,0.0,0.0,0.0,-0.0036998344714088065,-0.0002573389118799514,0.0001663530250890696,0.0,0.0,0.0,0.0,0.0,0.0,0.0,0.0,0.0,0.03161046064498639,-0.067003507499625,5.234341276563859,0.0,0.0,0.0,0.0,0.0,0.0,0.0,0.0,0.0
310689000000,161,310688000000,base_link,0.00023871461836260608,-9.74598584252764e-07,-0.0018168426259768183,0.9999983210472175,0.0,0.0,0.0,0.0,0.0,0.0,0.0,0.0,0.0,-0.002198090863983964,0.00021864938473423927,0.0001084737392681828,0.0,0.0,0.0,0.0,0.0,0.0,0.0,0.0,0.0,-0.03195335457007856,0.001863394762804593,14.200243166054454,0.0,0.0,0.0,0.0,0.0,0.0,0.0,0.0,0.0
