%time,field.header.seq,field.header.stamp,field.header.frame_id,field.wrench.force.x,field.wrench.force.y,field.wrench.force.z,field.wrench.torque.x,field.wrench.torque.y,field.wrench.torque.z
310493000000,0,310485000000,FL_wheel_link,-0.0009471086341188715,-0.01214453056056872,-0.057995776218288116,4.400910644998722e-05,0.00038042672673479046,-0.0006873417543960232
310493000000,1,310486000000,FL_wheel_link,2.859887020939321,-0.9616657423026175,7.397885832964558,0.11143250585242968,-0.29243585879444056,-0.07365472903521866
310493000000,2,310487000000,FL_wheel_link,-0.10744302145213812,0.018435487411818385,-0.006866372111859015,-0.0003462179805942996,0.00691444804470955,-0.0014089265249509133
310493000000,3,310488000000,FL_wheel_link,3.6407486949762005,-1.4005425372233014,10.261247132409347,0.1479603889273866,-0.3680329697304707,-0.09257365251963418
310493000000,4,310489000000,FL_wheel_link,-0.035750482902291894,0.012748729455153126,0.046707641521308046,0.000597401095465925,0.00015311799732473615,-0.002641443259853987
310493000000,5,310490000000,FL_wheel_link,2.9958371356941558,-1.0045767278157176,7.691675707974978,0.11754687604181037,-0.3067870327145529,-0.07683894491826335
310493000000,6,310491000000,FL_wheel_link,-0.05489288553369957,0.022860288997860488,-0.018315514371691023,0.00036863113453370266,0.005230930633059211,-0.0014343794255102557
310493000000,7,310492000000,FL_wheel_link,3.513584762188713,-1.2681181242021387,9.509965334238899,0.14153855908206,-0.35722285428885914,-0.08961171772409762
310493000000,8,310493000000,FL_wheel_link,-0.018346267633476267,0.018617092472472008,0.009808792748417073,0.0007021917831600844,0.00092004865637794,-0.002361505787929774
310494000000,9,310494000000,FL_wheel_link,3.1572617747569054,-1.0021639334335495,7.9661098275353766,0.12433315694612442,-0.32392386859643485,-0.07994617619078304
310495000000,10,310495000000,FL_wheel_link,-0.1298005603865586,-1.2167995329543293,5.938069584786969,0.02645537243389359,0.01618310252271629,-0.0011516109780245424
310496000000,11,310496000000,FL_wheel_link,2.0523405998328736,-0.12619835260527085,4.673668751439393,-0.014211113314579275,-0.22158567500536944,-0.0027135293163093864
310497000000,12,310497000000,FL_wheel_link,0.19944179422910155,-1.3118905114429333,8.618650871512722,-0.1359357002286314,-0.01682202012394903,0.0035187741045880636
310498000000,13,310498000000,FL_wheel_link,0.04083984638773619,0.007087715355259508,-0.022747072790949088,0.0006061596817342326,-0.0034127292858035685,0.00015008103285248128
310499000000,14,310499000000,FL_wheel_link,2.122670946733664,-1.8878772258265804,12.584428010218598,0.12781077606810548,-0.21982611171376115,-0.03498316325078967
310500000000,15,310500000000,FL_wheel_link,0.11122327787404307,0.043733710460584406,0.005281061594667975,0.0004529941275740497,-0.005792106871198376,-0.002137068491671287
310501000000,16,310501000000,FL_wheel_link,1.8232466002218066,-0.2883666757288567,1.6490230767349698,-0.03867873226380357,-0.2007353907217632,-0.0015682278465445902
310502000000,17,310502000000,FL_wheel_link,0.02611801919160354,0.036949732091875756,-0.09590947068611476,0.001939578817045548,0.004259907042357458,0.0010766933737625909
310503000000,18,310503000000,FL_wheel_link,5.4630936045026575,-1.6111399876358723,12.23408242508217,0.1494020495658308,-0.572646881340198,-0.10374869598840825
310504000000,19,310504000000,FL_wheel_link,-0.07151328426012954,0.04614727961697863,0.08094822075552825,-0.00012213204586062539,0.006874801618425894,-0.0020339662128667294
310505000000,20,310505000000,FL_wheel_link,2.416641509387954,-0.8098274474146115,6.757562701339128,0.08258824209876775,-0.24694591180658704,-0.03523309907978139
310506000000,21,310506000000,FL_wheel_link,0.1581997791441042,0.07487557153627693,-0.27763789449277215,-2.2949010187189288e-05,-0.0006453292014874157,-4.789478561078868e-06
310507000000,22,310507000000,FL_wheel_link,3.2219964324091945,-0.7836030977573474,5.674789754504736,-6.561890835882894e-05,-0.3469217322929754,-0.03811137675188831
310508000000,23,310508000000,FL_wheel_link,0.07243999073904475,0.027699571422988685,0.02680677524107945,0.0019809374398250972,-0.00843098768158744,-0.0009439072818050227
310509000000,24,310509000000,FL_wheel_link,0.46735360303856976,-1.277079193279562,9.89691456235218,0.08496650102660691,-0.047107015880677096,-0.004514478659011304
310510000000,25,310510000000,FL_wheel_link,0.02683193061954777,0.02808129079258004,-0.0112144870881909,0.00037759538351270867,-0.0029512181017391868,-0.0002400233327438474
310511000000,26,310511000000,FL_wheel_link,1.6991959323815766,-0.21536178655848712,6.413942681738111,0.09173138927701954,-0.17953201496271706,-0.022770653444123358
310512000000,27,310512000000,FL_wheel_link,0.07121063946087956,0.11385892054454634,-0.044442726492849506,0.006476077192988405,-0.008316315338927786,-0.0016097681506968438
310513000000,28,310513000000,FL_wheel_link,-1.1638012623535356,-4.516359219223158,15.066234804501075,-0.10232216957345673,0.1295582984239825,0.015325281036766667
310514000000,29,310514000000,FL_wheel_link,0.05286785100560142,0.11386510538547506,-0.05627425888756923,0.003428842133798071,-0.0044957664033148026,-0.001973049342905059
310515000000,30,310515000000,FL_wheel_link,0.9898416646583651,-4.491816503292677,6.080835584384558,-0.4415076375009817,-0.10693351005022582,-0.006497571338794535
310516000000,31,310516000000,FL_wheel_link,0.03737866156942863,0.25622321996158315,0.26625051232128344,0.026442940196166793,-0.0036434216142854138,-0.00047119548327146575
310517000000,32,310517000000,FL_wheel_link,0.4744905113339278,-7.494111947709869,11.29682681533484,-0.5690733318764818,-0.05165382056485233,-0.006540464750789844
310518000000,33,310518000000,FL_wheel_link,0.1017215007220234,0.17525004270458516,-0.004877515707100402,0.008059663818335243,-0.0024968252360094948,-0.0024680839840489515
310519000000,34,310519000000,FL_wheel_link,-0.0033367000411058784,-0.030510668061265143,-0.05740664131881588,-0.0016293605717231498,0.0005188912315024472,-4.48268848612327e-05
310520000000,35,310520000000,FL_wheel_link,0.23340545422236067,-1.8318997506609194,9.647321973574714,0.09699265898734996,-0.02779514332956244,-0.005707744652988576
310521000000,36,310521000000,FL_wheel_link,0.5794331295429717,0.20371040199068596,1.5145286103065336,0.06932630712517701,-0.06408944825708174,-0.015383988535735619
310522000000,37,310522000000,FL_wheel_link,0.013470664973396263,0.008400104592793991,-0.005557830075919466,0.0005308287703366663,-0.0015600522574825584,-0.0004381373779646942
310523000000,38,310523000000,FL_wheel_link,0.1357286469535271,-1.9451869019122277,12.992709431981956,0.16916338438354134,-0.013313666733749096,-0.003484539291347003
310524000000,39,310524000000,FL_wheel_link,0.013780442008972918,0.01456665760232357,-0.006673832654414396,0.0014059386976730955,-0.0016499200122140226,-0.0004575031083676774
310525000000,40,310525000000,FL_wheel_link,-0.10658150814446246,-1.647796959652778,9.3224183101785,0.0845217162535619,0.012131061194834529,0.0030129990746667196
310526000000,41,310526000000,FL_wheel_link,0.04339890089312215,0.07857178740961539,-0.1621033999345409,0.010597957560744014,-0.008141438090228085,-0.0001670560893974976
310527000000,42,310527000000,FL_wheel_link,-1.115978552798953,-4.334795760277542,16.926223921048678,0.021237477693039093,0.11950004988940811,0.028230350931174878
310528000000,43,310528000000,FL_wheel_link,-0.027715521399978942,-0.02980204685418007,0.04430326637616672,-0.002571634720281231,0.0033447233456327503,0.0009591433395508975
310529000000,44,310529000000,FL_wheel_link,2.0391815726022284,-0.2848500725152592,12.016595035048054,0.30963328988678,-0.2169863112038375,-0.05464212858601234
310530000000,45,310530000000,FL_wheel_link,0.023880628584238048,0.02061277098358731,-0.009187302261617963,0.001534267335678257,-0.002799232889123188,-0.0008677972438099182
310531000000,46,310531000000,FL_wheel_link,-0.7230758216385937,-1.5955080946888982,9.265205263691442,0.09786494422936043,0.0771618145713645,0.01882030609487879
310532000000,47,310532000000,FL_wheel_link,0.03341748178148024,0.052388705304209256,-0.317745991126709,0.001030910759512798,0.0008891802186891288,8.547232979509699e-05
310533000000,48,310533000000,FL_wheel_link,1.5894754621249367,-2.851785504455777,4.896426156201586,-0.1523209263540891,-0.1598332145956194,-0.041774726370894154
310534000000,49,310534000000,FL_wheel_link,-0.7008409896956054,1.5701430883960201,2.340397230900119,0.23870160671622215,0.06652748231290265,0.018591575396993486
310535000000,50,310535000000,FL_wheel_link,-0.014503224436816805,0.07780297720211447,-0.12501508089049237,0.0038935129689142544,0.0019376853887482532,0.0005531700408971256
310536000000,51,310536000000,FL_wheel_link,0.8654790850189931,-2.310985045872622,5.7313856615019345,-0.078333600316389,-0.0832460290872697,-0.024711784379498076
310537000000,52,310537000000,FL_wheel_link,-0.06875633378749525,-0.07411594700681831,-0.05941309573590223,-0.004503022780929347,-0.0014347397947658297,0.0017213397078061448
310538000000,53,310538000000,FL_wheel_link,0.4380228420368406,1.2543207813624704,6.916841634793263,0.328741823999916,-0.042400325349927624,-0.01065704100838034
310539000000,54,310539000000,FL_wheel_link,0.025512568000969363,0.05640391462725636,-0.0026561561508919953,0.007239738549702242,-0.0028884009333097877,-0.0006524100537240151
310540000000,55,310540000000,FL_wheel_link,-0.29191730115357367,-2.5413866923371415,9.279171183345706,-0.0005068448201562093,0.03311114211588571,0.007739616864889798
310541000000,56,310541000000,FL_wheel_link,0.30132216882129026,-1.2870917728640618,2.1277722638437226,-0.0731128924561532,-0.02998180783046862,-0.007276892403598699
310541000000,57,310542000000,FL_wheel_link,0.4227707216837263,0.2241382429149214,11.671150882513848,0.352845713283452,-0.05487959750785418,-0.010558525550158267
310543000000,58,310543000000,FL_wheel_link,-0.01922720662882802,0.059678893216384435,-0.05814053721340843,0.004469966717587583,0.0017521487357650067,0.00031081952546598663
310544000000,59,310544000000,FL_wheel_link,-0.15140738674156004,-2.815550281834565,11.672691656787332,0.037662161936651416,0.02204461153576557,0.003672034963737197
310545000000,60,310545000000,FL_wheel_link,0.013123170990156157,0.04956271961535115,-0.20644957124278826,-0.0001494420105547493,-0.001047222412847899,-0.0008497585869043557
310546000000,61,310546000000,FL_wheel_link,-0.05802744700522081,0.10319319390898017,0.3282444217258102,0.009431496046306883,0.007406513051796276,-6.738575249896386e-05
310547000000,62,310547000000,FL_wheel_link,1.566901925545909,-2.4928190789866047,7.309096873841144,-0.09752816751135693,-0.1659321377142771,-0.024349649082802228
310548000000,63,310548000000,FL_wheel_link,-0.03710874399711066,-0.03028302194573667,-0.12862644919309385,-0.006866255653789185,-0.0026545378291135606,0.0018095484301327714
310549000000,64,310549000000,FL_wheel_link,0.03947189177115252,0.14009581519116945,-0.44704711473006165,0.012713114230016628,0.004529863037264336,7.840709707949524e-05
310550000000,65,310550000000,FL_wheel_link,0.0007303210463515308,-0.009448357672017927,-0.010455054969601129,-0.0002754288194221441,0.00024876614730279435,4.2673688624030555e-06
310551000000,66,310551000000,FL_wheel_link,0.2763662023153533,-2.871634656194207,12.802936411860491,0.06835983571337108,-0.025422144264785125,-0.0071049912762478
310552000000,67,310552000000,FL_wheel_link,0.1932516805897355,0.1634371021897508,0.9000226868039888,0.04159987362156785,-0.022781900843041082,-0.005606911762435115
310553000000,68,310553000000,FL_wheel_link,0.0046381486508692265,0.003328460196826614,-0.003955910253892276,0.0005275074171960746,-0.0003477648717500765,-0.00015253031617261603
310554000000,69,310554000000,FL_wheel_link,-0.0005580659313763996,-2.040324682529983,12.912589998598287,0.15591441438688733,0.0016492459234594926,0.00021484234421425018
310555000000,70,310555000000,FL_wheel_link,0.0073090545067326295,0.010694790987930216,-0.005420519163212529,0.0010442387332414045,-0.0008994584609030785,-0.0002353898360346771
310556000000,71,310556000000,FL_wheel_link,0.10035137892510883,-0.5269630810212417,4.438145371201651,0.0745186937336465,-0.01057332078327145,-0.002787113784552275
310557000000,72,310557000000,FL_wheel_link,0.003357318927671875,0.006426386094355568,-0.004459701794682144,0.0005602754572874493,-0.00041613105246448613,-0.00010759847734260867
310558000000,73,310558000000,FL_wheel_link,-0.005745188623709397,-2.048816655330422,12.914812841593276,0.15522462169064902,0.0016484135847916026,0.0004091693979248949
310559000000,74,310559000000,FL_wheel_link,0.0068557894583120196,0.009498382167633983,-0.003695561900968409,0.0010332898083930118,-0.0008746481055847371,-0.00022749339646884967
310560000000,75,310560000000,FL_wheel_link,0.07213332028266255,-0.534271808833204,4.539889897342034,0.07657863473521974,-0.007902944989877876,-0.0020311913668697584
310561000000,76,310561000000,FL_wheel_link,0.0024758894317153113,0.00644504528289377,-0.00424726395504297,0.0006047426513524968,-0.000329920574489129,-8.950781490747255e-05
310562000000,77,310562000000,FL_wheel_link,-0.007532484705216622,-2.0443397255060125,12.835204827726766,0.15336063932547447,0.0017315312219350033,0.00044066299086001126
310563000000,78,310563000000,FL_wheel_link,0.0066230191141050205,0.00876604514333277,-0.0028682823776177303,0.0009982154047104258,-0.0008569289691176357,-0.0002264276018072691
310564000000,79,310564000000,FL_wheel_link,0.049803065393267155,-0.5423607011331503,4.674586177339379,0.07953393272756591,-0.005644218758297689,-0.0014478218317514958
310565000000,80,310565000000,FL_wheel_link,0.001891458430127697,0.006808963876365035,-0.00438704252485117,0.0006508724706248811,-0.0002732961168529649,-7.728455725566772e-05
310566000000,81,310566000000,FL_wheel_link,-0.0035874120634100184,-2.0267259213676976,12.680298147856366,0.15075755956014925,0.0012457541422843383,0.00032153724692255683
310567000000,82,310567000000,FL_wheel_link,0.006658561637913193,0.008164964492343522,-0.002202657949412945,0.000958750500885306,-0.0008670829141791711,-0.00023085357199944514
310568000000,83,310568000000,FL_wheel_link,0.029365362345934138,-0.564692497511992,4.884166827717595,0.08318922416296227,-0.0035197302105016964,-0.000899604637714583
310569000000,84,310569000000,FL_wheel_link,0.001477954491771116,0.00729022934285111,-0.0047216112325468166,0.0006943166162188105,-0.00023357660121769037,-6.827373117092947e-05
310570000000,85,310570000000,FL_wheel_link,0.005337245895676171,-1.9910024532400623,12.418088942258532,0.1469940095464226,0.00025890080167642734,6.64194008674789e-05
310571000000,86,310571000000,FL_wheel_link,0.0069352765268052815,0.007556819919816982,-0.0015711503439465244,0.0009131584892464569,-0.0009050048885056795,-0.0002409247847106351
310572000000,87,310572000000,FL_wheel_link,0.006934759573365433,-0.614834527327728,5.22035126829673,0.08756722399873385,-0.0011453176010158058,-0.00028273981697175935
310573000000,88,310573000000,FL_wheel_link,0.001174501819612168,0.007836477943247058,-0.005171963001584533,0.0007374659634920255,-0.00020443652600050227,-6.154067869915579e-05
310574000000,89,310574000000,FL_wheel_link,0.020822813345256604,-1.9260793544856523,11.99379627377013,0.14170271047769348,-0.0014522626575358619,-0.00036347691434516095
310575000000,90,310575000000,FL_wheel_link,0.007342486922656768,0.00685528291214994,-0.0009970598509775415,0.0008522934549166875,-0.0009558163752021481,-0.00025556510924699255
310576000000,91,310576000000,FL_wheel_link,-0.021909450506621176,-0.7113960600673013,5.760887826752082,0.09293731862668028,0.0017866205185861578,0.0004927238403180268
310577000000,92,310577000000,FL_wheel_link,0.0005943313718792183,0.0075027081911956325,-0.006492432979984153,0.0007212177976460957,-5.823240562636043e-05,-3.659824442182523e-05
310578000000,93,310578000000,FL_wheel_link,0.06019661850047774,-1.8272310780895813,11.514623356881607,0.1379611754019063,-0.005643718174605858,-0.0014294281204829448
310579000000,94,310579000000,FL_wheel_link,-0.02557182040669808,-0.031774658525841847,-0.07473506995686882,-0.0016933138722739474,0.00046622420222941366,0.0002963337247335345
310580000000,95,310580000000,FL_wheel_link,0.32428804326375277,0.04686849749509697,5.902525458196821,0.17521881099836853,-0.0343663057829758,-0.008338334882637582
310581000000,96,310581000000,FL_wheel_link,0.006043743880361554,0.013531694120553505,-0.013273914570986865,0.0015072748153272615,-0.0007017051567608907,-0.00019904766439568614
310582000000,97,310582000000,FL_wheel_link,-0.2782499462389564,-2.1827260292772523,10.933984444476469,0.08405710590689257,0.031049343168342836,0.007206458756793517
310583000000,98,310583000000,FL_wheel_link,0.09224773647882667,-0.018548631189203548,1.2106265514153125,0.032252522052884536,-0.009018650081573628,-0.0022968273870187616
310584000000,99,310584000000,FL_wheel_link,0.002734384220150832,0.00355541833270255,0.00043664524256277286,0.00041856111925254986,-0.00034252554641754933,-0.00010369465756167613
310585000000,100,310585000000,FL_wheel_link,-0.04210230511918869,-2.074095680002272,13.095612331495609,0.1574190892665632,0.005251305361575094,0.0013431745723493781
310586000000,101,310586000000,FL_wheel_link,0.00522425655204708,0.01047124310198039,-0.004389939845225503,0.0010939754910584167,-0.000709599664477855,-0.00018935811630146484
310587000000,102,310587000000,FL_wheel_link,-0.0008775390102428347,0.07575288038164568,0.02369105738687743,0.010957994706064478,2.2856448090426684e-05,-8.256086495717238e-05
310588000000,103,310588000000,FL_wheel_link,0.29043329296972537,-9.304506456256616,11.975293713500667,-0.7125811932247633,-0.027839719443157662,-0.004587119866761946
310589000000,104,310589000000,FL_wheel_link,0.19620818800755385,1.9815260361951088,2.614684160026645,0.2738059912813706,-0.022666664962321094,-0.004398067930128638
310590000000,105,310590000000,FL_wheel_link,1.0309640966392537,-1.0306818854838067,3.118452270842641,-0.0011926467980546722,-0.10750037638114204,-0.026473335966880746
310591000000,106,310591000000,FL_wheel_link,-0.6353040785659049,-0.8634038261466945,4.934596459291962,0.05083804904761631,0.06313687853123129,0.016754502200367817
310592000000,107,310592000000,FL_wheel_link,0.04003352382445693,0.024669847186992694,-0.12855892083383072,-0.0011520837158578705,0.008977085616201278,-0.00027855398490895134
310593000000,108,310593000000,FL_wheel_link,4.3412688151146375,-1.8882957171184551,11.643767426621997,0.1363539499928251,-0.4432334052911766,-0.11169554601000446
310594000000,109,310594000000,FL_wheel_link,-0.20310707932842986,-0.003169742897868987,0.1690317484013608,-5.191933498024005e-05,0.007375958645168512,-0.001072224645688946
310595000000,110,310595000000,FL_wheel_link,2.34225379041438,-1.2550813254231226,7.661178863202973,0.0910598826939999,-0.2312200723174877,-0.05755472395868987
310596000000,111,310596000000,FL_wheel_link,0.09514160034871316,0.04109021310443171,-0.0816505981895844,0.00046763276533351726,0.00033692072482011484,-0.0019587469285070064
310597000000,112,310597000000,FL_wheel_link,3.5222263382893066,-1.3405099551271538,8.587481516097343,0.1085952052624836,-0.3644159182884248,-0.09154067707692705
310598000000,113,310598000000,FL_wheel_link,-0.1075546506422406,0.016361299821859212,0.09989203374883496,0.0004560597409147009,0.00487230495317467,-0.00163328641558575
310599000000,114,310599000000,FL_wheel_link,3.744835448636702,-1.611719211205027,10.481912228250277,0.13372820854346318,-0.37947214066046875,-0.095451506055688
310600000000,115,310600000000,FL_wheel_link,-0.028125547872276523,0.019515862101992812,0.11122706826541977,0.0012740663580609502,-0.0011798909185627147,-0.0028688313279629967
310601000000,116,310601000000,FL_wheel_link,3.3084487918106924,-1.2790158412331554,8.412370136956739,0.11091077460805623,-0.3397935633927627,-0.08524122443517336
310602000000,117,310602000000,FL_wheel_link,-0.05206900802257671,0.030345841973558912,0.05286139730530652,0.0009998678010327497,0.00435428426281905,-0.001708116491094365
310603000000,118,310603000000,FL_wheel_link,3.5671976075767518,-1.4831862373176052,9.752731458694903,0.127300873410487,-0.3627024495616212,-0.09109806329213449
310604000000,119,310604000000,FL_wheel_link,-0.011150933118938154,0.028235266982907844,0.06930421510648167,0.0014068040010183917,0.0003013486064378811,-0.00248711716016244
310605000000,120,310605000000,FL_wheel_link,3.329221864080277,-1.2715997805076875,8.55771744696905,0.11577850980804091,-0.341379799044597,-0.08565427824334367
310606000000,121,310606000000,FL_wheel_link,-0.026225308633572444,0.03411957560647399,0.03649472402304442,0.0012511474925669891,0.0034710372949576973,-0.0018766579870440115
310607000000,122,310607000000,FL_wheel_link,3.5098709399837924,-1.4019227236652618,9.385544888894087,0.125583159313277,-0.3579179846434943,-0.08984912190192834
310608000000,123,310608000000,FL_wheel_link,-0.0021848823931523874,0.032028435714587744,0.04890613147626612,0.0014620459004034351,0.0008368145896560097,-0.0023880162792290958
310609000000,124,310609000000,FL_wheel_link,3.3837559422164936,-1.279481691628016,8.696953225887059,0.1189094112720017,-0.3469264625593911,-0.08706619695846174
310610000000,125,310610000000,FL_wheel_link,-0.012250147414684725,0.0345513333227962,0.030781723074485574,0.0013516667529719093,0.002640833061439832,-0.00203718892563753
310611000000,126,310611000000,FL_wheel_link,3.5031595749546796,-1.3617244316806196,9.209982885740775,0.12478555370161956,-0.3580273206117494,-0.08989017226614628
310612000000,127,310612000000,FL_wheel_link,0.00193959609007313,0.032810510211509415,0.039209373166985396,0.00145396314389767,0.0009764928813430994,-0.002363218674904771
310613000000,128,310613000000,FL_wheel_link,3.4346084097500253,-1.2906443523846924,8.809392283488007,0.12083291880670129,-0.35219208981607125,-0.08842593477858378
310614000000,129,310614000000,FL_wheel_link,-0.004454515501148566,0.034068368921806896,0.028745949317869154,0.0013736320524031446,0.0020380625878526756,-0.0021682762894107248
310615000000,130,310615000000,FL_wheel_link,3.5064990154048075,-1.3398505947761246,9.117910941632141,0.12436805809474837,-0.3588747130420909,-0.09012850591523418
310616000000,131,310616000000,FL_wheel_link,0.003534373647192645,0.0326321376498362,0.033988487755333203,0.0014259894560768212,0.0010074056830810811,-0.002356770720754694
310617000000,132,310617000000,FL_wheel_link,3.468661465620679,-1.2969937316818885,8.882623941209243,0.12214834838478619,-0.35572610145272454,-0.08934047139697081
310618000000,133,310618000000,FL_wheel_link,-0.00018024708104323286,0.03334010207709546,0.0272671400253451,0.0013629198311518357,0.0016539042772730822,-0.0022484926031066505
310619000000,134,310619000000,FL_wheel_link,3.508815687119881,-1.3240309078354193,9.057818479652182,0.12423756428690379,-0.3594375971606535,-0.09028471460844342
310620000000,135,310620000000,FL_wheel_link,0.004229125563251951,0.032157068495847096,0.030193470261607055,0.0013833017872912476,0.0010449833444555181,-0.0023535339625289173
310621000000,136,310621000000,FL_wheel_link,3.4875051135747075,-1.2998614025179966,8.925256087069675,0.12295370377247043,-0.35766117678997034,-0.08984719316203055
310622000000,137,310622000000,FL_wheel_link,0.002225769248655577,0.03279272110533996,0.02576388419701171,0.0013384554698632851,0.0014374109908945434,-0.0022987019871473268
310623000000,138,310623000000,FL_wheel_link,3.5065770399259075,-1.3128241635775606,9.015608025379237,0.1241300076344173,-0.359378689368602,-0.09028004463106165
310624000000,139,310624000000,FL_wheel_link,0.004949062917810978,0.03205413201596762,0.026835012677750743,0.001348291333105509,0.0010748352760694018,-0.0023556671447267493
310625000000,140,310625000000,FL_wheel_link,3.4966593199481206,-1.2983047484427812,8.941760073389503,0.12352028659825845,-0.3586143362477244,-0.09009197516961215
310626000000,141,310626000000,FL_wheel_link,0.003394846999625809,0.03229131042870313,0.0241263801318929,0.0013172361261336424,0.0013133231145619287,-0.002319658460923407
310627000000,142,310627000000,FL_wheel_link,3.504797670023137,-1.3041543228428172,8.988707726767172,0.12421414994700841,-0.3592956381491302,-0.09026233960411646
310628000000,143,310628000000,FL_wheel_link,0.004822752288792411,0.03177902682819351,0.02464097237964548,0.001325171614757097,0.0011022840817203894,-0.002343849936605328
310629000000,144,310629000000,FL_wheel_link,3.4995064528717643,-1.2968891123129234,8.949377283926045,0.12382434353082443,-0.3588887950018109,-0.09016907661099806
310630000000,145,310630000000,FL_wheel_link,0.0033487585047215786,0.03259640392391775,0.025669960996599826,0.0013721765529617028,0.0012534805150001432,-0.00231276631489164
310631000000,146,310631000000,FL_wheel_link,3.507085394711903,-1.3127007101250763,9.002327766017533,0.12371649406408995,-0.3595192538431766,-0.09034778632081575
310632000000,147,310632000000,FL_wheel_link,0.015875985251407782,0.03868109653325559,0.02546829407498129,0.001440679007483102,0.001062312769774207,-0.0026255554368445084
310633000000,148,310633000000,FL_wheel_link,2.7216426566430445,-0.9566373015506286,6.328384148117644,0.08955947242884457,-0.2783901864489509,-0.06972710873085246
310634000000,149,310634000000,FL_wheel_link,0.05235959577028296,-0.0834186265187382,-0.2948717111159754,-0.008104877415941342,-0.007622026361935217,-0.0024377317517910793
310635000000,150,310635000000,FL_wheel_link,1.3105070329197637,0.48869631426573423,12.803399031183584,0.41000204399378193,-0.15134382131313198,-0.034288144935222475
310636000000,151,310636000000,FL_wheel_link,0.0016343595772008682,0.05303909204210188,-0.06105354675743586,0.003983436884464706,-0.0004455449869775901,-0.0002724603058323681
310637000000,152,310637000000,FL_wheel_link,0.4213394890316721,-3.1450513757003136,11.717570073484595,-0.007624260699279548,-0.029566563205805352,-0.012029244777076599
310638000000,153,310638000000,FL_wheel_link,0.6316567477063656,-1.1263694023929345,0.96996309323817,-0.09333192516791504,-0.06104519766483418,-0.016596343676857393
310639000000,154,310639000000,FL_wheel_link,1.2314362754718433,1.6264971561258028,4.671698688913089,0.30826071158019963,-0.12250301487744886,-0.03173608403361172
310640000000,155,310640000000,FL_wheel_link,0.0388478109380984,0.08207273491132022,-0.061765110170629516,0.006763577831589121,-0.004815559523532952,-0.0011903338160136688
310641000000,156,310641000000,FL_wheel_link,0.5325551454219914,-2.6472056865982743,10.959856819758704,0.038918445769914614,-0.05266726284394409,-0.01386010842756481
310642000000,157,310642000000,FL_wheel_link,0.6947349432046325,-0.8288408201689381,1.0360575016207723,-0.05810882058668521,-0.07188219139719705,-0.01824409142279241
310643000000,158,310643000000,FL_wheel_link,1.1059926780911469,0.7760542806847699,4.661858121881796,0.21789841231701101,-0.11192115738538674,-0.02890959010903357
310644000000,159,310644000000,FL_wheel_link,0.03670294511401277,0.05493440521315678,-0.04560251395237659,0.004445380742047209,-0.004456312485034906,-0.0011065383874899301
310645000000,160,310645000000,FL_wheel_link,0.48712335315155064,-2.364378545801746,11.431212394119092,0.08344502421084089,-0.04901665452054616,-0.012755840702145074
310646000000,161,310646000000,FL_wheel_link,0.5926634027486448,-2.9726822370939607,2.6388879449777236,-0.3232737287057477,-0.06125395449068188,-0.01583449710044173
310647000000,162,310647000000,FL_wheel_link,0.6573342816216722,-17.719517105334326,20.118268682363883,-2.0355270842262985,-0.07262328765332413,-0.0011839275199181495
310649000000,163,310648000000,FL_wheel_link,0.049521956314551654,-0.3494808587401282,0.36514953900442365,-0.09583928741934672,-0.002552413403886733,0.00021723303021393771
310649000000,164,310649000000,FL_wheel_link,0.34474363925223417,-17.498293231054028,21.929063838310444,-1.932378696830713,-0.03824673043601725,-0.00038956543474299716
310649000000,165,310650000000,FL_wheel_link,0.050100254363663,-0.7291795633237013,0.2535969828979325,-0.06938515103794962,-0.0025885799471116926,0.00018312923643954644
310651000000,166,310651000000,FL_wheel_link,-0.006252102851603189,0.03583090961709272,-0.009546853224152394,-5.2017585562236917e-05,0.0005096601944779098,7.992706376082488e-05
310652000000,167,310652000000,FL_wheel_link,0.2066039927349836,-16.67965046380875,21.112514228283597,-1.8416043532138364,-0.024131432114421165,-0.000258299932252229
310653000000,168,310653000000,FL_wheel_link,0.03980021247421499,-0.6795681105823861,0.23940105747791754,-0.06552915352672994,-0.0016556905930113657,0.0001310733705909238
310654000000,169,310654000000,FL_wheel_link,-0.0045729675907780236,0.04357407445383283,-0.010425045696968846,-7.199701547762954e-05,0.0003140711900620017,3.78379801488572e-05
310655000000,170,310655000000,FL_wheel_link,0.1101805537401973,-16.096920623844998,20.590294962689068,-1.776897443644433,-0.013823772060478159,-0.00021162479457511747
310656000000,171,310656000000,FL_wheel_link,0.033307917700956646,-0.6460894871653843,0.2300656311253579,-0.06292948516368423,-0.0010810966123907155,0.00010488127602462553
310657000000,172,310657000000,FL_wheel_link,-0.0034689475185916557,0.0465886349155777,-0.010742865035084944,-8.033862498741257e-05,0.00019170004321824438,1.6477217404612465e-05
310658000000,173,310658000000,FL_wheel_link,0.05060865066728095,-15.702220723396106,20.25218326178752,-1.7328278581736476,-0.007505770291546844,-0.00016208439219347922
310659000000,174,310659000000,FL_wheel_link,0.029949930405846235,0.26318025770214976,1.2303947413506027,0.0013567331443308092,-0.0006099581407198336,-4.564076377343147e-06
310660000000,175,310660000000,FL_wheel_link,0.061473908844382835,-7.908985359454102,13.558625498472855,-0.8482791787746486,-0.007725274603754732,-0.00011684131433345303
310661000000,176,310661000000,FL_wheel_link,0.02468775069526412,0.010238316131574802,0.3441761202468094,-0.008306767652260549,-0.001188051471995234,-0.0004845738617091469
310662000000,177,310662000000,FL_wheel_link,0.06320258610880655,-4.797827284064707,7.597294724778761,-0.5211358693546214,-0.004344285516713629,6.359324142776363e-05
310663000000,178,310663000000,FL_wheel_link,0.004614120975353317,0.18525222467286576,0.22092455579082734,0.0135005223300902,-0.002527153379251627,-0.0005436837920248099
310664000000,179,310664000000,FL_wheel_link,-0.14018895980285895,-5.574312869745264,9.401898904066124,-0.5951162921937388,0.01373790079531005,8.658146580525192e-05
310665000000,180,310665000000,FL_wheel_link,0.046203929391559276,0.11307763434377482,0.2554316556381822,0.0034380479121369346,-0.0019697984194283367,-0.0003914942014765303
310666000000,181,310666000000,FL_wheel_link,-0.07800208148649228,-4.815775265401456,7.732280977077147,-0.5173889683986445,0.005344121983385482,0.00047390519287363373
310667000000,182,310667000000,FL_wheel_link,0.027710832000730278,0.17571913545013995,0.28759194519973913,0.014136767545480336,-0.0014033169202807892,-3.6356461256097576e-05
310668000000,183,310668000000,FL_wheel_link,-0.05359379225716874,-5.279921708307758,9.34769052499648,-0.5603192161402083,0.003707019505090294,0.00025319301913639394
310669000000,184,310669000000,FL_wheel_link,0.011277066321024947,0.2749047925824186,0.6208704782172744,0.028051817755734447,-0.0004601170180483728,0.00027520879104624434
310670000000,185,310670000000,FL_wheel_link,0.004914834784625887,-1.5515805578905564,9.90888562011639,-0.14115399656178598,-0.001143486074100604,0.00023091919427273427
310671000000,186,310671000000,FL_wheel_link,0.004232418797202768,-0.00016823807920323425,-0.021553982487213474,-0.0014320853632814698,-0.000631625518760715,-7.1923875702169365e-06
310672000000,187,310672000000,FL_wheel_link,-0.03829821236761726,1.7922624567306353,6.577614394891107,0.20356105477214897,-0.00013474790292247968,0.0018975652226859599
310673000000,188,310673000000,FL_wheel_link,-0.029871378973581938,-0.05576069689510645,-0.1981053539386025,0.006228376719641974,0.0010282960521734344,0.00019999990220974465
310674000000,189,310674000000,FL_wheel_link,-0.0742323796202889,-2.4104842946444323,10.938238129650989,-0.26672365637580847,0.012256272979694149,-0.0019322227032525226
310675000000,190,310675000000,FL_wheel_link,0.001745693791032002,-0.05107797941846801,0.0478343726161283,-0.0055440104477141915,7.625508574910132e-05,-1.830228192351503e-05
310676000000,191,310676000000,FL_wheel_link,-0.08292629519037893,-0.8375953411351916,11.3754681790644,-0.09243399506814061,0.009683529406847363,0.00012487260726527322
310677000000,192,310677000000,FL_wheel_link,0.013241785875092001,-0.6430607046956937,2.3737066642115736,-0.06934828120794354,-0.001727036792481007,-0.00015817670273413098
310678000000,193,310678000000,FL_wheel_link,0.0016005899695096582,-0.0153136566569293,0.008513984701834414,-0.0017983464046208075,-0.0001120231655687792,2.3955335527500603e-06
310679000000,194,310679000000,FL_wheel_link,-0.06840342457206139,-2.0872078950569906,16.040253476835037,-0.22821837539415069,0.008022530138085193,0.00010787237231139779
310680000000,195,310680000000,FL_wheel_link,0.004575398405572652,-0.018889245209431894,0.017718382317088652,-0.002106701396710661,-0.000496937335004543,9.177082474542799e-07
310681000000,196,310681000000,FL_wheel_link,0.015088252659355787,-0.9252629449185794,5.919742300576364,-0.1023291582592226,-0.0022489825610950242,2.976996099434052e-05
310682000000,197,310682000000,FL_wheel_link,0.002620491057409442,-0.010283552994610742,0.010527161799125872,-0.0011721612787049616,-0.0002465056821866936,7.501984507666406e-07
310683000000,198,310683000000,FL_wheel_link,-0.049183458730334854,-1.9683017230133153,15.913367330353708,-0.21475468879810047,0.00584894265750198,8.657207059979645e-05
310684000000,199,310684000000,FL_wheel_link,0.005422488305080309,-0.015197007430048648,0.016986052241891973,-0.0016568272302982879,-0.0006033940091447786,-4.218023417926471e-06
310685000000,200,310685000000,FL_wheel_link,0.024353582642092888,-0.828303258091491,5.9703801359176,-0.09136564435808239,-0.003267747691038876,7.616801672831036e-06
310686000000,201,310686000000,FL_wheel_link,0.002777766688637105,-0.0070307887209143955,0.009555749456975526,-0.0007893642850140988,-0.00027718218202325064,-3.060064097561229e-06
310687000000,202,310687000000,FL_wheel_link,-0.03669456631732702,-1.8818846059843557,15.730242640439284,-0.2049143892010378,0.004512826615568986,4.3653148134029644e-05
310688000000,203,310688000000,FL_wheel_link,0.005925534003882212,-0.013413939984559113,0.016680522924485675,-0.0014254906925503126,-0.0006672783199875791,-6.763214348232087e-06
310689000000,204,310689000000,FL_wheel_link,0.021010681420976177,-0.7756418079899897,6.1116160937892055,-0.0852595624714545,-0.002871350836863812,1.073005863581192e-05
310690000000,205,310690000000,FL_wheel_link,0.0026665300672684285,-0.0052763268036903534,0.00865536457326196,-0.0005795230553685538,-0.000271562885249772,-4.5008076923426855e-06
310691000000,206,310691000000,FL_wheel_link,-0.02351110640568075,-1.8117017864608822,15.432904110875526,-0.19693415476520268,0.0030841391962180436,6.934928738041295e-06
310692000000,207,310692000000,FL_wheel_link,0.006391939411354914,-0.012916463036529744,0.01686008490450268,-0.0013456894778246283,-0.0007246634797354281,-8.113434011936062e-06
310693000000,208,310693000000,FL_wheel_link,0.006835462399819735,-0.7589649388637576,6.4298118698156825,-0.08309810416098524,-0.0012682396277424774,3.475871121849819e-05
310694000000,209,310694000000,FL_wheel_link,0.0024578782540903257,-0.00429799748162888,0.007989042517983038,-0.0004631852152020173,-0.0002508241136168446,-4.963715366140441e-06
310695000000,210,310695000000,FL_wheel_link,-0.00453874544341105,-1.7388261015201576,14.911731835302387,-0.1887674757349299,0.0010016436820624768,-3.950686463910319e-05
310696000000,211,310696000000,FL_wheel_link,0.00704317928932836,-0.013196045245073453,0.017524183276415365,-0.0013587047388064098,-0.0008039262308192093,-8.774588860731389e-06
310697000000,212,310697000000,FL_wheel_link,-0.019477243440132276,-0.7774821990075959,7.06459324934279,-0.0848262958328683,0.0015873952961373604,8.007576994695352e-05
310698000000,213,310698000000,FL_wheel_link,-0.02401438146441675,0.088454794525894,0.24415259547670473,0.006268381561235037,0.003912448753433555,-0.000426796487099555
310699000000,214,310699000000,FL_wheel_link,0.6647959209266099,-2.652512371119213,15.456782723283581,-0.2852897964614556,-0.07275329744813162,-0.0004960771283662666
310700000000,215,310700000000,FL_wheel_link,0.03358183091444482,-0.05339839337437858,0.06478009089667779,-0.005315950931833784,-0.0038842117155354775,-2.789683927302035e-05
310701000000,216,310701000000,FL_wheel_link,-0.7506014016706354,0.5048835697792753,6.140436505939229,0.055732925921913735,0.07881533856185262,0.002085769317847861
310702000000,217,310702000000,FL_wheel_link,0.01778261735784293,0.023300214039240735,-0.5270546583446806,0.0009331812613840911,0.0023145610892413345,-0.0005269203459811617
310703000000,218,310703000000,FL_wheel_link,2.7116567107985783,-4.300972442580015,8.469759302709187,-0.4580832182673891,-0.2801161055355353,-0.005067777682713783
310704000000,219,310704000000,FL_wheel_link,0.008144027931423905,0.09853972717219805,-0.5891791016489699,0.004723628037014571,-0.0012296526267837166,0.001382767880667961
310705000000,220,310705000000,FL_wheel_link,0.026320675722764492,-0.064363114786134,-0.3842321270768973,-0.0028886243338802566,-0.00036611815460526595,0.0005026940565199526
310706000000,221,310706000000,FL_wheel_link,2.007468284729041,-3.3631224202025853,8.74476780805854,-0.3496530361346067,-0.2025576349681665,-0.00390992141344409
310707000000,222,310707000000,FL_wheel_link,0.6498166075914049,0.337213432016344,4.758719238882426,0.032540615820893196,-0.08592059291004357,0.0031202415681407048
310708000000,223,310708000000,FL_wheel_link,0.7872692589180833,-1.0364770776153454,3.382064622926822,-0.1137215565672295,-0.08114202714878599,-0.0018752167587878532
310709000000,224,310709000000,FL_wheel_link,0.03593637857913969,-0.028674924907986035,0.027939496763470746,-0.00329917313203749,-0.0037419756929796496,-1.5115643381891771e-05
310710000000,225,310710000000,FL_wheel_link,0.672952432189143,-2.241709124416371,15.311760125401165,-0.245470589138265,-0.07250042658065323,-0.0006486342923565584
310711000000,226,310711000000,FL_wheel_link,0.02192973530081099,0.001445116159113145,0.10682257092105892,-0.0020340868113328807,-0.0037695907485303737,4.619154022784026e-05
310712000000,227,310712000000,FL_wheel_link,0.6103281096435011,-4.504523524463551,6.793229368810015,-0.48854269712118215,-0.06674760107719502,-0.00035207713367263525
310713000000,228,310713000000,FL_wheel_link,0.030533936572925094,0.18134563386055855,0.3557087346235133,0.02236721017288548,-0.0023821023340448526,1.210127907001309e-05
310714000000,229,310714000000,FL_wheel_link,0.19634285311616145,-3.4970065979320912,14.195247012153416,-0.3693522297668821,-0.02034648427466403,-0.0004186993844558831
310715000000,230,310715000000,FL_wheel_link,0.024132232561109017,-0.10494505620554766,0.017993073489486575,-0.009742313029432004,-0.0021199794607176955,-1.7038378332543068e-05
310716000000,231,310716000000,FL_wheel_link,-0.0014577007302581067,0.2807361414356415,0.29583134210305867,0.03010865195818478,0.0001832451380485036,8.633724439821447e-05
310717000000,232,310717000000,FL_wheel_link,0.10856344619238095,-3.670360623062599,14.808987728335158,-0.39044680741432597,-0.011731694853177658,-0.00015473511589912813
310718000000,233,310718000000,FL_wheel_link,0.018245719535688563,-0.09312909589023817,0.061573518710634996,-0.009321688052787328,-0.0014853304729362889,-1.388921380549721e-05
310719000000,234,310719000000,FL_wheel_link,0.24478069572641736,0.87684506921255,6.325342258046263,0.09531661732440029,-0.026267051313652208,1.9210408917694304e-06
310720000000,235,310720000000,FL_wheel_link,0.13662816351064572,-0.8292996870872185,4.450797402125517,-0.0876339709992787,-0.015380233749975904,-0.0001449448677023462
310721000000,236,310721000000,FL_wheel_link,0.009485977364450338,-0.021236253223228304,0.014084676577141625,-0.0025545943614951852,-0.0009082306021459273,-1.8529457080217962e-05
310722000000,237,310722000000,FL_wheel_link,0.04417498422694987,-1.8428250001738173,15.612363964012857,-0.19988416667393483,-0.0035700514637838315,-0.00013337655917781182
310723000000,238,310723000000,FL_wheel_link,0.011332523911377188,-0.021778112424423124,0.013247633944904271,-0.002619793671718278,-0.0011905302575271229,-1.4986306813038868e-05
310724000000,239,310724000000,FL_wheel_link,0.007355621601826856,0.04753663721365146,-0.622014526151217,0.0008737430595855097,0.0009192812310800713,0.00030564461894639163
310725000000,240,310725000000,FL_wheel_link,0.5393953889923875,-1.3624318082649882,11.998932482416022,-0.14183963063514926,-0.05744558423792176,-0.0010047423510191082
310726000000,241,310726000000,FL_wheel_link,-0.11371405748457052,-0.14632580858078326,-0.22389200103101772,-0.010694234523269746,0.004305491415828442,0.0023288573755136806
310727000000,242,310727000000,FL_wheel_link,0.7965266168952932,-0.6690251272188793,21.927213576396383,-0.07271329663259016,-0.0810785439310097,-0.00461343313747578
310728000000,243,310728000000,FL_wheel_link,0.7839358661472701,-0.24281179552267287,3.539333465313041,-0.01981228202915096,-0.08687985041224576,0.0007677600257442129
310729000000,244,310729000000,FL_wheel_link,-0.08747377354880652,-0.12356765528804095,-0.3236206874636167,-0.010907842530537719,0.005320124041895674,0.002047899165214387
310730000000,245,310730000000,FL_wheel_link,1.1710507331871445,0.21715008391701335,19.95312415396591,0.03199065919852527,-0.12649561244947943,-0.0008992219608966942
310731000000,246,310731000000,FL_wheel_link,0.006801665005375441,-0.010222119979197471,0.04331816598687,-0.0009893813621263284,-0.00036727281504723953,-0.00022498694777539985
310732000000,247,310732000000,FL_wheel_link,-1.45791658117908,-2.7264445756166045,12.695587904698007,-0.29726196732904286,0.16602661524162354,6.840104437285174e-05
310733000000,248,310733000000,FL_wheel_link,-0.006500699746663019,-0.022823154433591394,0.03149442121340081,-0.002212300270080918,0.0012372431960062148,-2.838360673175006e-06
310734000000,249,310734000000,FL_wheel_link,0.16490478499405484,-1.3430508413021525,13.006634758019738,-0.14636282289530125,-0.014556880853478867,-0.0008017744065189542
310735000000,250,310735000000,FL_wheel_link,0.015021364153076056,-0.014855238250085575,0.0246761134647385,-0.001572440997675514,-0.0016617716605432777,-2.663007921435373e-05
310736000000,251,310736000000,FL_wheel_link,0.024629208064460485,-0.679213578648634,9.150391431048394,-0.0727585075196471,-0.002833859758090039,0.00016353859226877072
310737000000,252,310737000000,FL_wheel_link,0.0064003246712644795,0.001946127564572189,-0.003454418360865914,4.833652087238329e-05,-0.0007363068801008212,-1.4320486067399404e-05
310738000000,253,310738000000,FL_wheel_link,0.12716796516956064,-1.149392551836612,11.848285490844201,-0.12235592381274642,-0.013223211832454233,-0.00017920088517683877
310739000000,254,310739000000,FL_wheel_link,0.012760660341410695,-0.00976255367734744,0.014934890938792819,-0.0010576829612785798,-0.0014605586448053374,-1.647712191450185e-05
310740000000,255,310740000000,FL_wheel_link,0.020884574222788704,-0.691957498045071,9.268155881146138,-0.07342258862445061,-0.002544495239023563,0.0001366456170175128
310741000000,256,310741000000,FL_wheel_link,0.005934161972431054,0.0005967512931077736,-0.000324043019581451,-1.6616982071708506e-05,-0.0007026241872464378,-1.1179660182876364e-05
310742000000,257,310742000000,FL_wheel_link,0.08947532164272261,-1.0692344188752831,11.693269124827827,-0.11320952698437309,-0.009291009551880657,-0.0001195251934841565
310743000000,258,310743000000,FL_wheel_link,0.010479461273028871,-0.007958167351509433,0.012235704369770471,-0.0008468402133884873,-0.0012129227493268835,-1.5052562366009074e-05
310744000000,259,310744000000,FL_wheel_link,0.01105993517344261,-0.7108856356282323,9.325636608947748,-0.07515555208050081,-0.001428606517458348,9.146360178671862e-05
310745000000,260,310745000000,FL_wheel_link,0.005297230351730948,-0.0008851361588106558,0.0011752379686200641,-0.00014157350547740395,-0.0006354965776869531,-1.0337508440483978e-05
310746000000,261,310746000000,FL_wheel_link,0.05755549758779476,-1.0130164472212324,11.59340092262519,-0.10684298190138039,-0.005889724553544083,-8.190433484477347e-05
310747000000,262,310747000000,FL_wheel_link,0.008672336980822131,-0.0069148160626837036,0.010598616372540766,-0.0007275083374922654,-0.0010115401575386286,-1.3721110904984172e-05
310748000000,263,310748000000,FL_wheel_link,0.004423117282378238,-0.7214811809108688,9.367115514437616,-0.07604693226243607,-0.0006486275444131195,6.477923032458922e-05
310749000000,264,310749000000,FL_wheel_link,0.004830758626434418,-0.0019898722851482043,0.0022257618479369283,-0.00024314696215479298,-0.000584953396630673,-1.0016085911077606e-05
310750000000,265,310750000000,FL_wheel_link,0.03410148716091525,-0.9668405360628994,11.514097482602832,-0.10160271964233429,-0.0033834085568145455,-5.319434637927435e-05
310751000000,266,310751000000,FL_wheel_link,0.007377511123138856,-0.006146161672149131,0.009428102455501986,-0.0006441774570927341,-0.0008666517780051841,-1.2759294640470944e-05
310752000000,267,310752000000,FL_wheel_link,0.0007385561161341799,-0.722964350008409,9.396341082600106,-0.07597958002577855,-0.00019398179897228959,4.1771418312614545e-05
310753000000,268,310753000000,FL_wheel_link,0.004594853483780624,-0.002669060960649031,0.0029668513615844997,-0.0003062881341402613,-0.0005618259272501861,-9.363997441090141e-06
310754000000,269,310754000000,FL_wheel_link,0.018117943571008415,-0.9257558272158602,11.44793555480643,-0.09690192468031267,-0.0016943944259800664,-2.6512009941825408e-05
310755000000,270,310755000000,FL_wheel_link,0.006491005774883308,-0.005519769327997644,0.008551350578018284,-0.0005782552498403834,-0.0007677934966610218,-1.2167491670241916e-05
310756000000,271,310756000000,FL_wheel_link,-0.00042634394410567236,-0.7168648988969369,9.415548131327544,-0.07508833941193484,-3.0260272968185326e-05,2.4248185228769923e-05
310757000000,272,310757000000,FL_wheel_link,0.004499773992044285,-0.003061405598313837,0.0034657921948507186,-0.00034251017208834203,-0.000554648823605272,-8.98275977228576e-06
310758000000,273,310758000000,FL_wheel_link,0.0072613284845328635,-0.8883258725333266,11.391088400984856,-0.09259693390202954,-0.0005521497645066712,-8.014284910870292e-06
310759000000,274,310759000000,FL_wheel_link,0.005895088108528244,-0.004990866082191224,0.007876764596283356,-0.0005228453108269186,-0.0007021768087770586,-1.161190277484553e-05
310760000000,275,310760000000,FL_wheel_link,-0.0002475416905033368,-0.705409155269082,9.426656782206258,-0.07361247955123087,-2.370318121021483e-05,1.1356521684110755e-05
310761000000,276,310761000000,FL_wheel_link,0.004492376628991787,-0.003259250238320045,0.003805269653498725,-0.00035942993167925586,-0.0005573119326785735,-8.657594603055014e-06
310762000000,277,310762000000,FL_wheel_link,1.7139298092658738e-05,-0.8535593305520504,11.341131932207702,-0.08857304291478325,0.00019995467985394616,7.291317714641237e-06
310763000000,278,310763000000,FL_wheel_link,0.0054844027858905586,-0.004553545171426126,0.007346083612875733,-0.0004770514520811231,-0.0006571349151846168,-1.1325203334819076e-05
310764000000,279,310764000000,FL_wheel_link,0.0004497809830055562,-0.6905107790787633,9.431650488041697,-0.07176794593465223,-7.46569449401216e-05,-5.056295399770076e-07
310765000000,280,310765000000,FL_wheel_link,0.004529085430340802,-0.0033229357819000312,0.004023932955338396,-0.00036273597710131754,-0.0005648307432920784,-8.30154183128407e-06
310766000000,281,310766000000,FL_wheel_link,-0.004891057525028827,-0.8208433971852132,11.296178591829806,-0.08476808602035214,0.0007040352749067228,1.9508189700559376e-05
310767000000,282,310767000000,FL_wheel_link,0.00520327142655983,-0.0041789346023130836,0.006915872811877972,-0.0004374820834983222,-0.000626732970788769,-1.1091569869812519e-05
310768000000,283,310768000000,FL_wheel_link,0.0013642852594702769,-0.6731262130256369,9.431803326549366,-0.06965232246039227,-0.00015378489215272026,-9.54963336923909e-06
310769000000,284,310769000000,FL_wheel_link,0.004582216110129258,-0.0033000956589556004,0.004142392947602694,-0.0003574689655857869,-0.0005739148079448129,-8.006157344775734e-06
310770000000,285,310770000000,FL_wheel_link,-0.008248849207750129,-0.7897126819454672,11.25490146088194,-0.08113460773477527,0.0010465790189150793,2.8645917109908677e-05
310771000000,286,310771000000,FL_wheel_link,0.005010089580702825,-0.003852563816773083,0.006557282911503392,-0.00040261406058107914,-0.0006062362359800921,-1.090826895223255e-05
310772000000,287,310772000000,FL_wheel_link,0.002523985971855506,-0.6538736120369624,9.428388004134256,-0.06732679451288713,-0.00026961815860076306,-1.4265322612075927e-05
310773000000,288,310773000000,FL_wheel_link,0.004622306442965774,-0.0032342558553064495,0.004180421820735248,-0.0003483693373075938,-0.0005805569084145953,-8.056953757339736e-06
310774000000,289,310774000000,FL_wheel_link,-0.010717559880607682,-0.7598603848495198,11.216266558463792,-0.07764447838930441,0.0013028567696232122,3.3763157450221266e-05
310775000000,290,310775000000,FL_wheel_link,0.004869524816688047,-0.0035644320219384963,0.006249891922941545,-0.000371679072703938,-0.0005915013098205003,-1.0821740122749995e-05
310776000000,291,310776000000,FL_wheel_link,0.0035721844234910165,-0.6334458157883969,9.422195117615972,-0.0648750126249015,-0.0003738621087961073,-1.8166951231965373e-05
310777000000,292,310777000000,FL_wheel_link,0.004659401886092312,-0.003128291942956873,0.00416971712751994,-0.0003352468326387507,-0.000586633747325162,-8.110536826634588e-06
310778000000,293,310778000000,FL_wheel_link,-0.012486800373240587,-0.7309028287834911,11.179658148178397,-0.07425124501042918,0.001486922369717101,3.741834793322609e-05
310779000000,294,310779000000,FL_wheel_link,0.004768852800935055,-0.003302087443967467,0.005979252698811691,-0.0003432832096566947,-0.0005812954251927634,-1.0748839422458678e-05
310780000000,295,310780000000,FL_wheel_link,0.004515463054430944,-0.6121902091819001,9.413865250780804,-0.06233347029241854,-0.00046809746504644715,-2.112697857408027e-05
310781000000,296,310781000000,FL_wheel_link,0.004692942864720118,-0.002994532463160083,0.004123238373209173,-0.00031929302386510467,-0.0005921731843848308,-8.148245111474853e-06
310782000000,297,310782000000,FL_wheel_link,-0.013745480916904364,-0.702628527987192,11.14461379649906,-0.07093175930981846,0.0016179849093650388,4.008594445769751e-05
310783000000,298,310783000000,FL_wheel_link,0.004696998844413744,-0.0030588682785215064,0.005735263285019558,-0.00031674790290745343,-0.0005743828497551324,-1.0686329946065226e-05
310784000000,299,310784000000,FL_wheel_link,0.005354971046584028,-0.5903634549504002,9.4038728861934,-0.05972991368975032,-0.0005522342563153137,-2.338018973770004e-05
310785000000,300,310785000000,FL_wheel_link,0.00472240916871365,-0.0028419209346136473,0.004050236380735621,-0.00030141075463667737,-0.0005971484058475906,-8.173661623426884e-06
310786000000,301,310786000000,FL_wheel_link,-0.014592142412591914,-0.6748434278134268,11.110784947694636,-0.06766364277622665,0.0017046478979995698,4.250391289961073e-05
310787000000,302,310787000000,FL_wheel_link,0.004642998252397527,-0.0028325219370311182,0.005510123129830686,-0.0002920068835285351,-0.000569406574118627,-1.0686333959852115e-05
310788000000,303,310788000000,FL_wheel_link,0.006071593456991545,-0.5681676671219194,9.392564545605035,-0.057087070307282446,-0.0006231160466020558,-2.5420933347784125e-05
310789000000,304,310789000000,FL_wheel_link,0.004746490079341085,-0.002677539330017525,0.003957411448805509,-0.0002823586506363161,-0.000601391420557524,-8.205992986681545e-06
310790000000,305,310790000000,FL_wheel_link,-0.015156453566427586,-0.6474582512125372,11.077900124751958,-0.06443816268004408,0.0017614014756363921,4.456369369087458e-05
310791000000,306,310791000000,FL_wheel_link,0.004601062118884193,-0.002618967563083099,0.005298409721189806,-0.00026855195301174895,-0.0005657224821772461,-1.0740669221044212e-05
310792000000,307,310792000000,FL_wheel_link,0.006638972703475092,-0.5457952065625117,9.380253646849766,-0.05442768364588866,-0.000676211727829925,-2.798246869225671e-05
310793000000,308,310793000000,FL_wheel_link,0.004768850198127713,-0.002500083298695639,0.003849573250741854,-0.0002618619151602385,-0.0006055244872676492,-8.158967683302065e-06
310794000000,309,310794000000,FL_wheel_link,-0.015501128088518895,-0.6203625112603147,11.045731091693954,-0.06124258999072395,0.0017941029175459115,4.670513171420132e-05
310795000000,310,310795000000,FL_wheel_link,0.004570224469418187,-0.0024117487210337297,0.005095448025398164,-0.0002456720604905316,-0.0005633535578631906,-1.0791734993116132e-05
310796000000,311,310796000000,FL_wheel_link,0.007059880699760803,-0.5233373509576414,9.367088983366276,-0.05176172144265876,-0.0007113603948865479,-3.122913559795452e-05
310797000000,312,310797000000,FL_wheel_link,0.00479377763946247,-0.0023095111681647445,0.0037305422066504046,-0.00023977967864148632,-0.0006101779689522705,-7.976632918417711e-06
310798000000,313,310798000000,FL_wheel_link,-0.015642226793424367,-0.5934755942076166,11.01412929010345,-0.05806720872846364,0.0018033368130082894,4.9358720219348404e-05
310799000000,314,310799000000,FL_wheel_link,0.004549298118634906,-0.002208304355469021,0.004898002277808147,-0.00022305230982791173,-0.0005621945150762369,-1.0826606609252002e-05
310800000000,315,310800000000,FL_wheel_link,0.007477753856123839,-0.5006386197208013,9.353089235534757,-0.049065718335435465,-0.0007494914061977714,-3.308398513781823e-05
310801000000,316,310801000000,FL_wheel_link,0.004811094002314444,-0.0021218877676911583,0.003599469313497044,-0.00021823496416842266,-0.0006137158922167806,-7.903539988104714e-06
310802000000,317,310802000000,FL_wheel_link,-0.01570620386047482,-0.566876315865688,10.983018997704253,-0.05492477274919521,0.001806388284626255,5.1090111910575845e-05
310803000000,318,310803000000,FL_wheel_link,0.004532779393349287,-0.0020114039985706,0.004706272021326844,-0.00020112220044970548,-0.0005614829218485654,-1.0899441747731592e-05
310804000000,319,310804000000,FL_wheel_link,0.007883597081153312,-0.47784191540272625,9.338525853331346,-0.0463575952919116,-0.0007880218885127161,-3.4334775321945345e-05
310805000000,320,310805000000,FL_wheel_link,0.004820922454195961,-0.0019367589597219627,0.003459563145356479,-0.0001970792349274543,-0.0006161855579150004,-7.916858069385416e-06
310806000000,321,310806000000,FL_wheel_link,-0.015739465555506798,-0.5405109353542552,10.952264383371238,-0.051809115394923146,0.001807858801308428,5.2150632527548514e-05
310807000000,322,310807000000,FL_wheel_link,0.004518216319968437,-0.001818620587008562,0.004518088970470647,-0.00017965651507649422,-0.0005609619719074866,-1.0995282958747166e-05
310808000000,323,310808000000,FL_wheel_link,0.008231260209030901,-0.4550170219869055,9.323479711680996,-0.043646554637909354,-0.0008201798389916107,-3.5573373958098286e-05
310809000000,324,310809000000,FL_wheel_link,0.004827930023881842,-0.0017499296048757978,0.0033140766042489135,-0.00017577975840504483,-0.0006183132932747255,-7.929286253960224e-06
310810000000,325,310810000000,FL_wheel_link,-0.015728884039493834,-0.5143213215962342,10.921782718337896,-0.048712538788123365,0.001804873032852851,5.310252585631957e-05
310811000000,326,310811000000,FL_wheel_link,0.004505932663095367,-0.0016279619390691662,0.004331762822055898,-0.00015840186377701646,-0.000560715324799263,-1.10931772877372e-05
310812000000,327,310812000000,FL_wheel_link,0.008541543831058726,-0.4321782594416747,9.308011528303062,-0.040933766481834465,-0.0008484792992576205,-3.672007695992764e-05
310813000000,328,310813000000,FL_wheel_link,0.004833117991450379,-0.0015617831065747741,0.00316378643421507,-0.00015434721122881435,-0.0006202300911577731,-7.93705916085663e-06
310814000000,329,310814000000,FL_wheel_link,-0.015682912910300436,-0.48828883158956443,10.891517026236405,-0.04563291137731959,0.0017981992952583238,5.3997376712889e-05
310815000000,330,310815000000,FL_wheel_link,0.004495461532041539,-0.0014389002352148538,0.004146335653334097,-0.00013729173578246387,-0.0005606887591032715,-1.1192293561039754e-05
310816000000,331,310816000000,FL_wheel_link,0.008801176204552081,-0.4093365654048047,9.292123491570148,-0.03822124062407001,-0.0008703079279215206,-3.826379617922714e-05
310817000000,332,310817000000,FL_wheel_link,0.004839576251830967,-0.0013713374980316227,0.0030104963022332372,-0.000132581160771931,-0.0006223984049252986,-7.885952734998738e-06
310818000000,333,310818000000,FL_wheel_link,-0.015589921222576755,-0.46240366390726545,10.861447567654206,-0.042568446883081756,0.001785718102700133,5.518065743580026e-05
310819000000,334,310819000000,FL_wheel_link,0.004487243624771589,-0.0012513746594474203,0.003961585446434805,-0.00011628983708566093,-0.0005609511096867281,-1.1279778652685754e-05
310820000000,335,310820000000,FL_wheel_link,0.009030853502592737,-0.38651189185929236,9.275871863379365,-0.03551071622511858,-0.0008884230062542411,-4.000146764396906e-05
310821000000,336,310821000000,FL_wheel_link,0.004847113038220247,-0.0011798175934877003,0.0028544766275885843,-0.00011062468034026733,-0.0006247631212737727,-7.792833240434615e-06
310822000000,337,310822000000,FL_wheel_link,-0.015460153766513869,-0.4366646161215129,10.831543347751687,-0.03951924660270656,0.00176876030573793,5.6565016894467736e-05
310823000000,338,310823000000,FL_wheel_link,0.004480798866603486,-0.0010654589987359616,0.003777068282427648,-9.541042797156312e-05,-0.0005614337858776956,-1.1360180513174747e-05
310824000000,339,310824000000,FL_wheel_link,0.009205479088059519,-0.36374002076931916,9.25927186904564,-0.03280658164760195,-0.0008995170210065194,-4.2035188047827465e-05
310825000000,340,310825000000,FL_wheel_link,0.004857247316832583,-0.0009865156317406588,0.002696728074032931,-8.838224245237271e-05,-0.0006275257117407879,-7.652401778760895e-06
310826000000,341,310826000000,FL_wheel_link,-0.015282133382697318,-0.4110543602376304,10.801791109051317,-0.03648319809307237,0.001745813219976824,5.819924098454285e-05
310827000000,342,310827000000,FL_wheel_link,0.004476597450612611,-0.0008805740921581306,0.003592415707637315,-7.458421728709086e-05,-0.0005622004609307616,-1.1433443295514219e-05
310828000000,343,310828000000,FL_wheel_link,0.009415873428637145,-0.3410053547740763,9.242449243350949,-0.03010484339376973,-0.0009162521806508147,-4.3413634530687934e-05
310829000000,344,310829000000,FL_wheel_link,0.004864312620104168,-0.0007954490341289456,0.0025334027124222533,-6.649116605447608e-05,-0.0006298263089042443,-7.574806519668343e-06
310830000000,345,310830000000,FL_wheel_link,-0.015110399813528004,-0.3855811437691936,10.772110092887624,-0.03346283250743279,0.0017246031750339681,5.940063510347805e-05
310831000000,346,310831000000,FL_wheel_link,0.004472277216634936,-0.0006967297070316807,0.0034064861250569403,-5.386390482492415e-05,-0.0005629243384582689,-1.152452796566015e-05
310832000000,347,310832000000,FL_wheel_link,0.009665837753840084,-0.3182989013115944,9.225432792044538,-0.02740452139531437,-0.0009389376744677328,-4.422328364661704e-05
310833000000,348,310833000000,FL_wheel_link,0.004865943714296104,-0.0006076160616382096,0.0023639253915911378,-4.5043058224546226e-05,-0.000631331362380386,-7.585890793223065e-06
310834000000,349,310834000000,FL_wheel_link,-0.01497872889402222,-0.36023652858885125,10.742447662528704,-0.030457632685012555,0.0017092076090720384,6.006498551102245e-05
310835000000,350,310835000000,FL_wheel_link,0.004466256981435641,-0.0005132646277054714,0.00321881253456661,-3.320933839433845e-05,-0.0005634200094933339,-1.163283631305923e-05
