%time,field.header.seq,field.header.stamp,field.header.frame_id,field.name0,field.name1,field.name2,field.name3,field.position0,field.position1,field.position2,field.position3,field.velocity0,field.velocity1,field.velocity2,field.velocity3,field.effort0,field.effort1,field.effort2,field.effort3
310493000000,15840,310485000000,,BL_TO_BASELINK,BR_TO_BASELINK,FL_TO_BASELINK,FR_TO_BASELINK,0.11627012871076303,0.11629834314040544,-0.13029390853882816,-0.13029681169721297,-8.620521675653135e-05,0.0020759126964513676,2.456782940190921e-05,0.001655304410536356,0.0,0.0,0.0,0.0
310493000000,15841,310486000000,,BL_TO_BASELINK,BR_TO_BASELINK,FL_TO_BASELINK,FR_TO_BASELINK,0.11627399181309617,0.11629844979800996,-0.13029026485340633,-0.13029691553690892,0.003829276432683362,0.00010982612338471514,0.0036644443493936947,-0.00011038102934706482,0.0,0.0,0.0,0.0
310493000000,15842,310487000000,,BL_TO_BASELINK,BR_TO_BASELINK,FL_TO_BASELINK,FR_TO_BASELINK,0.11627397285769892,0.11630104510155359,-0.13028952173259434,-0.13029385966051432,-2.788365621733072e-07,0.002568619839890869,0.0007295589973021436,0.0030820206752506943,0.0,0.0,0.0,0.0
310493000000,15843,310488000000,,BL_TO_BASELINK,BR_TO_BASELINK,FL_TO_BASELINK,FR_TO_BASELINK,0.11627851522040267,0.11630189944562819,-0.13028447830599887,-0.1302939423381515,0.004500725571560881,0.0008680850599386246,0.005068935926287544,-9.619111436210553e-05,0.0,0.0,0.0,0.0
310493000000,15844,310489000000,,BL_TO_BASELINK,BR_TO_BASELINK,FL_TO_BASELINK,FR_TO_BASELINK,0.11627849540319524,0.11630397581849738,-0.13028405613929195,-0.13029169635406834,6.079676070036089e-06,0.002051949051186689,0.0004026606811250817,0.0022591053122817412,0.0,0.0,0.0,0.0
310493000000,15845,310490000000,,BL_TO_BASELINK,BR_TO_BASELINK,FL_TO_BASELINK,FR_TO_BASELINK,0.11628264619733564,0.11630448591122544,-0.130279623548061,-0.13029184075090416,0.004113777387392992,0.0005250971775265908,0.0044548329116656776,-0.00015914777065656992,0.0,0.0,0.0,0.0
310493000000,15846,310491000000,,BL_TO_BASELINK,BR_TO_BASELINK,FL_TO_BASELINK,FR_TO_BASELINK,0.11628261729948974,0.11630681221272532,-0.13027883552696462,-0.1302891633042771,2.3040180366969837e-07,0.002289811686040258,0.0007666819300450232,0.0027090432894547323,0.0,0.0,0.0,0.0
310493000000,15847,310492000000,,BL_TO_BASELINK,BR_TO_BASELINK,FL_TO_BASELINK,FR_TO_BASELINK,0.11628740121925762,0.11630763320072557,-0.13027357705141895,-0.13028924127534847,0.004742156773473465,0.0008443318697056775,0.0052849943283756725,-9.894167255055557e-05,0.0,0.0,0.0,0.0
310493000000,15848,310493000000,,BL_TO_BASELINK,BR_TO_BASELINK,FL_TO_BASELINK,FR_TO_BASELINK,0.1162873715330095,0.11630990369322092,-0.13027297836252405,-0.1302867958159597,3.0708436451758366e-06,0.0022401441756010323,0.0005742312898748825,0.0024684430776396858,0.0,0.0,0.0,0.0
310494000000,15849,310494000000,,BL_TO_BASELINK,BR_TO_BASELINK,FL_TO_BASELINK,FR_TO_BASELINK,0.11629261412883451,0.11631033059038387,-0.1302672593266987,-0.13028675766191355,0.005204100841250132,0.0004528229488306437,0.005740764333798885,1.643207323856065e-05,0.0,0.0,0.0,0.0
310495000000,15850,310495000000,,BL_TO_BASELINK,BR_TO_BASELINK,FL_TO_BASELINK,FR_TO_BASELINK,0.11629255376565162,0.11631250060652398,-0.13026191182513092,-0.13028502453418067,-2.649449944683085e-05,0.002147224482222945,0.005330465797917194,0.001744407767075319,0.0,0.0,0.0,0.0
310496000000,15851,310496000000,,BL_TO_BASELINK,BR_TO_BASELINK,FL_TO_BASELINK,FR_TO_BASELINK,0.1162971611150736,0.1163129645107066,-0.13025727496988893,-0.1302850639817672,0.004599380629469757,0.000487444487209644,0.004642963359889308,-5.920272312947929e-05,0.0,0.0,0.0,0.0
310497000000,15852,310497000000,,BL_TO_BASELINK,BR_TO_BASELINK,FL_TO_BASELINK,FR_TO_BASELINK,0.11629711887163108,0.11632550444370793,-0.13025495630886486,-0.1302730784306254,-1.77124492845073e-05,0.012537747285937092,0.002307742002721756,0.011994653015965277,0.0,0.0,0.0,0.0
310498000000,15853,310498000000,,BL_TO_BASELINK,BR_TO_BASELINK,FL_TO_BASELINK,FR_TO_BASELINK,0.11629710310935248,0.1163254888547911,-0.13025493933730292,-0.1302730621211472,-7.787724016811333e-08,7.907517952492884e-08,-1.1589581935936072e-07,9.75825660338883e-08,0.0,0.0,0.0,0.0
310499000000,15854,310499000000,,BL_TO_BASELINK,BR_TO_BASELINK,FL_TO_BASELINK,FR_TO_BASELINK,0.11629696149228774,0.11633071441652199,-0.1302556010150342,-0.13026838075453373,-0.00015669999703065308,0.005238796496853961,-0.000657216165151167,0.004678260100773981,0.0,0.0,0.0,0.0
310500000000,15855,310500000000,,BL_TO_BASELINK,BR_TO_BASELINK,FL_TO_BASELINK,FR_TO_BASELINK,0.11629694539259372,0.11633307980935825,-0.13025537141662102,-0.1302659389252918,-1.824658540617967e-06,0.002366284550267643,0.0002158261874964388,0.0024394529887493393,0.0,0.0,0.0,0.0
310501000000,15856,310501000000,,BL_TO_BASELINK,BR_TO_BASELINK,FL_TO_BASELINK,FR_TO_BASELINK,0.11630278962785479,0.1163333812911258,-0.13024927660489372,-0.1302625298355684,0.005847207907784574,0.0003077764469512188,0.006094008829284197,0.003410349858083794,0.0,0.0,0.0,0.0
310502000000,15857,310502000000,,BL_TO_BASELINK,BR_TO_BASELINK,FL_TO_BASELINK,FR_TO_BASELINK,0.11630278194729637,0.11633511963454257,-0.1302487920619475,-0.13026088224562127,4.6168223152902267e-07,0.0017232940405881515,0.0004761267686404046,0.0016618826351052101,0.0,0.0,0.0,0.0
310503000000,15858,310503000000,,BL_TO_BASELINK,BR_TO_BASELINK,FL_TO_BASELINK,FR_TO_BASELINK,0.11630352367120889,0.11633635139288145,-0.13024790413699794,-0.13026098814516995,0.0007009883947230296,0.0012413232811899575,0.0009221355840470044,-0.00011794613512728833,0.0,0.0,0.0,0.0
310504000000,15859,310504000000,,BL_TO_BASELINK,BR_TO_BASELINK,FL_TO_BASELINK,FR_TO_BASELINK,0.11630350151406521,0.11633902599283186,-0.13024702136059396,-0.1302579702914306,-1.625952195333973e-06,0.0026433001664689392,0.0008657221149901113,0.0030515364098598506,0.0,0.0,0.0,0.0
310505000000,15860,310505000000,,BL_TO_BASELINK,BR_TO_BASELINK,FL_TO_BASELINK,FR_TO_BASELINK,0.11630678241295289,0.11633883192732153,-0.13024253003786246,-0.13025806655075822,0.0033038052868035028,-0.00016918645729387593,0.004492988280840506,-0.00010635550421270483,0.0,0.0,0.0,0.0
310506000000,15861,310506000000,,BL_TO_BASELINK,BR_TO_BASELINK,FL_TO_BASELINK,FR_TO_BASELINK,0.11630676470962076,0.11633980434181268,-0.13024167965403155,-0.13025619792107257,1.2002175756439457e-06,0.0009668761799571256,0.0008345054306831497,0.0018718134858549183,0.0,0.0,0.0,0.0
310507000000,15862,310507000000,,BL_TO_BASELINK,BR_TO_BASELINK,FL_TO_BASELINK,FR_TO_BASELINK,0.11631442118572011,0.11634014720502428,-0.13023505765983678,-0.13025283628256812,0.007652733909887544,0.0003557539217049822,0.006627091456799717,0.0033552042407607252,0.0,0.0,0.0,0.0
310508000000,15863,310508000000,,BL_TO_BASELINK,BR_TO_BASELINK,FL_TO_BASELINK,FR_TO_BASELINK,0.11631440809887295,0.1163401389520704,-0.13023504525663654,-0.13025282568415175,2.6507951554274878e-08,-1.931355155925657e-08,4.79036599557647e-08,-3.607325288761294e-08,0.0,0.0,0.0,0.0
310509000000,15864,310509000000,,BL_TO_BASELINK,BR_TO_BASELINK,FL_TO_BASELINK,FR_TO_BASELINK,0.11631796607917622,0.11634127509210757,-0.13023350374531528,-0.1302529321244128,0.0035672416418913704,0.0011316613709345057,0.0015436401887679312,-0.00010458286526359882,0.0,0.0,0.0,0.0
310510000000,15865,310510000000,,BL_TO_BASELINK,BR_TO_BASELINK,FL_TO_BASELINK,FR_TO_BASELINK,0.11631795931151778,0.11634126850341531,-0.13023349682140228,-0.1302529243160082,2.391911525529561e-08,-2.4507829617711335e-08,1.1165314037914209e-08,-1.7097630783391438e-08,0.0,0.0,0.0,0.0
310511000000,15866,310511000000,,BL_TO_BASELINK,BR_TO_BASELINK,FL_TO_BASELINK,FR_TO_BASELINK,0.11631910437567505,0.11634612813205614,-0.13023300261993054,-0.13024816633377156,0.0011463022063536979,0.004866818663871993,0.0004992776333343383,0.004767358637199569,0.0,0.0,0.0,0.0
310512000000,15867,310512000000,,BL_TO_BASELINK,BR_TO_BASELINK,FL_TO_BASELINK,FR_TO_BASELINK,0.11634351830375422,0.11634601368406727,-0.130233108616582,-0.13024824270422997,0.02440490152302635,-0.00011144479756241762,-0.00011113059268508599,-8.062157892278418e-05,0.0,0.0,0.0,0.0
310513000000,15868,310513000000,,BL_TO_BASELINK,BR_TO_BASELINK,FL_TO_BASELINK,FR_TO_BASELINK,0.11634293013006314,0.11631927369674422,-0.13025491956705348,-0.1302800992130173,0.000731995227531753,-0.02129374195469142,-0.022525561929615284,-0.019635424602826093,0.0,0.0,0.0,0.0
310514000000,15869,310514000000,,BL_TO_BASELINK,BR_TO_BASELINK,FL_TO_BASELINK,FR_TO_BASELINK,0.11636248357457557,0.11631910840652182,-0.13025507498686206,-0.13028020336378354,0.019543738787823402,-0.00016061341987577867,-0.00015712266780290671,-0.00010874061467740833,0.0,0.0,0.0,0.0
310515000000,15870,310515000000,,BL_TO_BASELINK,BR_TO_BASELINK,FL_TO_BASELINK,FR_TO_BASELINK,0.11636236400066213,0.1163187917966102,-0.1302809354179475,-0.13030695041416074,-0.00011294732108023398,-0.0003142860339373707,-0.025871376212978733,-0.026760379637087134,0.0,0.0,0.0,0.0
310516000000,15871,310516000000,,BL_TO_BASELINK,BR_TO_BASELINK,FL_TO_BASELINK,FR_TO_BASELINK,0.11645158316821558,0.11640321638955431,-0.13028198236782007,-0.13030767598071336,0.08922043064998465,0.08442833568963184,-0.0010483878465698815,-0.00072804368236358,0.0,0.0,0.0,0.0
310517000000,15872,310517000000,,BL_TO_BASELINK,BR_TO_BASELINK,FL_TO_BASELINK,FR_TO_BASELINK,0.11645150305251484,0.11640293010666003,-0.13033060815764674,-0.13036664740383763,-0.00011094716197362214,-0.00039089857645409343,-0.04557391129995762,-0.04804546572409854,0.0,0.0,0.0,0.0
310518000000,15873,310518000000,,BL_TO_BASELINK,BR_TO_BASELINK,FL_TO_BASELINK,FR_TO_BASELINK,0.11649165391709104,0.11643067879250246,-0.1303334576059827,-0.13034800639168154,0.040126121612859826,0.02764390186051578,-0.0028724948141924615,0.01846192814039053,0.0,0.0,0.0,0.0
310519000000,15874,310519000000,,BL_TO_BASELINK,BR_TO_BASELINK,FL_TO_BASELINK,FR_TO_BASELINK,0.1164916508873084,0.11643067772575755,-0.13033345671944208,-0.13034800603148344,5.189191512253166e-08,-3.032631342055059e-08,2.9794325359308593e-08,-1.940541848217958e-08,0.0,0.0,0.0,0.0
310520000000,15875,310520000000,,BL_TO_BASELINK,BR_TO_BASELINK,FL_TO_BASELINK,FR_TO_BASELINK,0.11649756391796107,0.11643029542038619,-0.13033569145990587,-0.1303539090602941,0.005921494004933735,-0.0003790549899733535,-0.002234964229864858,-0.005915697906937104,0.0,0.0,0.0,0.0
310521000000,15876,310521000000,,BL_TO_BASELINK,BR_TO_BASELINK,FL_TO_BASELINK,FR_TO_BASELINK,0.11650601102278735,0.11643755111594167,-0.13033367798564388,-0.13035145616911947,0.008437886992462885,0.007253238100380922,0.0020042287889748614,0.0024497830559899324,0.0,0.0,0.0,0.0
310522000000,15877,310522000000,,BL_TO_BASELINK,BR_TO_BASELINK,FL_TO_BASELINK,FR_TO_BASELINK,0.11650600904876285,0.11643755045090565,-0.13033367714484712,-0.13035145606388276,-1.7084830952317914e-09,9.653627374480583e-10,-1.5087598065430946e-09,6.362379182528466e-10,0.0,0.0,0.0,0.0
310523000000,15878,310523000000,,BL_TO_BASELINK,BR_TO_BASELINK,FL_TO_BASELINK,FR_TO_BASELINK,0.11651560106813097,0.11644625203530268,-0.1303285139383803,-0.1303460968127803,0.009590617626264598,0.008702879272309932,0.0051623874638383384,0.005360247235460592,0.0,0.0,0.0,0.0
310524000000,15879,310524000000,,BL_TO_BASELINK,BR_TO_BASELINK,FL_TO_BASELINK,FR_TO_BASELINK,0.11651559965589708,0.11644625169689249,-0.13032851332493323,-0.1303460967679042,-1.2016202563134779e-09,5.913119666221128e-10,-7.963220736029869e-10,2.0092338730293147e-10,0.0,0.0,0.0,0.0
310525000000,15880,310525000000,,BL_TO_BASELINK,BR_TO_BASELINK,FL_TO_BASELINK,FR_TO_BASELINK,0.1165155910796285,0.11645104645899451,-0.13032520984768325,-0.13034364325467251,-7.880712094447684e-06,0.004790813439617521,0.0033059104373715227,0.0024492053176031685,0.0,0.0,0.0,0.0
310526000000,15881,310526000000,,BL_TO_BASELINK,BR_TO_BASELINK,FL_TO_BASELINK,FR_TO_BASELINK,0.11654768905221324,0.11645070380904343,-0.13032553473940922,-0.13034386555317568,0.03209244101539717,-0.000342408542773575,-0.0003252385389441517,-0.00022233647432829198,0.0,0.0,0.0,0.0
310527000000,15882,310527000000,,BL_TO_BASELINK,BR_TO_BASELINK,FL_TO_BASELINK,FR_TO_BASELINK,0.11654744804034856,0.11643960305202938,-0.13033823255672594,-0.13035663392898655,-0.0008220294495422456,-0.010634447825464098,-0.010390927258877178,-0.016347741783307994,0.0,0.0,0.0,0.0
310528000000,15883,310528000000,,BL_TO_BASELINK,BR_TO_BASELINK,FL_TO_BASELINK,FR_TO_BASELINK,0.1165474460960354,0.11643960189913649,-0.13033823250592746,-0.1303566332139674,1.7101784514569895e-08,-1.2853949337213177e-08,-3.1002026727039445e-09,-6.407081478213006e-09,0.0,0.0,0.0,0.0
310529000000,15884,310529000000,,BL_TO_BASELINK,BR_TO_BASELINK,FL_TO_BASELINK,FR_TO_BASELINK,0.11655594290635918,0.11644830416243135,-0.1303328509982471,-0.13035674517186102,0.008494837311599257,0.00870461671760895,0.005382598908932808,-0.00011245964665020872,0.0,0.0,0.0,0.0
310530000000,15885,310530000000,,BL_TO_BASELINK,BR_TO_BASELINK,FL_TO_BASELINK,FR_TO_BASELINK,0.11655594057833873,0.11644830397738115,-0.13033285097730207,-0.1303567448734082,-1.7694088277897535e-08,4.916533909160581e-09,-9.06736031744404e-10,4.059377830406552e-09,0.0,0.0,0.0,0.0
310531000000,15886,310531000000,,BL_TO_BASELINK,BR_TO_BASELINK,FL_TO_BASELINK,FR_TO_BASELINK,0.1165592722762625,0.11644950886719041,-0.13033164163472666,-0.13035686783724643,0.003332899348973618,0.0012027056354508452,0.001208299504820099,-0.000122620352471981,0.0,0.0,0.0,0.0
310532000000,15887,310532000000,,BL_TO_BASELINK,BR_TO_BASELINK,FL_TO_BASELINK,FR_TO_BASELINK,0.11656444357635554,0.1164494620942973,-0.13033167228547082,-0.13035620683082438,0.005171851513245167,-4.613288706779601e-05,-3.0688145529222965e-05,0.0006610911974390489,0.0,0.0,0.0,0.0
310533000000,15888,310533000000,,BL_TO_BASELINK,BR_TO_BASELINK,FL_TO_BASELINK,FR_TO_BASELINK,0.11656442377089693,0.116449384333694,-0.130358282311259,-0.13035613408444746,-1.9208017308921382e-05,-7.736784587154127e-05,-0.02661051667562872,7.22201163042488e-05,0.0,0.0,0.0,0.0
310534000000,15889,310534000000,,BL_TO_BASELINK,BR_TO_BASELINK,FL_TO_BASELINK,FR_TO_BASELINK,0.11658758428757832,0.11647424344471702,-0.13033838766740402,-0.13033243093291258,0.02142106980062405,0.023177128027046728,0.014764493053544525,0.023015936231516616,0.0,0.0,0.0,0.0
310535000000,15890,310535000000,,BL_TO_BASELINK,BR_TO_BASELINK,FL_TO_BASELINK,FR_TO_BASELINK,0.11658758423095517,0.11647424269055051,-0.13033838763504235,-0.1303324298586528,-4.093679562000574e-10,1.3154247274771436e-09,-1.1674867773925346e-09,4.515633797441687e-09,0.0,0.0,0.0,0.0
310536000000,15891,310536000000,,BL_TO_BASELINK,BR_TO_BASELINK,FL_TO_BASELINK,FR_TO_BASELINK,0.11658469767121726,0.11647447849980974,-0.13034270323032615,-0.13034900024077523,-0.0028874706895098013,0.0002364323627517574,-0.004316196613396961,-0.016575583627102077,0.0,0.0,0.0,0.0
310537000000,15892,310537000000,,BL_TO_BASELINK,BR_TO_BASELINK,FL_TO_BASELINK,FR_TO_BASELINK,0.11658467488920632,0.11647441345186405,-0.1303428339750745,-0.1303691222986636,-2.2736301102433548e-05,-6.474299852791618e-05,-0.0001311566783774032,-0.020122847884189245,0.0,0.0,0.0,0.0
310538000000,15893,310538000000,,BL_TO_BASELINK,BR_TO_BASELINK,FL_TO_BASELINK,FR_TO_BASELINK,0.11661248432231641,0.11649941873489134,-0.1303159224499133,-0.13034538424518072,0.027762725335933144,0.025007939041385686,0.02686559129158954,0.023722990168039037,0.0,0.0,0.0,0.0
310539000000,15894,310539000000,,BL_TO_BASELINK,BR_TO_BASELINK,FL_TO_BASELINK,FR_TO_BASELINK,0.11661248422249226,0.1164994186449082,-0.13031592190811914,-0.13034538408679275,7.108164820635032e-10,-1.73188467039731e-10,2.7110299456734044e-09,-1.9205171897240803e-09,0.0,0.0,0.0,0.0
310540000000,15895,310540000000,,BL_TO_BASELINK,BR_TO_BASELINK,FL_TO_BASELINK,FR_TO_BASELINK,0.11660530083294329,0.116487990585318,-0.13032347018415713,-0.13035819470356635,-0.007187682776614884,-0.011441007588740046,-0.0075519677688758976,-0.012817233771897354,0.0,0.0,0.0,0.0
310541000000,15896,310541000000,,BL_TO_BASELINK,BR_TO_BASELINK,FL_TO_BASELINK,FR_TO_BASELINK,0.11660528774008494,0.1164879394009315,-0.13033961104139813,-0.13035951600811835,-1.3091446207959268e-05,-5.0878795510921754e-05,-0.016140976784415784,-0.0013422225531911532,0.0,0.0,0.0,0.0
310542000000,15897,310542000000,,BL_TO_BASELINK,BR_TO_BASELINK,FL_TO_BASELINK,FR_TO_BASELINK,0.11662308699795876,0.11651811867498196,-0.13032388982669296,-0.13035959693544363,0.017800295300010198,0.030183781990756726,0.01572195741813985,-8.135610872074539e-05,0.0,0.0,0.0,0.0
310543000000,15898,310543000000,,BL_TO_BASELINK,BR_TO_BASELINK,FL_TO_BASELINK,FR_TO_BASELINK,0.11662308696956902,0.1165181186266544,-0.13032388974798703,-0.13035959685919085,-5.2597711672208725e-09,7.464002561852201e-09,-1.0020790957437908e-08,9.257593303058087e-09,0.0,0.0,0.0,0.0
310544000000,15899,310544000000,,BL_TO_BASELINK,BR_TO_BASELINK,FL_TO_BASELINK,FR_TO_BASELINK,0.11661184764039856,0.11651296671805511,-0.13033455252664172,-0.13036843333844228,-0.01121949086573647,-0.005174045374563388,-0.01080022991755164,-0.008891407351541356,0.0,0.0,0.0,0.0
310545000000,15900,310545000000,,BL_TO_BASELINK,BR_TO_BASELINK,FL_TO_BASELINK,FR_TO_BASELINK,0.11661489755426224,0.11651311364228256,-0.13033441756963082,-0.13036619504490599,0.0030506016454608497,0.00014689904387150954,0.00013487544350013984,0.0022370433503651017,0.0,0.0,0.0,0.0
310546000000,15901,310546000000,,BL_TO_BASELINK,BR_TO_BASELINK,FL_TO_BASELINK,FR_TO_BASELINK,0.11661493044903626,0.1165455227595471,-0.1303346987556422,-0.13036639027691788,3.300835354444823e-05,0.03240841530809402,-0.00028120059226303604,-0.0001952709414663259,0.0,0.0,0.0,0.0
310547000000,15902,310547000000,,BL_TO_BASELINK,BR_TO_BASELINK,FL_TO_BASELINK,FR_TO_BASELINK,0.11660403881093462,0.1165484350890047,-0.1303530183774937,-0.13038210439232767,-0.01761367656017911,-0.00471344842290421,-0.022014995797206324,-0.024012858827549437,0.0,0.0,0.0,0.0
310548000000,15903,310548000000,,BL_TO_BASELINK,BR_TO_BASELINK,FL_TO_BASELINK,FR_TO_BASELINK,0.11660401866936088,0.1165483974964232,-0.13035310081961082,-0.13039519191006388,-1.9461012470661787e-05,-3.701642479365941e-05,-8.340538898701094e-05,-0.013109117092046148,0.0,0.0,0.0,0.0
310549000000,15904,310549000000,,BL_TO_BASELINK,BR_TO_BASELINK,FL_TO_BASELINK,FR_TO_BASELINK,0.11662055104694335,0.11657090471212683,-0.13035315707366646,-0.13037652301412805,0.016533025257706183,0.022510557665279884,-5.641373845055586e-05,0.018674732866853755,0.0,0.0,0.0,0.0
310550000000,15905,310550000000,,BL_TO_BASELINK,BR_TO_BASELINK,FL_TO_BASELINK,FR_TO_BASELINK,0.11662055073878097,0.11657090396932723,-0.13035315683875215,-0.13037652300173708,-3.3948320873194993e-09,6.201065775451875e-09,-2.6268664500561645e-09,2.2838039445693958e-10,0.0,0.0,0.0,0.0
310551000000,15906,310551000000,,BL_TO_BASELINK,BR_TO_BASELINK,FL_TO_BASELINK,FR_TO_BASELINK,0.11661046017839727,0.11656268095793898,-0.13036373501989917,-0.13038709727211728,-0.010092323976251137,-0.008223171218302055,-0.010579159383646295,-0.010574740236207608,0.0,0.0,0.0,0.0
310552000000,15907,310552000000,,BL_TO_BASELINK,BR_TO_BASELINK,FL_TO_BASELINK,FR_TO_BASELINK,0.1166128644922253,0.11656833283394441,-0.13036171077838432,-0.13038342119862278,0.0024051098756152234,0.005651651518151048,0.0020250932295885326,0.0036758858527966964,0.0,0.0,0.0,0.0
310553000000,15908,310553000000,,BL_TO_BASELINK,BR_TO_BASELINK,FL_TO_BASELINK,FR_TO_BASELINK,0.11661286402412863,0.11656833261176835,-0.130361710506242,-0.13038342114161772,-2.794586163458565e-09,1.9765824489436723e-09,-2.2736954519945052e-09,-1.023526945015678e-09,0.0,0.0,0.0,0.0
310554000000,15909,310554000000,,BL_TO_BASELINK,BR_TO_BASELINK,FL_TO_BASELINK,FR_TO_BASELINK,0.11661712802387658,0.11657408409998204,-0.13035791156178167,-0.1303790249176977,0.004262671950115574,0.0057520447615625175,0.00379779008330615,0.00439674782558846,0.0,0.0,0.0,0.0
310555000000,15910,310555000000,,BL_TO_BASELINK,BR_TO_BASELINK,FL_TO_BASELINK,FR_TO_BASELINK,0.11661712767404442,0.11657408398835933,-0.1303579113659854,-0.13037902487098663,-9.243098573856467e-10,5.096943038256866e-10,-7.223163727299725e-10,-3.570233556222154e-10,0.0,0.0,0.0,0.0
310556000000,15911,310556000000,,BL_TO_BASELINK,BR_TO_BASELINK,FL_TO_BASELINK,FR_TO_BASELINK,0.11661934881219782,0.11657730745336803,-0.13035603279277463,-0.13037678649711548,0.002221282205012508,0.0032235776095174626,0.0018786562307466644,0.0022384788044986924,0.0,0.0,0.0,0.0
310557000000,15912,310557000000,,BL_TO_BASELINK,BR_TO_BASELINK,FL_TO_BASELINK,FR_TO_BASELINK,0.11661934859677903,0.11657730737656902,-0.1303560326790878,-0.1303767864731018,-2.65821058497177e-10,1.7557987428882225e-10,-2.2377039004856276e-10,-1.002542269579014e-10,0.0,0.0,0.0,0.0
310558000000,15913,310558000000,,BL_TO_BASELINK,BR_TO_BASELINK,FL_TO_BASELINK,FR_TO_BASELINK,0.11662325092540016,0.11658177168481298,-0.13035233628866205,-0.13037301857280692,0.0039009678339672065,0.004464701815088838,0.0036951909099198397,0.0037682986311592904,0.0,0.0,0.0,0.0
310559000000,15914,310559000000,,BL_TO_BASELINK,BR_TO_BASELINK,FL_TO_BASELINK,FR_TO_BASELINK,0.11662325074663471,0.11658177165606087,-0.1303523361881478,-0.1303730185435299,-2.0464464221521886e-10,7.424193220915629e-11,-1.4347140272694126e-10,-7.590589598928735e-11,0.0,0.0,0.0,0.0
310560000000,15915,310560000000,,BL_TO_BASELINK,BR_TO_BASELINK,FL_TO_BASELINK,FR_TO_BASELINK,0.11662544831976263,0.11658450428901368,-0.13035031925433493,-0.13037079497972304,0.0021976501330999224,0.002732692807344648,0.002016988101472941,0.002223615259660207,0.0,0.0,0.0,0.0
310561000000,15916,310561000000,,BL_TO_BASELINK,BR_TO_BASELINK,FL_TO_BASELINK,FR_TO_BASELINK,0.11662544820829979,0.11658450426966738,-0.13035031919437579,-0.13037079496366832,-7.880331765819718e-11,3.976267205036896e-11,-8.511870868517166e-11,-4.866942086975343e-11,0.0,0.0,0.0,0.0
310562000000,15917,310562000000,,BL_TO_BASELINK,BR_TO_BASELINK,FL_TO_BASELINK,FR_TO_BASELINK,0.11662908602606148,0.11658839388697739,-0.1303467691569722,-0.1303672912712237,0.0036368751096667734,0.003889579632471471,0.0035492381436152257,0.003503670912507513,0.0,0.0,0.0,0.0
310563000000,15918,310563000000,,BL_TO_BASELINK,BR_TO_BASELINK,FL_TO_BASELINK,FR_TO_BASELINK,0.11662908591857413,0.11658839388455089,-0.13034676909240872,-0.13036729124584667,-1.1103778058694017e-10,1.33601785233875e-11,-6.586345265837887e-11,-3.5376194974703207e-11,0.0,0.0,0.0,0.0
310564000000,15919,310564000000,,BL_TO_BASELINK,BR_TO_BASELINK,FL_TO_BASELINK,FR_TO_BASELINK,0.11663136072614666,0.1165909716517941,-0.13034460290241157,-0.1303650029282295,0.0022748752305252343,0.0025778234879370644,0.002166242966420872,0.0022883659014827883,0.0,0.0,0.0,0.0
310565000000,15920,310565000000,,BL_TO_BASELINK,BR_TO_BASELINK,FL_TO_BASELINK,FR_TO_BASELINK,0.11663136065938762,0.11659097165007104,-0.1303446028635058,-0.1303650029138952,-5.938141200544783e-12,2.2123341570159938e-12,-3.236304231329576e-11,-2.8933093984898073e-11,0.0,0.0,0.0,0.0
310566000000,15921,310566000000,,BL_TO_BASELINK,BR_TO_BASELINK,FL_TO_BASELINK,FR_TO_BASELINK,0.11663478856469656,0.116594488260648,-0.13034120452686437,-0.13036172761333376,0.003427393461078429,0.0035157079254449952,0.0033979578040243927,0.0032744266242085607,0.0,0.0,0.0,0.0
310567000000,15922,310567000000,,BL_TO_BASELINK,BR_TO_BASELINK,FL_TO_BASELINK,FR_TO_BASELINK,0.1166347884895389,0.11659448825937968,-0.13034120447681996,-0.13036172758727638,-7.474307208311243e-11,-9.810086553860287e-12,-3.3195769158674004e-11,-1.4534498062566958e-11,0.0,0.0,0.0,0.0
310568000000,15923,310568000000,,BL_TO_BASELINK,BR_TO_BASELINK,FL_TO_BASELINK,FR_TO_BASELINK,0.11663717681591468,0.11659705992612501,-0.13033889527987164,-0.13035934397641924,0.002388355623816376,0.002571703727623717,0.002309210653788575,0.0023836419298196745,0.0,0.0,0.0,0.0
310569000000,15924,310569000000,,BL_TO_BASELINK,BR_TO_BASELINK,FL_TO_BASELINK,FR_TO_BASELINK,0.1166371767701504,0.11659705992548197,-0.13033889524994446,-0.13035934396172077,3.0019427265173815e-11,7.573709454727906e-13,-6.1247484948318e-12,-1.7553473214901305e-11,0.0,0.0,0.0,0.0
310570000000,15925,310570000000,,BL_TO_BASELINK,BR_TO_BASELINK,FL_TO_BASELINK,FR_TO_BASELINK,0.1166404041556266,0.11660025817873176,-0.13033566657645412,-0.13035632125003982,0.0032265234365038945,0.0031978251266245707,0.003227950512175702,0.0030223640716864697,0.0,0.0,0.0,0.0
310571000000,15926,310571000000,,BL_TO_BASELINK,BR_TO_BASELINK,FL_TO_BASELINK,FR_TO_BASELINK,0.11664040409591969,0.11660025816976294,-0.1303356665316171,-0.1303563212210852,-4.939603858323399e-11,-1.6787751202194945e-11,-6.113954178002534e-12,8.02862149592437e-12,0.0,0.0,0.0,0.0
310572000000,15927,310572000000,,BL_TO_BASELINK,BR_TO_BASELINK,FL_TO_BASELINK,FR_TO_BASELINK,0.116642926605941,0.1166029057644673,-0.13033321387920616,-0.1303538156008699,0.002522527606378336,0.0026476012065511536,0.002452655019395177,0.00250561735791053,0.0,0.0,0.0,0.0
310573000000,15928,310573000000,,BL_TO_BASELINK,BR_TO_BASELINK,FL_TO_BASELINK,FR_TO_BASELINK,0.11664292657064479,0.11660290575946153,-0.13033321385294006,-0.1303538155848356,5.127444790368335e-11,1.2904376677468077e-11,8.831553001929782e-12,-1.0761317509842827e-11,0.0,0.0,0.0,0.0
310574000000,15929,310574000000,,BL_TO_BASELINK,BR_TO_BASELINK,FL_TO_BASELINK,FR_TO_BASELINK,0.11664591775916211,0.11660584381293848,-0.1303302045237098,-0.13035102596568837,0.0029902048283214676,0.0029379420130213234,0.0030085037864782402,0.0027896272821137866,0.0,0.0,0.0,0.0
310575000000,15930,310575000000,,BL_TO_BASELINK,BR_TO_BASELINK,FL_TO_BASELINK,FR_TO_BASELINK,0.1166459177056014,0.11660584379368988,-0.1303302044796073,-0.13035102593271652,-7.18185185800968e-11,-3.858763612460403e-11,-1.9155672816191516e-11,5.402431973999811e-13,0.0,0.0,0.0,0.0
310576000000,15931,310576000000,,BL_TO_BASELINK,BR_TO_BASELINK,FL_TO_BASELINK,FR_TO_BASELINK,0.11664852223090083,0.1166086898164318,-0.13032764727150425,-0.13034809395078106,0.0026052702980902936,0.002845471121416361,0.0025577167251761377,0.0029314904869818556,0.0,0.0,0.0,0.0
310577000000,15932,310577000000,,BL_TO_BASELINK,BR_TO_BASELINK,FL_TO_BASELINK,FR_TO_BASELINK,0.11664852220160338,0.11660868980647532,-0.1303276472496142,-0.13034809393486313,3.6186826647167936e-11,1.191393273099195e-11,-1.225637505982563e-11,-4.3298303527630755e-11,0.0,0.0,0.0,0.0
310578000000,15933,310578000000,,BL_TO_BASELINK,BR_TO_BASELINK,FL_TO_BASELINK,FR_TO_BASELINK,0.11665151577065558,0.11661169796936832,-0.1303245513903004,-0.13034534677879694,0.002992054864676877,0.0030092411541673587,0.00309451752319327,0.0027484182087968607,0.0,0.0,0.0,0.0
310579000000,15934,310579000000,,BL_TO_BASELINK,BR_TO_BASELINK,FL_TO_BASELINK,FR_TO_BASELINK,0.116651511057551,0.11661168414846301,-0.1303245786772287,-0.13035163566904107,-4.6556048216017665e-06,-1.3786934994637276e-05,-2.7334324649996508e-05,-0.006288998688197699,0.0,0.0,0.0,0.0
310580000000,15935,310580000000,,BL_TO_BASELINK,BR_TO_BASELINK,FL_TO_BASELINK,FR_TO_BASELINK,0.1166569756541227,0.11662055374021918,-0.13031902778777393,-0.1303444905216704,0.00546895740131147,0.008877860838252486,0.005577628546634484,0.007245806963575669,0.0,0.0,0.0,0.0
310581000000,15936,310581000000,,BL_TO_BASELINK,BR_TO_BASELINK,FL_TO_BASELINK,FR_TO_BASELINK,0.11665697551314391,0.116620553637933,-0.13031902774165172,-0.1303444905150295,-3.6582357507836116e-09,-3.1141066166723297e-09,-1.8383283133596717e-09,-5.380052618686459e-10,0.0,0.0,0.0,0.0
310582000000,15937,310582000000,,BL_TO_BASELINK,BR_TO_BASELINK,FL_TO_BASELINK,FR_TO_BASELINK,0.11665347020788186,0.11661714092489817,-0.13032260786903915,-0.13034784003141997,-0.0035067660800924285,-0.003413029071362561,-0.0035818424192715593,-0.0033499711465186386,0.0,0.0,0.0,0.0
310583000000,15938,310583000000,,BL_TO_BASELINK,BR_TO_BASELINK,FL_TO_BASELINK,FR_TO_BASELINK,0.116654848812896,0.11661834727022313,-0.13032120016541082,-0.1303467951063526,0.0013658800935716447,0.0012011986624569208,0.0013948273199082977,0.0010405455907466358,0.0,0.0,0.0,0.0
310584000000,15939,310584000000,,BL_TO_BASELINK,BR_TO_BASELINK,FL_TO_BASELINK,FR_TO_BASELINK,0.11665484877310561,0.1166183472458373,-0.13032120015645265,-0.13034679510605773,1.6410905216679948e-10,1.2877601204353342e-10,7.78636004142904e-11,-1.616736771043771e-11,0.0,0.0,0.0,0.0
310585000000,15940,310585000000,,BL_TO_BASELINK,BR_TO_BASELINK,FL_TO_BASELINK,FR_TO_BASELINK,0.11665873531303106,0.11662190488264734,-0.13031734152710506,-0.1303434070274756,0.003888481342567262,0.003554471836791962,0.003860682219500637,0.0033848984083823283,0.0,0.0,0.0,0.0
310586000000,15941,310586000000,,BL_TO_BASELINK,BR_TO_BASELINK,FL_TO_BASELINK,FR_TO_BASELINK,0.11665873527019599,0.11662190485191637,-0.13031734150785645,-0.13034340702518676,1.9911014341195826e-10,1.6873102741399304e-10,1.450064706439054e-10,5.0975757686158585e-11,0.0,0.0,0.0,0.0
310587000000,15942,310587000000,,BL_TO_BASELINK,BR_TO_BASELINK,FL_TO_BASELINK,FR_TO_BASELINK,0.11669400073315916,0.11665639291336927,-0.13031776260421957,-0.1303436994174909,0.035265451541826025,0.034488036591161855,-0.0004211085353832897,-0.0002923939040671772,0.0,0.0,0.0,0.0
310588000000,15943,310588000000,,BL_TO_BASELINK,BR_TO_BASELINK,FL_TO_BASELINK,FR_TO_BASELINK,0.11669390014348391,0.11665603536570668,-0.1303873851782047,-0.13042058503934761,-0.00010558609393870877,-0.00039647018230834496,-0.060900715825937354,-0.06737395617639093,0.0,0.0,0.0,0.0
310589000000,15944,310589000000,,BL_TO_BASELINK,BR_TO_BASELINK,FL_TO_BASELINK,FR_TO_BASELINK,0.11674174982686036,0.11670332144906226,-0.13040452775221034,-0.13037926044205506,0.04438951748450809,0.04154774395106447,0.03832552226598135,0.03539598464642891,0.0,0.0,0.0,0.0
310590000000,15945,310590000000,,BL_TO_BASELINK,BR_TO_BASELINK,FL_TO_BASELINK,FR_TO_BASELINK,0.11674174974607343,0.1167033190329505,-0.1304112704367526,-0.13037926776097564,-2.0582869742933815e-07,-2.9333770089133397e-06,-0.006797786291977324,-6.764308882093329e-06,0.0,0.0,0.0,0.0
310591000000,15946,310591000000,,BL_TO_BASELINK,BR_TO_BASELINK,FL_TO_BASELINK,FR_TO_BASELINK,0.11674638979015306,0.11671334157831748,-0.1304116367170174,-0.13037584474573816,0.004633280307961556,0.00994389402764782,-0.00040188267593988967,0.0033427083791110744,0.0,0.0,0.0,0.0
310592000000,15947,310592000000,,BL_TO_BASELINK,BR_TO_BASELINK,FL_TO_BASELINK,FR_TO_BASELINK,0.11674638934654347,0.1167143336440235,-0.13041133328295995,-0.13037775346945235,-3.695609449748871e-07,0.0009892365642039937,0.0003034514897748439,-0.00190637888834165,0.0,0.0,0.0,0.0
310593000000,15948,310593000000,,BL_TO_BASELINK,BR_TO_BASELINK,FL_TO_BASELINK,FR_TO_BASELINK,0.116750263521336,0.1167152883636211,-0.13041169333243463,-0.13037786388809547,0.003858145558325381,0.0009559045571023629,-0.0003431862253031017,-0.0001112845532886443,0.0,0.0,0.0,0.0
310594000000,15949,310594000000,,BL_TO_BASELINK,BR_TO_BASELINK,FL_TO_BASELINK,FR_TO_BASELINK,0.11675025726920829,0.11672015247819179,-0.13041099583197635,-0.13037489358551202,-5.487653373624501e-07,0.004843202400588257,0.0006912843071011619,0.0029856949973438305,0.0,0.0,0.0,0.0
310595000000,15950,310595000000,,BL_TO_BASELINK,BR_TO_BASELINK,FL_TO_BASELINK,FR_TO_BASELINK,0.11675317446516775,0.11672058361295967,-0.13041114459783998,-0.13037495679449496,0.0029042930942282095,0.0004389145946059114,-0.00013707983819000018,-6.967646841678156e-05,0.0,0.0,0.0,0.0
310596000000,15951,310596000000,,BL_TO_BASELINK,BR_TO_BASELINK,FL_TO_BASELINK,FR_TO_BASELINK,0.11675316518999157,0.11672458681982523,-0.13041051435681084,-0.1303722542983774,-1.0452388375721978e-06,0.003998166379945552,0.0006220001856235877,0.0027052954308871753,0.0,0.0,0.0,0.0
310597000000,15952,310597000000,,BL_TO_BASELINK,BR_TO_BASELINK,FL_TO_BASELINK,FR_TO_BASELINK,0.11675517688507053,0.11672516299219549,-0.13041041565867229,-0.1303724116112459,0.0019774475932180617,0.0005818172106652295,0.00012682784701995812,-0.0001626243826889981,0.0,0.0,0.0,0.0
310598000000,15953,310598000000,,BL_TO_BASELINK,BR_TO_BASELINK,FL_TO_BASELINK,FR_TO_BASELINK,0.11675515908334244,0.11672998666647416,-0.13040971034251658,-0.13036838900497383,-4.496130515342558e-07,0.004796152927794496,0.0006893575461674711,0.004044515179576,0.0,0.0,0.0,0.0
310599000000,15954,310599000000,,BL_TO_BASELINK,BR_TO_BASELINK,FL_TO_BASELINK,FR_TO_BASELINK,0.1167580918578679,0.1167308221003518,-0.13040783255422372,-0.1303684743188951,0.0028945308264527467,0.0008498134720118285,0.001906517814271895,-9.64257301394744e-05,0.0,0.0,0.0,0.0
310600000000,15955,310600000000,,BL_TO_BASELINK,BR_TO_BASELINK,FL_TO_BASELINK,FR_TO_BASELINK,0.1167580758605844,0.11673537998157446,-0.13040754076451755,-0.13036470103233366,8.045756039955177e-06,0.004541373991326,0.00026939085285527164,0.0037910300238684093,0.0,0.0,0.0,0.0
310601000000,15956,310601000000,,BL_TO_BASELINK,BR_TO_BASELINK,FL_TO_BASELINK,FR_TO_BASELINK,0.11675978443741197,0.11673596902563244,-0.13040657033264935,-0.13036483123867892,0.0016718634858259856,0.0006049275164907589,0.0009977215393367005,-0.00014257064680575616,0.0,0.0,0.0,0.0
310602000000,15957,310602000000,,BL_TO_BASELINK,BR_TO_BASELINK,FL_TO_BASELINK,FR_TO_BASELINK,0.11675975614183809,0.11674108772327152,-0.13040579175468103,-0.13035997029568502,-3.353286104706109e-07,0.005081658391787357,0.0007541876039146635,0.004890563437163322,0.0,0.0,0.0,0.0
310603000000,15958,310603000000,,BL_TO_BASELINK,BR_TO_BASELINK,FL_TO_BASELINK,FR_TO_BASELINK,0.11676203893105175,0.11674188645244055,-0.13040377137521375,-0.13036004706199744,0.0022464038588863467,0.0008228647078348586,0.002050190492454113,-9.517146515182332e-05,0.0,0.0,0.0,0.0
310604000000,15959,310604000000,,BL_TO_BASELINK,BR_TO_BASELINK,FL_TO_BASELINK,FR_TO_BASELINK,0.11676201064807401,0.11674679904296781,-0.13040320268876027,-0.13035540532108758,2.4971002225116726e-06,0.004882444243421536,0.000541750597287712,0.00466417836771178,0.0,0.0,0.0,0.0
310605000000,15960,310605000000,,BL_TO_BASELINK,BR_TO_BASELINK,FL_TO_BASELINK,FR_TO_BASELINK,0.11676380658579522,0.11674746214340725,-0.1304015239487839,-0.13035550667118567,0.0017604600383701063,0.0006890456076532893,0.0017076136583686124,-0.00012125496310195312,0.0,0.0,0.0,0.0
310606000000,15961,310606000000,,BL_TO_BASELINK,BR_TO_BASELINK,FL_TO_BASELINK,FR_TO_BASELINK,0.11676377412739658,0.11675259716331166,-0.13040072552009185,-0.1303504096805046,-8.823939316813384e-08,0.005092475386031409,0.0007707776696061642,0.005128990838418626,0.0,0.0,0.0,0.0
310607000000,15962,310607000000,,BL_TO_BASELINK,BR_TO_BASELINK,FL_TO_BASELINK,FR_TO_BASELINK,0.1167659206624938,0.11675338001939561,-0.130398451230346,-0.1303504824075361,0.0021101975167407538,0.0008150094458522878,0.0023041676563190926,-9.702267631723984e-05,0.0,0.0,0.0,0.0
310608000000,15963,310608000000,,BL_TO_BASELINK,BR_TO_BASELINK,FL_TO_BASELINK,FR_TO_BASELINK,0.11676588852817016,0.11675838882944145,-0.13039778833781934,-0.13034554573415225,1.5575976883826313e-06,0.004972738013985336,0.0006340228249142303,0.0049632720756820105,0.0,0.0,0.0,0.0
310609000000,15964,310609000000,,BL_TO_BASELINK,BR_TO_BASELINK,FL_TO_BASELINK,FR_TO_BASELINK,0.11676777329295618,0.11675909420404285,-0.13039571478107348,-0.13034563437795388,0.001848366501727348,0.0007387114246861419,0.0021030675491450616,-0.00011381378498671619,0.0,0.0,0.0,0.0
310610000000,15965,310610000000,,BL_TO_BASELINK,BR_TO_BASELINK,FL_TO_BASELINK,FR_TO_BASELINK,0.11676773884997971,0.11676422627293981,-0.13039492019147314,-0.13034045404402494,1.2038373930329214e-07,0.005088387454811676,0.0007654206259961842,0.005212947150110384,0.0,0.0,0.0,0.0
310611000000,15966,310611000000,,BL_TO_BASELINK,BR_TO_BASELINK,FL_TO_BASELINK,FR_TO_BASELINK,0.11676982929623936,0.11676500404147205,-0.13039251367777105,-0.13034052615721325,0.0020534470515237387,0.0008149263187154745,0.0024369682249413788,-0.00010003221912346905,0.0,0.0,0.0,0.0
310612000000,15967,310612000000,,BL_TO_BASELINK,BR_TO_BASELINK,FL_TO_BASELINK,FR_TO_BASELINK,0.1167697950749309,0.11677005600143975,-0.13039180644924642,-0.13033545862398999,1.1814364637193885e-06,0.005012126156634518,0.0006773518362084461,0.005095323010894356,0.0,0.0,0.0,0.0
310613000000,15968,310613000000,,BL_TO_BASELINK,BR_TO_BASELINK,FL_TO_BASELINK,FR_TO_BASELINK,0.11677174779489796,0.11677078889038572,-0.13038951507363095,-0.13033554118762591,0.0019151736943105587,0.0007704755635786046,0.0023215707275985095,-0.0001108445870644651,0.0,0.0,0.0,0.0
310614000000,15969,310614000000,,BL_TO_BASELINK,BR_TO_BASELINK,FL_TO_BASELINK,FR_TO_BASELINK,0.11677171204327941,0.11677587607323758,-0.1303887301908695,-0.130330373079782,3.1326535747996237e-07,0.00504425777571622,0.0007547423614836899,0.005201036429965769,0.0,0.0,0.0,0.0
310615000000,15970,310615000000,,BL_TO_BASELINK,BR_TO_BASELINK,FL_TO_BASELINK,FR_TO_BASELINK,0.11677381319223024,0.11677665149968952,-0.13038622507778008,-0.1303304463201611,0.0020633256361613506,0.0008151990091083989,0.0025360716696714008,-0.0001030488143922109,0.0,0.0,0.0,0.0
310616000000,15971,310616000000,,BL_TO_BASELINK,BR_TO_BASELINK,FL_TO_BASELINK,FR_TO_BASELINK,0.11677377750582174,0.11678168930378074,-0.13038549590981408,-0.13032535321198857,9.993119783674106e-07,0.004997466683196925,0.0006984955455816527,0.0051228766605836435,0.0,0.0,0.0,0.0
310617000000,15972,310617000000,,BL_TO_BASELINK,BR_TO_BASELINK,FL_TO_BASELINK,FR_TO_BASELINK,0.11677580063339477,0.11678243918052722,-0.13038306206073091,-0.13032543289524057,0.0019846687584444966,0.0007897399804437614,0.0024645216321577514,-0.00010954689757732288,0.0,0.0,0.0,0.0
310618000000,15973,310618000000,,BL_TO_BASELINK,BR_TO_BASELINK,FL_TO_BASELINK,FR_TO_BASELINK,0.11677576388124145,0.116787470653124,-0.13038228519880324,-0.1303203081864881,4.4937548936141436e-07,0.0049889934757652325,0.0007460585582662704,0.0051573102011046295,0.0,0.0,0.0,0.0
310619000000,15974,310619000000,,BL_TO_BASELINK,BR_TO_BASELINK,FL_TO_BASELINK,FR_TO_BASELINK,0.11677788564560299,0.11678824551053335,-0.13037971929864156,-0.13032038202196095,0.002083234204215189,0.0008158096337510174,0.0025970266751778183,-0.00010459535759885902,0.0,0.0,0.0,0.0
310620000000,15975,310620000000,,BL_TO_BASELINK,BR_TO_BASELINK,FL_TO_BASELINK,FR_TO_BASELINK,0.11677784893716758,0.11679322582294649,-0.13037897733648318,-0.1303153262454373,9.330294410958822e-07,0.004938858724296966,0.0007108098600863251,0.005085850746100413,0.0,0.0,0.0,0.0
310621000000,15976,310621000000,,BL_TO_BASELINK,BR_TO_BASELINK,FL_TO_BASELINK,FR_TO_BASELINK,0.11677993868903247,0.11679398662844864,-0.1303764426045948,-0.1303154038950609,0.0020509948184135813,0.0008016527516086719,0.0025659787264486027,-0.00010841277718732058,0.0,0.0,0.0,0.0
310622000000,15977,310622000000,,BL_TO_BASELINK,BR_TO_BASELINK,FL_TO_BASELINK,FR_TO_BASELINK,0.11677990125070625,0.11679892105611689,-0.13037567175052533,-0.13031037174036975,5.888401364765976e-07,0.004891968482339151,0.0007395970944364076,0.00506417779240869,0.0,0.0,0.0,0.0
310623000000,15978,310623000000,,BL_TO_BASELINK,BR_TO_BASELINK,FL_TO_BASELINK,FR_TO_BASELINK,0.11678207948763397,0.11679969377443022,-0.13037303248724452,-0.1303104466716185,0.0021391055994623848,0.000814229882952031,0.002670284262642048,-0.00010613021631747767,0.0,0.0,0.0,0.0
310624000000,15979,310624000000,,BL_TO_BASELINK,BR_TO_BASELINK,FL_TO_BASELINK,FR_TO_BASELINK,0.11678204214786536,0.11680456836267972,-0.13037228268761325,-0.13030548484500315,9.637201085711724e-07,0.004833159017645937,0.0007183918657319041,0.0049926911820972215,0.0,0.0,0.0,0.0
310625000000,15980,310625000000,,BL_TO_BASELINK,BR_TO_BASELINK,FL_TO_BASELINK,FR_TO_BASELINK,0.1167842201096585,0.11680533397041515,-0.130369644400961,-0.13030556196333976,0.0021389764652368966,0.000806947295316355,0.002669781584492802,-0.00010831272588676666,0.0,0.0,0.0,0.0
310626000000,15981,310626000000,,BL_TO_BASELINK,BR_TO_BASELINK,FL_TO_BASELINK,FR_TO_BASELINK,0.1167841825256497,0.11681017282800177,-0.1303688770396665,-0.13030062182437518,9.777169479193142e-07,0.004795962189930616,0.0007358282600804958,0.004971284049195331,0.0,0.0,0.0,0.0
310627000000,15982,310627000000,,BL_TO_BASELINK,BR_TO_BASELINK,FL_TO_BASELINK,FR_TO_BASELINK,0.11678642625455637,0.116810944906522,-0.1303661650930179,-0.13030069722163518,0.0022044550681919383,0.0008137793311105109,0.0027431462122259075,-0.0001068418426758398,0.0,0.0,0.0,0.0
310628000000,15983,310628000000,,BL_TO_BASELINK,BR_TO_BASELINK,FL_TO_BASELINK,FR_TO_BASELINK,0.11678639206976271,0.11681579397125752,-0.13036540858755963,-0.13029573570857877,4.422761602944358e-06,0.004805320351151749,0.000724810685957525,0.004989748974583267,0.0,0.0,0.0,0.0
310629000000,15984,310629000000,,BL_TO_BASELINK,BR_TO_BASELINK,FL_TO_BASELINK,FR_TO_BASELINK,0.1167886290330955,0.11681656221176073,-0.1303627041469273,-0.13029581250835776,0.0021978623432330688,0.0008097945505957888,0.002736057574581411,-0.00010824507638872746,0.0,0.0,0.0,0.0
310630000000,15985,310630000000,,BL_TO_BASELINK,BR_TO_BASELINK,FL_TO_BASELINK,FR_TO_BASELINK,0.1167886180727109,0.11682172566626647,-0.13036191943537023,-0.13029039943869236,2.7612449805740173e-05,0.005113795162856944,0.0007532058835275829,0.0054348161922854665,0.0,0.0,0.0,0.0
310631000000,15986,310631000000,,BL_TO_BASELINK,BR_TO_BASELINK,FL_TO_BASELINK,FR_TO_BASELINK,0.11679071871415392,0.11682249654065657,-0.13035934431241536,-0.13029047569206043,0.002061134122903859,0.0008125968222987725,0.0026062991475928146,-0.00010785995782509449,0.0,0.0,0.0,0.0
310632000000,15987,310632000000,,BL_TO_BASELINK,BR_TO_BASELINK,FL_TO_BASELINK,FR_TO_BASELINK,0.1167906734219537,0.11682704233516361,-0.13035862135225962,-0.1302857021081758,-6.258380132550525e-06,0.0045038716736374215,0.0006913178441060826,0.004802883499576656,0.0,0.0,0.0,0.0
310633000000,15988,310633000000,,BL_TO_BASELINK,BR_TO_BASELINK,FL_TO_BASELINK,FR_TO_BASELINK,0.11679349894475965,0.11682689869567398,-0.13035609999103137,-0.1302820484748466,0.002805952992401854,-0.00010396771380281823,0.0025362645220881734,0.0036333571679844972,0.0,0.0,0.0,0.0
310634000000,15989,310634000000,,BL_TO_BASELINK,BR_TO_BASELINK,FL_TO_BASELINK,FR_TO_BASELINK,0.11679345066131308,0.11682680164676995,-0.13035618789716885,-0.1303115420440637,-1.6347340113850167e-05,-7.021872927193487e-05,-0.00011410688187945064,-0.029490233367045468,0.0,0.0,0.0,0.0
310635000000,15990,310635000000,,BL_TO_BASELINK,BR_TO_BASELINK,FL_TO_BASELINK,FR_TO_BASELINK,0.11680802591459649,0.11686286771605658,-0.1303419882168928,-0.1303115759126907,0.014573287959077537,0.03607075118699861,0.014188380650262539,-5.920068577064397e-05,0.0,0.0,0.0,0.0
310636000000,15991,310636000000,,BL_TO_BASELINK,BR_TO_BASELINK,FL_TO_BASELINK,FR_TO_BASELINK,0.11680800399567648,0.11686285213372294,-0.13034197630999866,-0.13031155949968998,-2.55916885755908e-07,2.173620845188906e-07,-2.0080383038995064e-07,2.335209491506618e-07,0.0,0.0,0.0,0.0
310637000000,15992,310637000000,,BL_TO_BASELINK,BR_TO_BASELINK,FL_TO_BASELINK,FR_TO_BASELINK,0.11679566336660674,0.11685335022193577,-0.13035337543412506,-0.1303237926261911,-0.012341881548747638,-0.009500596432228637,-0.011403098961157373,-0.01222900476211618,0.0,0.0,0.0,0.0
310638000000,15993,310638000000,,BL_TO_BASELINK,BR_TO_BASELINK,FL_TO_BASELINK,FR_TO_BASELINK,0.11679562947384259,0.11685326190041856,-0.13036659144518392,-0.1303400660088645,-2.025130673438333e-05,-7.802291367863326e-05,-0.013243006940194972,-0.016276421592598966,0.0,0.0,0.0,0.0
310639000000,15994,310639000000,,BL_TO_BASELINK,BR_TO_BASELINK,FL_TO_BASELINK,FR_TO_BASELINK,0.11682042913498325,0.11687677190038315,-0.1303430119499014,-0.13031986633823056,0.024802468357113444,0.023508779530175664,0.0235819943512354,0.02019843523648009,0.0,0.0,0.0,0.0
310640000000,15995,310640000000,,BL_TO_BASELINK,BR_TO_BASELINK,FL_TO_BASELINK,FR_TO_BASELINK,0.11682042083336608,0.11687676502496203,-0.13034300495235218,-0.13031985522384915,1.5118419360166113e-08,-1.3728968507181749e-08,1.4730810689311813e-08,-1.8546589389267787e-08,0.0,0.0,0.0,0.0
310641000000,15996,310641000000,,BL_TO_BASELINK,BR_TO_BASELINK,FL_TO_BASELINK,FR_TO_BASELINK,0.11681485298320293,0.11686848253924609,-0.13034911971809482,-0.13032943598375724,-0.005584283311445723,-0.008292025147638707,-0.006110197745040487,-0.009597044691143836,0.0,0.0,0.0,0.0
310642000000,15997,310642000000,,BL_TO_BASELINK,BR_TO_BASELINK,FL_TO_BASELINK,FR_TO_BASELINK,0.11681483391670522,0.11686842703530331,-0.1303584764014447,-0.13034138856903965,-1.381809840758641e-05,-5.1119857416511566e-05,-0.009382359864437145,-0.011954133035391544,0.0,0.0,0.0,0.0
310643000000,15998,310643000000,,BL_TO_BASELINK,BR_TO_BASELINK,FL_TO_BASELINK,FR_TO_BASELINK,0.11683151180777518,0.11688405030604443,-0.1303429953288866,-0.130328235445754,0.01667874592078758,0.015621080983036507,0.015483120294511366,0.01314978581723292,0.0,0.0,0.0,0.0
310644000000,15999,310644000000,,BL_TO_BASELINK,BR_TO_BASELINK,FL_TO_BASELINK,FR_TO_BASELINK,0.11683150843017831,0.11688404752144699,-0.13034298997360683,-0.1303282294778887,5.891461285836841e-09,-5.332079423825409e-09,7.732450174949279e-09,-8.141077770251748e-09,0.0,0.0,0.0,0.0
310645000000,16000,310645000000,,BL_TO_BASELINK,BR_TO_BASELINK,FL_TO_BASELINK,FR_TO_BASELINK,0.1168267322195975,0.1168779294998874,-0.1303482263371043,-0.13033567506207344,-0.004777328838135751,-0.006116920156900848,-0.005236344648491372,-0.007445764086830592,0.0,0.0,0.0,0.0
310646000000,16001,310646000000,,BL_TO_BASELINK,BR_TO_BASELINK,FL_TO_BASELINK,FR_TO_BASELINK,0.11702670494585732,0.11707782584538062,-0.13015464424328904,-0.13014131541552754,0.19997496515634983,0.19989793680850731,0.19348376231130596,0.19427221743173798,0.0,0.0,0.0,0.0
310649000000,16002,310647000000,,BL_TO_BASELINK,BR_TO_BASELINK,FL_TO_BASELINK,FR_TO_BASELINK,0.11742643328971614,0.11747681056925607,-0.12988268191455177,-0.12986842176219326,0.3997297852993196,0.3989857193162228,0.27195401798892815,0.27288480499473444,0.0,0.0,0.0,0.0
310649000000,16003,310648000000,,BL_TO_BASELINK,BR_TO_BASELINK,FL_TO_BASELINK,FR_TO_BASELINK,0.11802643234095989,0.11807680985017033,-0.12928267837141938,-0.12926841871031058,0.5999999963939323,0.6000000031568216,0.5999999916783649,0.6000000080335598,0.0,0.0,0.0,0.0
310649000000,16004,310649000000,,BL_TO_BASELINK,BR_TO_BASELINK,FL_TO_BASELINK,FR_TO_BASELINK,0.11862607767708866,0.11867559055790178,-0.12892006715843074,-0.12890455588310612,0.5996470739040609,0.5987847937241085,0.3636120959505442,0.3645255630099483,0.0,0.0,0.0,0.0
310649000000,16005,310650000000,,BL_TO_BASELINK,BR_TO_BASELINK,FL_TO_BASELINK,FR_TO_BASELINK,0.11922607727922507,0.11927559024571188,-0.12832006476838131,-0.12830455431190746,0.5999999974058474,0.6000000022980223,0.5999999935834159,0.6000000049881862,0.0,0.0,0.0,0.0
310651000000,16006,310651000000,,BL_TO_BASELINK,BR_TO_BASELINK,FL_TO_BASELINK,FR_TO_BASELINK,0.11982607701907977,0.1198755900404862,-0.12772006323861618,-0.1277045533077965,0.5999999979476311,0.6000000018184237,0.5999999949436369,0.600000003922332,0.0,0.0,0.0,0.0
310652000000,16007,310652000000,,BL_TO_BASELINK,BR_TO_BASELINK,FL_TO_BASELINK,FR_TO_BASELINK,0.12042573460610395,0.1204744100758175,-0.12734939987460692,-0.12733380366194424,0.5996674042923142,0.5988540813520622,0.37682146364200886,0.37775806179946847,0.0,0.0,0.0,0.0
310653000000,16008,310653000000,,BL_TO_BASELINK,BR_TO_BASELINK,FL_TO_BASELINK,FR_TO_BASELINK,0.12102573448414056,0.12107440997218788,-0.126749398965063,-0.12673380311262417,0.5999999988313776,0.6000000010708209,0.5999999965455572,0.6000000024461226,0.0,0.0,0.0,0.0
310654000000,16009,310654000000,,BL_TO_BASELINK,BR_TO_BASELINK,FL_TO_BASELINK,FR_TO_BASELINK,0.12162573439779667,0.12167440989768519,-0.1261493983889137,-0.12613380276767394,0.5999999990767503,0.6000000008467892,0.5999999972860253,0.6000000019125741,0.0,0.0,0.0,0.0
310655000000,16010,310655000000,,BL_TO_BASELINK,BR_TO_BASELINK,FL_TO_BASELINK,FR_TO_BASELINK,0.12222540675426874,0.12227327988178516,-0.12576926604980176,-0.1257536805951034,0.599681206830434,0.5989009031161772,0.385719791087867,0.3864854210418224,0.0,0.0,0.0,0.0
310656000000,16011,310656000000,,BL_TO_BASELINK,BR_TO_BASELINK,FL_TO_BASELINK,FR_TO_BASELINK,0.12282540669845421,0.12287327982872753,-0.12516926572206888,-0.12515368043433295,0.5999999995035523,0.6000000004850262,0.5999999982684481,0.6000000010022519,0.0,0.0,0.0,0.0
310657000000,16012,310657000000,,BL_TO_BASELINK,BR_TO_BASELINK,FL_TO_BASELINK,FR_TO_BASELINK,0.12342540665184831,0.1234732797839504,-0.12456926552227987,-0.12455368034171954,0.5999999996087099,0.6000000003831624,0.599999998645698,0.6000000007732025,0.0,0.0,0.0,0.0
310658000000,16013,310658000000,,BL_TO_BASELINK,BR_TO_BASELINK,FL_TO_BASELINK,FR_TO_BASELINK,0.12402508856989858,0.12407218191894653,-0.1241831450020836,-0.1241677088296651,0.5996903794236266,0.5989317462915206,0.3914613304153921,0.3920749654594625,0.0,0.0,0.0,0.0
310659000000,16014,310659000000,,BL_TO_BASELINK,BR_TO_BASELINK,FL_TO_BASELINK,FR_TO_BASELINK,0.12472892351289122,0.12477687612792554,-0.1235844110530433,-0.12356858910328317,0.6631388708093742,0.6633122137513591,0.5992317681377173,0.5994666480632086,0.0,0.0,0.0,0.0
310660000000,16015,310660000000,,BL_TO_BASELINK,BR_TO_BASELINK,FL_TO_BASELINK,FR_TO_BASELINK,0.125328786335003,0.12537640297964625,-0.12307644679686369,-0.12306124582863553,0.5998637216910052,0.5995301676090818,0.5081980758571137,0.5082759907118811,0.0,0.0,0.0,0.0
310661000000,16016,310661000000,,BL_TO_BASELINK,BR_TO_BASELINK,FL_TO_BASELINK,FR_TO_BASELINK,0.1259390677919079,0.12598469000780543,-0.12247666987493044,-0.12246139631792552,0.6102815325524047,0.6082882977488802,0.5997768388807235,0.5998494844390883,0.0,0.0,0.0,0.0
310662000000,16017,310662000000,,BL_TO_BASELINK,BR_TO_BASELINK,FL_TO_BASELINK,FR_TO_BASELINK,0.12653907566208744,0.126584448973742,-0.12195425576447594,-0.12194930052402597,0.6000255495588346,0.5998320188765824,0.5225340372083235,0.5121792867157202,0.0,0.0,0.0,0.0
310663000000,16018,310663000000,,BL_TO_BASELINK,BR_TO_BASELINK,FL_TO_BASELINK,FR_TO_BASELINK,0.1272077373969065,0.12724960957655274,-0.12135506969279497,-0.12134986458998842,0.6686641025388816,0.6651621606243453,0.5991859692695106,0.5994359233476304,0.0,0.0,0.0,0.0
310664000000,16019,310664000000,,BL_TO_BASELINK,BR_TO_BASELINK,FL_TO_BASELINK,FR_TO_BASELINK,0.12780763978076504,0.12784927248217404,-0.12081863352050703,-0.12081811106584617,0.5999024482319459,0.5996629622683683,0.5364404692114995,0.5317543442209565,0.0,0.0,0.0,0.0
310665000000,16020,310665000000,,BL_TO_BASELINK,BR_TO_BASELINK,FL_TO_BASELINK,FR_TO_BASELINK,0.12844893006863067,0.12848541824701165,-0.1202191190341999,-0.12021844849446062,0.6412917372196119,0.6361489151727375,0.5995143684288656,0.5996624392464134,0.0,0.0,0.0,0.0
310666000000,16021,310666000000,,BL_TO_BASELINK,BR_TO_BASELINK,FL_TO_BASELINK,FR_TO_BASELINK,0.12904884248337378,0.12908511678768253,-0.11967605446572183,-0.11967981218227486,0.5999125146495503,0.5996986079337928,0.5430622872727859,0.5386348614751278,0.0,0.0,0.0,0.0
310667000000,16022,310667000000,,BL_TO_BASELINK,BR_TO_BASELINK,FL_TO_BASELINK,FR_TO_BASELINK,0.1297181499406168,0.12975053217276233,-0.11907687564060154,-0.11908038209046445,0.6693092549305404,0.6654179161797908,0.5991788121737492,0.5994300570105937,0.0,0.0,0.0,0.0
310668000000,16023,310668000000,,BL_TO_BASELINK,BR_TO_BASELINK,FL_TO_BASELINK,FR_TO_BASELINK,0.13031805792836693,0.13035021527661872,-0.11853732049139865,-0.11854434659206081,0.5999081084298676,0.5996832503252586,0.539564529723977,0.5360457126051333,0.0,0.0,0.0,0.0
310669000000,16024,310669000000,,BL_TO_BASELINK,BR_TO_BASELINK,FL_TO_BASELINK,FR_TO_BASELINK,0.1310290184157159,0.13105900882983335,-0.1179396551412184,-0.11794588555097274,0.7110051459938489,0.7088429641059828,0.5976293288845692,0.5984450558644476,0.0,0.0,0.0,0.0
310670000000,16025,310670000000,,BL_TO_BASELINK,BR_TO_BASELINK,FL_TO_BASELINK,FR_TO_BASELINK,0.13164626801707957,0.13167509871917815,-0.11734425040199614,-0.11735149054740468,0.6172538237841322,0.6160951167645154,0.5954091642582002,0.5944003579421908,0.0,0.0,0.0,0.0
310671000000,16026,310671000000,,BL_TO_BASELINK,BR_TO_BASELINK,FL_TO_BASELINK,FR_TO_BASELINK,0.13224626794800898,0.132275098647761,-0.11674425041198777,-0.11675149056147127,0.600000000391333,0.60000000041486,0.6000000001685344,0.5999999998731084,0.0,0.0,0.0,0.0
310672000000,16027,310672000000,,BL_TO_BASELINK,BR_TO_BASELINK,FL_TO_BASELINK,FR_TO_BASELINK,0.13288247530936026,0.13291885146239313,-0.11612378508705223,-0.11612509263238291,0.6362216733134839,0.6437549426733615,0.6204730576106744,0.6263792085861728,0.0,0.0,0.0,0.0
310673000000,16028,310673000000,,BL_TO_BASELINK,BR_TO_BASELINK,FL_TO_BASELINK,FR_TO_BASELINK,0.1335029529506757,0.13354803547184524,-0.11552393371620884,-0.1155251695899775,0.6204821099615038,0.6291893734389136,0.5998509763311117,0.599921739437421,0.0,0.0,0.0,0.0
310674000000,16029,310674000000,,BL_TO_BASELINK,BR_TO_BASELINK,FL_TO_BASELINK,FR_TO_BASELINK,0.13409672640378378,0.1341413401756526,-0.1149430510749081,-0.11494427622698034,0.5937719076303707,0.5933047299952393,0.5808810719125427,0.5808933261591089,0.0,0.0,0.0,0.0
310675000000,16030,310675000000,,BL_TO_BASELINK,BR_TO_BASELINK,FL_TO_BASELINK,FR_TO_BASELINK,0.1346967261633214,0.1347413399475741,-0.11434305109296794,-0.11434427623178856,0.6000000005439188,0.6000000005499874,0.5999999999578842,0.5999999998338996,0.0,0.0,0.0,0.0
310676000000,16031,310676000000,,BL_TO_BASELINK,BR_TO_BASELINK,FL_TO_BASELINK,FR_TO_BASELINK,0.1353096146387358,0.13535406606406752,-0.11373840045575001,-0.1137398932128253,0.612888677507994,0.6127271944467403,0.6046508140776249,0.604384073958619,0.0,0.0,0.0,0.0
310677000000,16032,310677000000,,BL_TO_BASELINK,BR_TO_BASELINK,FL_TO_BASELINK,FR_TO_BASELINK,0.13591111037588544,0.13595478367013936,-0.11314448005532007,-0.11314697287218412,0.6014922685810578,0.6007163475276168,0.5939164272401639,0.5929189685436375,0.0,0.0,0.0,0.0
310678000000,16033,310678000000,,BL_TO_BASELINK,BR_TO_BASELINK,FL_TO_BASELINK,FR_TO_BASELINK,0.13651111023942875,0.1365547835465133,-0.11254448007252993,-0.11254697288393611,0.6000000009612277,0.600000000898821,0.6000000000502044,0.599999999830655,0.0,0.0,0.0,0.0
310679000000,16034,310679000000,,BL_TO_BASELINK,BR_TO_BASELINK,FL_TO_BASELINK,FR_TO_BASELINK,0.13710927747345192,0.13715213949925964,-0.11195181745081939,-0.11195505452012533,0.5981674149414009,0.5973566361126121,0.5926628448610725,0.5919190784506683,0.0,0.0,0.0,0.0
310680000000,16035,310680000000,,BL_TO_BASELINK,BR_TO_BASELINK,FL_TO_BASELINK,FR_TO_BASELINK,0.13770927736631577,0.13775213940407838,-0.11135181746395961,-0.1113550545376043,0.6000000006634795,0.6000000006195562,0.6000000001347053,0.5999999999844313,0.0,0.0,0.0,0.0
310681000000,16036,310681000000,,BL_TO_BASELINK,BR_TO_BASELINK,FL_TO_BASELINK,FR_TO_BASELINK,0.1383092788600715,0.13835152026254782,-0.11075579266840929,-0.11075969599836988,0.600001432177301,0.5993807955931629,0.5960247294234023,0.5953584616889388,0.0,0.0,0.0,0.0
310682000000,16037,310682000000,,BL_TO_BASELINK,BR_TO_BASELINK,FL_TO_BASELINK,FR_TO_BASELINK,0.13890927878766668,0.13895152019896528,-0.11015579268078479,-0.11015969601570763,0.6000000004050299,0.6000000003671095,0.6000000001131114,0.6000000000319448,0.0,0.0,0.0,0.0
310683000000,16038,310683000000,,BL_TO_BASELINK,BR_TO_BASELINK,FL_TO_BASELINK,FR_TO_BASELINK,0.1395064541308999,0.13954821437994713,-0.10956161072583459,-0.10956592751641292,0.5971758336947844,0.5966946458467958,0.5941825180596144,0.5937690307721845,0.0,0.0,0.0,0.0
310684000000,16039,310684000000,,BL_TO_BASELINK,BR_TO_BASELINK,FL_TO_BASELINK,FR_TO_BASELINK,0.1401064540611916,0.14014821431826352,-0.10896161072983634,-0.10896592752913925,0.6000000002629085,0.6000000002426301,0.6000000001227326,0.6000000000702846,0.0,0.0,0.0,0.0
310685000000,16040,310685000000,,BL_TO_BASELINK,BR_TO_BASELINK,FL_TO_BASELINK,FR_TO_BASELINK,0.1407059948573801,0.1407473924478202,-0.10836429020446658,-0.10836898443062726,0.5995407713540538,0.5991780949311596,0.5973205093457421,0.5969430679442184,0.0,0.0,0.0,0.0
310686000000,16041,310686000000,,BL_TO_BASELINK,BR_TO_BASELINK,FL_TO_BASELINK,FR_TO_BASELINK,0.14130599480573558,0.14134739240175076,-0.1077642902101168,-0.1077689844429992,0.600000000161779,0.6000000001476022,0.6000000000793266,0.600000000059484,0.0,0.0,0.0,0.0
310687000000,16042,310687000000,,BL_TO_BASELINK,BR_TO_BASELINK,FL_TO_BASELINK,FR_TO_BASELINK,0.14190276716166395,0.14194386615114407,-0.10716932318518246,-0.10717424977471879,0.596771934086804,0.5964750248790673,0.5949666764277524,0.5947360375328289,0.0,0.0,0.0,0.0
310688000000,16043,310688000000,,BL_TO_BASELINK,BR_TO_BASELINK,FL_TO_BASELINK,FR_TO_BASELINK,0.142502767105257,0.14254386610006797,-0.10656932318039924,-0.10657424977774532,0.6000000001280463,0.6000000001176968,0.6000000000931722,0.6000000000709655,0.0,0.0,0.0,0.0
310689000000,16044,310689000000,,BL_TO_BASELINK,BR_TO_BASELINK,FL_TO_BASELINK,FR_TO_BASELINK,0.1431021833471382,0.14314306443068414,-0.1059712906485597,-0.10597643504426646,0.5994162569279122,0.599198346034558,0.5980325570434284,0.5978147575426103,0.0,0.0,0.0,0.0
310690000000,16045,310690000000,,BL_TO_BASELINK,BR_TO_BASELINK,FL_TO_BASELINK,FR_TO_BASELINK,0.14370218330391893,0.14374306439101758,-0.10537129064897055,-0.10537643505010141,0.6000000000695506,0.6000000000671443,0.6000000000378438,0.6000000000375351,0.0,0.0,0.0,0.0
310691000000,16046,310691000000,,BL_TO_BASELINK,BR_TO_BASELINK,FL_TO_BASELINK,FR_TO_BASELINK,0.1442986548889742,0.14433933949763045,-0.10477605953651459,-0.10478134275585926,0.5964720947272694,0.5962748531055237,0.5952317218971517,0.595092128212408,0.0,0.0,0.0,0.0
310692000000,16047,310692000000,,BL_TO_BASELINK,BR_TO_BASELINK,FL_TO_BASELINK,FR_TO_BASELINK,0.14489865483768316,0.14493933944998005,-0.10417605952463393,-0.10418134274946844,0.6000000000818901,0.6000000000732163,0.6000000000817043,0.6000000000685588,0.0,0.0,0.0,0.0
310693000000,16048,310693000000,,BL_TO_BASELINK,BR_TO_BASELINK,FL_TO_BASELINK,FR_TO_BASELINK,0.14549806496433781,0.14553861367321197,-0.10357763048174284,-0.10358303992462847,0.599410143363608,0.5992742398770848,0.5984290651174676,0.5983028469535001,0.0,0.0,0.0,0.0
310694000000,16049,310694000000,,BL_TO_BASELINK,BR_TO_BASELINK,FL_TO_BASELINK,FR_TO_BASELINK,0.14609806492501587,0.14613861363620373,-0.10297763047863207,-0.10298303992508373,0.6000000000263257,0.6000000000306205,0.6000000000022538,0.6000000000084491,0.0,0.0,0.0,0.0
310695000000,16050,310695000000,,BL_TO_BASELINK,BR_TO_BASELINK,FL_TO_BASELINK,FR_TO_BASELINK,0.14669420933720279,0.1467345965636495,-0.10238245488094488,-0.10238798265291127,0.5961433777747727,0.59598409003118,0.5951746472159886,0.5950585524665527,0.0,0.0,0.0,0.0
310696000000,16051,310696000000,,BL_TO_BASELINK,BR_TO_BASELINK,FL_TO_BASELINK,FR_TO_BASELINK,0.14729420928709303,0.14733459651614567,-0.10178245486221194,-0.10178798263738997,0.6000000000790946,0.6000000000677005,0.6000000000985651,0.600000000087713,0.0,0.0,0.0,0.0
310697000000,16052,310697000000,,BL_TO_BASELINK,BR_TO_BASELINK,FL_TO_BASELINK,FR_TO_BASELINK,0.14789680842604724,0.14793703667120273,-0.10118153999278334,-0.10118713717980299,0.6026011666482782,0.60242591760524,0.600887487328904,0.6008122765235895,0.0,0.0,0.0,0.0
310698000000,16053,310698000000,,BL_TO_BASELINK,BR_TO_BASELINK,FL_TO_BASELINK,FR_TO_BASELINK,0.1484968232471564,0.1485575819479985,-0.10058167576517096,-0.10058722945336918,0.6000148619689144,0.6205456765346896,0.5998642194329776,0.5999077199731454,0.0,0.0,0.0,0.0
310699000000,16054,310699000000,,BL_TO_BASELINK,BR_TO_BASELINK,FL_TO_BASELINK,FR_TO_BASELINK,0.14907829016929863,0.1491402524632388,-0.100001439885542,-0.10000674930654796,0.5822063027708189,0.5842488499669164,0.5813008919176402,0.5817869303946844,0.0,0.0,0.0,0.0
310700000000,16055,310700000000,,BL_TO_BASELINK,BR_TO_BASELINK,FL_TO_BASELINK,FR_TO_BASELINK,0.14967828986537413,0.1497402524419238,-0.09940143954618996,-0.09940674895880086,0.6000000003088595,0.599999998379595,0.6000000004250257,0.6000000002363617,0.0,0.0,0.0,0.0
