%time,field.header.seq,field.header.stamp,field.header.frame_id,field.name0,field.name1,field.name2,field.name3,field.position0,field.position1,field.position2,field.position3,field.velocity0,field.velocity1,field.velocity2,field.velocity3,field.effort0,field.effort1,field.effort2,field.effort3
160471000000,1715,160471000000,,BL_TO_BASELINK,BR_TO_BASELINK,FL_TO_BASELINK,FR_TO_BASELINK,0.0,0.0,0.0,0.0,3.469446951953614e-18,3.469446951953614e-18,1.0408340855860843e-17,3.8163916471489756e-17,0.0,0.0,0.0,0.0
160472000000,1716,160472000000,,BL_TO_BASELINK,BR_TO_BASELINK,FL_TO_BASELINK,FR_TO_BASELINK,0.0,0.0,0.0,0.0,-1.0408340855860843e-17,-1.734723475976807e-17,-3.469446951953614e-18,0.0,0.0,0.0,0.0,0.0
160473000000,1717,160473000000,,BL_TO_BASELINK,BR_TO_BASELINK,FL_TO_BASELINK,FR_TO_BASELINK,0.0,0.0,0.0,0.0,-1.734723475976807e-18,2.0816681711721685e-17,6.938893903907228e-18,6.938893903907228e-18,0.0,0.0,0.0,0.0
160474000000,1718,160474000000,,BL_TO_BASELINK,BR_TO_BASELINK,FL_TO_BASELINK,FR_TO_BASELINK,0.0,0.0,0.0,0.0,-3.469446951953614e-18,-1.214306433183765e-17,-2.2551405187698492e-17,-8.673617379884035e-18,0.0,0.0,0.0,0.0
160475000000,1719,160475000000,,BL_TO_BASELINK,BR_TO_BASELINK,FL_TO_BASELINK,FR_TO_BASELINK,0.0,0.0,0.0,0.0,0.0,-3.469446951953614e-18,-6.938893903907228e-18,3.469446951953614e-18,0.0,0.0,0.0,0.0
160476000000,1720,160476000000,,BL_TO_BASELINK,BR_TO_BASELINK,FL_TO_BASELINK,FR_TO_BASELINK,0.0,0.0,0.0,0.0,0.0,-3.469446951953614e-18,-1.0408340855860843e-17,-3.469446951953614e-18,0.0,0.0,0.0,0.0
160477000000,1721,160477000000,,BL_TO_BASELINK,BR_TO_BASELINK,FL_TO_BASELINK,FR_TO_BASELINK,0.0,0.0,0.0,0.0,8.673617379884035e-18,-3.469446951953614e-18,-8.673617379884035e-18,1.734723475976807e-18,0.0,0.0,0.0,0.0
160478000000,1722,160478000000,,BL_TO_BASELINK,BR_TO_BASELINK,FL_TO_BASELINK,FR_TO_BASELINK,0.0,0.0,0.0,0.0,-1.214306433183765e-17,1.3877787807814457e-17,2.0816681711721685e-17,2.7755575615628914e-17,0.0,0.0,0.0,0.0
160479000000,1723,160479000000,,BL_TO_BASELINK,BR_TO_BASELINK,FL_TO_BASELINK,FR_TO_BASELINK,0.0,0.0,0.0,0.0,8.673617379884035e-18,1.0408340855860843e-17,1.3877787807814457e-17,-1.3877787807814457e-17,0.0,0.0,0.0,0.0
160480000000,1724,160480000000,,BL_TO_BASELINK,BR_TO_BASELINK,FL_TO_BASELINK,FR_TO_BASELINK,0.0,0.0,0.0,0.0,-3.469446951953614e-18,0.0,-1.734723475976807e-18,-6.938893903907228e-18,0.0,0.0,0.0,0.0
160481000000,1725,160481000000,,BL_TO_BASELINK,BR_TO_BASELINK,FL_TO_BASELINK,FR_TO_BASELINK,0.0,0.0,0.0,0.0,6.938893903907228e-18,0.0,6.938893903907228e-18,0.0,0.0,0.0,0.0,0.0
160482000000,1726,160482000000,,BL_TO_BASELINK,BR_TO_BASELINK,FL_TO_BASELINK,FR_TO_BASELINK,0.0,0.0,0.0,0.0,0.0,-1.0408340855860843e-17,-1.734723475976807e-18,-8.673617379884035e-18,0.0,0.0,0.0,0.0
160483000000,1727,160483000000,,BL_TO_BASELINK,BR_TO_BASELINK,FL_TO_BASELINK,FR_TO_BASELINK,0.0,0.0,0.0,0.0,3.469446951953614e-18,-3.469446951953614e-18,-3.469446951953614e-18,0.0,0.0,0.0,0.0,0.0
160484000000,1728,160484000000,,BL_TO_BASELINK,BR_TO_BASELINK,FL_TO_BASELINK,FR_TO_BASELINK,0.0,0.0,0.0,0.0,-5.204170427930421e-18,8.673617379884035e-18,1.6046192152785466e-17,-8.239936510889834e-18,0.0,0.0,0.0,0.0
160485000000,1729,160485000000,,BL_TO_BASELINK,BR_TO_BASELINK,FL_TO_BASELINK,FR_TO_BASELINK,0.0,0.0,0.0,0.0,5.204170427930421e-18,1.5612511283791264e-17,0.0,1.3877787807814457e-17,0.0,0.0,0.0,0.0
160486000000,1730,160486000000,,BL_TO_BASELINK,BR_TO_BASELINK,FL_TO_BASELINK,FR_TO_BASELINK,0.0,0.0,0.0,0.0,-1.0408340855860843e-17,-1.0408340855860843e-17,-1.3877787807814457e-17,1.734723475976807e-17,0.0,0.0,0.0,0.0
160487000000,1731,160487000000,,BL_TO_BASELINK,BR_TO_BASELINK,FL_TO_BASELINK,FR_TO_BASELINK,0.0,0.0,0.0,0.0,0.0,0.0,3.469446951953614e-18,1.0408340855860843e-17,0.0,0.0,0.0,0.0
160488000000,1732,160488000000,,BL_TO_BASELINK,BR_TO_BASELINK,FL_TO_BASELINK,FR_TO_BASELINK,0.0,0.0,0.0,0.0,3.469446951953614e-18,1.0408340855860843e-17,6.938893903907228e-18,0.0,0.0,0.0,0.0,0.0
160489000000,1733,160489000000,,BL_TO_BASELINK,BR_TO_BASELINK,FL_TO_BASELINK,FR_TO_BASELINK,0.0,0.0,0.0,0.0,1.734723475976807e-18,8.673617379884035e-18,1.5612511283791264e-17,1.214306433183765e-17,0.0,0.0,0.0,0.0
160490000000,1734,160490000000,,BL_TO_BASELINK,BR_TO_BASELINK,FL_TO_BASELINK,FR_TO_BASELINK,0.0,0.0,0.0,0.0,-6.938893903907228e-18,-8.673617379884035e-19,7.37257477290143e-18,2.2551405187698492e-17,0.0,0.0,0.0,0.0
160491000000,1735,160491000000,,BL_TO_BASELINK,BR_TO_BASELINK,FL_TO_BASELINK,FR_TO_BASELINK,0.0,0.0,0.0,0.0,-1.0408340855860843e-17,2.0816681711721685e-17,3.122502256758253e-17,4.85722573273506e-17,0.0,0.0,0.0,0.0
160492000000,1736,160492000000,,BL_TO_BASELINK,BR_TO_BASELINK,FL_TO_BASELINK,FR_TO_BASELINK,0.0,0.0,0.0,0.0,-6.938893903907228e-18,-6.938893903907228e-18,-3.469446951953614e-18,-1.0408340855860843e-17,0.0,0.0,0.0,0.0
160493000000,1737,160493000000,,BL_TO_BASELINK,BR_TO_BASELINK,FL_TO_BASELINK,FR_TO_BASELINK,0.0,0.0,0.0,0.0,-3.469446951953614e-18,-3.469446951953614e-18,-6.938893903907228e-18,-1.0408340855860843e-17,0.0,0.0,0.0,0.0
160494000000,1738,160494000000,,BL_TO_BASELINK,BR_TO_BASELINK,FL_TO_BASELINK,FR_TO_BASELINK,0.0,0.0,0.0,0.0,8.673617379884035e-18,8.673617379884035e-19,-5.204170427930421e-18,-5.204170427930421e-18,0.0,0.0,0.0,0.0
160495000000,1739,160495000000,,BL_TO_BASELINK,BR_TO_BASELINK,FL_TO_BASELINK,FR_TO_BASELINK,0.0,0.0,0.0,0.0,9.215718466126788e-18,-3.2526065174565133e-19,6.288372600415926e-18,-1.0191500421363742e-17,0.0,0.0,0.0,0.0
160496000000,1740,160496000000,,BL_TO_BASELINK,BR_TO_BASELINK,FL_TO_BASELINK,FR_TO_BASELINK,0.0,0.0,0.0,0.0,0.0,3.469446951953614e-18,0.0,6.938893903907228e-18,0.0,0.0,0.0,0.0
160497000000,1741,160497000000,,BL_TO_BASELINK,BR_TO_BASELINK,FL_TO_BASELINK,FR_TO_BASELINK,0.0,0.0,0.0,0.0,0.0,-3.469446951953614e-18,-1.3877787807814457e-17,-1.734723475976807e-17,0.0,0.0,0.0,0.0
160498000000,1742,160498000000,,BL_TO_BASELINK,BR_TO_BASELINK,FL_TO_BASELINK,FR_TO_BASELINK,0.0,0.0,0.0,0.0,3.469446951953614e-18,0.0,6.938893903907228e-18,2.7755575615628914e-17,0.0,0.0,0.0,0.0
160499000000,1743,160499000000,,BL_TO_BASELINK,BR_TO_BASELINK,FL_TO_BASELINK,FR_TO_BASELINK,0.0,0.0,0.0,0.0,-3.469446951953614e-18,-6.938893903907228e-18,-1.0408340855860843e-17,0.0,0.0,0.0,0.0,0.0
160500000000,1744,160500000000,,BL_TO_BASELINK,BR_TO_BASELINK,FL_TO_BASELINK,FR_TO_BASELINK,0.0,0.0,0.0,0.0,4.336808689942018e-18,-1.3877787807814457e-17,-5.204170427930421e-18,-3.729655473350135e-17,0.0,0.0,0.0,0.0
160501000000,1745,160501000000,,BL_TO_BASELINK,BR_TO_BASELINK,FL_TO_BASELINK,FR_TO_BASELINK,0.0,0.0,0.0,0.0,0.0,0.0,-6.938893903907228e-18,-1.3877787807814457e-17,0.0,0.0,0.0,0.0
160502000000,1746,160502000000,,BL_TO_BASELINK,BR_TO_BASELINK,FL_TO_BASELINK,FR_TO_BASELINK,0.0,0.0,0.0,0.0,1.0408340855860843e-17,0.0,-3.469446951953614e-18,-1.0408340855860843e-17,0.0,0.0,0.0,0.0
160503000000,1747,160503000000,,BL_TO_BASELINK,BR_TO_BASELINK,FL_TO_BASELINK,FR_TO_BASELINK,0.0,0.0,0.0,0.0,2.0816681711721685e-17,1.3877787807814457e-17,-6.938893903907228e-18,1.3877787807814457e-17,0.0,0.0,0.0,0.0
160504000000,1748,160504000000,,BL_TO_BASELINK,BR_TO_BASELINK,FL_TO_BASELINK,FR_TO_BASELINK,0.0,0.0,0.0,0.0,1.3877787807814457e-17,1.3877787807814457e-17,2.0816681711721685e-17,0.0,0.0,0.0,0.0,0.0
160505000000,1749,160505000000,,BL_TO_BASELINK,BR_TO_BASELINK,FL_TO_BASELINK,FR_TO_BASELINK,0.0,0.0,0.0,0.0,8.673617379884035e-18,-2.0816681711721685e-17,-2.0816681711721685e-17,-2.949029909160572e-17,0.0,0.0,0.0,0.0
160506000000,1750,160506000000,,BL_TO_BASELINK,BR_TO_BASELINK,FL_TO_BASELINK,FR_TO_BASELINK,0.0,0.0,0.0,0.0,-1.734723475976807e-18,-3.469446951953614e-18,1.734723475976807e-17,3.2959746043559335e-17,0.0,0.0,0.0,0.0
160507000000,1751,160507000000,,BL_TO_BASELINK,BR_TO_BASELINK,FL_TO_BASELINK,FR_TO_BASELINK,0.0,0.0,0.0,0.0,3.469446951953614e-18,1.0408340855860843e-17,3.469446951953614e-18,-6.938893903907228e-18,0.0,0.0,0.0,0.0
160508000000,1752,160508000000,,BL_TO_BASELINK,BR_TO_BASELINK,FL_TO_BASELINK,FR_TO_BASELINK,0.0,0.0,0.0,0.0,3.469446951953614e-18,-1.0408340855860843e-17,-1.0408340855860843e-17,-6.938893903907228e-18,0.0,0.0,0.0,0.0
160509000000,1753,160509000000,,BL_TO_BASELINK,BR_TO_BASELINK,FL_TO_BASELINK,FR_TO_BASELINK,0.0,0.0,0.0,0.0,1.0408340855860843e-17,-1.3877787807814457e-17,-1.734723475976807e-17,-3.8163916471489756e-17,0.0,0.0,0.0,0.0
160510000000,1754,160510000000,,BL_TO_BASELINK,BR_TO_BASELINK,FL_TO_BASELINK,FR_TO_BASELINK,0.0,0.0,0.0,0.0,0.0,0.0,-3.469446951953614e-18,-3.469446951953614e-18,0.0,0.0,0.0,0.0
160511000000,1755,160511000000,,BL_TO_BASELINK,BR_TO_BASELINK,FL_TO_BASELINK,FR_TO_BASELINK,0.0,0.0,0.0,0.0,-2.168404344971009e-18,2.5587171270657905e-17,1.8648277366750676e-17,4.7704895589362195e-18,0.0,0.0,0.0,0.0
160512000000,1756,160512000000,,BL_TO_BASELINK,BR_TO_BASELINK,FL_TO_BASELINK,FR_TO_BASELINK,0.0,0.0,0.0,0.0,-6.071532165918825e-18,-2.0816681711721685e-17,1.3877787807814457e-17,2.688821387764051e-17,0.0,0.0,0.0,0.0
160513000000,1757,160513000000,,BL_TO_BASELINK,BR_TO_BASELINK,FL_TO_BASELINK,FR_TO_BASELINK,0.0,0.0,0.0,0.0,1.3877787807814457e-17,-3.469446951953614e-17,-5.204170427930421e-17,-4.85722573273506e-17,0.0,0.0,0.0,0.0
160514000000,1758,160514000000,,BL_TO_BASELINK,BR_TO_BASELINK,FL_TO_BASELINK,FR_TO_BASELINK,0.0,0.0,0.0,0.0,-6.938893903907228e-18,0.0,0.0,0.0,0.0,0.0,0.0,0.0
160515000000,1759,160515000000,,BL_TO_BASELINK,BR_TO_BASELINK,FL_TO_BASELINK,FR_TO_BASELINK,0.0,0.0,0.0,0.0,3.469446951953614e-18,3.469446951953614e-18,3.469446951953614e-18,6.938893903907228e-18,0.0,0.0,0.0,0.0
160516000000,1760,160516000000,,BL_TO_BASELINK,BR_TO_BASELINK,FL_TO_BASELINK,FR_TO_BASELINK,0.0,0.0,0.0,0.0,-8.239936510889834e-18,-1.8648277366750676e-17,2.168404344971009e-18,-1.3010426069826053e-18,0.0,0.0,0.0,0.0
160517000000,1761,160517000000,,BL_TO_BASELINK,BR_TO_BASELINK,FL_TO_BASELINK,FR_TO_BASELINK,0.0,0.0,0.0,0.0,6.071532165918825e-18,-2.6020852139652106e-18,-7.806255641895632e-18,-1.3010426069826053e-17,0.0,0.0,0.0,0.0
160518000000,1762,160518000000,,BL_TO_BASELINK,BR_TO_BASELINK,FL_TO_BASELINK,FR_TO_BASELINK,0.0,0.0,0.0,0.0,6.938893903907228e-18,1.734723475976807e-17,2.0816681711721685e-17,3.122502256758253e-17,0.0,0.0,0.0,0.0
160519000000,1763,160519000000,,BL_TO_BASELINK,BR_TO_BASELINK,FL_TO_BASELINK,FR_TO_BASELINK,0.0,0.0,0.0,0.0,3.469446951953614e-18,-2.0816681711721685e-17,-1.3877787807814457e-17,-3.469446951953614e-17,0.0,0.0,0.0,0.0
160520000000,1764,160520000000,,BL_TO_BASELINK,BR_TO_BASELINK,FL_TO_BASELINK,FR_TO_BASELINK,0.0,0.0,0.0,0.0,-3.469446951953614e-18,-3.122502256758253e-17,-2.42861286636753e-17,3.469446951953614e-18,0.0,0.0,0.0,0.0
160521000000,1765,160521000000,,BL_TO_BASELINK,BR_TO_BASELINK,FL_TO_BASELINK,FR_TO_BASELINK,0.0,0.0,0.0,0.0,-9.540979117872439e-18,4.336808689942018e-18,4.336808689942018e-18,2.862293735361732e-17,0.0,0.0,0.0,0.0
160522000000,1766,160522000000,,BL_TO_BASELINK,BR_TO_BASELINK,FL_TO_BASELINK,FR_TO_BASELINK,0.0,0.0,0.0,0.0,3.686287386450715e-18,2.710505431213761e-18,-2.2442984970449942e-17,-2.1467203015212988e-17,0.0,0.0,0.0,0.0
160523000000,1767,160523000000,,BL_TO_BASELINK,BR_TO_BASELINK,FL_TO_BASELINK,FR_TO_BASELINK,0.0,0.0,0.0,0.0,3.469446951953614e-18,0.0,6.938893903907228e-18,-3.469446951953614e-18,0.0,0.0,0.0,0.0
160524000000,1768,160524000000,,BL_TO_BASELINK,BR_TO_BASELINK,FL_TO_BASELINK,FR_TO_BASELINK,0.0,0.0,0.0,0.0,6.938893903907228e-18,-2.0816681711721685e-17,3.469446951953614e-18,3.469446951953614e-18,0.0,0.0,0.0,0.0
160525000000,1769,160525000000,,BL_TO_BASELINK,BR_TO_BASELINK,FL_TO_BASELINK,FR_TO_BASELINK,0.0,0.0,0.0,0.0,6.938893903907228e-18,6.938893903907228e-18,1.734723475976807e-17,2.0816681711721685e-17,0.0,0.0,0.0,0.0
160526000000,1770,160526000000,,BL_TO_BASELINK,BR_TO_BASELINK,FL_TO_BASELINK,FR_TO_BASELINK,0.0,0.0,0.0,0.0,0.0,6.938893903907228e-18,-6.938893903907228e-18,0.0,0.0,0.0,0.0,0.0
160527000000,1771,160527000000,,BL_TO_BASELINK,BR_TO_BASELINK,FL_TO_BASELINK,FR_TO_BASELINK,0.0,0.0,0.0,0.0,-2.6020852139652106e-18,-4.336808689942018e-18,-4.336808689942018e-18,-6.938893903907228e-18,0.0,0.0,0.0,0.0
160528000000,1772,160528000000,,BL_TO_BASELINK,BR_TO_BASELINK,FL_TO_BASELINK,FR_TO_BASELINK,0.0,0.0,0.0,0.0,1.0408340855860843e-17,1.0408340855860843e-17,1.3877787807814457e-17,6.938893903907228e-18,0.0,0.0,0.0,0.0
160529000000,1773,160529000000,,BL_TO_BASELINK,BR_TO_BASELINK,FL_TO_BASELINK,FR_TO_BASELINK,0.0,0.0,0.0,0.0,-6.938893903907228e-18,-3.469446951953614e-18,-1.0408340855860843e-17,6.938893903907228e-18,0.0,0.0,0.0,0.0
160530000000,1774,160530000000,,BL_TO_BASELINK,BR_TO_BASELINK,FL_TO_BASELINK,FR_TO_BASELINK,0.0,0.0,0.0,0.0,-6.938893903907228e-18,-1.0408340855860843e-17,-1.0408340855860843e-17,3.469446951953614e-18,0.0,0.0,0.0,0.0
160531000000,1775,160531000000,,BL_TO_BASELINK,BR_TO_BASELINK,FL_TO_BASELINK,FR_TO_BASELINK,0.0,0.0,0.0,0.0,0.0,-6.938893903907228e-18,-3.469446951953614e-18,-3.469446951953614e-17,0.0,0.0,0.0,0.0
160532000000,1776,160532000000,,BL_TO_BASELINK,BR_TO_BASELINK,FL_TO_BASELINK,FR_TO_BASELINK,0.0,0.0,0.0,0.0,-1.734723475976807e-18,1.734723475976807e-17,2.42861286636753e-17,1.734723475976807e-17,0.0,0.0,0.0,0.0
160533000000,1777,160533000000,,BL_TO_BASELINK,BR_TO_BASELINK,FL_TO_BASELINK,FR_TO_BASELINK,0.0,0.0,0.0,0.0,0.0,1.734723475976807e-18,-3.469446951953614e-18,-8.673617379884035e-18,0.0,0.0,0.0,0.0
160534000000,1778,160534000000,,BL_TO_BASELINK,BR_TO_BASELINK,FL_TO_BASELINK,FR_TO_BASELINK,0.0,0.0,0.0,0.0,8.673617379884035e-18,1.734723475976807e-18,-1.0408340855860843e-17,-2.0816681711721685e-17,0.0,0.0,0.0,0.0
160535000000,1779,160535000000,,BL_TO_BASELINK,BR_TO_BASELINK,FL_TO_BASELINK,FR_TO_BASELINK,0.0,0.0,0.0,0.0,6.938893903907228e-18,-1.3877787807814457e-17,-1.3877787807814457e-17,-4.163336342344337e-17,0.0,0.0,0.0,0.0
160536000000,1780,160536000000,,BL_TO_BASELINK,BR_TO_BASELINK,FL_TO_BASELINK,FR_TO_BASELINK,0.0,0.0,0.0,0.0,-3.469446951953614e-18,0.0,3.469446951953614e-18,3.469446951953614e-18,0.0,0.0,0.0,0.0
160537000000,1781,160537000000,,BL_TO_BASELINK,BR_TO_BASELINK,FL_TO_BASELINK,FR_TO_BASELINK,0.0,0.0,0.0,0.0,0.0,-1.3877787807814457e-17,-2.0816681711721685e-17,-3.469446951953614e-17,0.0,0.0,0.0,0.0
160538000000,1782,160538000000,,BL_TO_BASELINK,BR_TO_BASELINK,FL_TO_BASELINK,FR_TO_BASELINK,0.0,0.0,0.0,0.0,-1.3010426069826053e-18,5.637851296924623e-18,2.168404344971009e-18,-8.239936510889834e-18,0.0,0.0,0.0,0.0
160539000000,1783,160539000000,,BL_TO_BASELINK,BR_TO_BASELINK,FL_TO_BASELINK,FR_TO_BASELINK,0.0,0.0,0.0,0.0,-3.469446951953614e-18,-6.938893903907228e-18,-3.469446951953614e-18,-1.5612511283791264e-17,0.0,0.0,0.0,0.0
160540000000,1784,160540000000,,BL_TO_BASELINK,BR_TO_BASELINK,FL_TO_BASELINK,FR_TO_BASELINK,0.0,0.0,0.0,0.0,0.0,-1.3877787807814457e-17,0.0,0.0,0.0,0.0,0.0,0.0
160541000000,1785,160541000000,,BL_TO_BASELINK,BR_TO_BASELINK,FL_TO_BASELINK,FR_TO_BASELINK,0.0,0.0,0.0,0.0,1.3877787807814457e-17,1.0408340855860843e-17,1.734723475976807e-17,-3.469446951953614e-18,0.0,0.0,0.0,0.0
160542000000,1786,160542000000,,BL_TO_BASELINK,BR_TO_BASELINK,FL_TO_BASELINK,FR_TO_BASELINK,0.0,0.0,0.0,0.0,-6.938893903907228e-18,-1.0408340855860843e-17,6.938893903907228e-18,2.0816681711721685e-17,0.0,0.0,0.0,0.0
160543000000,1787,160543000000,,BL_TO_BASELINK,BR_TO_BASELINK,FL_TO_BASELINK,FR_TO_BASELINK,0.0,0.0,0.0,0.0,-6.071532165918825e-18,1.5178830414797062e-17,2.168404344971009e-17,2.862293735361732e-17,0.0,0.0,0.0,0.0
160544000000,1788,160544000000,,BL_TO_BASELINK,BR_TO_BASELINK,FL_TO_BASELINK,FR_TO_BASELINK,0.0,0.0,0.0,0.0,4.336808689942018e-19,-1.691355389077387e-17,-5.637851296924623e-18,-3.0357660829594124e-18,0.0,0.0,0.0,0.0
160545000000,1789,160545000000,,BL_TO_BASELINK,BR_TO_BASELINK,FL_TO_BASELINK,FR_TO_BASELINK,0.0,0.0,0.0,0.0,0.0,2.42861286636753e-17,-6.938893903907228e-18,-6.938893903907228e-18,0.0,0.0,0.0,0.0
160546000000,1790,160546000000,,BL_TO_BASELINK,BR_TO_BASELINK,FL_TO_BASELINK,FR_TO_BASELINK,0.0,0.0,0.0,0.0,6.938893903907228e-18,2.42861286636753e-17,1.0408340855860843e-17,6.938893903907228e-18,0.0,0.0,0.0,0.0
160547000000,1791,160547000000,,BL_TO_BASELINK,BR_TO_BASELINK,FL_TO_BASELINK,FR_TO_BASELINK,0.0,0.0,0.0,0.0,3.469446951953614e-18,-1.0408340855860843e-17,-1.0408340855860843e-17,-2.7755575615628914e-17,0.0,0.0,0.0,0.0
160548000000,1792,160548000000,,BL_TO_BASELINK,BR_TO_BASELINK,FL_TO_BASELINK,FR_TO_BASELINK,0.0,0.0,0.0,0.0,-5.204170427930421e-18,-1.5612511283791264e-17,-4.336808689942018e-18,-1.8214596497756474e-17,0.0,0.0,0.0,0.0
160549000000,1793,160549000000,,BL_TO_BASELINK,BR_TO_BASELINK,FL_TO_BASELINK,FR_TO_BASELINK,0.0,0.0,0.0,0.0,9.75781955236954e-19,-5.204170427930421e-18,-5.421010862427522e-18,-1.5829351718288365e-17,0.0,0.0,0.0,0.0
160550000000,1794,160550000000,,BL_TO_BASELINK,BR_TO_BASELINK,FL_TO_BASELINK,FR_TO_BASELINK,0.0,0.0,0.0,0.0,-3.469446951953614e-18,-6.938893903907228e-18,-6.938893903907228e-18,1.3877787807814457e-17,0.0,0.0,0.0,0.0
160551000000,1795,160551000000,,BL_TO_BASELINK,BR_TO_BASELINK,FL_TO_BASELINK,FR_TO_BASELINK,0.0,0.0,0.0,0.0,3.469446951953614e-18,-6.938893903907228e-18,-1.3877787807814457e-17,1.3877787807814457e-17,0.0,0.0,0.0,0.0
160552000000,1796,160552000000,,BL_TO_BASELINK,BR_TO_BASELINK,FL_TO_BASELINK,FR_TO_BASELINK,0.0,0.0,0.0,0.0,0.0,-6.938893903907228e-18,-1.0408340855860843e-17,-6.938893903907228e-18,0.0,0.0,0.0,0.0
160553000000,1797,160553000000,,BL_TO_BASELINK,BR_TO_BASELINK,FL_TO_BASELINK,FR_TO_BASELINK,0.0,0.0,0.0,0.0,8.673617379884035e-18,1.0408340855860843e-17,1.0408340855860843e-17,1.734723475976807e-18,0.0,0.0,0.0,0.0
160554000000,1798,160554000000,,BL_TO_BASELINK,BR_TO_BASELINK,FL_TO_BASELINK,FR_TO_BASELINK,0.0,0.0,0.0,0.0,-8.673617379884035e-19,-1.734723475976807e-18,-1.3877787807814457e-17,-2.0816681711721685e-17,0.0,0.0,0.0,0.0
160555000000,1799,160555000000,,BL_TO_BASELINK,BR_TO_BASELINK,FL_TO_BASELINK,FR_TO_BASELINK,0.0,0.0,0.0,0.0,-1.0408340855860843e-17,4.163336342344337e-17,3.8163916471489756e-17,4.163336342344337e-17,0.0,0.0,0.0,0.0
160556000000,1800,160556000000,,BL_TO_BASELINK,BR_TO_BASELINK,FL_TO_BASELINK,FR_TO_BASELINK,0.0,0.0,0.0,0.0,-3.469446951953614e-18,1.0408340855860843e-17,2.42861286636753e-17,2.7755575615628914e-17,0.0,0.0,0.0,0.0
160557000000,1801,160557000000,,BL_TO_BASELINK,BR_TO_BASELINK,FL_TO_BASELINK,FR_TO_BASELINK,0.0,0.0,0.0,0.0,-6.938893903907228e-18,1.3877787807814457e-17,2.7755575615628914e-17,2.7755575615628914e-17,0.0,0.0,0.0,0.0
160558000000,1802,160558000000,,BL_TO_BASELINK,BR_TO_BASELINK,FL_TO_BASELINK,FR_TO_BASELINK,0.0,0.0,0.0,0.0,6.938893903907228e-18,1.3877787807814457e-17,2.42861286636753e-17,2.7755575615628914e-17,0.0,0.0,0.0,0.0
160559000000,1803,160559000000,,BL_TO_BASELINK,BR_TO_BASELINK,FL_TO_BASELINK,FR_TO_BASELINK,0.0,0.0,0.0,0.0,-8.673617379884035e-18,4.683753385137379e-17,2.2551405187698492e-17,1.5612511283791264e-17,0.0,0.0,0.0,0.0
160560000000,1804,160560000000,,BL_TO_BASELINK,BR_TO_BASELINK,FL_TO_BASELINK,FR_TO_BASELINK,0.0,0.0,0.0,0.0,-1.734723475976807e-18,1.734723475976807e-18,1.5612511283791264e-17,2.0816681711721685e-17,0.0,0.0,0.0,0.0
160561000000,1805,160561000000,,BL_TO_BASELINK,BR_TO_BASELINK,FL_TO_BASELINK,FR_TO_BASELINK,0.0,0.0,0.0,0.0,0.0,-1.3877787807814457e-17,-1.734723475976807e-17,-1.3877787807814457e-17,0.0,0.0,0.0,0.0
160562000000,1806,160562000000,,BL_TO_BASELINK,BR_TO_BASELINK,FL_TO_BASELINK,FR_TO_BASELINK,0.0,0.0,0.0,0.0,-3.469446951953614e-18,3.469446951953614e-18,-1.0408340855860843e-17,-1.734723475976807e-17,0.0,0.0,0.0,0.0
160563000000,1807,160563000000,,BL_TO_BASELINK,BR_TO_BASELINK,FL_TO_BASELINK,FR_TO_BASELINK,0.0,0.0,0.0,0.0,3.469446951953614e-18,-1.3877787807814457e-17,-3.469446951953614e-18,1.0408340855860843e-17,0.0,0.0,0.0,0.0
160564000000,1808,160564000000,,BL_TO_BASELINK,BR_TO_BASELINK,FL_TO_BASELINK,FR_TO_BASELINK,0.0,0.0,0.0,0.0,-6.938893903907228e-18,-1.0408340855860843e-17,-1.3877787807814457e-17,-1.3877787807814457e-17,0.0,0.0,0.0,0.0
160565000000,1809,160565000000,,BL_TO_BASELINK,BR_TO_BASELINK,FL_TO_BASELINK,FR_TO_BASELINK,0.0,0.0,0.0,0.0,-1.734723475976807e-18,8.673617379884035e-18,2.2551405187698492e-17,8.673617379884035e-18,0.0,0.0,0.0,0.0
160566000000,1810,160566000000,,BL_TO_BASELINK,BR_TO_BASELINK,FL_TO_BASELINK,FR_TO_BASELINK,0.0,0.0,0.0,0.0,0.0,6.938893903907228e-18,0.0,1.734723475976807e-18,0.0,0.0,0.0,0.0
160567000000,1811,160567000000,,BL_TO_BASELINK,BR_TO_BASELINK,FL_TO_BASELINK,FR_TO_BASELINK,0.0,0.0,0.0,0.0,1.0408340855860843e-17,-1.0408340855860843e-17,-2.42861286636753e-17,-3.8163916471489756e-17,0.0,0.0,0.0,0.0
160568000000,1812,160568000000,,BL_TO_BASELINK,BR_TO_BASELINK,FL_TO_BASELINK,FR_TO_BASELINK,0.0,0.0,0.0,0.0,6.938893903907228e-18,-6.938893903907228e-18,-1.0408340855860843e-17,-3.469446951953614e-17,0.0,0.0,0.0,0.0
160569000000,1813,160569000000,,BL_TO_BASELINK,BR_TO_BASELINK,FL_TO_BASELINK,FR_TO_BASELINK,0.0,0.0,0.0,0.0,0.0,0.0,2.7755575615628914e-17,2.7755575615628914e-17,0.0,0.0,0.0,0.0
160570000000,1814,160570000000,,BL_TO_BASELINK,BR_TO_BASELINK,FL_TO_BASELINK,FR_TO_BASELINK,0.0,0.0,0.0,0.0,-1.734723475976807e-18,1.734723475976807e-18,1.5612511283791264e-17,2.949029909160572e-17,0.0,0.0,0.0,0.0
160571000000,1815,160571000000,,BL_TO_BASELINK,BR_TO_BASELINK,FL_TO_BASELINK,FR_TO_BASELINK,0.0,0.0,0.0,0.0,-1.734723475976807e-18,3.469446951953614e-18,-9.107298248878237e-18,-1.1275702593849246e-17,0.0,0.0,0.0,0.0
160572000000,1816,160572000000,,BL_TO_BASELINK,BR_TO_BASELINK,FL_TO_BASELINK,FR_TO_BASELINK,0.0,0.0,0.0,0.0,-3.469446951953614e-18,-1.3877787807814457e-17,-1.0408340855860843e-17,-1.734723475976807e-17,0.0,0.0,0.0,0.0
160573000000,1817,160573000000,,BL_TO_BASELINK,BR_TO_BASELINK,FL_TO_BASELINK,FR_TO_BASELINK,0.0,0.0,0.0,0.0,3.469446951953614e-18,-3.469446951953614e-18,3.469446951953614e-18,-1.0408340855860843e-17,0.0,0.0,0.0,0.0
160574000000,1818,160574000000,,BL_TO_BASELINK,BR_TO_BASELINK,FL_TO_BASELINK,FR_TO_BASELINK,0.0001999999936650454,0.0001999999936650454,0.0001999999936650454,0.0001999999936650454,0.1999999760563576,0.1999999760563576,0.1999999760563576,0.1999999760563576,0.0,0.0,0.0,0.0
160575000000,1819,160575000000,,BL_TO_BASELINK,BR_TO_BASELINK,FL_TO_BASELINK,FR_TO_BASELINK,0.0005999999599950456,0.0005999999599950456,0.0005999999599950456,0.0005999999599950456,0.3999999474775648,0.39999994747756473,0.39999994747756484,0.3999999474775648,0.0,0.0,0.0,0.0
160576000000,1820,160576000000,,BL_TO_BASELINK,BR_TO_BASELINK,FL_TO_BASELINK,FR_TO_BASELINK,0.0011999999061584887,0.0011999999061584887,0.0011999999061584887,0.0011999999061584887,0.5999999218679006,0.5999999218679007,0.5999999218679007,0.5999999218679006,0.0,0.0,0.0,0.0
160577000000,1821,160577000000,,BL_TO_BASELINK,BR_TO_BASELINK,FL_TO_BASELINK,FR_TO_BASELINK,0.001999999808392161,0.001999999808392161,0.001999999808392161,0.001999999808392161,0.7999998953577879,0.7999998953577879,0.7999998953577879,0.7999998953577879,0.0,0.0,0.0,0.0
160578000000,1822,160578000000,,BL_TO_BASELINK,BR_TO_BASELINK,FL_TO_BASELINK,FR_TO_BASELINK,0.002929431980823516,0.002929431980823516,0.002929431980823516,0.002929431980823516,0.9294321816113091,0.9294321816113091,0.9294321816113091,0.9294321816113091,0.0,0.0,0.0,0.0
160579000000,1823,160579000000,,BL_TO_BASELINK,BR_TO_BASELINK,FL_TO_BASELINK,FR_TO_BASELINK,0.0038588641454593287,0.0038588641454593287,0.0038588641454593287,0.0038588641454593287,0.9294321809417971,0.9294321809417971,0.9294321809417971,0.9294321809417971,0.0,0.0,0.0,0.0
160580000000,1824,160580000000,,BL_TO_BASELINK,BR_TO_BASELINK,FL_TO_BASELINK,FR_TO_BASELINK,0.004788296314717222,0.004788296314717222,0.004788296314717222,0.004788296314717222,0.9294321821433983,0.9294321821433984,0.9294321821433984,0.9294321821433984,0.0,0.0,0.0,0.0
160581000000,1825,160581000000,,BL_TO_BASELINK,BR_TO_BASELINK,FL_TO_BASELINK,FR_TO_BASELINK,0.005717728483158879,0.005717728483158879,0.005717728483158879,0.005717728483158879,0.9294321798270782,0.929432179827078,0.9294321798270782,0.9294321798270782,0.0,0.0,0.0,0.0
160582000000,1826,160582000000,,BL_TO_BASELINK,BR_TO_BASELINK,FL_TO_BASELINK,FR_TO_BASELINK,0.00664716066084825,0.00664716066084825,0.00664716066084825,0.00664716066084825,0.9294321822732673,0.9294321822732673,0.9294321822732673,0.9294321822732673,0.0,0.0,0.0,0.0
160583000000,1827,160583000000,,BL_TO_BASELINK,BR_TO_BASELINK,FL_TO_BASELINK,FR_TO_BASELINK,0.007576592840114138,0.007576592840114138,0.007576592840114138,0.007576592840114138,0.9294321791853566,0.9294321791853566,0.9294321791853566,0.9294321791853566,0.0,0.0,0.0,0.0
160584000000,1828,160584000000,,BL_TO_BASELINK,BR_TO_BASELINK,FL_TO_BASELINK,FR_TO_BASELINK,0.008506025027092079,0.008506025027092079,0.008506025027092079,0.008506025027092079,0.9294321823493923,0.9294321823493923,0.9294321823493923,0.9294321823493923,0.0,0.0,0.0,0.0
160585000000,1829,160585000000,,BL_TO_BASELINK,BR_TO_BASELINK,FL_TO_BASELINK,FR_TO_BASELINK,0.009435457213262666,0.009435457213262666,0.009435457213262666,0.009435457213262666,0.9294321799879441,0.9294321799879441,0.9294321799879441,0.9294321799879441,0.0,0.0,0.0,0.0
160586000000,1830,160586000000,,BL_TO_BASELINK,BR_TO_BASELINK,FL_TO_BASELINK,FR_TO_BASELINK,0.010364889402239008,0.010364889402239008,0.010364889402239008,0.010364889402239008,0.929432182164,0.929432182164,0.929432182164,0.929432182164,0.0,0.0,0.0,0.0
160587000000,1831,160587000000,,BL_TO_BASELINK,BR_TO_BASELINK,FL_TO_BASELINK,FR_TO_BASELINK,0.01129432158691035,0.01129432158691035,0.01129432158691035,0.01129432158691035,0.9294321809907664,0.9294321809907664,0.9294321809907664,0.9294321809907664,0.0,0.0,0.0,0.0
160588000000,1832,160588000000,,BL_TO_BASELINK,BR_TO_BASELINK,FL_TO_BASELINK,FR_TO_BASELINK,0.012223753770209456,0.012223753770209456,0.012223753770209456,0.012223753770209456,0.9294321816608397,0.9294321816608397,0.9294321816608397,0.9294321816608397,0.0,0.0,0.0,0.0
160589000000,1833,160589000000,,BL_TO_BASELINK,BR_TO_BASELINK,FL_TO_BASELINK,FR_TO_BASELINK,0.013153185947918367,0.013153185947918367,0.013153185947918367,0.013153185947918367,0.9294321820329078,0.9294321820329078,0.9294321820329078,0.9294321820329078,0.0,0.0,0.0,0.0
160590000000,1834,160590000000,,BL_TO_BASELINK,BR_TO_BASELINK,FL_TO_BASELINK,FR_TO_BASELINK,0.014082618122847279,0.014082618122847279,0.014082618122847279,0.014082618122847279,0.929432180291426,0.929432180291426,0.929432180291426,0.929432180291426,0.0,0.0,0.0,0.0
160591000000,1835,160591000000,,BL_TO_BASELINK,BR_TO_BASELINK,FL_TO_BASELINK,FR_TO_BASELINK,0.015012050294098245,0.015012050294098245,0.015012050294098245,0.015012050294098245,0.9294321822358103,0.9294321822358103,0.9294321822358103,0.9294321822358103,0.0,0.0,0.0,0.0
160592000000,1836,160592000000,,BL_TO_BASELINK,BR_TO_BASELINK,FL_TO_BASELINK,FR_TO_BASELINK,0.01594148246505256,0.01594148246505256,0.01594148246505256,0.01594148246505256,0.9294321796837078,0.9294321796837078,0.9294321796837078,0.9294321796837078,0.0,0.0,0.0,0.0
160593000000,1837,160593000000,,BL_TO_BASELINK,BR_TO_BASELINK,FL_TO_BASELINK,FR_TO_BASELINK,0.016870914634798062,0.016870914634798062,0.016870914634798062,0.016870914634798062,0.9294321820677041,0.9294321820677042,0.9294321820677041,0.9294321820677042,0.0,0.0,0.0,0.0
160594000000,1838,160594000000,,BL_TO_BASELINK,BR_TO_BASELINK,FL_TO_BASELINK,FR_TO_BASELINK,0.017800346805980638,0.017800346805980638,0.017800346805980638,0.017800346805980638,0.9294321798545525,0.9294321798545524,0.9294321798545524,0.9294321798545524,0.0,0.0,0.0,0.0
160595000000,1839,160595000000,,BL_TO_BASELINK,BR_TO_BASELINK,FL_TO_BASELINK,FR_TO_BASELINK,0.018729778976737776,0.018729778976737776,0.018729778976737776,0.018729778976737776,0.9294321816128233,0.9294321816128233,0.9294321816128233,0.9294321816128233,0.0,0.0,0.0,0.0
160596000000,1840,160596000000,,BL_TO_BASELINK,BR_TO_BASELINK,FL_TO_BASELINK,FR_TO_BASELINK,0.01965921114951641,0.01965921114951641,0.01965921114951641,0.01965921114951641,0.9294321797817965,0.9294321797817965,0.9294321797817965,0.9294321797817965,0.0,0.0,0.0,0.0
160597000000,1841,160597000000,,BL_TO_BASELINK,BR_TO_BASELINK,FL_TO_BASELINK,FR_TO_BASELINK,0.020588643322914102,0.020588643322914102,0.020588643322914102,0.020588643322914102,0.9294321812278132,0.9294321812278132,0.9294321812278132,0.9294321812278132,0.0,0.0,0.0,0.0
160598000000,1842,160598000000,,BL_TO_BASELINK,BR_TO_BASELINK,FL_TO_BASELINK,FR_TO_BASELINK,0.021518075499150413,0.021518075499150413,0.021518075499150413,0.021518075499150413,0.929432180311343,0.929432180311343,0.929432180311343,0.929432180311343,0.0,0.0,0.0,0.0
160599000000,1843,160599000000,,BL_TO_BASELINK,BR_TO_BASELINK,FL_TO_BASELINK,FR_TO_BASELINK,0.02244750767387682,0.02244750767387682,0.02244750767387682,0.02244750767387682,0.9294321807423659,0.9294321807423659,0.9294321807423659,0.9294321807423659,0.0,0.0,0.0,0.0
160600000000,1844,160600000000,,BL_TO_BASELINK,BR_TO_BASELINK,FL_TO_BASELINK,FR_TO_BASELINK,0.023376939853114287,0.023376939853114287,0.023376939853114287,0.023376939853114287,0.9294321809746597,0.9294321809746597,0.9294321809746597,0.9294321809746597,0.0,0.0,0.0,0.0
160601000000,1845,160601000000,,BL_TO_BASELINK,BR_TO_BASELINK,FL_TO_BASELINK,FR_TO_BASELINK,0.024306372030742374,0.024306372030742374,0.024306372030742374,0.024306372030742374,0.9294321804062798,0.92943218040628,0.9294321804062798,0.9294321804062798,0.0,0.0,0.0,0.0
160602000000,1846,160602000000,,BL_TO_BASELINK,BR_TO_BASELINK,FL_TO_BASELINK,FR_TO_BASELINK,0.025235804213462387,0.025235804213462387,0.025235804213462387,0.025235804213462387,0.929432181200242,0.9294321812002418,0.9294321812002418,0.9294321812002418,0.0,0.0,0.0,0.0
160603000000,1847,160603000000,,BL_TO_BASELINK,BR_TO_BASELINK,FL_TO_BASELINK,FR_TO_BASELINK,0.02616523639397883,0.02616523639397883,0.02616523639397883,0.02616523639397883,0.9294321797921817,0.9294321797921818,0.9294321797921818,0.9294321797921818,0.0,0.0,0.0,0.0
160604000000,1848,160604000000,,BL_TO_BASELINK,BR_TO_BASELINK,FL_TO_BASELINK,FR_TO_BASELINK,0.027094668579233705,0.027094668579233705,0.027094668579233705,0.027094668579233705,0.929432181324342,0.929432181324342,0.929432181324342,0.929432181324342,0.0,0.0,0.0,0.0
160605000000,1849,160605000000,,BL_TO_BASELINK,BR_TO_BASELINK,FL_TO_BASELINK,FR_TO_BASELINK,0.028024100762322313,0.028024100762322313,0.028024100762322313,0.028024100762322313,0.9294321790026933,0.9294321790026933,0.9294321790026933,0.9294321790026933,0.0,0.0,0.0,0.0
160606000000,1850,160606000000,,BL_TO_BASELINK,BR_TO_BASELINK,FL_TO_BASELINK,FR_TO_BASELINK,0.02895353294971681,0.02895353294971681,0.02895353294971681,0.02895353294971681,0.9294321811685419,0.9294321811685419,0.9294321811685419,0.9294321811685419,0.0,0.0,0.0,0.0
160607000000,1851,160607000000,,BL_TO_BASELINK,BR_TO_BASELINK,FL_TO_BASELINK,FR_TO_BASELINK,0.029882965134577333,0.029882965134577333,0.029882965134577333,0.029882965134577333,0.9294321793860459,0.9294321793860459,0.9294321793860459,0.9294321793860459,0.0,0.0,0.0,0.0
160608000000,1852,160608000000,,BL_TO_BASELINK,BR_TO_BASELINK,FL_TO_BASELINK,FR_TO_BASELINK,0.03081239732910568,0.03081239732910568,0.03081239732910568,0.03081239732910568,0.9294322588456845,0.9294322588456845,0.9294322588456845,0.9294322588456845,0.0,0.0,0.0,0.0
160609000000,1853,160609000000,,BL_TO_BASELINK,BR_TO_BASELINK,FL_TO_BASELINK,FR_TO_BASELINK,0.03174182945905191,0.03174182945905191,0.03174182945905191,0.03174182945905191,0.9294323004783984,0.9294323004783984,0.9294323004783984,0.9294323004783984,0.0,0.0,0.0,0.0
160610000000,1854,160610000000,,BL_TO_BASELINK,BR_TO_BASELINK,FL_TO_BASELINK,FR_TO_BASELINK,0.03267126169140777,0.03267126169140777,0.03267126169140777,0.03267126169140777,0.9294323039153163,0.9294323039153164,0.9294323039153163,0.9294323039153165,0.0,0.0,0.0,0.0
160611000000,1855,160611000000,,BL_TO_BASELINK,BR_TO_BASELINK,FL_TO_BASELINK,FR_TO_BASELINK,0.0336006938590554,0.0336006938590554,0.0336006938590554,0.0336006938590554,0.9294323033697973,0.9294323033697973,0.9294323033697975,0.9294323033697973,0.0,0.0,0.0,0.0
160612000000,1856,160612000000,,BL_TO_BASELINK,BR_TO_BASELINK,FL_TO_BASELINK,FR_TO_BASELINK,0.03453012601137573,0.03453012601137573,0.03453012601137573,0.03453012601137573,0.9294322528480231,0.9294322528480231,0.9294322528480231,0.9294322528480231,0.0,0.0,0.0,0.0
160613000000,1857,160613000000,,BL_TO_BASELINK,BR_TO_BASELINK,FL_TO_BASELINK,FR_TO_BASELINK,0.03545955815098978,0.03545955815098978,0.03545955815098978,0.03545955815098978,0.9294321898435436,0.9294321898435436,0.9294321898435436,0.9294321898435436,0.0,0.0,0.0,0.0
160614000000,1858,160614000000,,BL_TO_BASELINK,BR_TO_BASELINK,FL_TO_BASELINK,FR_TO_BASELINK,0.036388990312668845,0.036388990312668845,0.036388990312668845,0.036388990312668845,0.9294321871704768,0.9294321871704768,0.9294321871704768,0.9294321871704768,0.0,0.0,0.0,0.0
160615000000,1859,160615000000,,BL_TO_BASELINK,BR_TO_BASELINK,FL_TO_BASELINK,FR_TO_BASELINK,0.037318422481918745,0.037318422481918745,0.037318422481918745,0.037318422481918745,0.9294321785819595,0.9294321785819595,0.9294321785819595,0.9294321785819595,0.0,0.0,0.0,0.0
160616000000,1860,160616000000,,BL_TO_BASELINK,BR_TO_BASELINK,FL_TO_BASELINK,FR_TO_BASELINK,0.03824785467076364,0.03824785467076364,0.03824785467076364,0.03824785467076364,0.9294321839494475,0.9294321839494475,0.9294321839494475,0.9294321839494475,0.0,0.0,0.0,0.0
160617000000,1861,160617000000,,BL_TO_BASELINK,BR_TO_BASELINK,FL_TO_BASELINK,FR_TO_BASELINK,0.03917728686424926,0.03917728686424926,0.03917728686424926,0.03917728686424926,0.9294321795050117,0.9294321795050117,0.9294321795050117,0.9294321795050117,0.0,0.0,0.0,0.0
160618000000,1862,160618000000,,BL_TO_BASELINK,BR_TO_BASELINK,FL_TO_BASELINK,FR_TO_BASELINK,0.04010671906962937,0.04010671906962937,0.04010671906962937,0.04010671906962937,0.929432182944629,0.929432182944629,0.929432182944629,0.929432182944629,0.0,0.0,0.0,0.0
160619000000,1863,160619000000,,BL_TO_BASELINK,BR_TO_BASELINK,FL_TO_BASELINK,FR_TO_BASELINK,0.04103615127688531,0.04103615127688531,0.04103615127688531,0.04103615127688531,0.9294321810888767,0.9294321810888767,0.9294321810888767,0.9294321810888767,0.0,0.0,0.0,0.0
160620000000,1864,160620000000,,BL_TO_BASELINK,BR_TO_BASELINK,FL_TO_BASELINK,FR_TO_BASELINK,0.041965583488753566,0.041965583488753566,0.041965583488753566,0.041965583488753566,0.9294321819867228,0.9294321819867228,0.9294321819867228,0.9294321819867228,0.0,0.0,0.0,0.0
160621000000,1865,160621000000,,BL_TO_BASELINK,BR_TO_BASELINK,FL_TO_BASELINK,FR_TO_BASELINK,0.042895015697816063,0.042895015697816063,0.042895015697816063,0.042895015697816063,0.9294321819070095,0.9294321819070095,0.9294321819070095,0.9294321819070094,0.0,0.0,0.0,0.0
160622000000,1866,160622000000,,BL_TO_BASELINK,BR_TO_BASELINK,FL_TO_BASELINK,FR_TO_BASELINK,0.04382444790451778,0.04382444790451778,0.04382444790451778,0.04382444790451778,0.9294321818297316,0.9294321818297316,0.9294321818297316,0.9294321818297316,0.0,0.0,0.0,0.0
160623000000,1867,160623000000,,BL_TO_BASELINK,BR_TO_BASELINK,FL_TO_BASELINK,FR_TO_BASELINK,0.04475388010256953,0.04475388010256953,0.04475388010256953,0.04475388010256953,0.9294321824236764,0.9294321824236764,0.9294321824236764,0.9294321824236764,0.0,0.0,0.0,0.0
160624000000,1868,160624000000,,BL_TO_BASELINK,BR_TO_BASELINK,FL_TO_BASELINK,FR_TO_BASELINK,0.04568331229444578,0.04568331229444578,0.04568331229444578,0.04568331229444578,0.9294321822246279,0.929432182224628,0.9294321822246279,0.9294321822246279,0.0,0.0,0.0,0.0
160625000000,1869,160625000000,,BL_TO_BASELINK,BR_TO_BASELINK,FL_TO_BASELINK,FR_TO_BASELINK,0.04661274447500752,0.04661274447500752,0.04661274447500752,0.04661274447500752,0.9294321815346066,0.9294321815346066,0.9294321815346066,0.9294321815346066,0.0,0.0,0.0,0.0
160626000000,1870,160626000000,,BL_TO_BASELINK,BR_TO_BASELINK,FL_TO_BASELINK,FR_TO_BASELINK,0.047542176651205637,0.047542176651205637,0.047542176651205637,0.047542176651205637,0.929432182379516,0.929432182379516,0.929432182379516,0.929432182379516,0.0,0.0,0.0,0.0
160627000000,1871,160627000000,,BL_TO_BASELINK,BR_TO_BASELINK,FL_TO_BASELINK,FR_TO_BASELINK,0.04847160881657153,0.04847160881657153,0.04847160881657153,0.04847160881657153,0.9294321808443875,0.9294321808443875,0.9294321808443875,0.9294321808443875,0.0,0.0,0.0,0.0
160628000000,1872,160628000000,,BL_TO_BASELINK,BR_TO_BASELINK,FL_TO_BASELINK,FR_TO_BASELINK,0.04940104098068776,0.04940104098068776,0.04940104098068776,0.04940104098068776,0.9294321822792118,0.9294321822792118,0.9294321822792118,0.9294321822792118,0.0,0.0,0.0,0.0
160629000000,1873,160629000000,,BL_TO_BASELINK,BR_TO_BASELINK,FL_TO_BASELINK,FR_TO_BASELINK,0.050330473136823706,0.050330473136823706,0.050330473136823706,0.050330473136823706,0.9294321808187215,0.9294321808187215,0.9294321808187215,0.9294321808187215,0.0,0.0,0.0,0.0
160630000000,1874,160630000000,,BL_TO_BASELINK,BR_TO_BASELINK,FL_TO_BASELINK,FR_TO_BASELINK,0.051259905296517694,0.051259905296517694,0.051259905296517694,0.051259905296517694,0.9294321821577414,0.9294321821577414,0.9294321821577414,0.9294321821577414,0.0,0.0,0.0,0.0
160631000000,1875,160631000000,,BL_TO_BASELINK,BR_TO_BASELINK,FL_TO_BASELINK,FR_TO_BASELINK,0.052189337452606566,0.052189337452606566,0.052189337452606566,0.052189337452606566,0.929432180757413,0.929432180757413,0.929432180757413,0.929432180757413,0.0,0.0,0.0,0.0
160632000000,1876,160632000000,,BL_TO_BASELINK,BR_TO_BASELINK,FL_TO_BASELINK,FR_TO_BASELINK,0.05311876961715978,0.05311876961715978,0.05311876961715978,0.05311876961715978,0.9294321819104138,0.9294321819104137,0.9294321819104137,0.9294321819104138,0.0,0.0,0.0,0.0
160633000000,1877,160633000000,,BL_TO_BASELINK,BR_TO_BASELINK,FL_TO_BASELINK,FR_TO_BASELINK,0.05404820178195813,0.05404820178195813,0.05404820178195813,0.05404820178195813,0.9294321807697817,0.9294321807697817,0.9294321807697817,0.9294321807697817,0.0,0.0,0.0,0.0
160634000000,1878,160634000000,,BL_TO_BASELINK,BR_TO_BASELINK,FL_TO_BASELINK,FR_TO_BASELINK,0.05497763395712152,0.05497763395712152,0.05497763395712152,0.05497763395712152,0.9294321815639263,0.9294321815639263,0.9294321815639263,0.9294321815639263,0.0,0.0,0.0,0.0
160635000000,1879,160635000000,,BL_TO_BASELINK,BR_TO_BASELINK,FL_TO_BASELINK,FR_TO_BASELINK,0.055907066116693827,0.055907066116693827,0.055907066116693827,0.055907066116693827,0.9294322968318691,0.9294322968318691,0.9294322968318691,0.9294322968318691,0.0,0.0,0.0,0.0
160636000000,1880,160636000000,,BL_TO_BASELINK,BR_TO_BASELINK,FL_TO_BASELINK,FR_TO_BASELINK,0.05683649819620573,0.05683649819620573,0.05683649819620573,0.05683649819620573,0.9294323029930605,0.9294323029930605,0.9294323029930605,0.9294323029930605,0.0,0.0,0.0,0.0
160637000000,1881,160637000000,,BL_TO_BASELINK,BR_TO_BASELINK,FL_TO_BASELINK,FR_TO_BASELINK,0.05776593040945155,0.05776593040945155,0.05776593040945155,0.05776593040945155,0.9294323041088376,0.9294323041088376,0.9294323041088376,0.9294323041088376,0.0,0.0,0.0,0.0
160638000000,1882,160638000000,,BL_TO_BASELINK,BR_TO_BASELINK,FL_TO_BASELINK,FR_TO_BASELINK,0.05869536256348873,0.05869536256348873,0.05869536256348873,0.05869536256348873,0.9294323039538648,0.9294323039538648,0.9294323039538648,0.9294323039538648,0.0,0.0,0.0,0.0
160639000000,1883,160639000000,,BL_TO_BASELINK,BR_TO_BASELINK,FL_TO_BASELINK,FR_TO_BASELINK,0.05962479481677807,0.05962479481677807,0.05962479481677807,0.05962479481677807,0.9294323044088452,0.9294323044088452,0.9294323044088452,0.9294323044088452,0.0,0.0,0.0,0.0
160640000000,1884,160640000000,,BL_TO_BASELINK,BR_TO_BASELINK,FL_TO_BASELINK,FR_TO_BASELINK,0.06055422702039337,0.06055422702039337,0.06055422702039337,0.06055422702039337,0.9294323042779594,0.9294323042779594,0.9294323042779594,0.9294323042779594,0.0,0.0,0.0,0.0
160641000000,1885,160641000000,,BL_TO_BASELINK,BR_TO_BASELINK,FL_TO_BASELINK,FR_TO_BASELINK,0.06148365919838117,0.06148365919838117,0.06148365919838117,0.06148365919838117,0.9294322844589294,0.9294322844589294,0.9294322844589294,0.9294322844589294,0.0,0.0,0.0,0.0
160642000000,1886,160642000000,,BL_TO_BASELINK,BR_TO_BASELINK,FL_TO_BASELINK,FR_TO_BASELINK,0.06241309135129036,0.06241309135129036,0.06241309135129036,0.06241309135129036,0.9294322046183441,0.9294322046183441,0.9294322046183441,0.9294322046183441,0.0,0.0,0.0,0.0
160643000000,1887,160643000000,,BL_TO_BASELINK,BR_TO_BASELINK,FL_TO_BASELINK,FR_TO_BASELINK,0.0633425235170959,0.0633425235170959,0.0633425235170959,0.0633425235170959,0.9294321866808938,0.9294321866808939,0.9294321866808939,0.9294321866808939,0.0,0.0,0.0,0.0
160644000000,1888,160644000000,,BL_TO_BASELINK,BR_TO_BASELINK,FL_TO_BASELINK,FR_TO_BASELINK,0.06427195569164557,0.06427195569164557,0.06427195569164557,0.06427195569164557,0.9294321825303938,0.929432182530394,0.929432182530394,0.929432182530394,0.0,0.0,0.0,0.0
160645000000,1889,160645000000,,BL_TO_BASELINK,BR_TO_BASELINK,FL_TO_BASELINK,FR_TO_BASELINK,0.06520138788107488,0.06520138788107488,0.06520138788107488,0.06520138788107488,0.9294321826240711,0.9294321826240711,0.9294321826240711,0.9294321826240711,0.0,0.0,0.0,0.0
160646000000,1890,160646000000,,BL_TO_BASELINK,BR_TO_BASELINK,FL_TO_BASELINK,FR_TO_BASELINK,0.0661308200758235,0.0661308200758235,0.0661308200758235,0.0661308200758235,0.9294321819735498,0.9294321819735498,0.9294321819735498,0.9294321819735498,0.0,0.0,0.0,0.0
160647000000,1891,160647000000,,BL_TO_BASELINK,BR_TO_BASELINK,FL_TO_BASELINK,FR_TO_BASELINK,0.06706025228010049,0.06706025228010049,0.06706025228010049,0.06706025228010049,0.9294321822449283,0.9294321822449283,0.9294321822449283,0.9294321822449284,0.0,0.0,0.0,0.0
160648000000,1892,160648000000,,BL_TO_BASELINK,BR_TO_BASELINK,FL_TO_BASELINK,FR_TO_BASELINK,0.06798968448745502,0.06798968448745502,0.06798968448745502,0.06798968448745502,0.9294321819847671,0.9294321819847671,0.9294321819847671,0.9294321819847668,0.0,0.0,0.0,0.0
160649000000,1893,160649000000,,BL_TO_BASELINK,BR_TO_BASELINK,FL_TO_BASELINK,FR_TO_BASELINK,0.06891911670106143,0.06891911670106143,0.06891911670106143,0.06891911670106143,0.9294321820778995,0.9294321820778995,0.9294321820778996,0.9294321820778995,0.0,0.0,0.0,0.0
160650000000,1894,160650000000,,BL_TO_BASELINK,BR_TO_BASELINK,FL_TO_BASELINK,FR_TO_BASELINK,0.06984854891530468,0.06984854891530468,0.06984854891530468,0.06984854891530468,0.929432182040199,0.929432182040199,0.929432182040199,0.929432182040199,0.0,0.0,0.0,0.0
160651000000,1895,160651000000,,BL_TO_BASELINK,BR_TO_BASELINK,FL_TO_BASELINK,FR_TO_BASELINK,0.07077798113052314,0.07077798113052314,0.07077798113052314,0.07077798113052314,0.9294321819822632,0.9294321819822632,0.9294321819822632,0.9294321819822632,0.0,0.0,0.0,0.0
160652000000,1896,160652000000,,BL_TO_BASELINK,BR_TO_BASELINK,FL_TO_BASELINK,FR_TO_BASELINK,0.07170741334066655,0.07170741334066655,0.07170741334066655,0.07170741334066655,0.9294321821407003,0.9294321821407004,0.9294321821407004,0.9294321821407004,0.0,0.0,0.0,0.0
160653000000,1897,160653000000,,BL_TO_BASELINK,BR_TO_BASELINK,FL_TO_BASELINK,FR_TO_BASELINK,0.07263684554648275,0.07263684554648275,0.07263684554648275,0.07263684554648275,0.9294321820692981,0.929432182069298,0.929432182069298,0.929432182069298,0.0,0.0,0.0,0.0
160654000000,1898,160654000000,,BL_TO_BASELINK,BR_TO_BASELINK,FL_TO_BASELINK,FR_TO_BASELINK,0.07356627774413038,0.07356627774413038,0.07356627774413038,0.07356627774413038,0.9294321818627576,0.9294321818627576,0.9294321818627576,0.9294321818627576,0.0,0.0,0.0,0.0
160655000000,1899,160655000000,,BL_TO_BASELINK,BR_TO_BASELINK,FL_TO_BASELINK,FR_TO_BASELINK,0.07449570993805743,0.07449570993805743,0.07449570993805743,0.07449570993805743,0.929432182170193,0.929432182170193,0.929432182170193,0.929432182170193,0.0,0.0,0.0,0.0
160656000000,1900,160656000000,,BL_TO_BASELINK,BR_TO_BASELINK,FL_TO_BASELINK,FR_TO_BASELINK,0.07542514212319151,0.07542514212319151,0.07542514212319151,0.07542514212319151,0.9294321813377976,0.9294321813377976,0.9294321813377976,0.9294321813377976,0.0,0.0,0.0,0.0
160657000000,1901,160657000000,,BL_TO_BASELINK,BR_TO_BASELINK,FL_TO_BASELINK,FR_TO_BASELINK,0.07635457430614334,0.07635457430614334,0.07635457430614334,0.07635457430614334,0.9294321822895489,0.9294321822895489,0.9294321822895489,0.9294321822895489,0.0,0.0,0.0,0.0
160658000000,1902,160658000000,,BL_TO_BASELINK,BR_TO_BASELINK,FL_TO_BASELINK,FR_TO_BASELINK,0.07728400648075073,0.07728400648075073,0.07728400648075073,0.07728400648075073,0.9294321810519092,0.9294321810519092,0.9294321810519092,0.9294321810519092,0.0,0.0,0.0,0.0
160659000000,1903,160659000000,,BL_TO_BASELINK,BR_TO_BASELINK,FL_TO_BASELINK,FR_TO_BASELINK,0.07821343865589281,0.07821343865589281,0.07821343865589281,0.07821343865589281,0.9294321824013717,0.9294321824013716,0.9294321824013717,0.9294321824013717,0.0,0.0,0.0,0.0
160660000000,1904,160660000000,,BL_TO_BASELINK,BR_TO_BASELINK,FL_TO_BASELINK,FR_TO_BASELINK,0.0791428708246249,0.0791428708246249,0.0791428708246249,0.0791428708246249,0.9294321809150182,0.9294321809150182,0.9294321809150182,0.9294321809150183,0.0,0.0,0.0,0.0
160661000000,1905,160661000000,,BL_TO_BASELINK,BR_TO_BASELINK,FL_TO_BASELINK,FR_TO_BASELINK,0.08007230299622226,0.08007230299622226,0.08007230299622226,0.08007230299622226,0.929432182273663,0.929432182273663,0.929432182273663,0.9294321822736631,0.0,0.0,0.0,0.0
160662000000,1906,160662000000,,BL_TO_BASELINK,BR_TO_BASELINK,FL_TO_BASELINK,FR_TO_BASELINK,0.08100173516273657,0.08100173516273657,0.08100173516273657,0.08100173516273657,0.9294321807850363,0.9294321807850363,0.9294321807850363,0.9294321807850363,0.0,0.0,0.0,0.0
160663000000,1907,160663000000,,BL_TO_BASELINK,BR_TO_BASELINK,FL_TO_BASELINK,FR_TO_BASELINK,0.08193116733504802,0.08193116733504802,0.08193116733504802,0.08193116733504802,0.9294321825756426,0.9294321825756426,0.9294321825756426,0.9294321825756426,0.0,0.0,0.0,0.0
160664000000,1908,160664000000,,BL_TO_BASELINK,BR_TO_BASELINK,FL_TO_BASELINK,FR_TO_BASELINK,0.08286059950428193,0.08286059950428193,0.08286059950428193,0.08286059950428193,0.9294321806946948,0.9294321806946948,0.9294321806946948,0.9294321806946948,0.0,0.0,0.0,0.0
160665000000,1909,160665000000,,BL_TO_BASELINK,BR_TO_BASELINK,FL_TO_BASELINK,FR_TO_BASELINK,0.08379003168061061,0.08379003168061061,0.08379003168061061,0.08379003168061061,0.9294321825274697,0.9294321825274697,0.9294321825274696,0.9294321825274696,0.0,0.0,0.0,0.0
160666000000,1910,160666000000,,BL_TO_BASELINK,BR_TO_BASELINK,FL_TO_BASELINK,FR_TO_BASELINK,0.08471946385490892,0.08471946385490892,0.08471946385490892,0.08471946385490892,0.9294321810166807,0.9294321810166808,0.9294321810166808,0.9294321810166808,0.0,0.0,0.0,0.0
160667000000,1911,160667000000,,BL_TO_BASELINK,BR_TO_BASELINK,FL_TO_BASELINK,FR_TO_BASELINK,0.08564889603565007,0.08564889603565007,0.08564889603565007,0.08564889603565007,0.9294321818584111,0.929432181858411,0.929432181858411,0.929432181858411,0.0,0.0,0.0,0.0
160668000000,1912,160668000000,,BL_TO_BASELINK,BR_TO_BASELINK,FL_TO_BASELINK,FR_TO_BASELINK,0.08657832821472855,0.08657832821472855,0.08657832821472855,0.08657832821472855,0.9294321817375746,0.9294321817375746,0.9294321817375746,0.9294321817375746,0.0,0.0,0.0,0.0
160669000000,1913,160669000000,,BL_TO_BASELINK,BR_TO_BASELINK,FL_TO_BASELINK,FR_TO_BASELINK,0.08750776039739439,0.08750776039739439,0.08750776039739439,0.08750776039739439,0.9294321806788823,0.9294321806788823,0.9294321806788823,0.9294321806788823,0.0,0.0,0.0,0.0
160670000000,1914,160670000000,,BL_TO_BASELINK,BR_TO_BASELINK,FL_TO_BASELINK,FR_TO_BASELINK,0.08843719257729266,0.08843719257729266,0.08843719257729266,0.08843719257729266,0.9294321818662228,0.9294321818662228,0.9294321818662228,0.9294321818662228,0.0,0.0,0.0,0.0
160671000000,1915,160671000000,,BL_TO_BASELINK,BR_TO_BASELINK,FL_TO_BASELINK,FR_TO_BASELINK,0.08936662475730284,0.08936662475730284,0.08936662475730284,0.08936662475730284,0.9294321791152818,0.9294321791152818,0.9294321791152819,0.9294321791152819,0.0,0.0,0.0,0.0
160672000000,1916,160672000000,,BL_TO_BASELINK,BR_TO_BASELINK,FL_TO_BASELINK,FR_TO_BASELINK,0.09029605693547893,0.09029605693547893,0.09029605693547893,0.09029605693547893,0.9294321826196337,0.9294321826196337,0.9294321826196338,0.9294321826196338,0.0,0.0,0.0,0.0
160673000000,1917,160673000000,,BL_TO_BASELINK,BR_TO_BASELINK,FL_TO_BASELINK,FR_TO_BASELINK,0.09122548911430517,0.09122548911430517,0.09122548911430517,0.09122548911430517,0.9294321801314491,0.9294321801314491,0.9294321801314491,0.9294321801314491,0.0,0.0,0.0,0.0
160674000000,1918,160674000000,,BL_TO_BASELINK,BR_TO_BASELINK,FL_TO_BASELINK,FR_TO_BASELINK,0.09215492129135328,0.09215492129135328,0.09215492129135328,0.09215492129135328,0.9294321820845615,0.9294321820845615,0.9294321820845615,0.9294321820845615,0.0,0.0,0.0,0.0
160675000000,1919,160675000000,,BL_TO_BASELINK,BR_TO_BASELINK,FL_TO_BASELINK,FR_TO_BASELINK,0.09308435347130484,0.09308435347130484,0.09308435347130484,0.09308435347130484,0.9294321805208609,0.9294321805208609,0.9294321805208609,0.9294321805208609,0.0,0.0,0.0,0.0
160676000000,1920,160676000000,,BL_TO_BASELINK,BR_TO_BASELINK,FL_TO_BASELINK,FR_TO_BASELINK,0.094013785649814,0.094013785649814,0.094013785649814,0.094013785649814,0.9294321813775126,0.9294321813775126,0.9294321813775126,0.9294321813775126,0.0,0.0,0.0,0.0
160677000000,1921,160677000000,,BL_TO_BASELINK,BR_TO_BASELINK,FL_TO_BASELINK,FR_TO_BASELINK,0.0949432178316778,0.0949432178316778,0.0949432178316778,0.0949432178316778,0.929432181100417,0.929432181100417,0.929432181100417,0.929432181100417,0.0,0.0,0.0,0.0
160678000000,1922,160678000000,,BL_TO_BASELINK,BR_TO_BASELINK,FL_TO_BASELINK,FR_TO_BASELINK,0.09587264999475664,0.09587264999475664,0.09587264999475664,0.09587264999475664,0.9294322969430782,0.9294322969430782,0.9294322969430782,0.9294322969430782,0.0,0.0,0.0,0.0
160679000000,1923,160679000000,,BL_TO_BASELINK,BR_TO_BASELINK,FL_TO_BASELINK,FR_TO_BASELINK,0.09680208212962782,0.09680208212962782,0.09680208212962782,0.09680208212962782,0.9294322507330961,0.9294322507330961,0.9294322507330961,0.9294322507330961,0.0,0.0,0.0,0.0
160680000000,1924,160680000000,,BL_TO_BASELINK,BR_TO_BASELINK,FL_TO_BASELINK,FR_TO_BASELINK,0.09773151423940174,0.09773151423940174,0.09773151423940174,0.09773151423940174,0.9294321850050651,0.9294321850050651,0.9294321850050651,0.9294321850050651,0.0,0.0,0.0,0.0
160681000000,1925,160681000000,,BL_TO_BASELINK,BR_TO_BASELINK,FL_TO_BASELINK,FR_TO_BASELINK,0.0986609463759125,0.0986609463759125,0.0986609463759125,0.0986609463759125,0.9294321899675649,0.9294321899675647,0.9294321899675647,0.9294321899675647,0.0,0.0,0.0,0.0
160682000000,1926,160682000000,,BL_TO_BASELINK,BR_TO_BASELINK,FL_TO_BASELINK,FR_TO_BASELINK,0.09959037851876396,0.09959037851876396,0.09959037851876396,0.09959037851876396,0.9294321766209023,0.9294321766209023,0.9294321766209023,0.9294321766209023,0.0,0.0,0.0,0.0
160683000000,1927,160683000000,,BL_TO_BASELINK,BR_TO_BASELINK,FL_TO_BASELINK,FR_TO_BASELINK,0.10051981068744809,0.10051981068744809,0.10051981068744809,0.10051981068744809,0.9294321857456045,0.9294321857456045,0.9294321857456045,0.9294321857456045,0.0,0.0,0.0,0.0
160684000000,1928,160684000000,,BL_TO_BASELINK,BR_TO_BASELINK,FL_TO_BASELINK,FR_TO_BASELINK,0.10144924286250134,0.10144924286250134,0.10144924286250134,0.10144924286250134,0.9294321781134431,0.9294321781134431,0.9294321781134431,0.9294321781134431,0.0,0.0,0.0,0.0
160685000000,1929,160685000000,,BL_TO_BASELINK,BR_TO_BASELINK,FL_TO_BASELINK,FR_TO_BASELINK,0.10237867505718512,0.10237867505718512,0.10237867505718512,0.10237867505718512,0.929432184325802,0.929432184325802,0.929432184325802,0.929432184325802,0.0,0.0,0.0,0.0
160686000000,1930,160686000000,,BL_TO_BASELINK,BR_TO_BASELINK,FL_TO_BASELINK,FR_TO_BASELINK,0.10330810725648831,0.10330810725648831,0.10330810725648831,0.10330810725648831,0.9294321791292854,0.9294321791292854,0.9294321791292854,0.9294321791292854,0.0,0.0,0.0,0.0
160687000000,1931,160687000000,,BL_TO_BASELINK,BR_TO_BASELINK,FL_TO_BASELINK,FR_TO_BASELINK,0.104237539468369,0.104237539468369,0.104237539468369,0.104237539468369,0.9294321833802901,0.9294321833802901,0.9294321833802901,0.9294321833802901,0.0,0.0,0.0,0.0
160688000000,1932,160688000000,,BL_TO_BASELINK,BR_TO_BASELINK,FL_TO_BASELINK,FR_TO_BASELINK,0.1051669716898953,0.1051669716898953,0.1051669716898953,0.1051669716898953,0.9294322960962094,0.9294322960962094,0.9294322960962094,0.9294322960962094,0.0,0.0,0.0,0.0
160689000000,1933,160689000000,,BL_TO_BASELINK,BR_TO_BASELINK,FL_TO_BASELINK,FR_TO_BASELINK,0.10609640384258778,0.10609640384258778,0.10609640384258778,0.10609640384258778,0.9294323042353019,0.9294323042353019,0.9294323042353019,0.9294323042353019,0.0,0.0,0.0,0.0
160690000000,1934,160690000000,,BL_TO_BASELINK,BR_TO_BASELINK,FL_TO_BASELINK,FR_TO_BASELINK,0.10702583608879301,0.10702583608879301,0.10702583608879301,0.10702583608879301,0.9294323037063491,0.9294323037063491,0.9294323037063491,0.9294323037063491,0.0,0.0,0.0,0.0
160691000000,1935,160691000000,,BL_TO_BASELINK,BR_TO_BASELINK,FL_TO_BASELINK,FR_TO_BASELINK,0.1079552682785021,0.1079552682785021,0.1079552682785021,0.1079552682785021,0.9294323042811616,0.9294323042811616,0.9294323042811616,0.9294323042811616,0.0,0.0,0.0,0.0
160692000000,1936,160692000000,,BL_TO_BASELINK,BR_TO_BASELINK,FL_TO_BASELINK,FR_TO_BASELINK,0.10888470054403854,0.10888470054403854,0.10888470054403854,0.10888470054403854,0.9294323041197097,0.9294323041197097,0.9294323041197099,0.9294323041197099,0.0,0.0,0.0,0.0
160693000000,1937,160693000000,,BL_TO_BASELINK,BR_TO_BASELINK,FL_TO_BASELINK,FR_TO_BASELINK,0.10981413276202545,0.10981413276202545,0.10981413276202545,0.10981413276202545,0.9294323043609198,0.9294323043609198,0.9294323043609198,0.9294323043609198,0.0,0.0,0.0,0.0
160694000000,1938,160694000000,,BL_TO_BASELINK,BR_TO_BASELINK,FL_TO_BASELINK,FR_TO_BASELINK,0.11074356503892968,0.11074356503892968,0.11074356503892968,0.11074356503892968,0.9294323044008694,0.9294323044008694,0.9294323044008694,0.9294323044008694,0.0,0.0,0.0,0.0
160695000000,1939,160695000000,,BL_TO_BASELINK,BR_TO_BASELINK,FL_TO_BASELINK,FR_TO_BASELINK,0.11167299727305213,0.11167299727305213,0.11167299727305213,0.11167299727305213,0.9294323043938391,0.929432304393839,0.929432304393839,0.929432304393839,0.0,0.0,0.0,0.0
160696000000,1940,160696000000,,BL_TO_BASELINK,BR_TO_BASELINK,FL_TO_BASELINK,FR_TO_BASELINK,0.11260242943598797,0.11260242943598797,0.11260242943598797,0.11260242943598797,0.9294323044772794,0.9294323044772794,0.9294323044772794,0.9294323044772794,0.0,0.0,0.0,0.0
160697000000,1941,160697000000,,BL_TO_BASELINK,BR_TO_BASELINK,FL_TO_BASELINK,FR_TO_BASELINK,0.1135318616872052,0.1135318616872052,0.1135318616872052,0.1135318616872052,0.9294323045036146,0.9294323045036146,0.9294323045036146,0.9294323045036146,0.0,0.0,0.0,0.0
160698000000,1942,160698000000,,BL_TO_BASELINK,BR_TO_BASELINK,FL_TO_BASELINK,FR_TO_BASELINK,0.11446129388231441,0.11446129388231441,0.11446129388231441,0.11446129388231441,0.9294323044418576,0.9294323044418574,0.9294323044418574,0.9294323044418574,0.0,0.0,0.0,0.0
160699000000,1943,160699000000,,BL_TO_BASELINK,BR_TO_BASELINK,FL_TO_BASELINK,FR_TO_BASELINK,0.11539072615015566,0.11539072615015566,0.11539072615015566,0.11539072615015566,0.9294323044678189,0.9294323044678189,0.9294323044678188,0.9294323044678189,0.0,0.0,0.0,0.0
160700000000,1944,160700000000,,BL_TO_BASELINK,BR_TO_BASELINK,FL_TO_BASELINK,FR_TO_BASELINK,0.116320158369847,0.116320158369847,0.116320158369847,0.116320158369847,0.9294323044531312,0.9294323044531312,0.9294323044531312,0.9294323044531312,0.0,0.0,0.0,0.0
160701000000,1945,160701000000,,BL_TO_BASELINK,BR_TO_BASELINK,FL_TO_BASELINK,FR_TO_BASELINK,0.11724959064613039,0.11724959064613039,0.11724959064613039,0.11724959064613039,0.9294323044237598,0.9294323044237597,0.9294323044237597,0.9294323044237597,0.0,0.0,0.0,0.0
160702000000,1946,160702000000,,BL_TO_BASELINK,BR_TO_BASELINK,FL_TO_BASELINK,FR_TO_BASELINK,0.11817902287662552,0.11817902287662552,0.11817902287662552,0.11817902287662552,0.9294323044560151,0.9294323044560151,0.9294323044560151,0.9294323044560151,0.0,0.0,0.0,0.0
160703000000,1947,160703000000,,BL_TO_BASELINK,BR_TO_BASELINK,FL_TO_BASELINK,FR_TO_BASELINK,0.1191084551556214,0.1191084551556214,0.1191084551556214,0.1191084551556214,0.9294323044234092,0.9294323044234092,0.9294323044234092,0.9294323044234092,0.0,0.0,0.0,0.0
160704000000,1948,160704000000,,BL_TO_BASELINK,BR_TO_BASELINK,FL_TO_BASELINK,FR_TO_BASELINK,0.12003788738747723,0.12003788738747723,0.12003788738747723,0.12003788738747723,0.9294323044581025,0.9294323044581025,0.9294323044581025,0.9294323044581025,0.0,0.0,0.0,0.0
160705000000,1949,160705000000,,BL_TO_BASELINK,BR_TO_BASELINK,FL_TO_BASELINK,FR_TO_BASELINK,0.12096731963918295,0.12096731963918295,0.12096731963918295,0.12096731963918295,0.9294322850384766,0.9294322850384766,0.9294322850384766,0.9294322850384766,0.0,0.0,0.0,0.0
160706000000,1950,160706000000,,BL_TO_BASELINK,BR_TO_BASELINK,FL_TO_BASELINK,FR_TO_BASELINK,0.12189675183472204,0.12189675183472204,0.12189675183472204,0.12189675183472204,0.9294323027692271,0.9294323027692271,0.9294323027692271,0.9294323027692271,0.0,0.0,0.0,0.0
160707000000,1951,160707000000,,BL_TO_BASELINK,BR_TO_BASELINK,FL_TO_BASELINK,FR_TO_BASELINK,0.12282618409626345,0.12282618409626345,0.12282618409626345,0.12282618409626345,0.9294323045868438,0.9294323045868438,0.9294323045868438,0.9294323045868438,0.0,0.0,0.0,0.0
160708000000,1952,160708000000,,BL_TO_BASELINK,BR_TO_BASELINK,FL_TO_BASELINK,FR_TO_BASELINK,0.1237556162948561,0.1237556162948561,0.1237556162948561,0.1237556162948561,0.9294323043121016,0.9294323043121016,0.9294323043121016,0.9294323043121016,0.0,0.0,0.0,0.0
160709000000,1953,160709000000,,BL_TO_BASELINK,BR_TO_BASELINK,FL_TO_BASELINK,FR_TO_BASELINK,0.12468504855764717,0.12468504855764717,0.12468504855764717,0.12468504855764717,0.9294323045070759,0.9294323045070759,0.9294323045070759,0.9294323045070759,0.0,0.0,0.0,0.0
160710000000,1954,160710000000,,BL_TO_BASELINK,BR_TO_BASELINK,FL_TO_BASELINK,FR_TO_BASELINK,0.12561448075847714,0.12561448075847714,0.12561448075847714,0.12561448075847714,0.9294323043561592,0.9294323043561592,0.9294323043561592,0.9294323043561592,0.0,0.0,0.0,0.0
160711000000,1955,160711000000,,BL_TO_BASELINK,BR_TO_BASELINK,FL_TO_BASELINK,FR_TO_BASELINK,0.1265439130230126,0.1265439130230126,0.1265439130230126,0.1265439130230126,0.9294323043796789,0.929432304379679,0.9294323043796789,0.929432304379679,0.0,0.0,0.0,0.0
160712000000,1956,160712000000,,BL_TO_BASELINK,BR_TO_BASELINK,FL_TO_BASELINK,FR_TO_BASELINK,0.1274733452276111,0.1274733452276111,0.1274733452276111,0.1274733452276111,0.9294323043710212,0.9294323043710212,0.9294323043710212,0.9294323043710212,0.0,0.0,0.0,0.0
160713000000,1957,160713000000,,BL_TO_BASELINK,BR_TO_BASELINK,FL_TO_BASELINK,FR_TO_BASELINK,0.12840277733980354,0.12840277733980354,0.12840277733980354,0.12840277733980354,0.9294323044442163,0.9294323044442163,0.9294323044442161,0.9294323044442161,0.0,0.0,0.0,0.0
160714000000,1958,160714000000,,BL_TO_BASELINK,BR_TO_BASELINK,FL_TO_BASELINK,FR_TO_BASELINK,0.12933220956073566,0.12933220956073566,0.12933220956073566,0.12933220956073566,0.9294323044824722,0.9294323044824722,0.9294323044824722,0.9294323044824722,0.0,0.0,0.0,0.0
160715000000,1959,160715000000,,BL_TO_BASELINK,BR_TO_BASELINK,FL_TO_BASELINK,FR_TO_BASELINK,0.13026164171078136,0.13026164171078136,0.13026164171078136,0.13026164171078136,0.9294323044456697,0.9294323044456697,0.9294323044456695,0.9294323044456695,0.0,0.0,0.0,0.0
160716000000,1960,160716000000,,BL_TO_BASELINK,BR_TO_BASELINK,FL_TO_BASELINK,FR_TO_BASELINK,0.13119107395499352,0.13119107395499352,0.13119107395499352,0.13119107395499352,0.9294323044758014,0.9294323044758013,0.9294323044758013,0.9294323044758014,0.0,0.0,0.0,0.0
160717000000,1961,160717000000,,BL_TO_BASELINK,BR_TO_BASELINK,FL_TO_BASELINK,FR_TO_BASELINK,0.13212050613729076,0.13212050613729076,0.13212050613729076,0.13212050613729076,0.9294323044553227,0.9294323044553227,0.9294323044553227,0.9294323044553229,0.0,0.0,0.0,0.0
160718000000,1962,160718000000,,BL_TO_BASELINK,BR_TO_BASELINK,FL_TO_BASELINK,FR_TO_BASELINK,0.1330499383967929,0.1330499383967929,0.1330499383967929,0.1330499383967929,0.9294323044465023,0.9294323044465023,0.9294323044465023,0.9294323044465023,0.0,0.0,0.0,0.0
