%time,field.header.seq,field.header.stamp,field.header.frame_id,field.wrench.force.x,field.wrench.force.y,field.wrench.force.z,field.wrench.torque.x,field.wrench.torque.y,field.wrench.torque.z
160471000000,0,160471000000,FL_wheel_link,-28.128926743393095,-8.370482058895947,4.167218620891429,-0.003951987452042781,-0.03442902079723732,0.42281209078153886
160472000000,1,160472000000,FL_wheel_link,28.823055109294607,8.266238117379133,3.920301225663732,0.005764538007774784,0.027309595389323885,-0.4227301024887079
160473000000,2,160473000000,FL_wheel_link,-27.707296163893584,-8.289828378655521,4.9836858294902475,0.001064635878034456,-0.033220091957013025,0.42272170399442
160474000000,3,160474000000,FL_wheel_link,28.76564748652529,8.284713342015392,4.61280863663199,0.0070561985189741385,0.031274280178048286,-0.42271203584927197
160475000000,4,160475000000,FL_wheel_link,-28.33540095735047,-8.288612104587845,5.697309089844639,0.0007562742303848459,-0.03120836222622902,0.4229261558160518
160476000000,5,160476000000,FL_wheel_link,28.24613509471216,8.206896460604506,4.636004185661916,0.00309643630717444,0.035497120781402984,-0.4228170775806447
160477000000,6,160477000000,FL_wheel_link,-28.874771974435667,-8.385971879085252,5.40271578055405,-0.0039547249362582,-0.029687294893467553,0.42270078711354364
160478000000,7,160478000000,FL_wheel_link,27.94903346972655,8.145771517130726,3.9847285686982894,-0.000959926478376147,0.0355602998304046,-0.42261517799054665
160479000000,8,160479000000,FL_wheel_link,-28.9593413275763,-8.425323017805876,4.913426190562971,-0.0059890983602840986,-0.031566223851335555,0.4225454919158272
160480000000,9,160480000000,FL_wheel_link,28.279480515367542,8.153221903262077,3.554587656408188,-0.00038138108621488373,0.03223428983499375,-0.4227788953018954
160481000000,10,160481000000,FL_wheel_link,-28.401382873928203,-8.4044821208721,4.0736358394573005,-0.005717408678863377,-0.03342024992345325,0.422785554947129
160482000000,11,160482000000,FL_wheel_link,28.628437911699734,8.232985142226637,3.7145853861042797,0.0038720419163904346,0.02774180495721037,-0.4227215058896642
160483000000,12,160483000000,FL_wheel_link,-27.792795410133593,-8.339293205327449,4.392606509883155,-0.001777281233673475,-0.03321589012849184,0.4226537266888162
160484000000,13,160484000000,FL_wheel_link,28.790336024072044,8.286162326101419,4.43716143234081,0.007247272959921514,0.028417962427938294,-0.4227001532343248
160485000000,14,160485000000,FL_wheel_link,-27.960667008732706,-8.268517328132937,5.691221695188042,0.0022020001668352825,-0.03208959413315355,0.4229181454905369
160486000000,15,160486000000,FL_wheel_link,28.480207808950084,8.247461234410169,4.864678863444337,0.005338113039335013,0.033315143229855695,-0.42283233922081354
160487000000,16,160487000000,FL_wheel_link,-28.562668906823365,-8.349160093970035,5.676297031923602,-0.0020005958803265816,-0.02962941621954244,0.42273212961855394
160488000000,17,160488000000,FL_wheel_link,28.0065422244996,8.164631087738503,4.365194345999086,0.00016552396293399602,0.0359945932379914,-0.4226120327924091
160489000000,18,160489000000,FL_wheel_link,-29.015618426533187,-8.421142582788388,5.121109239793726,-0.005850557947135388,-0.031054173468122642,0.4225778072096159
160490000000,19,160490000000,FL_wheel_link,28.154443340828053,8.139563908110452,3.6118851836385955,-0.0015605852834432567,0.03488680631840818,-0.4225428638078354
160491000000,20,160491000000,FL_wheel_link,-28.82735426395928,-8.439768652533063,4.063500088434054,-0.0071848388794808395,-0.03403245683135137,0.42269090265995884
160492000000,21,160492000000,FL_wheel_link,28.576356306549577,8.196798047092251,3.504636221414042,0.001991216793273895,0.030131778403797813,-0.42287377521949515
160493000000,22,160493000000,FL_wheel_link,-28.05568206607684,-8.357666377066213,4.201284107943219,-0.002950659205763748,-0.0340932817322908,0.42265720516628663
160494000000,23,160494000000,FL_wheel_link,28.816679279102146,8.279386753741534,4.060134015377891,0.006703819958839612,0.027839936418901777,-0.4227127585409777
160495000000,24,160495000000,FL_wheel_link,-27.809679707436793,-8.270575717062897,5.2913501051545975,0.002215240345466017,-0.03340762548273481,0.42276861995577747
160496000000,25,160496000000,FL_wheel_link,28.77964844492099,8.283781254142127,4.754375305202688,0.00697993292518454,0.03305470438464849,-0.422754915460209
160497000000,26,160497000000,FL_wheel_link,-28.58586931897888,-8.292469787106171,5.803383079793817,0.00015552180317151851,-0.031815234962895254,0.4229781214826559
160498000000,27,160498000000,FL_wheel_link,28.25414779353813,8.184988115960415,4.615473381017699,0.0020002468638568027,0.036834306884566646,-0.42285385397305214
160499000000,28,160499000000,FL_wheel_link,-29.019703946439947,-8.40593769365498,5.367598068385811,-0.005010833041163081,-0.030677475819662008,0.42268795395926984
160500000000,29,160500000000,FL_wheel_link,28.035618243834985,8.130327490962244,3.856983212749462,-0.0018361296955786129,0.035716279961614916,-0.422603518939623
160501000000,30,160501000000,FL_wheel_link,-28.92404450076147,-8.44325051290652,4.555559159589741,-0.00705786489385056,-0.033256132848064876,0.42250878747851317
160502000000,31,160502000000,FL_wheel_link,28.49231520317631,8.154406985089276,3.512629947749861,-0.00011601588521480592,0.03239122062672675,-0.422758584786441
160503000000,32,160503000000,FL_wheel_link,-28.34930270895147,-8.390115808895247,4.126562429412371,-0.004950618244092719,-0.034717719927637225,0.42277986811656565
160504000000,33,160504000000,FL_wheel_link,28.79549465835965,8.2510353539923,3.7957807172307896,0.004921442989419879,0.02799244259677472,-0.42272833461778514
160505000000,34,160505000000,FL_wheel_link,-27.781639442339955,-8.297745957769934,4.8840829968047155,0.0006572404614949505,-0.03391230104328817,0.42270090309309866
160506000000,35,160506000000,FL_wheel_link,28.849448264501262,8.289711790712097,4.478865689321313,0.007360997050840797,0.030398539254469004,-0.42272407767445247
160507000000,36,160507000000,FL_wheel_link,-28.195101953008066,-8.2751727101796,5.636015852284022,0.001557650813084223,-0.03199596365113424,0.42293407788193577
160508000000,37,160508000000,FL_wheel_link,28.387590448261367,8.22715861504456,4.660509603586791,0.0041636508084530585,0.03482805340858038,-0.42282784959618785
160509000000,38,160509000000,FL_wheel_link,-28.76218248659596,-8.369453507831883,5.464535916545817,-0.003118517910558779,-0.02976538123981908,0.42272064660483055
160510000000,39,160510000000,FL_wheel_link,27.976545656694828,8.152978958307566,4.107795247794395,-0.0005608924735555645,0.03599598845132647,-0.4226159847074267
160511000000,40,160511000000,FL_wheel_link,-29.009491305163777,-8.42316186639079,4.9990810948644295,-0.005924975329408111,-0.03155179930230396,0.42255464136959936
160512000000,41,160512000000,FL_wheel_link,28.240540959316448,8.141312558234082,3.592224651997186,-0.0011034209817894947,0.033675635778547486,-0.42277473208975674
160513000000,42,160513000000,FL_wheel_link,-28.586900526144674,-8.421384261762396,4.098257768884614,-0.006574994167318085,-0.033467544726113865,0.42279069647671785
160514000000,43,160514000000,FL_wheel_link,28.577537134411003,8.215741016420152,3.6751929719516307,0.002974489196985238,0.02862860129466052,-0.42271805555088393
160515000000,44,160515000000,FL_wheel_link,-27.903614266002172,-8.351185275904415,4.360035446539584,-0.0023666962260180022,-0.03364193324365247,0.42263318464290245
160516000000,45,160516000000,FL_wheel_link,28.82428168439293,8.283714762725868,4.352516510534401,0.007179121997632399,0.02806224567957283,-0.4227036369971798
160517000000,46,160517000000,FL_wheel_link,-27.878989821071386,-8.265104152468973,5.649852567468546,0.0026209302638066376,-0.03333900156965028,0.4227992492263572
160518000000,47,160518000000,FL_wheel_link,28.78713377682122,8.265386064047858,4.830230061675496,0.006053391278836314,0.03399506875838385,-0.422956178389992
160519000000,48,160519000000,FL_wheel_link,-28.600938639064513,-8.32860479427011,5.714471476935019,-0.0011544399358470571,-0.030905422406653463,0.4230150015323012
160520000000,49,160520000000,FL_wheel_link,28.122806255358554,8.171279206519888,4.393833612645464,0.0007436663769725228,0.036552553509548134,-0.4226683407017179
160521000000,50,160521000000,FL_wheel_link,-29.033865474449037,-8.41690490764652,5.151187721706155,-0.005663913863907307,-0.030927929139449164,0.4226199033068798
160522000000,51,160522000000,FL_wheel_link,28.100919241006885,8.13507336224396,3.628121554319304,-0.0017736005613890348,0.035200293398356425,-0.4225696453739681
160523000000,52,160523000000,FL_wheel_link,-28.874568557836437,-8.446007835886931,4.360728834827458,-0.007135542684681889,-0.03305666562933677,0.42246662084698133
160524000000,53,160524000000,FL_wheel_link,28.540175193397424,8.175690733692889,3.451624159220532,0.0012118420923636845,0.03043285809471439,-0.42276299925743555
160525000000,54,160525000000,FL_wheel_link,-28.117881648710124,-8.364062630189231,4.118268021033279,-0.0036418782132613,-0.03413206593863873,0.4228078442514284
160526000000,55,160526000000,FL_wheel_link,28.791929110769193,8.272839343865941,3.92454810777279,0.006111826345439623,0.027138274861250807,-0.42273573588797353
160527000000,56,160527000000,FL_wheel_link,-27.69646191274149,-8.283675200078665,5.02772531491106,0.0013930105326490777,-0.03305582287391814,0.4227293774324089
160528000000,57,160528000000,FL_wheel_link,28.74987572539048,8.28955682591456,4.736916430734798,0.007353488401938409,0.03126700698955244,-0.4227194001020858
160529000000,58,160529000000,FL_wheel_link,-28.3435983254958,-8.285660147392944,5.844392829889439,0.0008842884502892611,-0.031084463216519156,0.42292958685804755
160530000000,59,160530000000,FL_wheel_link,28.2273111383047,8.202457181334882,4.774215638201904,0.0029392967770689856,0.03564095194522693,-0.42281260969697204
160531000000,60,160531000000,FL_wheel_link,-28.89534339690513,-8.39475082109336,5.474627358705052,-0.00437586485616572,-0.02977762981380091,0.42269171392547095
160532000000,61,160532000000,FL_wheel_link,27.95320921646818,8.135769345883654,4.026744638741497,-0.0014853820844845703,0.03571024213284772,-0.4226016549127057
160533000000,62,160533000000,FL_wheel_link,-28.9690804422961,-8.442373609365843,4.761745794952375,-0.006958428441843791,-0.031921325310821175,0.42252680703014256
160534000000,63,160534000000,FL_wheel_link,28.324361997265857,8.148210904817622,3.527160727396168,-0.0005609506003347181,0.03206410562600823,-0.42276930335146934
160535000000,64,160535000000,FL_wheel_link,-28.362177366146497,-8.4015737625202,4.048870633283957,-0.0055752228154259675,-0.03382838259417902,0.4227772004450252
160536000000,65,160536000000,FL_wheel_link,28.689659749707765,8.240009360682329,3.6796776554490456,0.004248107373521779,0.027581608103888395,-0.4227238062589906
160537000000,66,160537000000,FL_wheel_link,-27.75835240952737,-8.329531835017999,4.364663390715801,-0.0012839842150985086,-0.033305653116667173,0.4226665818218814
160538000000,67,160538000000,FL_wheel_link,28.806900217507454,8.294460775790801,4.391904971689654,0.007672604687985614,0.028519661736851592,-0.4227133233027682
160539000000,68,160539000000,FL_wheel_link,-27.975138399566752,-8.261410033587724,5.64814365378734,0.002503099072130074,-0.031796227072543,0.42293399936193776
160540000000,69,160540000000,FL_wheel_link,28.436681156088902,8.251505901655577,4.830559785629256,0.005521529061001463,0.03354186293193015,-0.42283475133800336
160541000000,70,160541000000,FL_wheel_link,-28.60940512148989,-8.349433855239052,5.650084944580347,-0.0020557525899751786,-0.02910289836725914,0.42273933179978745
160542000000,71,160542000000,FL_wheel_link,27.931709628550987,8.163827218515118,4.363002302627159,8.871812577779249e-05,0.035967398547882945,-0.4226185977282282
160543000000,72,160543000000,FL_wheel_link,-29.036076687733154,-8.425104841829414,5.128710872173724,-0.006064583094900197,-0.03064873898847702,0.4225727686145613
160544000000,73,160544000000,FL_wheel_link,28.10547572209732,8.136760641269335,3.6483390613054043,-0.00173321458143533,0.034567380981120124,-0.42253603312594246
160545000000,74,160545000000,FL_wheel_link,-28.803486992622528,-8.445720704782156,4.099345249660559,-0.007464313765992231,-0.0338129356625193,0.4226841696544907
160546000000,75,160546000000,FL_wheel_link,28.570127266001332,8.196222461438726,3.5747244291818387,0.0019997082423632946,0.029353776972959413,-0.42287678830585185
160547000000,76,160547000000,FL_wheel_link,-27.96558476739457,-8.359946119577392,4.25172107399477,-0.0030215875609384633,-0.03393096270203787,0.4226519654112591
160548000000,77,160548000000,FL_wheel_link,28.830200159332563,8.281516856074575,4.15943065500806,0.0068779128466953405,0.027161749890447548,-0.422707502263211
160549000000,78,160549000000,FL_wheel_link,-27.730796049492426,-8.272138283089618,5.3292195824818345,0.0021715677451360988,-0.03310504525329234,0.422766897243189
160550000000,79,160550000000,FL_wheel_link,28.76659661326458,8.283413112671484,4.7882555909530655,0.006974666822495575,0.032714301543677944,-0.42274667662126414
160551000000,80,160551000000,FL_wheel_link,-28.552129563333065,-8.293908804332569,5.7780508418799625,7.95079997221684e-05,-0.03150715668300451,0.42297372245807713
160552000000,81,160552000000,FL_wheel_link,28.22245408908863,8.182797022761157,4.552238296189212,0.00184374283496449,0.036828075105407455,-0.42284739017254336
160553000000,82,160553000000,FL_wheel_link,-29.0438290598356,-8.414170075706677,5.29076017188976,-0.005460042282966345,-0.02969359592129131,0.42269504724192886
160554000000,83,160554000000,FL_wheel_link,27.928117626451165,8.134702832747978,3.7932559075039385,-0.0016356538114280963,0.034631642656663235,-0.42261622923342534
160555000000,84,160555000000,FL_wheel_link,-28.838503843600595,-8.442897772005717,4.474556424333645,-0.007050732893414822,-0.0318724907513677,0.42251623734675636
160556000000,85,160556000000,FL_wheel_link,28.37022702160347,8.165206175402066,3.511361881698395,0.00045613551811134813,0.030692164131675137,-0.42276429672517424
160557000000,86,160557000000,FL_wheel_link,-28.205793071687605,-8.391690630261202,4.0979772902182745,-0.005017335040349006,-0.03266373442254071,0.42278489005651737
160558000000,87,160558000000,FL_wheel_link,28.62181085801916,8.26333654984258,3.8882364257965265,0.005577075442829347,0.02552951016643749,-0.42274294841684157
160559000000,88,160559000000,FL_wheel_link,-27.580786518613692,-8.30924592004527,4.916481219637537,0.00010738958499961727,-0.030636168846050447,0.4227194752172355
160560000000,89,160560000000,FL_wheel_link,28.562272901563865,8.300617724069333,4.698468371554528,0.008004535562140648,0.026685396092569976,-0.42274184156795436
160561000000,90,160561000000,FL_wheel_link,-27.876478888565206,-8.283648815315066,5.760968533444835,0.0011711576649888313,-0.028139548532176543,0.4229389094066121
160562000000,91,160562000000,FL_wheel_link,28.06258133660621,8.23583173565173,4.933956192242004,0.004684681111155447,0.030675108121525577,-0.4228239835303169
160563000000,92,160563000000,FL_wheel_link,-28.39266213171674,-8.3805167652512,5.503451751177614,-0.0036469670714175052,-0.026106731009348256,0.42271280840916475
160564000000,93,160564000000,FL_wheel_link,27.665924705040712,8.148763712060644,4.259814625884659,-0.0007831124724184661,0.03278143237712374,-0.42259807151180057
160565000000,94,160565000000,FL_wheel_link,-28.7252218179374,-8.434029677110273,4.954659845319948,-0.006454645620710489,-0.029053095488835088,0.42254298212624763
160566000000,95,160566000000,FL_wheel_link,28.03691016769552,8.13755094855725,3.6007782939194706,-0.0013130230849702164,0.031252441767056334,-0.4227620832647006
160567000000,96,160567000000,FL_wheel_link,-28.371729672779622,-8.429207600337412,4.007620202774004,-0.006973277802720529,-0.031304074206333764,0.4227752437411787
160568000000,97,160568000000,FL_wheel_link,28.392154574182687,8.215500355609509,3.63727200677839,0.0029193835236828577,0.026744023021645354,-0.42271300839592
160569000000,98,160569000000,FL_wheel_link,-27.7491813865706,-8.354477332251808,4.2842955859167295,-0.002519949337506465,-0.03158645024763383,0.42264039573078005
160570000000,99,160570000000,FL_wheel_link,28.63624799578016,8.288648952846772,4.366948013454558,0.007512351482696938,0.026280890047909112,-0.42272322750396574
160571000000,100,160571000000,FL_wheel_link,-27.733303066790228,-8.268666908903084,5.499938064709364,0.0023787992445889077,-0.03149058701965097,0.4228288884445572
160572000000,101,160572000000,FL_wheel_link,28.633429427118745,8.284346802565022,5.0557845947004365,0.007298617513988272,0.031845913574143396,-0.4229770346019258
160573000000,102,160573000000,FL_wheel_link,-28.401454870585916,-8.311063297902896,5.933089729348494,-9.753051153205795e-05,-0.029309344085574222,0.42301651378709054
160574000000,103,160574000000,FL_wheel_link,28.00232808274969,8.240325864482957,4.662922631644982,-0.057703431686897365,0.03485721237595669,-0.422685649048801
160575000000,104,160575000000,FL_wheel_link,-28.89399161769123,-8.419787580942476,5.476743780833957,-0.0655732306696955,-0.028407986500299305,0.42281953313954307
160576000000,105,160576000000,FL_wheel_link,27.80382946102559,8.089865005649425,4.06907940400945,-0.06414558894017365,0.03321484190630899,-0.42280242520732964
160577000000,106,160577000000,FL_wheel_link,-28.698097317434833,-8.561195964116719,4.815294553932429,-0.07229069514004657,-0.029826261697861383,0.4224744575354373
160578000000,107,160578000000,FL_wheel_link,28.168290255085964,7.963717975525415,4.793005575182018,-0.04175664702549798,0.02737659858518987,-0.42258547102124017
160579000000,108,160579000000,FL_wheel_link,-27.96249933403107,-8.70022304358957,5.680020072154951,-0.008294022453515869,-0.032116849035328764,0.42219967706462164
160580000000,109,160580000000,FL_wheel_link,28.797190644170154,7.797582165732754,5.253634464799212,0.003432830276495851,0.021730372264856686,-0.4226783171143264
160581000000,110,160581000000,FL_wheel_link,-27.370378231924924,-8.90156009807968,7.012579836684796,0.0012373471439014493,-0.0313306469475446,0.4223527725964043
160582000000,111,160582000000,FL_wheel_link,28.906933616533763,7.480535699236299,6.6168456100785304,0.010471127605620155,0.02711795389602936,-0.42228118369049567
160583000000,112,160583000000,FL_wheel_link,-28.236188293491548,-9.176056710103545,7.716098896541294,0.0048926669314717135,-0.028935301852857084,0.4229614990937275
160584000000,113,160584000000,FL_wheel_link,28.56920958688102,7.239159650158004,5.99772996507338,0.0094120895038374,0.03324411803385885,-0.4223230253279794
160585000000,114,160585000000,FL_wheel_link,-29.119756652671757,-9.216352448908811,6.388766057506984,0.0005570607910907755,-0.029501787966968424,0.42266587221947566
160586000000,115,160586000000,FL_wheel_link,28.520587485212452,7.275396361589087,4.154752448761121,0.0029404604712428544,0.034811116577464565,-0.421949401231585
160587000000,116,160587000000,FL_wheel_link,-29.27014160346621,-9.179549176409994,4.559432739385463,-0.006211277316455867,-0.028937098672916585,0.4220648423560757
160588000000,117,160588000000,FL_wheel_link,28.462501266956643,7.369659301302219,2.3642870920649646,-0.002544091867059448,0.03335829757239605,-0.4217166138432864
160589000000,118,160589000000,FL_wheel_link,-29.058192167983396,-9.06121862558806,3.4843822911362703,-0.008835167618780967,-0.028987200179971025,0.4212884941329564
160590000000,119,160590000000,FL_wheel_link,28.5382739798024,7.367232364263435,2.0183200119591547,-0.0027022643284067963,0.03041332548076814,-0.42239678967036626
160591000000,120,160591000000,FL_wheel_link,-28.87958350759068,-9.036163102316687,3.8895044498311466,-0.006530224944104708,-0.028065316732273672,0.422288742778477
160592000000,121,160592000000,FL_wheel_link,28.54881037265449,7.470095386032288,2.2791913677472757,0.0012932419367884926,0.029678875748938745,-0.4227893125409512
160593000000,122,160593000000,FL_wheel_link,-28.98575299780936,-9.118250638897955,4.25350949131399,-0.003205635169355583,-0.026505779719991327,0.4230335177178917
160594000000,123,160594000000,FL_wheel_link,28.563334417637293,7.381593816756184,2.5600910221295643,0.0033558698401142586,0.02623287372892776,-0.4231927185143718
160595000000,124,160595000000,FL_wheel_link,-28.702977270852124,-9.282339084066198,4.4077614887006655,-0.0016616816810185397,-0.026831626799443332,0.4234680686251518
160596000000,125,160596000000,FL_wheel_link,28.84847524755839,7.198028348616591,2.5838286406498807,0.003919368122965769,0.02551578649132457,-0.4238900604687406
160597000000,126,160597000000,FL_wheel_link,-28.641951349243236,-9.289146728405482,4.603322291859213,1.7085810719268997e-05,-0.03110532580529864,0.4235688498638409
160598000000,127,160598000000,FL_wheel_link,29.424234321390173,7.106158383209865,2.948059882046358,0.004530142187083368,0.027991323782043914,-0.4235755522504161
160599000000,128,160599000000,FL_wheel_link,-28.95733289184104,-9.442238202549085,5.141743936214556,-0.002332443684188716,-0.0302626548421712,0.4236981182494961
160600000000,129,160600000000,FL_wheel_link,29.385480470529934,7.001423036479972,3.389409980778724,0.0062561440868653196,0.027983263128602522,-0.4233302874726174
160601000000,130,160601000000,FL_wheel_link,-29.01398701618573,-9.564474889026256,5.582313580013938,-0.0018578428069106773,-0.03140380496911197,0.4232000957238642
160602000000,131,160602000000,FL_wheel_link,29.582367193837324,6.831519231149658,3.8148531329860726,0.006971114512553956,0.02957681668793309,-0.42309833249588147
160603000000,132,160603000000,FL_wheel_link,-29.2620163320854,-9.706243591387414,5.833333327011386,-0.002246083105395098,-0.03301877904324742,0.4231916652415166
160604000000,133,160604000000,FL_wheel_link,29.810929751243435,6.678739263525179,3.967945694501701,0.006132202404496148,0.032174883294844435,-0.4230412799781287
160605000000,134,160605000000,FL_wheel_link,-29.67293915732273,-9.838913508492123,6.0861628672110815,-0.0015918118138370774,-0.03184757279083793,0.42401788581949834
160606000000,135,160606000000,FL_wheel_link,29.826140992303362,6.556256021719971,3.857823062510719,0.005187415938590928,0.031049730636008476,-0.4240603126887755
160607000000,136,160607000000,FL_wheel_link,-29.681512029140002,-9.855913881528927,5.975086202894087,-0.0027110454738872814,-0.030820098325483106,0.4239606905931795
160608000000,137,160608000000,FL_wheel_link,31.79372384222416,6.448654214960248,4.827926680836231,-0.04114236880577629,0.03271024489798177,-0.3356205767968801
160609000000,138,160609000000,FL_wheel_link,-21.23331047590063,15.368775112639808,8.436791413503263,-0.08358664498641084,-0.03328920125716984,0.15017908532538124
160610000000,139,160610000000,FL_wheel_link,7.018467400966928,-15.915109716703762,1.7733916809661456,0.10294749429140694,0.02694952198790184,-0.037833537086806986
160611000000,140,160611000000,FL_wheel_link,-3.772388497126179,12.554597346714665,8.252301359202326,-0.07145152309248512,-0.02244003660003106,0.018545645343508544
160612000000,141,160612000000,FL_wheel_link,-0.3511662626601786,11.98636188391028,5.6753978716084985,0.009142701810899444,0.02018529063484561,-0.15205914075295923
160613000000,142,160613000000,FL_wheel_link,-18.47211326320046,-11.74052591274265,6.75776372351431,0.019673146710628323,-0.012994335757368391,0.34623811682892996
160614000000,143,160614000000,FL_wheel_link,26.26108551131104,7.994296590303023,5.951914685171295,0.026384114864117365,0.012811225299284313,-0.41135318546479455
160615000000,144,160615000000,FL_wheel_link,-27.685517445388513,-8.767719570746923,6.558586139824931,0.015840886738995176,-0.010690512420501305,0.42210640225406376
160616000000,145,160616000000,FL_wheel_link,27.838266051748615,7.6655576504073615,5.960068109146917,0.024797917913160064,0.013823540190290758,-0.4235981872322493
160617000000,146,160617000000,FL_wheel_link,-28.146855521104012,-8.79883893681902,6.370663250244355,0.012084691133211995,-0.012467439309329859,0.42366862422661566
160618000000,147,160618000000,FL_wheel_link,28.180473661247774,7.565783968858797,5.426607665861284,0.01984663516799014,0.014555659794175318,-0.4237452917094806
160619000000,148,160619000000,FL_wheel_link,-28.265274728153155,-8.819244104592338,5.295421762737555,0.006568303521750235,-0.015332445485270376,0.42279769569866205
160620000000,149,160620000000,FL_wheel_link,28.350019496541048,7.5251326601721304,3.390310724480925,0.010163102453414116,0.020886958700591752,-0.4227384247936195
160621000000,150,160621000000,FL_wheel_link,-28.831681549626012,-8.865715007431303,3.521004022452806,-0.006866611749798646,-0.020782404916353504,0.42223899984320373
160622000000,151,160622000000,FL_wheel_link,28.732803460649635,7.469013493370015,1.0440109573261678,-0.005618126473814321,0.02175546922681637,-0.42216937828273393
160623000000,152,160623000000,FL_wheel_link,-28.728910516898623,-8.99020592090562,2.2644039182310434,-0.018464365408451918,-0.023102493835647997,0.42171018828280254
160624000000,153,160624000000,FL_wheel_link,29.053420266311214,7.3238264410567036,0.3284358052321485,-0.011065007499654575,0.019091530990440742,-0.42179550261514565
160625000000,154,160625000000,FL_wheel_link,-28.496172412749456,-9.170434122431756,2.781272612419935,-0.01757220752786601,-0.02065898572065885,0.42252321007612853
160626000000,155,160626000000,FL_wheel_link,29.05488423164045,6.953822190600541,1.7412226761934317,-0.007063705735602561,0.018551462023602104,-0.42243891430466296
160627000000,156,160627000000,FL_wheel_link,-28.629109953548856,-9.415439193167884,3.994073856239504,-0.013729830633073252,-0.019035410133291568,0.42314697952327496
160628000000,157,160628000000,FL_wheel_link,29.029590120985997,6.927234985695301,2.9014293469781745,-0.0025611396313324803,0.017219342208906148,-0.42320095528672985
160629000000,158,160629000000,FL_wheel_link,-28.5986319519441,-9.430755206678164,5.132136623510078,-0.009075754055018733,-0.0185448223438845,0.4232451774977941
160630000000,159,160630000000,FL_wheel_link,29.04254969450207,6.8471895054813965,4.302696399586329,0.0035621767495748143,0.018394730287099086,-0.4232374958713714
160631000000,160,160631000000,FL_wheel_link,-28.836418663993406,-9.50894802588211,6.308989726024687,-0.003593151050910162,-0.019141814796855026,0.42333280072966173
160632000000,161,160632000000,FL_wheel_link,29.162689455771783,6.696892834619682,5.385818470433868,0.009910502541100548,0.01980479102709574,-0.42340816229670203
160633000000,162,160633000000,FL_wheel_link,-29.112998002589386,-9.62448352339373,7.013393864453577,0.0010311965333643196,-0.019373434520491433,0.4235182153862782
160634000000,163,160634000000,FL_wheel_link,29.24700135618585,6.539258199025364,5.6339293023061705,0.01357404362879298,0.021581583908015067,-0.42356918112995534
160635000000,164,160635000000,FL_wheel_link,-33.400114376570734,18.083768818740317,8.375302782837927,-0.0813292536000157,-0.025242189462479976,0.25287162745857145
160636000000,165,160636000000,FL_wheel_link,9.322522459917225,10.840842844422363,8.719879181062456,-0.06629821494622605,0.031937876187708394,-0.04297976063135994
160637000000,166,160637000000,FL_wheel_link,-3.2522200184416685,-15.571958496819384,6.174179975443938,0.11769030180236426,-0.02674589242449407,-0.0033205220680365554
160638000000,167,160638000000,FL_wheel_link,1.7212149739129543,13.287721935611486,8.93895823834818,-0.0596403804711958,0.018771025651354068,0.010462524349466413
160639000000,168,160639000000,FL_wheel_link,-0.7336133525583701,-14.559472481026207,5.6536078062567245,0.11564787552567853,-0.014120639643550049,-0.012203624021835906
160640000000,169,160640000000,FL_wheel_link,0.3525851876444021,14.61451554452929,8.254369879515105,-0.0671204309838319,0.01010410161024941,0.012662684646228824
160641000000,170,160641000000,FL_wheel_link,-1.9437276936602432,14.398264897537652,7.842634985736917,-0.016799647827802966,-0.01051531120266071,-0.09774346321888597
160642000000,171,160642000000,FL_wheel_link,-8.190839094937278,-10.927195265787931,6.338106582383348,0.0158161608742083,0.013100834842329968,0.28258775905746797
160643000000,172,160643000000,FL_wheel_link,22.80887466736796,9.525965334314675,6.5419415186884065,0.02591019671705293,-0.015033716968817978,-0.399007646438652
160644000000,173,160644000000,FL_wheel_link,-25.426906646358976,-7.816626864826882,6.489222598171314,0.014568484634175913,0.012040683171622863,0.41862209724828076
160645000000,174,160645000000,FL_wheel_link,26.209017679788957,8.853056779521799,6.465668687145622,0.02256838389600061,-0.00940743276080297,-0.4220120049731357
160646000000,175,160646000000,FL_wheel_link,-26.563464375492956,-7.897928447104526,6.779833203520296,0.009813691137564215,0.00818602562057662,0.4226461901142396
160647000000,176,160647000000,FL_wheel_link,26.665645517229212,8.655141575134678,6.459757885677898,0.018389458274855008,-0.006049746071397936,-0.42293874373264734
160648000000,177,160648000000,FL_wheel_link,-26.967689794571537,-8.027865274239286,6.532561690585396,0.007199687184930449,0.0055671209713364185,0.4230189392782248
160649000000,178,160649000000,FL_wheel_link,26.978878006849662,8.472120645010499,5.5741642158699385,0.01577864468874378,-0.0038163499124759014,-0.42313104812080593
160650000000,179,160650000000,FL_wheel_link,-27.221655748112703,-8.220629875175508,5.421548912242575,0.0019060435313147032,0.0030527208454230095,0.4231442454948916
160651000000,180,160651000000,FL_wheel_link,27.276708249801164,8.061547036150131,3.7854784528907297,0.0029419238372498623,-0.0013102318308652928,-0.42319787905712436
160652000000,181,160652000000,FL_wheel_link,-27.483237604249776,-8.64648347863876,4.13117276503023,-0.01410080159539498,-5.179755295804127e-05,0.423147091698982
160653000000,182,160653000000,FL_wheel_link,27.633508376245473,7.688040616744645,2.3807693861332324,-0.010153085267324849,0.00019381407210616538,-0.42305407019472274
160654000000,183,160654000000,FL_wheel_link,-27.568027978422954,-8.785817529498708,3.786612983323555,-0.016519404052412756,-0.004951423705140347,0.4232415663727391
160655000000,184,160655000000,FL_wheel_link,28.261537841387884,7.583699317318909,2.5501458383014763,-0.007118132554328291,0.0011285071801695136,-0.42308936948066184
160656000000,185,160656000000,FL_wheel_link,-27.699812438039185,-8.883886946337055,4.586717283457901,-0.014053889874002277,-0.0038217546404081047,0.4235140469099444
160657000000,186,160657000000,FL_wheel_link,28.2230914102459,7.461590391293079,3.3876015294832316,-0.00415076248070842,0.0010768261502557966,-0.42327615553766557
160658000000,187,160658000000,FL_wheel_link,-27.829408775720452,-8.977076548850874,5.4147498110303784,-0.011411817145192555,-0.0030672198398135338,0.42356256903671824
160659000000,188,160659000000,FL_wheel_link,28.19864812586864,7.299348608737489,4.5759378281027505,-0.00018746282915561727,0.0019137412976331263,-0.42337041598640146
160660000000,189,160660000000,FL_wheel_link,-28.044585122852943,-9.123756532601114,6.54241690153823,-0.007833924517792504,-0.0028139301497021145,0.42360231325429976
160661000000,190,160661000000,FL_wheel_link,28.265497704795884,7.046621680808316,5.950122767144079,0.002986067536219368,0.0009439819353520752,-0.4235866012377584
160662000000,191,160662000000,FL_wheel_link,-28.05138515705778,-9.339273281416833,7.642626297822839,-0.0058595742559406794,-0.0032837095087403893,0.4236964878938963
160663000000,192,160663000000,FL_wheel_link,28.362722651229937,6.796888333016505,6.746737819405773,0.006636306726621113,0.004887285178490463,-0.42346783923097997
160664000000,193,160664000000,FL_wheel_link,-28.566973677708575,-9.513745136798521,8.195177959092884,-0.002945726673602849,-0.004008909545208866,0.42375357731567087
160665000000,194,160665000000,FL_wheel_link,28.424546511939532,6.603258552702875,6.678850194845121,0.008628486275200978,0.008602062445511628,-0.423747905278082
160666000000,195,160666000000,FL_wheel_link,-29.045662610283447,-9.5981851113962,7.926517217638974,-0.0018474667742601292,-0.004897256393638695,0.4237057644732887
160667000000,196,160667000000,FL_wheel_link,28.49814502664889,6.495534720057112,6.023263841087439,0.008814094441730069,0.012088294402912569,-0.4239456620748777
160668000000,197,160668000000,FL_wheel_link,-29.413377372124152,-9.541304423665427,6.96362027385506,-0.0024239215470256716,-0.007653513200829291,0.42335306007637774
160669000000,198,160669000000,FL_wheel_link,28.7380891006417,6.573434366979235,4.450067267905183,0.0062502458025538755,0.014540069866038013,-0.42389052723639
160670000000,199,160670000000,FL_wheel_link,-29.53197273019424,-9.383768755813577,5.523103132290707,-0.005133106321655397,-0.012692955649397682,0.42366638048412325
160671000000,200,160671000000,FL_wheel_link,29.254182059305528,7.3221140673829685,2.3844825933038933,0.0022458733110441004,0.013564246833680318,-0.425238868684254
160672000000,201,160672000000,FL_wheel_link,-29.42882757440077,-8.908099029008833,4.1891739125348835,-0.005333006396113432,-0.014494957890088575,0.42429567232983545
160673000000,202,160673000000,FL_wheel_link,29.49630755035679,7.240810563368409,1.1457709782399617,0.00278126039964777,0.011321433658181859,-0.42405235905245586
160674000000,203,160674000000,FL_wheel_link,-29.19437309765245,-8.96818592732195,4.0548284686980285,-0.004027665623359571,-0.011785101181040748,0.42432234061287993
160675000000,204,160675000000,FL_wheel_link,29.41198631730742,7.11030750571471,1.4794221999739123,0.005417662682627456,0.006930951784988906,-0.42439351106370743
160676000000,205,160676000000,FL_wheel_link,-28.95319940225131,-9.106588971411075,4.484142953093649,-0.002767322632273617,-0.006845068417138717,0.42493273684656957
160677000000,206,160677000000,FL_wheel_link,29.11184352710657,7.0211813833434,1.7384429427255175,0.005227382555920431,0.0031020088406523614,-0.4245083171855703
160678000000,207,160678000000,FL_wheel_link,-32.70060764170205,18.61387548615123,4.954402232747576,-0.08839025885057049,-0.013253726009200013,0.2545046553841676
160679000000,208,160679000000,FL_wheel_link,5.247842062036282,11.686386020143912,3.067961680870182,-0.004925951019049025,0.01776990427516233,-0.19501163041873854
160680000000,209,160680000000,FL_wheel_link,-20.126989859335726,-10.51573744037258,6.816900167278519,0.007550480380718411,-0.00136092895781313,0.35460284088961214
160681000000,210,160681000000,FL_wheel_link,26.604334656708925,7.858668740590198,6.7286609601778835,0.023613586316667174,-0.0013255284613734911,-0.4127740813853344
160682000000,211,160682000000,FL_wheel_link,-28.200832907633107,-8.697250114210119,8.387143785695168,0.014513907684676709,0.0006063957961942619,0.42226696118699236
160683000000,212,160683000000,FL_wheel_link,28.513639552149957,7.594121814281811,6.754922056021339,0.025559810866254543,-0.0034540894035560606,-0.423699491945162
160684000000,213,160684000000,FL_wheel_link,-28.32718630791905,-8.68032723725244,8.430079926135589,0.014318261130673771,0.0026915358283527346,0.424176483607104
160685000000,214,160685000000,FL_wheel_link,28.499584075925984,7.5627590672558425,6.803196776630362,0.02603386371925438,-0.0039274639361683095,-0.42392982567002513
160686000000,215,160686000000,FL_wheel_link,-28.38610091625261,-8.735909617367827,8.163764071353098,0.013813109345887456,0.0014130683384171133,0.4242449320139515
160687000000,216,160687000000,FL_wheel_link,28.761453243744818,7.444286172194754,6.156470361067295,0.02338487105347681,-0.0018262861726705763,-0.4240804433702659
160688000000,217,160688000000,FL_wheel_link,-32.58738808758433,18.942790141202977,6.9082140456448675,-0.08036236554565274,-0.014632708123410852,0.25430611212842025
160689000000,218,160689000000,FL_wheel_link,9.220606288521553,11.87017460214131,7.113653113856992,-0.07618941798419496,0.024317285405819334,-0.04425363400357082
160690000000,219,160690000000,FL_wheel_link,-2.683875842649145,-14.508384191606378,5.952999957994335,0.10580498039817468,-0.02220958115564604,-0.001659636698555258
160691000000,220,160691000000,FL_wheel_link,1.2863019656243548,13.101321622651884,7.859401546925245,-0.07081359720996051,0.016898129199709132,0.009910914421132896
160692000000,221,160692000000,FL_wheel_link,-0.62808998080929,-14.90761922929074,5.727121732156528,0.10581339439609115,-0.013657286214810096,-0.011342758766306938
160693000000,222,160693000000,FL_wheel_link,0.2733027641756417,13.410072008905214,7.590726333339109,-0.07432670946804018,0.011580925330449044,0.012060981916173063
160694000000,223,160694000000,FL_wheel_link,-0.16847882394217475,-14.656293520603475,5.608553762572816,0.1029044556373575,-0.0077952205673650745,-0.012534571259484838
160695000000,224,160695000000,FL_wheel_link,-0.3016000726796045,13.303292117692392,6.750429040627888,-0.08197718417939971,0.007082339980082513,0.012919766029115584
160696000000,225,160696000000,FL_wheel_link,0.5299495585200055,12.767455887194847,7.866021282849466,-0.07837480524951664,-0.0038205389072325686,-0.0019750902854043695
160697000000,226,160697000000,FL_wheel_link,0.7435763394941384,-14.88827329953926,5.367535805010248,0.10430454450931108,0.0033991233017158138,-0.011367179433181222
160698000000,227,160698000000,FL_wheel_link,-1.2164328321637632,13.04183647765696,8.216761230841922,-0.07280687499941561,-0.0011792723046622265,0.013275310159012529
160699000000,228,160699000000,FL_wheel_link,0.9554148563869777,-15.118465964903015,5.48982769985046,0.1050121647415773,0.0023128850831781226,-0.013630688128993526
160700000000,229,160700000000,FL_wheel_link,-1.1717341273698103,13.423439842447326,7.273930821617488,-0.07703395440549739,-0.0006437206148467986,0.01331878671587871
160701000000,230,160701000000,FL_wheel_link,0.996454929692606,-15.14711929152126,3.9724851560744834,0.09895653148787527,-0.0035597977905422024,-0.01347613217345521
160702000000,231,160702000000,FL_wheel_link,-0.5800519086645131,13.07554627570073,5.174790421257812,-0.08506194848766459,0.002216351069865099,0.013507228555751882
160703000000,232,160703000000,FL_wheel_link,0.7424044566451573,-15.313550484440952,3.47741408631882,0.09375166660542815,-0.002669352091612322,-0.01321983609823177
160704000000,233,160704000000,FL_wheel_link,-0.7437721632826904,12.989495529719667,4.341355969149832,-0.091911221899998,0.0036638720436956646,0.01329360767313035
160705000000,234,160705000000,FL_wheel_link,-1.3692529822015813,-2.031664165022146,2.632065100054048,0.04761621829069343,-0.008963828317389452,-0.09477857968873091
160706000000,235,160706000000,FL_wheel_link,-12.415670355785338,14.889133564116884,4.7013095536854435,-0.08996016197981041,0.009794742348911315,0.10783723030607087
160707000000,236,160707000000,FL_wheel_link,2.6987788734543185,-15.904969435013033,3.1783554438426105,0.09015712493132072,-0.00016504490255202806,-0.029354742628982248
160708000000,237,160708000000,FL_wheel_link,-1.5121363271191939,12.670908413861051,5.341700905810822,-0.08773229659165187,0.000211873911397633,0.016128933819232368
160709000000,238,160709000000,FL_wheel_link,0.8402443984506875,-15.608222650047686,3.1968638968432916,0.09032304157303431,0.00235137576208892,-0.014194004249580741
160710000000,239,160710000000,FL_wheel_link,-1.31594175860124,12.60394959829236,5.252981268751323,-0.08792395553831953,-0.00011299879366311782,0.013531933437611712
160711000000,240,160711000000,FL_wheel_link,0.7856854419793609,-15.578796325817908,3.6259514165116764,0.09166758611795045,0.0025305984661591675,-0.014006617713442427
160712000000,241,160712000000,FL_wheel_link,-1.3395948970802267,12.677493222905508,5.2808179869083,-0.08751813340578912,-0.0007135412785014964,0.013489828919465822
160713000000,242,160713000000,FL_wheel_link,1.1389600262684505,12.389154433633234,5.375602939481007,-0.08410977152911124,0.0011697564592422183,-0.002882594760692579
160714000000,243,160714000000,FL_wheel_link,0.25574726700445477,-15.277471599092035,3.990430410666751,0.103261238806457,-0.002859137983037454,-0.00973178364784577
160715000000,244,160715000000,FL_wheel_link,-0.5883935720130816,13.213491685175738,6.401721906745019,-0.07242842804852409,0.0012167668402645597,0.012532655097737141
160716000000,245,160716000000,FL_wheel_link,0.7886074338692741,-14.852899209534897,4.593668271906147,0.10449255890268035,-0.0015727732622287211,-0.012683170020100235
160717000000,246,160717000000,FL_wheel_link,-0.7093993494218988,13.80004943732747,5.533011828185605,-0.07466914881829442,-0.003492107474766343,0.01258785826717526
160718000000,247,160718000000,FL_wheel_link,1.108973411616444,-14.330677181817489,3.054254866465474,0.10079725649470414,0.004390132034951594,-0.012585843061447983
160719000000,248,160719000000,FL_wheel_link,-1.3458748438427166,13.777566275912905,5.272810851236186,-0.07609755047320677,-0.0006121078646303845,0.014005913345543724
160720000000,249,160720000000,FL_wheel_link,0.9790226655300177,-14.370686870378634,3.130130174252929,0.09960935210200726,0.0014247195033359349,-0.013828555413174126
160721000000,250,160721000000,FL_wheel_link,-1.066591214028155,13.768484016242926,4.869353647046763,-0.07708577870712577,0.0008843986229980947,0.01350546640953084
160722000000,251,160722000000,FL_wheel_link,-1.0435068899726525,13.374984263165427,3.756389577585435,-0.030702130747420946,-0.004702108803962316,-0.09435441482790002
160723000000,252,160723000000,FL_wheel_link,-8.665214883304678,-11.83417105107799,5.970033671594759,0.007288178942120801,0.02592029694235034,0.2776496986454035
160724000000,253,160724000000,FL_wheel_link,23.064394241998027,8.47355289757042,2.8691588035905946,0.012732428675256716,-0.029814024791132685,-0.3968809019930268
160725000000,254,160725000000,FL_wheel_link,-26.051168787837,-8.507382543377666,5.583482528783174,0.007359239739656287,0.032236427380380975,0.4155592753778509
160726000000,255,160726000000,FL_wheel_link,26.582691477227474,7.973777313181766,2.7342644986419646,0.012677292576611595,-0.026795709107738295,-0.42018086601141497
160727000000,256,160727000000,FL_wheel_link,-26.98616039847318,-8.436931595798335,5.884466339859506,0.006044004406449078,0.02667731292419565,0.42058986656986674
160728000000,257,160728000000,FL_wheel_link,27.348544874777282,7.838619591715541,2.755172288243783,0.009491284401743587,-0.024714055522823714,-0.4209562126204787
160729000000,258,160729000000,FL_wheel_link,-27.098656752053486,-8.566381839576811,6.131412908453847,0.0016975382854629807,0.023736410666523503,0.4210890660723742
160730000000,259,160730000000,FL_wheel_link,27.74835614683391,7.6540056358694235,2.816064860939907,0.004541886651449526,-0.024015470522700297,-0.4211427832890073
160731000000,260,160731000000,FL_wheel_link,-27.187611965217197,-8.71313252871026,6.214767029986217,-0.001833613015250352,0.024769189897389236,0.4209255885608174
160732000000,261,160732000000,FL_wheel_link,27.60651754082833,7.5247763154553065,2.7566529096582872,0.0026484187409191603,-0.021790843238616228,-0.4215470898337358
160733000000,262,160733000000,FL_wheel_link,-27.574641835972866,-8.816651798200756,6.222659149309838,-0.003438436425529086,0.026279781677920847,0.42079996382311835
160734000000,263,160734000000,FL_wheel_link,27.41887678967062,7.423029198903293,2.7252369583073244,0.0018465651148605136,-0.02184514208646582,-0.4217354451926547
160735000000,264,160735000000,FL_wheel_link,-27.65863664840983,-8.892037842042201,6.216134212336961,-0.0035112642792853514,0.026576054524735,0.42069476830935665
160736000000,265,160736000000,FL_wheel_link,27.436980848833702,7.3454202013205885,2.671469523122227,0.002199843672043198,-0.02280113888565808,-0.4217068753025469
160737000000,266,160737000000,FL_wheel_link,-27.53340705496014,-8.909493280695953,6.205161116709384,-0.0014297464232132292,0.02378987500374594,0.421357716604904
160738000000,267,160738000000,FL_wheel_link,27.826194479335474,7.266488982942231,2.408923305691759,0.0017075296865445705,-0.018149332268428773,-0.42170127674451285
160739000000,268,160739000000,FL_wheel_link,-27.862826898775236,-8.977190205362769,6.197718727121282,-0.0010347190161260884,0.01856423838607201,0.42102021728764444
160740000000,269,160740000000,FL_wheel_link,28.389012756586848,7.226259476326884,2.2465232679507903,0.004779455344258985,-0.019693983465170282,-0.4216493318142497
160741000000,270,160741000000,FL_wheel_link,-27.71285788790766,-9.028161887457088,5.971702896288117,-0.0008145983056815045,0.019819223054676198,0.4215058097634821
160742000000,271,160742000000,FL_wheel_link,28.385314711050952,7.16822480745311,2.01336230120604,0.0049412743760640036,-0.021833838485176324,-0.4213567405012272
160743000000,272,160743000000,FL_wheel_link,-27.53092661803198,-9.067257635565017,5.74871911356882,-0.000668046258491124,0.020631627628789756,0.42139926163332486
160744000000,273,160744000000,FL_wheel_link,28.390448813296675,7.144748956480374,1.7848312960161847,0.004923459559627585,-0.023342174280154337,-0.42109187287357475
160745000000,274,160745000000,FL_wheel_link,-31.425139445649037,18.68333497188602,4.13695692966302,-0.08539779799274017,0.004303827550825604,0.2522376523785621
160746000000,275,160746000000,FL_wheel_link,8.493916640465866,11.76413578517782,4.509444431127836,-0.08219085288636606,0.012960320915548,-0.04350723703971845
160747000000,276,160747000000,FL_wheel_link,-1.3141337061376905,-14.920132649481127,4.4421247656750245,0.09985542839231762,-0.02174083055928766,-0.0014747753750866904
160748000000,277,160748000000,FL_wheel_link,1.64969105907729,12.907572325208687,5.07882175851329,-0.07581645198897013,0.008931267869021129,0.010640970182241248
160749000000,278,160749000000,FL_wheel_link,0.6971805306162699,-15.20418390017496,4.345122469608926,0.10131581209230069,-0.015264358799127947,-0.009183385124878301
160750000000,279,160750000000,FL_wheel_link,1.0322388521252277,13.840121194754843,5.129777959285638,-0.078173391030155,0.00752727724276922,0.012296260434334984
160751000000,280,160751000000,FL_wheel_link,0.8386795712718598,-14.302771464995349,4.200644777039117,0.09793359810671451,-0.00973087993415663,-0.011956278120421679
160752000000,281,160752000000,FL_wheel_link,0.30745159405526923,13.883678462959695,5.2269274298496935,-0.07841748479436728,0.004919961551976138,0.013874804657089373
160753000000,282,160753000000,FL_wheel_link,-2.902378777250393,13.412406636303963,2.5519040526381067,0.012456581940230945,-0.023791010724824844,-0.18150231213739967
160754000000,283,160754000000,FL_wheel_link,-20.227865246123855,-9.307304911076505,6.192214403336434,0.00727379188828989,0.04367830707146591,0.3785524811457589
160755000000,284,160755000000,FL_wheel_link,25.506037987776622,8.093003840690043,3.184255127584368,0.012794175417093025,-0.042943877503076724,-0.4112449428994712
160756000000,285,160756000000,FL_wheel_link,-25.797265246319174,-8.350183763044626,6.573224152732017,0.007974120424272,0.042276836756222486,0.4171476295907931
160757000000,286,160757000000,FL_wheel_link,26.873635101571892,7.961073900355005,3.2200219286855716,0.01381996191522893,-0.04109486178252149,-0.4182909431543866
160758000000,287,160758000000,FL_wheel_link,-26.114252799427046,-8.218902978255977,7.076928964462025,0.00954136509403715,0.03821656825291379,0.41903297570063375
160759000000,288,160759000000,FL_wheel_link,27.468371457050424,8.043172391530378,3.6208303876140904,0.014920494482668094,-0.04214868922832309,-0.4181195284565794
160760000000,289,160760000000,FL_wheel_link,-25.858985159923094,-8.22932547104305,6.941522292954143,0.008989339416455555,0.035574062317308856,0.4201706695050949
160761000000,290,160761000000,FL_wheel_link,28.04724111272187,7.976516831992352,3.3666794888063576,0.01381257040730071,-0.04398457477867303,-0.418089059762976
160762000000,291,160762000000,FL_wheel_link,-25.556430160371868,-8.321168585764582,6.757829411706357,0.006503424266513264,0.03312087762529289,0.4203101882607212
160763000000,292,160763000000,FL_wheel_link,28.339465793892522,7.81000025586252,3.0574835045229816,0.009582085135507906,-0.040205138863025486,-0.41846138950303197
160764000000,293,160764000000,FL_wheel_link,-29.256345688940204,1.3234729030082772,7.319557040843214,-0.06598357843991004,0.019572898509853505,0.28546170124092424
160765000000,294,160765000000,FL_wheel_link,8.760799122740279,11.284995052188533,2.6606063192183416,0.010562144097180922,-0.026749257710801597,-0.2633700369462607
160766000000,295,160766000000,FL_wheel_link,-22.532279206620913,-9.184306203442713,6.970841815667545,0.006952896156483713,0.031863114027229175,0.39334520586386945
160767000000,296,160767000000,FL_wheel_link,27.15381349556986,7.700390666819875,3.214906337029019,0.012213478873671978,-0.04308270083087403,-0.4137957508764263
160768000000,297,160768000000,FL_wheel_link,-26.243550425089424,-8.694404996266913,6.920800467419971,0.0060782876177792305,0.03806612353184592,0.4192485991396085
160769000000,298,160769000000,FL_wheel_link,27.30656941993145,7.499073515371526,3.2669868829167577,0.012082539648816,-0.04289920357151768,-0.41800680957972286
160770000000,299,160770000000,FL_wheel_link,-26.56821373635243,-8.81631937906958,6.976563813400983,0.003892373457681243,0.0432277926926171,0.4190063545332072
160771000000,300,160771000000,FL_wheel_link,26.738420476004524,7.335523971526376,3.437738183110185,0.007936928358972499,-0.04092324038576141,-0.4187762859398162
160772000000,301,160772000000,FL_wheel_link,-26.93944296207671,-8.948934945020342,7.183071953093248,0.000954492243091705,0.04375761356354405,0.4185835995701626
160773000000,302,160773000000,FL_wheel_link,26.646425959969424,7.191117627958421,3.5343690838456223,0.004407747784676485,-0.03867278419766354,-0.4190843721880625
160774000000,303,160774000000,FL_wheel_link,-31.15902173140724,18.59747682688524,5.324536066755779,-0.08782556639359115,0.022408637820759872,0.2508077938103076
160775000000,304,160775000000,FL_wheel_link,2.6682684752254113,12.311876086766194,2.4460035788047967,0.003876073435255736,-0.016100005471999194,-0.22509757171304837
160776000000,305,160776000000,FL_wheel_link,-23.060446765771054,-9.157027700550278,7.03847193641116,0.0006756131201060055,0.04233278975108928,0.3857905122475072
160777000000,306,160777000000,FL_wheel_link,25.727668711390464,7.86233346938062,3.1928575145527405,0.008414232156089116,-0.042855658274562676,-0.41342419585524487
160778000000,307,160778000000,FL_wheel_link,-26.87977759832521,-8.502077415105767,7.030275602379305,0.004922537609028654,0.0455723301599531,0.4172900693608584
160779000000,308,160779000000,FL_wheel_link,26.54552194257872,7.7293300536641025,3.8007621958052913,0.013499577456762304,-0.04318729378453155,-0.41860191484621145
160780000000,309,160780000000,FL_wheel_link,-26.985584848740423,-8.5552712417805,8.107670539443713,0.011402973626850287,0.04462389659223497,0.4179698898772023
160781000000,310,160781000000,FL_wheel_link,26.69283824533559,7.401449277524669,5.72119557906348,0.021029209644016632,-0.04235920928368443,-0.4186268181197155
160782000000,311,160782000000,FL_wheel_link,-27.09372281698338,-8.937959745035522,10.3912679747069,0.017119341993301774,0.04604853535601636,0.4181438293160176
160783000000,312,160783000000,FL_wheel_link,26.63101664331426,7.025730824068044,7.137447079963132,0.02219744742991319,-0.04283770429144335,-0.4186332580490756
160784000000,313,160784000000,FL_wheel_link,-31.054002419462478,18.386786559594302,8.224802264394993,-0.07157579869574382,0.02424861988129713,0.25024505700717936
160785000000,314,160785000000,FL_wheel_link,6.869109733597574,11.557106380118892,9.646604479320038,-0.06796783757792559,0.005359070440120215,-0.04425977383146123
160786000000,315,160786000000,FL_wheel_link,-1.4093235083775624,-15.62757327008065,11.807644914001433,0.11875439446301068,-0.005541144196431524,-0.002073472364441062
160787000000,316,160787000000,FL_wheel_link,-0.07331667967166841,12.017140841971282,11.787874665447639,-0.05850622344765761,0.010765265269630904,0.009478744318628796
160788000000,317,160788000000,FL_wheel_link,-0.020099353436416,-16.08057354434286,9.662916298566776,0.11382687099213129,-0.011135992928551943,-0.01149537305496274
160789000000,318,160789000000,FL_wheel_link,0.20710103043876776,12.26162528365477,7.2357850953515,-0.07351311344039267,0.009474933801379202,0.011576724082967718
160790000000,319,160790000000,FL_wheel_link,0.4519623595448229,11.835862057142117,7.888013039912289,-0.07356213714152207,-0.00475885062347032,-0.0004908683591907932
160791000000,320,160791000000,FL_wheel_link,1.015044241422261,-16.31416941261991,8.57675026296081,0.10889595445506241,0.006081626217941725,-0.01247756229414672
160792000000,321,160792000000,FL_wheel_link,-1.4141759942344883,12.053359825667028,7.881925868053147,-0.07228266455467688,-0.00023836707995000882,0.013486169355343693
160793000000,322,160793000000,FL_wheel_link,1.014913975484143,-16.429675983644,8.029719030234224,0.10619215122467389,0.006541962173500413,-0.014960791375501149
160794000000,323,160794000000,FL_wheel_link,-1.6075242165331918,12.34543057261047,5.680109929194089,-0.07958886145051819,-0.0002154394813890977,0.013159606940775125
160795000000,324,160795000000,FL_wheel_link,-0.9194728482772907,-2.7739182663354582,4.330346755058563,0.05601722006596241,-0.006441869889631802,-0.09489644305359142
160796000000,325,160796000000,FL_wheel_link,-12.892503163328906,14.768445649119997,3.713194767671812,-0.085514437685677,0.010563733562539843,0.1065229114927698
160797000000,326,160797000000,FL_wheel_link,3.2759258982044073,-16.109608705116226,4.8107130338317,0.09686950955425441,-0.0026591028183546197,-0.030970922628061937
160798000000,327,160798000000,FL_wheel_link,-1.403552131410405,12.861662302361065,3.624520127985219,-0.08279503499511427,-0.002432030059698899,0.01726350116297667
160799000000,328,160799000000,FL_wheel_link,1.3150133343408514,-15.757244151032776,4.218824130823093,0.09539740028667924,-0.0014301611614520404,-0.013919141935787832
160800000000,329,160800000000,FL_wheel_link,-0.9118358269282613,12.856556729058957,3.308125997371334,-0.08382769425692063,-0.0014838882535889246,0.014332535823001735
160801000000,330,160801000000,FL_wheel_link,-0.820120606265207,12.099792815689288,2.6060991451681246,-0.03353293753200264,-0.013749945914079315,-0.09505981027340214
160802000000,331,160802000000,FL_wheel_link,-8.699061572239096,-13.519709324277272,8.661386789855467,0.0100983936559826,0.04136862610651688,0.27746742596237345
160803000000,332,160803000000,FL_wheel_link,23.000830201501408,6.210409343454133,4.969573829269365,0.016969283278206838,-0.05444663485598777,-0.39218971814688297
160804000000,333,160804000000,FL_wheel_link,-25.800998141507577,-10.568643101567066,8.793041326094684,0.01139778751745005,0.05746018088709365,0.41167921600690033
160805000000,334,160805000000,FL_wheel_link,26.28102635005901,5.647285805436119,4.989193246226502,0.016583841567596375,-0.054719773595512666,-0.41590601863907445
160806000000,335,160806000000,FL_wheel_link,-26.637928472031742,-10.45282424665958,8.906118728507108,0.011437463429706517,0.0549910183766722,0.41611853013789996
160807000000,336,160807000000,FL_wheel_link,26.68936781848694,5.6294030424910595,4.897383507248067,0.01726349526005884,-0.05362772242416144,-0.41723221984105424
160808000000,337,160808000000,FL_wheel_link,-26.864294700083196,-10.285534012993068,8.550022916731265,0.010769777506357677,0.052807121385879605,0.41715560844142685
160809000000,338,160809000000,FL_wheel_link,26.97764424636565,5.866571809306978,3.962944966543176,0.014158179898149896,-0.05226275534699954,-0.41760000394991803
160810000000,339,160810000000,FL_wheel_link,-27.02726916215182,-9.809318324740127,6.958264852964268,0.004517537608073501,0.051007516754065146,0.4175721770444586
160811000000,340,160811000000,FL_wheel_link,27.141303924282912,6.445629784144175,1.761535114639818,0.005661728897279342,-0.05148836394155588,-0.41754058101275154
160812000000,341,160812000000,FL_wheel_link,-27.060214667988454,-9.188495209395665,4.701303217361202,-0.004650844839891823,0.050228970746676774,0.4174335245153197
160813000000,342,160813000000,FL_wheel_link,27.15197084078078,6.998770940779179,-0.2811615915958652,-0.0025200022947036,-0.051672211261302954,-0.4167558596480786
160814000000,343,160814000000,FL_wheel_link,-26.975579827450037,-8.819113447937193,3.326180948481006,-0.010395617404114283,0.05052170329059603,0.41703922201139115
160815000000,344,160815000000,FL_wheel_link,27.142801620141068,7.140939152504316,-0.7737783937240263,-0.005005077520818201,-0.05318133819380419,-0.4170932651668912
160816000000,345,160816000000,FL_wheel_link,-26.98665331968394,-8.90710146027896,3.9496214608238596,-0.0103516779776311,0.04710057815329411,0.4169033179555802
160817000000,346,160817000000,FL_wheel_link,27.456221501437856,6.778460277959401,0.7805666791918897,-0.003820435250696022,-0.0545235418227579,-0.4160212484373259
160818000000,347,160818000000,FL_wheel_link,-27.03807641736917,-9.349766831290406,5.6802384538506985,-0.007714565713168413,0.050115830437510056,0.4186715389608036
160819000000,348,160819000000,FL_wheel_link,29.43962631260113,6.523429382950603,3.578182501267231,-0.04281447738990717,-0.03998836336574603,-0.33073910069844437
160820000000,349,160820000000,FL_wheel_link,-18.74118270326951,15.277932937686586,5.420940355405509,-0.08362196392783808,0.009695456851568444,0.15090692025104724
160821000000,350,160821000000,FL_wheel_link,4.972233738511527,-17.042526682591976,7.006928453949705,0.09821645817730106,0.0024019018462475895,-0.038619438939521765
160822000000,351,160822000000,FL_wheel_link,-2.125210446350514,11.965281258703335,7.090176430340335,-0.07710725268242168,-0.006614661117065741,0.02017781906530476
160823000000,352,160823000000,FL_wheel_link,1.9643646842488096,11.415196984886233,6.750604770248546,-0.07604202337850989,0.0047477458369898804,-0.0041192968662559434
160824000000,353,160824000000,FL_wheel_link,-0.1260661445630467,-15.758332019040196,5.805884441124268,0.10079372757485303,-0.010286279326466155,-0.00935479032517955
160825000000,354,160825000000,FL_wheel_link,-0.2609934343862311,12.415024867094765,5.911347649327071,-0.07165479258902703,0.009527122354822629,0.011496817650269662
160826000000,355,160826000000,FL_wheel_link,-0.2574570779179892,-15.322891583993732,8.497623997189688,0.11132752168626923,-0.004540569427491614,-0.012877240415321069
160827000000,356,160827000000,FL_wheel_link,-1.1315066668176117,13.005106516974868,8.007243827981682,-0.06436368798572896,0.008853078993085758,0.011172681864695536
160828000000,357,160828000000,FL_wheel_link,-3.742158310688582,12.67423531130402,6.804599232860594,0.013951359378111235,-0.023589309494935186,-0.14983733089788365
160829000000,358,160829000000,FL_wheel_link,-17.343519676557243,-10.33377928039288,11.445305350270816,0.023917068338543426,0.05987003035114936,0.3372655954471354
160830000000,359,160830000000,FL_wheel_link,23.277927239288644,7.804552739209896,7.143967043840754,0.03005612725423756,-0.061016024283989695,-0.4009065342852812
160831000000,360,160831000000,FL_wheel_link,-26.66749177801366,-8.47753281254974,10.235519174155714,0.022410792964492988,0.06528215998875053,0.41002271619163355
160832000000,361,160832000000,FL_wheel_link,25.473346968378543,7.538983470331176,5.277755926704984,0.02356537828768959,-0.05920896059857132,-0.41340584193583374
160833000000,362,160833000000,FL_wheel_link,-27.113561547212086,-8.585138160856081,7.80245061178019,0.013335002292072845,0.05980066579668286,0.41384630429187835
160834000000,363,160834000000,FL_wheel_link,26.329323382010113,7.312652474674732,1.2431532542604453,0.00786542424982347,-0.05618544409969645,-0.4140476142075951
160835000000,364,160835000000,FL_wheel_link,-31.163349772512532,18.95216800141169,-0.05170273949839575,-0.09092355723080067,0.032232558479810554,0.24821351638652442
160836000000,365,160836000000,FL_wheel_link,6.843725519148398,12.076467013951628,1.7404171378908708,-0.08575848294395842,0.0010340383626901669,-0.04376980328546062
160837000000,366,160837000000,FL_wheel_link,-1.1224052739242711,-14.955430295035796,4.813336952351043,0.09823880392354448,-0.006168980180899039,-0.0015448900463843323
160838000000,367,160838000000,FL_wheel_link,-0.09426951736592235,12.947242597808476,3.9877520927923302,-0.07614154543192336,0.006328109294091402,0.00984794426598497
