%time,field.header.seq,field.header.stamp,field.header.frame_id,field.orientation.x,field.orientation.y,field.orientation.z,field.orientation.w,field.orientation_covariance0,field.orientation_covariance1,field.orientation_covariance2,field.orientation_covariance3,field.orientation_covariance4,field.orientation_covariance5,field.orientation_covariance6,field.orientation_covariance7,field.orientation_covariance8,field.angular_velocity.x,field.angular_velocity.y,field.angular_velocity.z,field.angular_velocity_covariance0,field.angular_velocity_covariance1,field.angular_velocity_covariance2,field.angular_velocity_covariance3,field.angular_velocity_covariance4,field.angular_velocity_covariance5,field.angular_velocity_covariance6,field.angular_velocity_covariance7,field.angular_velocity_covariance8,field.linear_acceleration.x,field.linear_acceleration.y,field.linear_acceleration.z,field.linear_acceleration_covariance0,field.linear_acceleration_covariance1,field.linear_acceleration_covariance2,field.linear_acceleration_covariance3,field.linear_acceleration_covariance4,field.linear_acceleration_covariance5,field.linear_acceleration_covariance6,field.linear_acceleration_covariance7,field.linear_acceleration_covariance8
160471000000,0,160470000000,base_link,-0.004057872642120359,-0.005130719242723888,-0.7069408513959222,0.7072424209684267,0.0,0.0,0.0,0.0,0.0,0.0,0.0,0.0,0.0,-0.0484389848173822,0.0301892727521108,-0.4864851331206199,0.0,0.0,0.0,0.0,0.0,0.0,0.0,0.0,0.0,1.3244702568504987,5.447139423617038,9.678055170933082,0.0,0.0,0.0,0.0,0.0,0.0,0.0,0.0,0.0
160472000000,1,160471000000,base_link,-0.004046218455617197,-0.005112825575038097,-0.7069408502173359,0.7072426185014864,0.0,0.0,0.0,0.0,0.0,0.0,0.0,0.0,0.0,0.03961557110930772,0.01159855624567436,0.48679259923526064,0.0,0.0,0.0,0.0,0.0,0.0,0.0,0.0,0.0,1.1726800331543439,5.987688443122945,9.926199024598397,0.0,0.0,0.0,0.0,0.0,0.0,0.0,0.0,0.0
160473000000,2,160472000000,base_link,-0.004046218455617197,-0.005112825575038097,-0.7069408502173359,0.7072426185014864,0.0,0.0,0.0,0.0,0.0,0.0,0.0,0.0,0.0,0.03961557110930772,0.01159855624567436,0.48679259923526064,0.0,0.0,0.0,0.0,0.0,0.0,0.0,0.0,0.0,1.1726800331543439,5.987688443122945,9.926199024598397,0.0,0.0,0.0,0.0,0.0,0.0,0.0,0.0,0.0
160474000000,3,160473000000,base_link,-0.004065956749354415,-0.005087078383159481,-0.707113042704836,0.7070705300505352,0.0,0.0,0.0,0.0,0.0,0.0,0.0,0.0,0.0,-0.06747640580498726,0.00814515111467301,-0.4864662633868625,0.0,0.0,0.0,0.0,0.0,0.0,0.0,0.0,0.0,-1.1229230581966103,-4.003623273484465,9.732509778602049,0.0,0.0,0.0,0.0,0.0,0.0,0.0,0.0,0.0
160475000000,4,160474000000,base_link,-0.004060574293666074,-0.005103027432171291,-0.7069408162970146,0.7072426408954304,0.0,0.0,0.0,0.0,0.0,0.0,0.0,0.0,0.0,0.033318962710754484,-0.014591643807195036,0.48677163762975134,0.0,0.0,0.0,0.0,0.0,0.0,0.0,0.0,0.0,1.1237371192809027,5.881750703967315,10.35129028513097,0.0,0.0,0.0,0.0,0.0,0.0,0.0,0.0,0.0
160476000000,5,160475000000,base_link,-0.004089140981817386,-0.005086276828684952,-0.707113131252743,0.7070703135643539,0.0,0.0,0.0,0.0,0.0,0.0,0.0,0.0,0.0,-0.06724868433097637,-0.01705582094076006,-0.4869598443139943,0.0,0.0,0.0,0.0,0.0,0.0,0.0,0.0,0.0,-1.1208639649844492,-4.963298177326695,10.220934060191205,0.0,0.0,0.0,0.0,0.0,0.0,0.0,0.0,0.0
160477000000,6,160476000000,base_link,-0.004083276850400637,-0.005111506070509533,-0.7069409325511492,0.7072423327541739,0.0,0.0,0.0,0.0,0.0,0.0,0.0,0.0,0.0,0.04713108623177054,-0.02704290310643241,0.4865212652907957,0.0,0.0,0.0,0.0,0.0,0.0,0.0,0.0,0.0,1.2491462454104179,4.922922469049179,10.28762221279411,0.0,0.0,0.0,0.0,0.0,0.0,0.0,0.0,0.0
160478000000,7,160477000000,base_link,-0.004104246349792403,-0.0051004026848715574,-0.7071131106879873,0.7070701448565839,0.0,0.0,0.0,0.0,0.0,0.0,0.0,0.0,0.0,-0.0485262732757393,-0.014297003585044002,-0.48669164680985133,0.0,0.0,0.0,0.0,0.0,0.0,0.0,0.0,0.0,-0.9702017657915536,-6.062658389880773,9.885412392276665,0.0,0.0,0.0,0.0,0.0,0.0,0.0,0.0,0.0
160479000000,8,160478000000,base_link,-0.0040861004740869716,-0.005126738779849265,-0.7069409653028375,0.7072421734519876,0.0,0.0,0.0,0.0,0.0,0.0,0.0,0.0,0.0,0.06607412904250994,-0.011238784005335362,0.48632380773590367,0.0,0.0,0.0,0.0,0.0,0.0,0.0,0.0,0.0,1.3753505459004682,4.43496052548148,9.80867975345959,0.0,0.0,0.0,0.0,0.0,0.0,0.0,0.0,0.0
160480000000,9,160479000000,base_link,-0.0040684466385534504,-0.005132116886311938,-0.7069408003722353,0.707242401081325,0.0,0.0,0.0,0.0,0.0,0.0,0.0,0.0,0.0,0.06824364314625615,0.009272953245637986,0.48686065346887036,0.0,0.0,0.0,0.0,0.0,0.0,0.0,0.0,0.0,1.3646942670139102,4.916619900372342,9.45657540929438,0.0,0.0,0.0,0.0,0.0,0.0,0.0,0.0,0.0
160481000000,10,160480000000,base_link,-0.0040684466385534504,-0.005132116886311938,-0.7069408003722353,0.707242401081325,0.0,0.0,0.0,0.0,0.0,0.0,0.0,0.0,0.0,0.06824364314625615,0.009272953245637986,0.48686065346887036,0.0,0.0,0.0,0.0,0.0,0.0,0.0,0.0,0.0,1.3646942670139102,4.916619900372342,9.45657540929438,0.0,0.0,0.0,0.0,0.0,0.0,0.0,0.0,0.0
160482000000,11,160481000000,base_link,-0.004071368965585342,-0.005109338195029196,-0.7071129894284394,0.7070703916863798,0.0,0.0,0.0,0.0,0.0,0.0,0.0,0.0,0.0,-0.03950697166310377,0.02772382837229712,-0.4865443930785309,0.0,0.0,0.0,0.0,0.0,0.0,0.0,0.0,0.0,-0.9085384814899177,-5.200678588634592,8.650380454287975,0.0,0.0,0.0,0.0,0.0,0.0,0.0,0.0,0.0
160483000000,12,160482000000,base_link,-0.004049575345105922,-0.005120624801735466,-0.7069408013339911,0.7072425917253704,0.0,0.0,0.0,0.0,0.0,0.0,0.0,0.0,0.0,0.04994277565495593,0.015217827806762152,0.48671338421387944,0.0,0.0,0.0,0.0,0.0,0.0,0.0,0.0,0.0,1.2333185729487726,5.642567392712484,9.655258479413135,0.0,0.0,0.0,0.0,0.0,0.0,0.0,0.0,0.0
160484000000,13,160483000000,base_link,-0.00406113690530212,-0.005094004115853151,-0.7071129661074531,0.7070705844905613,0.0,0.0,0.0,0.0,0.0,0.0,0.0,0.0,0.0,-0.05714845026342132,0.020940708541769604,-0.48638839083514795,0.0,0.0,0.0,0.0,0.0,0.0,0.0,0.0,0.0,-1.030075206781884,-4.166664447615374,9.11687944050768,0.0,0.0,0.0,0.0,0.0,0.0,0.0,0.0,0.0
160485000000,14,160484000000,base_link,-0.004051049324533686,-0.005106054102778076,-0.7069407438940415,0.7072427460450966,0.0,0.0,0.0,0.0,0.0,0.0,0.0,0.0,0.0,0.03445961289164398,-0.0024191169910238158,0.4868212259980284,0.0,0.0,0.0,0.0,0.0,0.0,0.0,0.0,0.0,1.130366561657081,5.938601084369029,10.39144913834127,0.0,0.0,0.0,0.0,0.0,0.0,0.0,0.0,0.0
160486000000,15,160485000000,base_link,-0.004077566637237767,-0.005086038353945577,-0.7071130543325638,0.7070704590468008,0.0,0.0,0.0,0.0,0.0,0.0,0.0,0.0,0.0,-0.06896379203228814,-0.00954368878772488,-0.4868910603872518,0.0,0.0,0.0,0.0,0.0,0.0,0.0,0.0,0.0,-1.162659670894471,-4.304660531130801,10.531972090867797,0.0,0.0,0.0,0.0,0.0,0.0,0.0,0.0,0.0
160487000000,16,160486000000,base_link,-0.004074689124584727,-0.005108074181972144,-0.7069408420188885,0.7072424975723068,0.0,0.0,0.0,0.0,0.0,0.0,0.0,0.0,0.0,-0.05707872853704671,-0.020312953728394235,-0.4866604102332521,0.0,0.0,0.0,0.0,0.0,0.0,0.0,0.0,0.0,1.180002708086173,5.340050736534175,10.780328818020863,0.0,0.0,0.0,0.0,0.0,0.0,0.0,0.0,0.0
160488000000,17,160487000000,base_link,-0.004100810332131796,-0.005096072973563517,-0.7071130186192178,0.7070702880860471,0.0,0.0,0.0,0.0,0.0,0.0,0.0,0.0,0.0,-0.05707872853704671,-0.020312953728394235,-0.4866604102332521,0.0,0.0,0.0,0.0,0.0,0.0,0.0,0.0,0.0,-1.0321870988457587,-5.505229086796082,10.450883408708027,0.0,0.0,0.0,0.0,0.0,0.0,0.0,0.0,0.0
160490000000,18,160489000000,base_link,-0.004102620188455683,-0.005110430950461782,-0.7071130086959826,0.7070701838827635,0.0,0.0,0.0,0.0,0.0,0.0,0.0,0.0,0.0,-0.041168913538801866,-0.001998839774509653,-0.48658060212548027,0.0,0.0,0.0,0.0,0.0,0.0,0.0,0.0,0.0,0.21428517058563767,-0.9015241763422657,10.069125016554862,0.0,0.0,0.0,0.0,0.0,0.0,0.0,0.0,0.0
160491000000,19,160490000000,base_link,-0.004077606258978431,-0.005133579719565636,-0.7069408987788648,0.7072422393495673,0.0,0.0,0.0,0.0,0.0,0.0,0.0,0.0,0.0,0.07128166927764479,0.0029860930245533823,0.48626730862586237,0.0,0.0,0.0,0.0,0.0,0.0,0.0,0.0,0.0,1.3999502891310267,4.816777332556287,9.60507528293048,0.0,0.0,0.0,0.0,0.0,0.0,0.0,0.0,0.0
160492000000,20,160491000000,base_link,-0.004080697785096924,-0.005111731967943637,-0.707113214844549,0.7070700951773319,0.0,0.0,0.0,0.0,0.0,0.0,0.0,0.0,0.0,-0.03843612402411622,0.026170096313893387,-0.486920012333135,0.0,0.0,0.0,0.0,0.0,0.0,0.0,0.0,0.0,-0.8591878265737545,-5.898123076740721,8.556051596528981,0.0,0.0,0.0,0.0,0.0,0.0,0.0,0.0,0.0
160493000000,21,160492000000,base_link,-0.004054210616277454,-0.005124529100480216,-0.7069410224132842,0.7072423159052615,0.0,0.0,0.0,0.0,0.0,0.0,0.0,0.0,0.0,0.05872057937764693,0.01971727719936356,0.48668812427214336,0.0,0.0,0.0,0.0,0.0,0.0,0.0,0.0,0.0,1.287959003653864,5.507954116576467,9.291742583952326,0.0,0.0,0.0,0.0,0.0,0.0,0.0,0.0,0.0
160494000000,22,160493000000,base_link,-0.004060739371403653,-0.005097076566435426,-0.707113200448211,0.7070703302770677,0.0,0.0,0.0,0.0,0.0,0.0,0.0,0.0,0.0,-0.05120866491880251,0.029233700061014483,-0.48642108030731745,0.0,0.0,0.0,0.0,0.0,0.0,0.0,0.0,0.0,-0.9975909272421668,-4.622196728287435,8.630166482475481,0.0,0.0,0.0,0.0,0.0,0.0,0.0,0.0,0.0
160495000000,23,160494000000,base_link,-0.004045657398599026,-0.005107024647787474,-0.70694098969839,0.7072425242020739,0.0,0.0,0.0,0.0,0.0,0.0,0.0,0.0,0.0,0.038550883476571346,0.007618103306732184,0.4868168917678689,0.0,0.0,0.0,0.0,0.0,0.0,0.0,0.0,0.0,1.1441165891967617,5.980913530608802,9.798713015873671,0.0,0.0,0.0,0.0,0.0,0.0,0.0,0.0,0.0
160496000000,24,160495000000,base_link,-0.004068702550491367,-0.005083410494083498,-0.7071132003731407,0.7070703829572831,0.0,0.0,0.0,0.0,0.0,0.0,0.0,0.0,0.0,-0.06913646858014234,0.0004538940064015562,-0.48655038935077344,0.0,0.0,0.0,0.0,0.0,0.0,0.0,0.0,0.0,-1.1616907284822429,-4.181220587539276,9.883898591576328,0.0,0.0,0.0,0.0,0.0,0.0,0.0,0.0,0.0
160497000000,25,160496000000,base_link,-0.0040645148723168975,-0.005103430017122448,-0.7069409431401491,0.7072424885660007,0.0,0.0,0.0,0.0,0.0,0.0,0.0,0.0,0.0,0.0373859070592891,-0.022040059240935748,0.4867868031521587,0.0,0.0,0.0,0.0,0.0,0.0,0.0,0.0,0.0,1.1200490213781316,5.8928996890269385,10.448417488404875,0.0,0.0,0.0,0.0,0.0,0.0,0.0,0.0,0.0
160498000000,26,160497000000,base_link,-0.004094277822090155,-0.005089377738190077,-0.7071132785611255,0.7070701142078413,0.0,0.0,0.0,0.0,0.0,0.0,0.0,0.0,0.0,-0.06512774974835808,-0.022563039988910127,-0.4870648437362253,0.0,0.0,0.0,0.0,0.0,0.0,0.0,0.0,0.0,-1.1017579809350986,-5.369820748886026,10.369856768382101,0.0,0.0,0.0,0.0,0.0,0.0,0.0,0.0,0.0
160499000000,27,160498000000,base_link,-0.004086843177815734,-0.005117578180865547,-0.7069410663580276,0.7072421344935391,0.0,0.0,0.0,0.0,0.0,0.0,0.0,0.0,0.0,0.053556949702767344,-0.029024326725608528,0.4865012789214656,0.0,0.0,0.0,0.0,0.0,0.0,0.0,0.0,0.0,1.2881055674753192,4.926246776681667,10.503167295021912,0.0,0.0,0.0,0.0,0.0,0.0,0.0,0.0,0.0
160500000000,28,160499000000,base_link,-0.004106161835509191,-0.00510711325848988,-0.7071132358688139,0.7070699601088147,0.0,0.0,0.0,0.0,0.0,0.0,0.0,0.0,0.0,-0.04529158680890685,-0.012866809416772007,-0.4866820989485481,0.0,0.0,0.0,0.0,0.0,0.0,0.0,0.0,0.0,-0.9314451857109659,-6.319778789678204,10.120022266848352,0.0,0.0,0.0,0.0,0.0,0.0,0.0,0.0,0.0
160501000000,29,160500000000,base_link,-0.004085192257226586,-0.005133269952521703,-0.7069410956103751,0.7072420010724891,0.0,0.0,0.0,0.0,0.0,0.0,0.0,0.0,0.0,0.06981654465012462,-0.006989898859763793,0.48630631580181277,0.0,0.0,0.0,0.0,0.0,0.0,0.0,0.0,0.0,1.4091359603350389,4.5917137576273275,10.027432930706132,0.0,0.0,0.0,0.0,0.0,0.0,0.0,0.0,0.0
160502000000,30,160501000000,base_link,-0.0040915836628985895,-0.0051154678876283955,-0.7071132261022826,0.7070699939911482,0.0,0.0,0.0,0.0,0.0,0.0,0.0,0.0,0.0,-0.037383113265192794,0.015784496551392736,-0.4864625233095841,0.0,0.0,0.0,0.0,0.0,0.0,0.0,0.0,0.0,-0.8583702789256319,-6.1940923111500235,9.379603895299892,0.0,0.0,0.0,0.0,0.0,0.0,0.0,0.0,0.0
160503000000,31,160502000000,base_link,-0.004063427867913984,-0.0051324792300213515,-0.7069409367929,0.7072422909422859,0.0,0.0,0.0,0.0,0.0,0.0,0.0,0.0,0.0,0.06704674364728246,0.0161151378042745,0.48688085575776985,0.0,0.0,0.0,0.0,0.0,0.0,0.0,0.0,0.0,1.3608013118928,5.293942658305674,9.638495188960965,0.0,0.0,0.0,0.0,0.0,0.0,0.0,0.0,0.0
160504000000,32,160503000000,base_link,-0.00406671231869583,-0.005106251128380451,-0.7071131364653952,0.7070702937391745,0.0,0.0,0.0,0.0,0.0,0.0,0.0,0.0,0.0,-0.04489466276653022,0.03208931867058892,-0.48651065736675436,0.0,0.0,0.0,0.0,0.0,0.0,0.0,0.0,0.0,-0.9316645595640394,-5.107487747107571,8.790025682764457,0.0,0.0,0.0,0.0,0.0,0.0,0.0,0.0,0.0
160505000000,33,160504000000,base_link,-0.004046185721550734,-0.005115570573926841,-0.706940944730964,0.7072425043658661,0.0,0.0,0.0,0.0,0.0,0.0,0.0,0.0,0.0,0.04536647087376914,0.016208440179819768,0.48676270086268497,0.0,0.0,0.0,0.0,0.0,0.0,0.0,0.0,0.0,1.200769690235618,5.937276544082501,9.755866783414453,0.0,0.0,0.0,0.0,0.0,0.0,0.0,0.0,0.0
160506000000,34,160505000000,base_link,-0.004062585479006705,-0.005088967500860113,-0.7071131338228799,0.7070704447112655,0.0,0.0,0.0,0.0,0.0,0.0,0.0,0.0,0.0,-0.06396487774660918,0.014075379882563747,-0.4864478631962839,0.0,0.0,0.0,0.0,0.0,0.0,0.0,0.0,0.0,-1.107974467010819,-4.137338568718666,9.524219754011533,0.0,0.0,0.0,0.0,0.0,0.0,0.0,0.0,0.0
160507000000,35,160506000000,base_link,-0.0040552088044209025,-0.005103415481664192,-0.706940899541056,0.7072425856720285,0.0,0.0,0.0,0.0,0.0,0.0,0.0,0.0,0.0,0.034016036200869015,-0.009646587219670119,0.4868173518053282,0.0,0.0,0.0,0.0,0.0,0.0,0.0,0.0,0.0,1.1169763456178199,6.031209118707495,10.209522955357006,0.0,0.0,0.0,0.0,0.0,0.0,0.0,0.0,0.0
160507000000,36,160507000000,base_link,-0.004083594109752498,-0.005085175623202226,-0.7071132142175223,0.7070702705721634,0.0,0.0,0.0,0.0,0.0,0.0,0.0,0.0,0.0,-0.06909593365918501,-0.014694704803029073,-0.4869320959252954,0.0,0.0,0.0,0.0,0.0,0.0,0.0,0.0,0.0,-1.1477089720267672,-4.713700256578273,10.156027265189287,0.0,0.0,0.0,0.0,0.0,0.0,0.0,0.0,0.0
160509000000,37,160508000000,base_link,-0.004079524868413408,-0.005109370278364534,-0.7069410050697648,0.7072422973515916,0.0,0.0,0.0,0.0,0.0,0.0,0.0,0.0,0.0,0.04312760380425829,-0.028116706692297017,0.48657378191034706,0.0,0.0,0.0,0.0,0.0,0.0,0.0,0.0,0.0,1.2129486270881975,5.17268725478097,10.289004330564522,0.0,0.0,0.0,0.0,0.0,0.0,0.0,0.0,0.0
160510000000,38,160509000000,base_link,-0.004103332826380496,-0.0050980983313649655,-0.7071131839524739,0.707070093508214,0.0,0.0,0.0,0.0,0.0,0.0,0.0,0.0,0.0,-0.05277766549562565,-0.018072538957433035,-0.48668505223090863,0.0,0.0,0.0,0.0,0.0,0.0,0.0,0.0,0.0,-0.9994342762661435,-5.859934109507767,9.950474305635044,0.0,0.0,0.0,0.0,0.0,0.0,0.0,0.0,0.0
160511000000,39,160510000000,base_link,-0.004087983212621035,-0.005125213153340112,-0.7069410324644427,0.7072421064964203,0.0,0.0,0.0,0.0,0.0,0.0,0.0,0.0,0.0,0.06321994728339767,-0.016295242841118312,0.4863326257017281,0.0,0.0,0.0,0.0,0.0,0.0,0.0,0.0,0.0,1.3604477722785697,4.482790818476812,9.92968793685114,0.0,0.0,0.0,0.0,0.0,0.0,0.0,0.0,0.0
160512000000,40,160511000000,base_link,-0.004099342326651378,-0.0051116120953393985,-0.7071131675014654,0.7070700355412609,0.0,0.0,0.0,0.0,0.0,0.0,0.0,0.0,0.0,-0.03846888445018111,0.002821603942966898,-0.486542706699056,0.0,0.0,0.0,0.0,0.0,0.0,0.0,0.0,0.0,-0.9033919730575442,-6.331066568897558,9.576280110168865,0.0,0.0,0.0,0.0,0.0,0.0,0.0,0.0,0.0
160513000000,41,160512000000,base_link,-0.004073570443306335,-0.005133153906108487,-0.7069408654430042,0.7072422990188834,0.0,0.0,0.0,0.0,0.0,0.0,0.0,0.0,0.0,0.07008386766097816,0.006332576417631446,0.4868387202828922,0.0,0.0,0.0,0.0,0.0,0.0,0.0,0.0,0.0,1.3895313760305341,4.845879423046016,9.577002761659886,0.0,0.0,0.0,0.0,0.0,0.0,0.0,0.0,0.0
160514000000,42,160513000000,base_link,-0.004075956033269024,-0.005111035289568217,-0.7071130618484373,0.7070702805690617,0.0,0.0,0.0,0.0,0.0,0.0,0.0,0.0,0.0,-0.0378167690758743,0.027550415203353485,-0.48657822674804807,0.0,0.0,0.0,0.0,0.0,0.0,0.0,0.0,0.0,-0.8784107289592512,-5.526902185862862,8.715256492393996,0.0,0.0,0.0,0.0,0.0,0.0,0.0,0.0,0.0
160515000000,43,160514000000,base_link,-0.004051594120101308,-0.005122970372831337,-0.7069408824469644,0.7072424820984331,0.0,0.0,0.0,0.0,0.0,0.0,0.0,0.0,0.0,0.05449387945165385,0.01793203406694937,0.4866714684563709,0.0,0.0,0.0,0.0,0.0,0.0,0.0,0.0,0.0,1.264803749037568,5.550234439538808,9.672358346589581,0.0,0.0,0.0,0.0,0.0,0.0,0.0,0.0,0.0
160516000000,44,160515000000,base_link,-0.00406040033086702,-0.005095837678884104,-0.7071130465136458,0.7070704950976913,0.0,0.0,0.0,0.0,0.0,0.0,0.0,0.0,0.0,-0.05397630141191842,0.02556075679620954,-0.4863826932030474,0.0,0.0,0.0,0.0,0.0,0.0,0.0,0.0,0.0,-1.008239116068758,-4.365423248207043,9.07475623035209,0.0,0.0,0.0,0.0,0.0,0.0,0.0,0.0,0.0
160517000000,45,160516000000,base_link,-0.004047884741098003,-0.005106896940103585,-0.7069408241864858,0.7072426778209148,0.0,0.0,0.0,0.0,0.0,0.0,0.0,0.0,0.0,0.03649260100272819,0.0024167663101702097,0.4868346018354365,0.0,0.0,0.0,0.0,0.0,0.0,0.0,0.0,0.0,1.1370134538084231,5.999540956139471,10.340569154887172,0.0,0.0,0.0,0.0,0.0,0.0,0.0,0.0,0.0
160517000000,46,160517000000,base_link,-0.004073878000521879,-0.005084940091495556,-0.7071130451766195,0.707070497364549,0.0,0.0,0.0,0.0,0.0,0.0,0.0,0.0,0.0,-0.07096443522800851,-0.006058106107265825,-0.4866036232743781,0.0,0.0,0.0,0.0,0.0,0.0,0.0,0.0,0.0,-1.1718363378175214,-4.299437783750565,10.47628385730193,0.0,0.0,0.0,0.0,0.0,0.0,0.0,0.0,0.0
160519000000,47,160518000000,base_link,-0.004070515468652468,-0.005106626727369602,-0.7069406324121771,0.7072427415760149,0.0,0.0,0.0,0.0,0.0,0.0,0.0,0.0,0.0,0.038581722546753135,-0.025565655436587367,0.48719733660186504,0.0,0.0,0.0,0.0,0.0,0.0,0.0,0.0,0.0,1.154269598016064,5.735765468871803,10.72232826519461,0.0,0.0,0.0,0.0,0.0,0.0,0.0,0.0,0.0
160520000000,48,160519000000,base_link,-0.004098570087225618,-0.005093787456273232,-0.7071128437721176,0.7070704924016411,0.0,0.0,0.0,0.0,0.0,0.0,0.0,0.0,0.0,-0.060997181527013104,-0.021862184137430105,-0.48673931003486437,0.0,0.0,0.0,0.0,0.0,0.0,0.0,0.0,0.0,-1.0565611537588646,-5.508749932113503,10.392707521699789,0.0,0.0,0.0,0.0,0.0,0.0,0.0,0.0,0.0
160521000000,49,160520000000,base_link,-0.00408831739063956,-0.005121450411422778,-0.7069406688104951,0.7072424953213478,0.0,0.0,0.0,0.0,0.0,0.0,0.0,0.0,0.0,0.05678439928217436,-0.024278742153981476,0.48639942454981155,0.0,0.0,0.0,0.0,0.0,0.0,0.0,0.0,0.0,1.3228502326539981,4.731190495186953,10.285911333238532,0.0,0.0,0.0,0.0,0.0,0.0,0.0,0.0,0.0
160522000000,50,160521000000,base_link,-0.004104359579783029,-0.005109413933678853,-0.7071128268171842,0.7070703630278286,0.0,0.0,0.0,0.0,0.0,0.0,0.0,0.0,0.0,-0.04288044857920097,-0.006011795780469384,-0.48662683197295886,0.0,0.0,0.0,0.0,0.0,0.0,0.0,0.0,0.0,-0.9150031452965744,-6.36145245447537,9.75791587893915,0.0,0.0,0.0,0.0,0.0,0.0,0.0,0.0,0.0
160523000000,51,160522000000,base_link,-0.004080770726575285,-0.005133487782547032,-0.7069407063248604,0.7072424141370278,0.0,0.0,0.0,0.0,0.0,0.0,0.0,0.0,0.0,0.0705750037031869,-0.00033857689521029494,0.4862830391316487,0.0,0.0,0.0,0.0,0.0,0.0,0.0,0.0,0.0,1.4042460686894864,4.71591476621125,9.576498800132702,0.0,0.0,0.0,0.0,0.0,0.0,0.0,0.0,0.0
160524000000,52,160523000000,base_link,-0.004084230315172896,-0.00511373494134487,-0.707112821105492,0.7070704540609194,0.0,0.0,0.0,0.0,0.0,0.0,0.0,0.0,0.0,-0.035992269215227045,0.022687858875488257,-0.4863881826021811,0.0,0.0,0.0,0.0,0.0,0.0,0.0,0.0,0.0,-0.8574298516099778,-6.112490057058689,8.698293437068644,0.0,0.0,0.0,0.0,0.0,0.0,0.0,0.0,0.0
160525000000,53,160524000000,base_link,-0.00405688297111047,-0.0051280813594057565,-0.7069405198872973,0.707242777144884,0.0,0.0,0.0,0.0,0.0,0.0,0.0,0.0,0.0,0.06213189198405904,0.0187424525539163,0.48696505765798864,0.0,0.0,0.0,0.0,0.0,0.0,0.0,0.0,0.0,1.312868188460118,5.365049857795871,9.258886114350526,0.0,0.0,0.0,0.0,0.0,0.0,0.0,0.0,0.0
160526000000,54,160525000000,base_link,-0.004061803891539071,-0.00510134616785986,-0.7071127170062552,0.7070707768423566,0.0,0.0,0.0,0.0,0.0,0.0,0.0,0.0,0.0,-0.047922604587069415,0.030492051083724065,-0.48649092557654167,0.0,0.0,0.0,0.0,0.0,0.0,0.0,0.0,0.0,-0.9793029993738644,-4.694175690379793,8.598528276588965,0.0,0.0,0.0,0.0,0.0,0.0,0.0,0.0,0.0
160527000000,55,160526000000,base_link,-0.004045240887858885,-0.0051105391220661,-0.7069405159029768,0.7072429747907533,0.0,0.0,0.0,0.0,0.0,0.0,0.0,0.0,0.0,0.03957912606133606,0.010781671311122508,0.4867998013809832,0.0,0.0,0.0,0.0,0.0,0.0,0.0,0.0,0.0,1.1582366425429602,5.931422494032165,9.749401696120053,0.0,0.0,0.0,0.0,0.0,0.0,0.0,0.0,0.0
160528000000,56,160527000000,base_link,-0.004065467377541093,-0.005085629764203931,-0.7071127070805607,0.7070708789294781,0.0,0.0,0.0,0.0,0.0,0.0,0.0,0.0,0.0,-0.06698127400834714,0.006270191117075982,-0.4864768246705471,0.0,0.0,0.0,0.0,0.0,0.0,0.0,0.0,0.0,-1.1352459859355915,-3.9830936231814116,9.716175605600977,0.0,0.0,0.0,0.0,0.0,0.0,0.0,0.0,0.0
160529000000,57,160528000000,base_link,-0.004060921139369489,-0.00510274622164947,-0.7069404713322766,0.7072429857502976,0.0,0.0,0.0,0.0,0.0,0.0,0.0,0.0,0.0,0.03378679919321943,-0.017425586669147074,0.4867782045370787,0.0,0.0,0.0,0.0,0.0,0.0,0.0,0.0,0.0,1.1138475174461984,5.852291408530952,10.510400882641456,0.0,0.0,0.0,0.0,0.0,0.0,0.0,0.0,0.0
160530000000,58,160529000000,base_link,-0.00409032676206869,-0.0050874516067936125,-0.7071127780897636,0.7070706514382457,0.0,0.0,0.0,0.0,0.0,0.0,0.0,0.0,0.0,-0.0663767546819908,-0.020301340213956506,-0.4869613862554472,0.0,0.0,0.0,0.0,0.0,0.0,0.0,0.0,0.0,-1.1227418730390766,-4.974493767943661,10.511965570126172,0.0,0.0,0.0,0.0,0.0,0.0,0.0,0.0,0.0
160531000000,59,160530000000,base_link,-0.004084961365307686,-0.005114120130467668,-0.7069405743435696,0.7072426621837228,0.0,0.0,0.0,0.0,0.0,0.0,0.0,0.0,0.0,0.048462055106622326,-0.029783726985250884,0.4865096784400884,0.0,0.0,0.0,0.0,0.0,0.0,0.0,0.0,0.0,1.2584696221915024,4.8906482712803125,10.670709472569715,0.0,0.0,0.0,0.0,0.0,0.0,0.0,0.0,0.0
160532000000,60,160531000000,base_link,-0.004106049760931968,-0.005103874358350511,-0.7071127438869133,0.7070704761582227,0.0,0.0,0.0,0.0,0.0,0.0,0.0,0.0,0.0,-0.04748326957445756,-0.015678539374508475,-0.4866824781023785,0.0,0.0,0.0,0.0,0.0,0.0,0.0,0.0,0.0,-0.9525101864949644,-6.100885527835027,10.266588139127943,0.0,0.0,0.0,0.0,0.0,0.0,0.0,0.0,0.0
160533000000,61,160532000000,base_link,-0.004087255618093172,-0.005130639893233354,-0.7069406027670831,0.7072425008687696,0.0,0.0,0.0,0.0,0.0,0.0,0.0,0.0,0.0,0.06759992805346844,-0.010928738483990577,0.4863019048488606,0.0,0.0,0.0,0.0,0.0,0.0,0.0,0.0,0.0,1.3964881967031473,4.445607307478095,10.143058177620063,0.0,0.0,0.0,0.0,0.0,0.0,0.0,0.0,0.0
160534000000,62,160533000000,base_link,-0.004094413302909916,-0.0051150841808441025,-0.7071127356393057,0.7070704708798304,0.0,0.0,0.0,0.0,0.0,0.0,0.0,0.0,0.0,-0.035290932896384394,0.011525060421309323,-0.48650874133976896,0.0,0.0,0.0,0.0,0.0,0.0,0.0,0.0,0.0,-0.8641886986985547,-6.269802319355689,9.476297469567756,0.0,0.0,0.0,0.0,0.0,0.0,0.0,0.0,0.0
160535000000,63,160534000000,base_link,-0.004066891991164095,-0.005133459560193457,-0.7069404453292878,0.7072427551697539,0.0,0.0,0.0,0.0,0.0,0.0,0.0,0.0,0.0,0.06807931034468674,0.013287606034735614,0.4868596066455295,0.0,0.0,0.0,0.0,0.0,0.0,0.0,0.0,0.0,1.373838286646511,4.997694397759814,9.584145824158128,0.0,0.0,0.0,0.0,0.0,0.0,0.0,0.0,0.0
160536000000,64,160535000000,base_link,-0.004069082831119311,-0.005108898144273726,-0.7071126389548547,0.7070707585206494,0.0,0.0,0.0,0.0,0.0,0.0,0.0,0.0,0.0,-0.0409927108313262,0.03127889118875833,-0.4865259078924938,0.0,0.0,0.0,0.0,0.0,0.0,0.0,0.0,0.0,-0.9123749034496419,-5.1324302550439835,8.661280816460454,0.0,0.0,0.0,0.0,0.0,0.0,0.0,0.0,0.0
160537000000,65,160536000000,base_link,-0.00404716608177961,-0.005118649641055711,-0.7069404523002224,0.7072429686989582,0.0,0.0,0.0,0.0,0.0,0.0,0.0,0.0,0.0,0.047945042962311515,0.01756354999952053,0.4867369986701926,0.0,0.0,0.0,0.0,0.0,0.0,0.0,0.0,0.0,1.2208209755905697,5.751204569156651,9.553443449498447,0.0,0.0,0.0,0.0,0.0,0.0,0.0,0.0,0.0
160538000000,66,160537000000,base_link,-0.004059271789827825,-0.005090953075453622,-0.7071126265118526,0.7070709567906386,0.0,0.0,0.0,0.0,0.0,0.0,0.0,0.0,0.0,-0.059437921266866214,0.02169307163808621,-0.48639425333957076,0.0,0.0,0.0,0.0,0.0,0.0,0.0,0.0,0.0,-1.0483006064214286,-4.10290028100051,8.915672905178003,0.0,0.0,0.0,0.0,0.0,0.0,0.0,0.0,0.0
160539000000,67,160538000000,base_link,-0.004050094654194235,-0.005102527389935621,-0.7069403993544928,0.70724312135788,0.0,0.0,0.0,0.0,0.0,0.0,0.0,0.0,0.0,0.032497787235009755,-0.0030344565732852886,0.4868457277266643,0.0,0.0,0.0,0.0,0.0,0.0,0.0,0.0,0.0,1.1120022896798505,5.964360378887504,10.104528290314317,0.0,0.0,0.0,0.0,0.0,0.0,0.0,0.0,0.0
160539000000,68,160539000000,base_link,-0.0040775329317482255,-0.005082714459966269,-0.7071127133862781,0.7070708241091584,0.0,0.0,0.0,0.0,0.0,0.0,0.0,0.0,0.0,-0.06997830395711753,-0.01113186383423995,-0.48690311615071724,0.0,0.0,0.0,0.0,0.0,0.0,0.0,0.0,0.0,-1.1775317041602247,-4.327805798628466,10.211628458841291,0.0,0.0,0.0,0.0,0.0,0.0,0.0,0.0,0.0
160541000000,69,160540000000,base_link,-0.004075526193536799,-0.005105419088659336,-0.7069404995659786,0.7072428542273013,0.0,0.0,0.0,0.0,0.0,0.0,0.0,0.0,0.0,0.0381008207169301,-0.028925236812251887,0.4866185603786477,0.0,0.0,0.0,0.0,0.0,0.0,0.0,0.0,0.0,1.1691177359227383,5.261537921888397,10.463764095797346,0.0,0.0,0.0,0.0,0.0,0.0,0.0,0.0,0.0
160542000000,70,160541000000,base_link,-0.004101855009743231,-0.005094624981523007,-0.7071126766317674,0.7070706344690284,0.0,0.0,0.0,0.0,0.0,0.0,0.0,0.0,0.0,-0.055665163328698725,-0.02231278715426874,-0.4866834347928216,0.0,0.0,0.0,0.0,0.0,0.0,0.0,0.0,0.0,-1.0346746640306168,-5.586547859810451,10.191051531394795,0.0,0.0,0.0,0.0,0.0,0.0,0.0,0.0,0.0
160543000000,71,160542000000,base_link,-0.0040897988521793795,-0.0051229213138586594,-0.7069405169244454,0.7072426279242215,0.0,0.0,0.0,0.0,0.0,0.0,0.0,0.0,0.0,0.06023166508440688,-0.022624752315260756,0.48634068842440514,0.0,0.0,0.0,0.0,0.0,0.0,0.0,0.0,0.0,1.3384772696336333,4.403387530199732,10.211097182097811,0.0,0.0,0.0,0.0,0.0,0.0,0.0,0.0,0.0
160544000000,72,160543000000,base_link,-0.0041032615626773305,-0.005111376706010245,-0.7071126522505269,0.7070705297917196,0.0,0.0,0.0,0.0,0.0,0.0,0.0,0.0,0.0,-0.03853687368212634,-0.0030602862063408842,-0.4865768136882026,0.0,0.0,0.0,0.0,0.0,0.0,0.0,0.0,0.0,-0.9021461301429028,-6.376238944249978,9.797676915191163,0.0,0.0,0.0,0.0,0.0,0.0,0.0,0.0,0.0
160545000000,73,160544000000,base_link,-0.004077861338502771,-0.0051352711293420695,-0.706940541255742,0.7072425829702073,0.0,0.0,0.0,0.0,0.0,0.0,0.0,0.0,0.0,0.07288300688997486,0.0024779790725472234,0.4862554475968644,0.0,0.0,0.0,0.0,0.0,0.0,0.0,0.0,0.0,1.4062043794557937,4.73261465312099,9.74019029821894,0.0,0.0,0.0,0.0,0.0,0.0,0.0,0.0,0.0
160546000000,74,160545000000,base_link,-0.004079996078751584,-0.0051140996510362375,-0.7071128510339061,0.7070704459383504,0.0,0.0,0.0,0.0,0.0,0.0,0.0,0.0,0.0,-0.03612712891272859,0.026565844050010647,-0.4869163390085879,0.0,0.0,0.0,0.0,0.0,0.0,0.0,0.0,0.0,-0.8468871429098089,-5.856988236004625,8.765818860675175,0.0,0.0,0.0,0.0,0.0,0.0,0.0,0.0,0.0
160547000000,75,160546000000,base_link,-0.004053449711969863,-0.005126697050918624,-0.7069406559415833,0.7072426708702356,0.0,0.0,0.0,0.0,0.0,0.0,0.0,0.0,0.0,0.05852247106713536,0.020084496823717463,0.48669874507244787,0.0,0.0,0.0,0.0,0.0,0.0,0.0,0.0,0.0,1.2925011169850933,5.4986998160165514,9.625686223569902,0.0,0.0,0.0,0.0,0.0,0.0,0.0,0.0,0.0
160548000000,76,160547000000,base_link,-0.004059652674394325,-0.005099148197340085,-0.7071128264532068,0.7070706955978178,0.0,0.0,0.0,0.0,0.0,0.0,0.0,0.0,0.0,-0.05088432853548583,0.029829636591089562,-0.4863983661413155,0.0,0.0,0.0,0.0,0.0,0.0,0.0,0.0,0.0,-0.9907877315848861,-4.465064826484083,8.940000681572148,0.0,0.0,0.0,0.0,0.0,0.0,0.0,0.0,0.0
160549000000,77,160548000000,base_link,-0.004045216368950559,-0.005108425585501183,-0.7069406166409092,0.7072428895053923,0.0,0.0,0.0,0.0,0.0,0.0,0.0,0.0,0.0,0.03668964010942865,0.0076545155757795965,0.48682752774500515,0.0,0.0,0.0,0.0,0.0,0.0,0.0,0.0,0.0,1.1435656656680784,6.009027723808515,10.135155755152091,0.0,0.0,0.0,0.0,0.0,0.0,0.0,0.0,0.0
160550000000,78,160549000000,base_link,-0.0040685127079988954,-0.005084436193871232,-0.7071128248931601,0.7070707521772841,0.0,0.0,0.0,0.0,0.0,0.0,0.0,0.0,0.0,-0.0700225845835881,0.0006289345615609759,-0.4865357765027336,0.0,0.0,0.0,0.0,0.0,0.0,0.0,0.0,0.0,-1.1573189540429616,-4.043703075981002,10.10272886375212,0.0,0.0,0.0,0.0,0.0,0.0,0.0,0.0,0.0
160551000000,79,160550000000,base_link,-0.004064957574632815,-0.005103685908534978,-0.7069405745438241,0.707242852614087,0.0,0.0,0.0,0.0,0.0,0.0,0.0,0.0,0.0,0.035402880380818624,-0.021845598400787758,0.48678244761038914,0.0,0.0,0.0,0.0,0.0,0.0,0.0,0.0,0.0,1.1222573111204777,5.87321527716706,10.579970995018128,0.0,0.0,0.0,0.0,0.0,0.0,0.0,0.0,0.0
160552000000,80,160551000000,base_link,-0.004094916226588528,-0.0050891290393688775,-0.7071129114094256,0.7070704794748566,0.0,0.0,0.0,0.0,0.0,0.0,0.0,0.0,0.0,-0.06611825530468654,-0.022125883202455017,-0.4870590345722054,0.0,0.0,0.0,0.0,0.0,0.0,0.0,0.0,0.0,-1.0992292167612623,-5.312400068603194,10.360662474873024,0.0,0.0,0.0,0.0,0.0,0.0,0.0,0.0,0.0
160553000000,81,160552000000,base_link,-0.0040875048848151305,-0.005116639011222134,-0.7069407068571577,0.7072424968123363,0.0,0.0,0.0,0.0,0.0,0.0,0.0,0.0,0.0,0.05254753166864819,-0.02808115747865355,0.4864921493148344,0.0,0.0,0.0,0.0,0.0,0.0,0.0,0.0,0.0,1.291645495294871,4.871399837754574,10.336947081214749,0.0,0.0,0.0,0.0,0.0,0.0,0.0,0.0,0.0
160554000000,82,160553000000,base_link,-0.004105214652970269,-0.005106091696342922,-0.7071128847571081,0.7070703241196892,0.0,0.0,0.0,0.0,0.0,0.0,0.0,0.0,0.0,-0.04313231282008366,-0.010474828746327247,-0.48670738694443993,0.0,0.0,0.0,0.0,0.0,0.0,0.0,0.0,0.0,-0.9198306109685412,-6.362548629151402,9.754539610580268,0.0,0.0,0.0,0.0,0.0,0.0,0.0,0.0,0.0
160555000000,83,160554000000,base_link,-0.00408409907824705,-0.005131159856825612,-0.7069407501184334,0.7072423680431125,0.0,0.0,0.0,0.0,0.0,0.0,0.0,0.0,0.0,0.06848285811002695,-0.005244070145944732,0.48631009769557154,0.0,0.0,0.0,0.0,0.0,0.0,0.0,0.0,0.0,1.3999551915642816,4.402077093666737,9.71181319490158,0.0,0.0,0.0,0.0,0.0,0.0,0.0,0.0,0.0
160556000000,84,160555000000,base_link,-0.004088776993508225,-0.005113851871866781,-0.7071128808556083,0.7070703671840676,0.0,0.0,0.0,0.0,0.0,0.0,0.0,0.0,0.0,-0.03425967825032784,0.017508733373942136,-0.48647576614186083,0.0,0.0,0.0,0.0,0.0,0.0,0.0,0.0,0.0,-0.8618753763650615,-6.040632889958737,8.986743221392413,0.0,0.0,0.0,0.0,0.0,0.0,0.0,0.0,0.0
160557000000,85,160556000000,base_link,-0.004061494611469417,-0.005130074508913318,-0.7069405973221972,0.7072426588200045,0.0,0.0,0.0,0.0,0.0,0.0,0.0,0.0,0.0,0.06469459005273298,0.015995646050949185,0.4868807496130705,0.0,0.0,0.0,0.0,0.0,0.0,0.0,0.0,0.0,1.3381877490762037,5.08164752807199,9.396806762072229,0.0,0.0,0.0,0.0,0.0,0.0,0.0,0.0,0.0
160558000000,86,160557000000,base_link,-0.004063235939252781,-0.005105320384240293,-0.7071127904407676,0.7070706664913678,0.0,0.0,0.0,0.0,0.0,0.0,0.0,0.0,0.0,-0.04062629405185254,0.03218637218223126,-0.4865224278871859,0.0,0.0,0.0,0.0,0.0,0.0,0.0,0.0,0.0,-0.9330456139486831,-4.857473758943816,8.53005371251789,0.0,0.0,0.0,0.0,0.0,0.0,0.0,0.0,0.0
160559000000,87,160558000000,base_link,-0.004044719876085071,-0.005114054722288869,-0.7069405961194248,0.7072428721759831,0.0,0.0,0.0,0.0,0.0,0.0,0.0,0.0,0.0,0.041694294805979894,0.014193300235971469,0.48678476578648466,0.0,0.0,0.0,0.0,0.0,0.0,0.0,0.0,0.0,1.1783749495145077,5.63317139401284,9.786787613941543,0.0,0.0,0.0,0.0,0.0,0.0,0.0,0.0,0.0
160560000000,88,160559000000,base_link,-0.004058768681613579,-0.005089971511278149,-0.7071127746031749,0.7070708186453483,0.0,0.0,0.0,0.0,0.0,0.0,0.0,0.0,0.0,-0.05707551300102405,0.01383506228718948,-0.4864687639666539,0.0,0.0,0.0,0.0,0.0,0.0,0.0,0.0,0.0,-1.0917782497942357,-3.7843779174664625,9.435098442079749,0.0,0.0,0.0,0.0,0.0,0.0,0.0,0.0,0.0
160561000000,89,160560000000,base_link,-0.004054006773467564,-0.0051034417838319536,-0.7069405413840598,0.7072429503774865,0.0,0.0,0.0,0.0,0.0,0.0,0.0,0.0,0.0,0.02893462716758162,-0.01196027984253933,0.48683745298268666,0.0,0.0,0.0,0.0,0.0,0.0,0.0,0.0,0.0,1.0988304268738847,5.530378751807701,10.52923646496564,0.0,0.0,0.0,0.0,0.0,0.0,0.0,0.0,0.0
160562000000,90,160561000000,base_link,-0.004080169342409122,-0.005088177147138157,-0.7071128321546857,0.707070650835994,0.0,0.0,0.0,0.0,0.0,0.0,0.0,0.0,0.0,-0.06174452666541206,-0.015760853851194256,-0.48692313866809095,0.0,0.0,0.0,0.0,0.0,0.0,0.0,0.0,0.0,-1.1325939258521731,-4.157770131061338,10.388140372883944,0.0,0.0,0.0,0.0,0.0,0.0,0.0,0.0,0.0
160563000000,91,160562000000,base_link,-0.004079205569016286,-0.005111208004507923,-0.7069406326911638,0.7072426581343051,0.0,0.0,0.0,0.0,0.0,0.0,0.0,0.0,0.0,0.03708974299263179,-0.030860693209922088,0.48657377645775524,0.0,0.0,0.0,0.0,0.0,0.0,0.0,0.0,0.0,1.2007804816928795,4.609289929000956,10.795858290106825,0.0,0.0,0.0,0.0,0.0,0.0,0.0,0.0,0.0
160564000000,92,160563000000,base_link,-0.004101344960019859,-0.005102339249414851,-0.7071127885185458,0.707070469908926,0.0,0.0,0.0,0.0,0.0,0.0,0.0,0.0,0.0,-0.04701984238787742,-0.01911340853829985,-0.48666693747411427,0.0,0.0,0.0,0.0,0.0,0.0,0.0,0.0,0.0,-0.9792824994097766,-5.216148202292166,10.285229591553746,0.0,0.0,0.0,0.0,0.0,0.0,0.0,0.0,0.0
160565000000,93,160564000000,base_link,-0.004087738497029293,-0.005127941038265754,-0.7069406561570346,0.707242464284314,0.0,0.0,0.0,0.0,0.0,0.0,0.0,0.0,0.0,0.05861553466968761,-0.016618731353600782,0.4863094257470909,0.0,0.0,0.0,0.0,0.0,0.0,0.0,0.0,0.0,1.3709901117029168,3.9463380638855052,10.230853291138747,0.0,0.0,0.0,0.0,0.0,0.0,0.0,0.0,0.0
160566000000,94,160565000000,base_link,-0.0040973886227451545,-0.005115069919814983,-0.7071127840220718,0.7070704053619726,0.0,0.0,0.0,0.0,0.0,0.0,0.0,0.0,0.0,-0.035020179118830555,0.004204482159261953,-0.48653898218548985,0.0,0.0,0.0,0.0,0.0,0.0,0.0,0.0,0.0,-0.8840211303918581,-5.841427453506189,9.734138476717076,0.0,0.0,0.0,0.0,0.0,0.0,0.0,0.0,0.0
160567000000,95,160566000000,base_link,-0.004072430005536694,-0.005134342548851166,-0.7069405061797566,0.7072426560684465,0.0,0.0,0.0,0.0,0.0,0.0,0.0,0.0,0.0,0.06572482849126787,0.00839327387506033,0.48681323045251323,0.0,0.0,0.0,0.0,0.0,0.0,0.0,0.0,0.0,1.3974786011332783,4.4975032071354395,9.60451496486232,0.0,0.0,0.0,0.0,0.0,0.0,0.0,0.0,0.0
160568000000,96,160567000000,base_link,-0.004072710647702392,-0.005111964053994551,-0.7071126991792526,0.7070706552466469,0.0,0.0,0.0,0.0,0.0,0.0,0.0,0.0,0.0,-0.03520661253904481,0.030893524175960727,-0.4865680276913942,0.0,0.0,0.0,0.0,0.0,0.0,0.0,0.0,0.0,-0.8663876301347202,-5.154826433376709,8.555198882701784,0.0,0.0,0.0,0.0,0.0,0.0,0.0,0.0,0.0
160569000000,97,160568000000,base_link,-0.004048326378399492,-0.005121431640317235,-0.7069405362074789,0.7072428580467746,0.0,0.0,0.0,0.0,0.0,0.0,0.0,0.0,0.0,0.05103495131816532,0.02145459779434309,0.4866699382306588,0.0,0.0,0.0,0.0,0.0,0.0,0.0,0.0,0.0,1.2642774990864016,5.22825734206391,9.389368316953558,0.0,0.0,0.0,0.0,0.0,0.0,0.0,0.0,0.0
160570000000,98,160569000000,base_link,-0.004054595653103763,-0.005093995094570994,-0.7071127066787437,0.7070708815398407,0.0,0.0,0.0,0.0,0.0,0.0,0.0,0.0,0.0,-0.05081576642435648,0.029577066775137023,-0.48640065547825595,0.0,0.0,0.0,0.0,0.0,0.0,0.0,0.0,0.0,-1.0064583149392545,-4.095527429183013,8.666151549890005,0.0,0.0,0.0,0.0,0.0,0.0,0.0,0.0,0.0
160571000000,99,160570000000,base_link,-0.004041949911673601,-0.005103104530927255,-0.7069404872808466,0.7072430758997766,0.0,0.0,0.0,0.0,0.0,0.0,0.0,0.0,0.0,0.03391659503053646,0.005359649076837374,0.486861592482314,0.0,0.0,0.0,0.0,0.0,0.0,0.0,0.0,0.0,1.1233091076909805,5.668281367924368,9.944174776565173,0.0,0.0,0.0,0.0,0.0,0.0,0.0,0.0,0.0
160572000000,100,160571000000,base_link,-0.0040654336205066385,-0.005081023026429458,-0.7071127217047591,0.7070708976176081,0.0,0.0,0.0,0.0,0.0,0.0,0.0,0.0,0.0,-0.06758773459869558,-0.0023341485932601123,-0.4866446352503734,0.0,0.0,0.0,0.0,0.0,0.0,0.0,0.0,0.0,-1.1678439856145317,-4.040938817787353,9.941103054209572,0.0,0.0,0.0,0.0,0.0,0.0,0.0,0.0,0.0
160573000000,101,160572000000,base_link,-0.004063426628677231,-0.00510155895671895,-0.7069403150551745,0.7072431361349044,0.0,0.0,0.0,0.0,0.0,0.0,0.0,0.0,0.0,0.03503306002673359,-0.02585389902417958,0.4872041869545889,0.0,0.0,0.0,0.0,0.0,0.0,0.0,0.0,0.0,1.1104034352172192,5.463216288692786,10.572251082656607,0.0,0.0,0.0,0.0,0.0,0.0,0.0,0.0,0.0
160574000000,102,160573000000,base_link,-0.004092223635776588,-0.005090590308121591,-0.7071125136630246,0.7070708823146293,0.0,0.0,0.0,0.0,0.0,0.0,0.0,0.0,0.0,-0.0593981770256711,-0.02555862166905578,-0.48673596166943744,0.0,0.0,0.0,0.0,0.0,0.0,0.0,0.0,0.0,-1.0934674173450905,-5.160345376897279,10.406205704770763,0.0,0.0,0.0,0.0,0.0,0.0,0.0,0.0,0.0
160575000000,103,160574000000,base_link,-0.004088691838270769,-0.005122354577398348,-0.7069403043195631,0.7072428509438596,0.0,0.0,0.0,0.0,0.0,0.0,0.0,0.0,0.0,0.053077051149955604,-0.039583019192175425,0.48643484801941694,0.0,0.0,0.0,0.0,0.0,0.0,0.0,0.0,0.0,1.1995157766972535,4.522171094336477,10.558744034521606,0.0,0.0,0.0,0.0,0.0,0.0,0.0,0.0,0.0
160576000000,104,160575000000,base_link,-0.004111211869640716,-0.0051195378608853825,-0.7071125477946509,0.7070705290283363,0.0,0.0,0.0,0.0,0.0,0.0,0.0,0.0,0.0,-0.039010491129696415,-0.028213318194687295,-0.4870248175948869,0.0,0.0,0.0,0.0,0.0,0.0,0.0,0.0,0.0,-0.9278155528788835,-6.052161739107655,10.499379864400574,0.0,0.0,0.0,0.0,0.0,0.0,0.0,0.0,0.0
160577000000,105,160576000000,base_link,-0.004095601519674641,-0.005150597489881073,-0.7069403671542193,0.7072425430370733,0.0,0.0,0.0,0.0,0.0,0.0,0.0,0.0,0.0,0.06917788837786107,-0.02150062631230953,0.4863390346974523,0.0,0.0,0.0,0.0,0.0,0.0,0.0,0.0,0.0,1.5609218846116257,4.153834621176977,11.131317729806494,0.0,0.0,0.0,0.0,0.0,0.0,0.0,0.0,0.0
160578000000,106,160577000000,base_link,-0.004100490869788955,-0.005137294833472525,-0.7071123850134461,0.7070706252822392,0.0,0.0,0.0,0.0,0.0,0.0,0.0,0.0,0.0,-0.028904486029969888,0.011541526405907509,-0.4862285813799818,0.0,0.0,0.0,0.0,0.0,0.0,0.0,0.0,0.0,-0.445942152239469,-5.78805085614854,11.185429161477314,0.0,0.0,0.0,0.0,0.0,0.0,0.0,0.0,0.0
160579000000,107,160578000000,base_link,-0.004073849617211827,-0.005152410733299599,-0.7069402401293122,0.7072427824296564,0.0,0.0,0.0,0.0,0.0,0.0,0.0,0.0,0.0,0.06223235173627477,0.016657789312336548,0.48650840543156026,0.0,0.0,0.0,0.0,0.0,0.0,0.0,0.0,0.0,2.004651975833837,4.894548814659107,13.086635260762336,0.0,0.0,0.0,0.0,0.0,0.0,0.0,0.0,0.0
160580000000,108,160579000000,base_link,-0.0040732145205562365,-0.005122099531090182,-0.7071120112558471,0.7070712669579877,0.0,0.0,0.0,0.0,0.0,0.0,0.0,0.0,0.0,-0.04512561070491332,0.0434048132037429,-0.4852297489152242,0.0,0.0,0.0,0.0,0.0,0.0,0.0,0.0,0.0,0.06489890303992238,-4.504771212232613,13.032037316281768,0.0,0.0,0.0,0.0,0.0,0.0,0.0,0.0,0.0
160581000000,109,160580000000,base_link,-0.004052539450462036,-0.005120164871847887,-0.7069395798682107,0.7072437990194368,0.0,0.0,0.0,0.0,0.0,0.0,0.0,0.0,0.0,0.029673396980682696,0.03233781840476616,0.48764552103655784,0.0,0.0,0.0,0.0,0.0,0.0,0.0,0.0,0.0,2.505316916899527,6.1572407541142,14.138940569629867,0.0,0.0,0.0,0.0,0.0,0.0,0.0,0.0,0.0
160582000000,110,160581000000,base_link,-0.00406850603705024,-0.00508393144748813,-0.7071110449886957,0.7070725358509258,0.0,0.0,0.0,0.0,0.0,0.0,0.0,0.0,0.0,-0.07695818548734562,0.028312853227571884,-0.48422354793484484,0.0,0.0,0.0,0.0,0.0,0.0,0.0,0.0,0.0,0.367425331653444,-3.3268585646554336,13.83365776555586,0.0,0.0,0.0,0.0,0.0,0.0,0.0,0.0,0.0
160583000000,111,160582000000,base_link,-0.0040656605282763745,-0.005090849311474038,-0.7069386141806712,0.7072449006094488,0.0,0.0,0.0,0.0,0.0,0.0,0.0,0.0,0.0,0.016963145714129352,-0.005409172392324809,0.4875190174317009,0.0,0.0,0.0,0.0,0.0,0.0,0.0,0.0,0.0,2.7470041230320117,6.409331073258856,13.815546584090093,0.0,0.0,0.0,0.0,0.0,0.0,0.0,0.0,0.0
160584000000,112,160583000000,base_link,-0.004101526159215221,-0.005069759621013528,-0.7071104810858315,0.7070730107698314,0.0,0.0,0.0,0.0,0.0,0.0,0.0,0.0,0.0,-0.08369739332152121,-0.021231073002057416,-0.48559846921477245,0.0,0.0,0.0,0.0,0.0,0.0,0.0,0.0,0.0,0.6283703032058114,-4.840589182379719,12.858118050234909,0.0,0.0,0.0,0.0,0.0,0.0,0.0,0.0,0.0
160585000000,113,160584000000,base_link,-0.004109775755080274,-0.005098196047092858,-0.7069384868007761,0.7072447200369453,0.0,0.0,0.0,0.0,0.0,0.0,0.0,0.0,0.0,0.031701737093437016,-0.05154984045455854,0.4859102748987618,0.0,0.0,0.0,0.0,0.0,0.0,0.0,0.0,0.0,2.874801637175083,5.589438132157447,11.558398223267087,0.0,0.0,0.0,0.0,0.0,0.0,0.0,0.0,0.0
160586000000,114,160585000000,base_link,-0.004153049966728126,-0.005092434371378814,-0.7071105209902108,0.7070725071681826,0.0,0.0,0.0,0.0,0.0,0.0,0.0,0.0,0.0,-0.07252685883727658,-0.053376489629237536,-0.4863397696406088,0.0,0.0,0.0,0.0,0.0,0.0,0.0,0.0,0.0,0.6962841838618488,-6.573578853653714,10.125178339470985,0.0,0.0,0.0,0.0,0.0,0.0,0.0,0.0,0.0
160587000000,115,160586000000,base_link,-0.00415893972963219,-0.0051312200601768216,-0.7069391203625944,0.7072435605235162,0.0,0.0,0.0,0.0,0.0,0.0,0.0,0.0,0.0,0.049689039032550696,-0.06285953173339572,0.4840304406305894,0.0,0.0,0.0,0.0,0.0,0.0,0.0,0.0,0.0,2.991846602228999,5.420072728170913,9.041589761849302,0.0,0.0,0.0,0.0,0.0,0.0,0.0,0.0,0.0
160588000000,116,160587000000,base_link,-0.00419211061301653,-0.005128113692337729,-0.7071112497884057,0.7070712899568513,0.0,0.0,0.0,0.0,0.0,0.0,0.0,0.0,0.0,-0.05451120861618307,-0.04284183879488675,-0.48667822379183245,0.0,0.0,0.0,0.0,0.0,0.0,0.0,0.0,0.0,0.7833353075541157,-7.0819875055839505,7.866209946246025,0.0,0.0,0.0,0.0,0.0,0.0,0.0,0.0,0.0
160589000000,117,160588000000,base_link,-0.004182679686438312,-0.005162287876685743,-0.7069402454874791,0.7072420697926712,0.0,0.0,0.0,0.0,0.0,0.0,0.0,0.0,0.0,0.06485229210517243,-0.034671922756610254,0.4829619143380369,0.0,0.0,0.0,0.0,0.0,0.0,0.0,0.0,0.0,3.089685926340404,5.314987600488382,7.285155840921103,0.0,0.0,0.0,0.0,0.0,0.0,0.0,0.0,0.0
160590000000,118,160589000000,base_link,-0.0041982271379183995,-0.005150874476962604,-0.7071120978286796,0.7070702401355505,0.0,0.0,0.0,0.0,0.0,0.0,0.0,0.0,0.0,-0.04134052731010109,-0.006174627346834879,-0.48577302735670014,0.0,0.0,0.0,0.0,0.0,0.0,0.0,0.0,0.0,0.838449898202765,-6.870532183949962,6.856085033361646,0.0,0.0,0.0,0.0,0.0,0.0,0.0,0.0,0.0
160591000000,119,160590000000,base_link,-0.004173701819357665,-0.00517386984853866,-0.7069403216490843,0.7072419620685717,0.0,0.0,0.0,0.0,0.0,0.0,0.0,0.0,0.0,0.07041430919334858,0.0024923385913623933,0.48532324304493524,0.0,0.0,0.0,0.0,0.0,0.0,0.0,0.0,0.0,2.6987074920830434,5.525021497092059,6.988282095163416,0.0,0.0,0.0,0.0,0.0,0.0,0.0,0.0,0.0
160592000000,120,160591000000,base_link,-0.004176382774387487,-0.005154285041267315,-0.7071121438233743,0.7070702986479822,0.0,0.0,0.0,0.0,0.0,0.0,0.0,0.0,0.0,-0.034693663720186285,0.02356978597134511,-0.48556008117783844,0.0,0.0,0.0,0.0,0.0,0.0,0.0,0.0,0.0,0.48497827046982667,-6.2261678762455315,7.2113852820182025,0.0,0.0,0.0,0.0,0.0,0.0,0.0,0.0,0.0
160593000000,121,160592000000,base_link,-0.004143732711769043,-0.0051734929529943605,-0.7069400561452985,0.707242406440084,0.0,0.0,0.0,0.0,0.0,0.0,0.0,0.0,0.0,0.07654763058076887,0.019348601580470262,0.48625819165343,0.0,0.0,0.0,0.0,0.0,0.0,0.0,0.0,0.0,2.811655225784457,5.617858481511276,7.1255493040888584,0.0,0.0,0.0,0.0,0.0,0.0,0.0,0.0,0.0
160594000000,122,160593000000,base_link,-0.004140945810096947,-0.005155016695831171,-0.7071121035263225,0.7070705420375274,0.0,0.0,0.0,0.0,0.0,0.0,0.0,0.0,0.0,-0.025385675337827915,0.029722289059780808,-0.4862297974914974,0.0,0.0,0.0,0.0,0.0,0.0,0.0,0.0,0.0,0.621909907698926,-6.30655302660846,7.213930929165345,0.0,0.0,0.0,0.0,0.0,0.0,0.0,0.0,0.0
160595000000,123,160594000000,base_link,-0.004108463791385444,-0.005174419872532806,-0.706939931126532,0.7072427303854539,0.0,0.0,0.0,0.0,0.0,0.0,0.0,0.0,0.0,0.07657575009053667,0.018847382854360422,0.4864934229644068,0.0,0.0,0.0,0.0,0.0,0.0,0.0,0.0,0.0,3.0219233616407877,5.580144251418188,7.609462845104114,0.0,0.0,0.0,0.0,0.0,0.0,0.0,0.0,0.0
160596000000,124,160595000000,base_link,-0.004108617779108196,-0.005156868741467855,-0.7071121697860998,0.707070650858259,0.0,0.0,0.0,0.0,0.0,0.0,0.0,0.0,0.0,-0.028229440307710914,0.02424254943575333,-0.48678306248341613,0.0,0.0,0.0,0.0,0.0,0.0,0.0,0.0,0.0,0.6669338675414965,-5.7267095272841235,7.85819751840288,0.0,0.0,0.0,0.0,0.0,0.0,0.0,0.0,0.0
160597000000,125,160596000000,base_link,-0.004079891896299514,-0.005177679910026386,-0.7069396693067187,0.7072431336346583,0.0,0.0,0.0,0.0,0.0,0.0,0.0,0.0,0.0,0.07325057690739993,0.011556375002374789,0.4874021263196404,0.0,0.0,0.0,0.0,0.0,0.0,0.0,0.0,0.0,3.1497292654116453,5.99509318134175,8.12343035340991,0.0,0.0,0.0,0.0,0.0,0.0,0.0,0.0,0.0
160598000000,126,160597000000,base_link,-0.0040912257082319796,-0.005157938462840061,-0.7071115216172507,0.7070713921091378,0.0,0.0,0.0,0.0,0.0,0.0,0.0,0.0,0.0,-0.047124513256331414,0.011523196170508985,-0.48562609057828976,0.0,0.0,0.0,0.0,0.0,0.0,0.0,0.0,0.0,0.9682294607002673,-5.557016429139665,9.110459738907668,0.0,0.0,0.0,0.0,0.0,0.0,0.0,0.0,0.0
160599000000,127,160598000000,base_link,-0.0040709187872014566,-0.005180706453520081,-0.7069389815775533,0.7072438506109205,0.0,0.0,0.0,0.0,0.0,0.0,0.0,0.0,0.0,0.06410693997670022,-0.0031114139798612966,0.4874952724066892,0.0,0.0,0.0,0.0,0.0,0.0,0.0,0.0,0.0,3.471915557240507,7.139819120357903,9.484279105012229,0.0,0.0,0.0,0.0,0.0,0.0,0.0,0.0,0.0
160600000000,128,160599000000,base_link,-0.004087673285894167,-0.005160568703024014,-0.7071108515286644,0.7070720635891199,0.0,0.0,0.0,0.0,0.0,0.0,0.0,0.0,0.0,-0.05535083320677486,0.004415165014419367,-0.4856562724692274,0.0,0.0,0.0,0.0,0.0,0.0,0.0,0.0,0.0,1.3600543645695975,-6.105857081480826,9.7870186467275,0.0,0.0,0.0,0.0,0.0,0.0,0.0,0.0,0.0
160601000000,129,160600000000,base_link,-0.0040741296058016295,-0.005185526222169933,-0.7069385830018184,0.7072441952035631,0.0,0.0,0.0,0.0,0.0,0.0,0.0,0.0,0.0,0.05763342536645144,-0.015771524142821736,0.48670098254128025,0.0,0.0,0.0,0.0,0.0,0.0,0.0,0.0,0.0,3.682895641249115,7.036036472546758,10.508321214090367,0.0,0.0,0.0,0.0,0.0,0.0,0.0,0.0,0.0
160602000000,130,160601000000,base_link,-0.0041001172064033704,-0.005166200715914009,-0.7071102181923917,0.7070725837825739,0.0,0.0,0.0,0.0,0.0,0.0,0.0,0.0,0.0,-0.0672614252834605,-0.00978883417024239,-0.4849864805495856,0.0,0.0,0.0,0.0,0.0,0.0,0.0,0.0,0.0,1.7742112167067976,-6.307035707574532,11.039934092890277,0.0,0.0,0.0,0.0,0.0,0.0,0.0,0.0,0.0
160603000000,131,160602000000,base_link,-0.004094176608389297,-0.005195217787749313,-0.7069379960540172,0.7072445950059764,0.0,0.0,0.0,0.0,0.0,0.0,0.0,0.0,0.0,0.052627406172377225,-0.032268010661775155,0.48650957934486583,0.0,0.0,0.0,0.0,0.0,0.0,0.0,0.0,0.0,4.089155950909692,7.457568057067153,11.615395000828533,0.0,0.0,0.0,0.0,0.0,0.0,0.0,0.0,0.0
160604000000,132,160603000000,base_link,-0.004129795791792013,-0.0051770540894091705,-0.7071095605037109,0.7070729894020291,0.0,0.0,0.0,0.0,0.0,0.0,0.0,0.0,0.0,-0.0792519659485409,-0.025046980734935623,-0.484786288066521,0.0,0.0,0.0,0.0,0.0,0.0,0.0,0.0,0.0,2.1916091904117145,-6.773810499070984,11.858803912825072,0.0,0.0,0.0,0.0,0.0,0.0,0.0,0.0,0.0
160605000000,133,160604000000,base_link,-0.004128942141677339,-0.005209849947593565,-0.7069374463152003,0.7072448347620913,0.0,0.0,0.0,0.0,0.0,0.0,0.0,0.0,0.0,0.05078917855731407,-0.04481317146235089,0.4861418770942187,0.0,0.0,0.0,0.0,0.0,0.0,0.0,0.0,0.0,4.508596572469764,7.892106391585964,12.338940908294981,0.0,0.0,0.0,0.0,0.0,0.0,0.0,0.0,0.0
160606000000,134,160605000000,base_link,-0.004169697972073376,-0.00519691583420507,-0.7071097321714441,0.7070724378400437,0.0,0.0,0.0,0.0,0.0,0.0,0.0,0.0,0.0,-0.07915472242120257,-0.039702084294355997,-0.48691278648575204,0.0,0.0,0.0,0.0,0.0,0.0,0.0,0.0,0.0,2.4127614693524664,-7.527993734041707,12.091850386314736,0.0,0.0,0.0,0.0,0.0,0.0,0.0,0.0,0.0
160607000000,135,160606000000,base_link,-0.004173546043069488,-0.005233213137417782,-0.7069375688134952,0.7072442780212147,0.0,0.0,0.0,0.0,0.0,0.0,0.0,0.0,0.0,0.049113104583763736,-0.05642132444097537,0.48622097271907583,0.0,0.0,0.0,0.0,0.0,0.0,0.0,0.0,0.0,4.794347850258276,7.70602629133488,12.263351052720228,0.0,0.0,0.0,0.0,0.0,0.0,0.0,0.0,0.0
160608000000,136,160607000000,base_link,-0.004170260945194429,-0.0052100987811542,-0.7070098287331479,0.7071722321111488,0.0,0.0,0.0,0.0,0.0,0.0,0.0,0.0,0.0,0.04990388681228756,0.08489367639195934,0.2826417621792111,0.0,0.0,0.0,0.0,0.0,0.0,0.0,0.0,0.0,-12.91116535009941,7.658722893265913,11.878713215192098,0.0,0.0,0.0,0.0,0.0,0.0,0.0,0.0,0.0
160609000000,137,160608000000,base_link,-0.004170260945194429,-0.0052100987811542,-0.7070098287331479,0.7071722321111488,0.0,0.0,0.0,0.0,0.0,0.0,0.0,0.0,0.0,0.04990388681228756,0.08489367639195934,0.2826417621792111,0.0,0.0,0.0,0.0,0.0,0.0,0.0,0.0,0.0,-12.91116535009941,7.658722893265913,11.878713215192098,0.0,0.0,0.0,0.0,0.0,0.0,0.0,0.0,0.0
160610000000,138,160609000000,base_link,-0.004069040271353003,-0.005060768189616431,-0.7070318076629915,0.7071519316875292,0.0,0.0,0.0,0.0,0.0,0.0,0.0,0.0,0.0,-0.06839383424532419,0.3543047052790704,-0.059600221154570726,0.0,0.0,0.0,0.0,0.0,0.0,0.0,0.0,0.0,-32.03826040509442,-7.421887264081001,11.86388996206554,0.0,0.0,0.0,0.0,0.0,0.0,0.0,0.0,0.0
160611000000,139,160610000000,base_link,-0.004053644440740288,-0.005060285189684248,-0.7070230638281373,0.7071607658062069,0.0,0.0,0.0,0.0,0.0,0.0,0.0,0.0,0.0,0.02125178390118227,0.022472049392938263,0.024706546448215697,0.0,0.0,0.0,0.0,0.0,0.0,0.0,0.0,0.0,38.77696928099748,6.184658165161469,9.151111694219455,0.0,0.0,0.0,0.0,0.0,0.0,0.0,0.0,0.0
160612000000,140,160611000000,base_link,-0.003982792366880158,-0.004952391771918725,-0.7070292100232788,0.7071557871887624,0.0,0.0,0.0,0.0,0.0,0.0,0.0,0.0,0.0,-0.05246122250018023,0.2527835291883803,-0.015575031268667827,0.0,0.0,0.0,0.0,0.0,0.0,0.0,0.0,0.0,-32.849464570005196,-4.172000671339748,9.962438761450843,0.0,0.0,0.0,0.0,0.0,0.0,0.0,0.0,0.0
160613000000,141,160612000000,base_link,-0.0038958674351091548,-0.0048815664588479305,-0.7069121498636498,0.7072737835527263,0.0,0.0,0.0,0.0,0.0,0.0,0.0,0.0,0.0,0.024887172883890224,0.22332227202984226,0.33211648973379837,0.0,0.0,0.0,0.0,0.0,0.0,0.0,0.0,0.0,-3.1288367736936866,3.410404353298124,8.072530396868464,0.0,0.0,0.0,0.0,0.0,0.0,0.0,0.0,0.0
160614000000,142,160613000000,base_link,-0.0038543274219414885,-0.0048098176543368,-0.70707631096817,0.7071103876212683,0.0,0.0,0.0,0.0,0.0,0.0,0.0,0.0,0.0,-0.04555574456903878,0.1599062253355786,-0.4630733564050455,0.0,0.0,0.0,0.0,0.0,0.0,0.0,0.0,0.0,0.6603195318195709,-4.150605033293026,6.700736382248904,0.0,0.0,0.0,0.0,0.0,0.0,0.0,0.0,0.0
160615000000,143,160614000000,base_link,-0.003818280168075158,-0.004793158193778116,-0.7069059786998265,0.7072809792787644,0.0,0.0,0.0,0.0,0.0,0.0,0.0,0.0,0.0,0.030373322895261085,0.07486447289586783,0.481911747292438,0.0,0.0,0.0,0.0,0.0,0.0,0.0,0.0,0.0,1.9459304557891242,3.869752475672579,7.4698757133292215,0.0,0.0,0.0,0.0,0.0,0.0,0.0,0.0,0.0
160616000000,144,160615000000,base_link,-0.003822999594322458,-0.004771378645198841,-0.7070786718485694,0.707108457336489,0.0,0.0,0.0,0.0,0.0,0.0,0.0,0.0,0.0,-0.04044107364201978,0.023801072076889727,-0.48798719552791864,0.0,0.0,0.0,0.0,0.0,0.0,0.0,0.0,0.0,-0.23874795618879802,-4.460049157085898,6.5412348825995705,0.0,0.0,0.0,0.0,0.0,0.0,0.0,0.0,0.0
160617000000,145,160616000000,base_link,-0.0038293764511933065,-0.004804928549935265,-0.7069070034885471,0.7072798151767575,0.0,0.0,0.0,0.0,0.0,0.0,0.0,0.0,0.0,0.04137497795718998,-0.056142073283746055,0.4849075914737666,0.0,0.0,0.0,0.0,0.0,0.0,0.0,0.0,0.0,2.3364013077186407,4.0193576746477016,8.230420381540243,0.0,0.0,0.0,0.0,0.0,0.0,0.0,0.0,0.0
160618000000,146,160617000000,base_link,-0.0038748652351192777,-0.004826443543579661,-0.7070795529593459,0.7071069202383342,0.0,0.0,0.0,0.0,0.0,0.0,0.0,0.0,0.0,-0.036910734517463725,-0.09508690617993362,-0.4882504538001794,0.0,0.0,0.0,0.0,0.0,0.0,0.0,0.0,0.0,0.43425758517700397,-5.062357869623142,7.693975087872209,0.0,0.0,0.0,0.0,0.0,0.0,0.0,0.0,0.0
160619000000,147,160618000000,base_link,-0.003914981743072519,-0.004899041145035366,-0.7069077215872439,0.7072779831679638,0.0,0.0,0.0,0.0,0.0,0.0,0.0,0.0,0.0,0.04891560042448782,-0.1590800586826703,0.4847411484691616,0.0,0.0,0.0,0.0,0.0,0.0,0.0,0.0,0.0,3.0531857228438444,4.712526743459209,9.068819403568131,0.0,0.0,0.0,0.0,0.0,0.0,0.0,0.0,0.0
160620000000,148,160619000000,base_link,-0.003991706222375195,-0.004949531679469639,-0.7070792785862974,0.7071056938050136,0.0,0.0,0.0,0.0,0.0,0.0,0.0,0.0,0.0,-0.04017672301642043,-0.18024076684039617,-0.48590594130230524,0.0,0.0,0.0,0.0,0.0,0.0,0.0,0.0,0.0,0.829207474346224,-5.379508500736093,7.572673805360135,0.0,0.0,0.0,0.0,0.0,0.0,0.0,0.0,0.0
160621000000,149,160620000000,base_link,-0.004044302633617077,-0.005047802942293895,-0.7069076226297808,0.707276308361573,0.0,0.0,0.0,0.0,0.0,0.0,0.0,0.0,0.0,0.06765002548651067,-0.21303748755198443,0.48376997595165316,0.0,0.0,0.0,0.0,0.0,0.0,0.0,0.0,0.0,3.333923975124721,5.322095190956616,8.50487683227429,0.0,0.0,0.0,0.0,0.0,0.0,0.0,0.0,0.0
160622000000,150,160621000000,base_link,-0.004124936748855192,-0.005101902408629154,-0.7070787234007122,0.7071044013458336,0.0,0.0,0.0,0.0,0.0,0.0,0.0,0.0,0.0,-0.04069240377364436,-0.19087982847660395,-0.48469935838541406,0.0,0.0,0.0,0.0,0.0,0.0,0.0,0.0,0.0,1.0931266623496152,-6.55129502386511,7.851374425429281,0.0,0.0,0.0,0.0,0.0,0.0,0.0,0.0,0.0
160623000000,151,160622000000,base_link,-0.004161912696910485,-0.00518735601853294,-0.7069072734009209,0.7072749653657452,0.0,0.0,0.0,0.0,0.0,0.0,0.0,0.0,0.0,0.07170972390305366,-0.1728131042868672,0.48334280795573653,0.0,0.0,0.0,0.0,0.0,0.0,0.0,0.0,0.0,3.7724886489647034,6.207003352860152,8.967505918322592,0.0,0.0,0.0,0.0,0.0,0.0,0.0,0.0,0.0
160624000000,152,160623000000,base_link,-0.0042169422195560665,-0.005212181762131,-0.7070780728728843,0.7071037048566239,0.0,0.0,0.0,0.0,0.0,0.0,0.0,0.0,0.0,-0.04594054935240703,-0.11327387051017915,-0.4833707250472107,0.0,0.0,0.0,0.0,0.0,0.0,0.0,0.0,0.0,1.7191012333792075,-6.490340863922253,9.022010528829112,0.0,0.0,0.0,0.0,0.0,0.0,0.0,0.0,0.0
160625000000,153,160624000000,base_link,-0.004224514563438338,-0.005259744625019395,-0.7069066181905482,0.7072747144650268,0.0,0.0,0.0,0.0,0.0,0.0,0.0,0.0,0.0,0.05978203306971021,-0.07763559478234562,0.4839845828224503,0.0,0.0,0.0,0.0,0.0,0.0,0.0,0.0,0.0,4.325490337353756,6.950997218972265,9.727038105677401,0.0,0.0,0.0,0.0,0.0,0.0,0.0,0.0,0.0
160626000000,154,160625000000,base_link,-0.00424905682219247,-0.005249799619143517,-0.7070781041474372,0.7071032030441854,0.0,0.0,0.0,0.0,0.0,0.0,0.0,0.0,0.0,-0.05202967026735157,-0.020985791222634727,-0.4847182961179163,0.0,0.0,0.0,0.0,0.0,0.0,0.0,0.0,0.0,1.719755053832553,-5.8997707852258285,9.697208823035373,0.0,0.0,0.0,0.0,0.0,0.0,0.0,0.0,0.0
160627000000,155,160626000000,base_link,-0.00423062822364,-0.005267221743022677,-0.7069068278181403,0.7072744127593176,0.0,0.0,0.0,0.0,0.0,0.0,0.0,0.0,0.0,0.053952740805837944,0.0017645455915183857,0.4839958299380891,0.0,0.0,0.0,0.0,0.0,0.0,0.0,0.0,0.0,4.328725097813232,6.645597466459411,10.842371184916146,0.0,0.0,0.0,0.0,0.0,0.0,0.0,0.0,0.0
160628000000,156,160627000000,base_link,-0.004232394898614581,-0.005232670337006243,-0.7070789750073201,0.7071025591080574,0.0,0.0,0.0,0.0,0.0,0.0,0.0,0.0,0.0,-0.05461587195669477,0.04602310192278684,-0.48616869862245393,0.0,0.0,0.0,0.0,0.0,0.0,0.0,0.0,0.0,2.062417553577004,-6.057911747795979,10.670768449206646,0.0,0.0,0.0,0.0,0.0,0.0,0.0,0.0,0.0
160629000000,157,160628000000,base_link,-0.0041971329420184625,-0.005229802025389469,-0.7069077138268651,0.7072740044550747,0.0,0.0,0.0,0.0,0.0,0.0,0.0,0.0,0.0,0.0490549507135209,0.0542669029204325,0.48430450421810106,0.0,0.0,0.0,0.0,0.0,0.0,0.0,0.0,0.0,4.579083454593704,6.460990153735282,11.986559796672806,0.0,0.0,0.0,0.0,0.0,0.0,0.0,0.0,0.0
160630000000,158,160629000000,base_link,-0.0041874969360639405,-0.00518014404529264,-0.7070798737823937,0.7071023144276609,0.0,0.0,0.0,0.0,0.0,0.0,0.0,0.0,0.0,-0.05981856388284215,0.08351648006246164,-0.4859504933430423,0.0,0.0,0.0,0.0,0.0,0.0,0.0,0.0,0.0,2.316173281665331,-5.974207251702847,11.711795591671523,0.0,0.0,0.0,0.0,0.0,0.0,0.0,0.0,0.0
160631000000,159,160630000000,base_link,-0.004145791970740636,-0.005171159488241443,-0.7069086784859404,0.7072737742909346,0.0,0.0,0.0,0.0,0.0,0.0,0.0,0.0,0.0,0.049483365467731064,0.07202610160431358,0.48422000245591756,0.0,0.0,0.0,0.0,0.0,0.0,0.0,0.0,0.0,4.839028386303634,6.502822062677506,13.211071101419332,0.0,0.0,0.0,0.0,0.0,0.0,0.0,0.0,0.0
160632000000,160,160631000000,base_link,-0.004137314508121727,-0.005120284954860317,-0.707080836378285,0.7071020832505213,0.0,0.0,0.0,0.0,0.0,0.0,0.0,0.0,0.0,-0.0631396288171098,0.08360181096571871,-0.48593115872603543,0.0,0.0,0.0,0.0,0.0,0.0,0.0,0.0,0.0,2.5464993790216086,-6.396660899096068,12.469296120587808,0.0,0.0,0.0,0.0,0.0,0.0,0.0,0.0,0.0
160633000000,161,160632000000,base_link,-0.004101730837306326,-0.005119585638138635,-0.7069096016553394,0.7072734836924975,0.0,0.0,0.0,0.0,0.0,0.0,0.0,0.0,0.0,0.05250544641776563,0.05164837601475019,0.4841901984109669,0.0,0.0,0.0,0.0,0.0,0.0,0.0,0.0,0.0,5.044771733423775,6.696698305463338,13.760166596596413,0.0,0.0,0.0,0.0,0.0,0.0,0.0,0.0,0.0
160634000000,162,160633000000,base_link,-0.004105560785703176,-0.0050813516033739806,-0.7070817573536379,0.7071016282361461,0.0,0.0,0.0,0.0,0.0,0.0,0.0,0.0,0.0,-0.06264619769083385,0.048321600022104734,-0.48614201313489575,0.0,0.0,0.0,0.0,0.0,0.0,0.0,0.0,0.0,2.6730612686769684,-6.877097421039906,12.304622451214598,0.0,0.0,0.0,0.0,0.0,0.0,0.0,0.0,0.0
160635000000,163,160634000000,base_link,-0.00408379989290875,-0.005100129158215395,-0.7069105359066532,0.7072727942492718,0.0,0.0,0.0,0.0,0.0,0.0,0.0,0.0,0.0,0.06047439789409002,0.004551770840954313,0.48382333872280797,0.0,0.0,0.0,0.0,0.0,0.0,0.0,0.0,0.0,5.140319579268651,6.791474317073942,13.186401217005953,0.0,0.0,0.0,0.0,0.0,0.0,0.0,0.0,0.0
160636000000,164,160635000000,base_link,-0.004008171841081943,-0.00498715070830019,-0.7069440864070845,0.7072404976953439,0.0,0.0,0.0,0.0,0.0,0.0,0.0,0.0,0.0,-0.053357995721546064,0.26668229783704667,-0.09296892472854604,0.0,0.0,0.0,0.0,0.0,0.0,0.0,0.0,0.0,-32.03408675099009,-7.534694080454593,11.867604708827278,0.0,0.0,0.0,0.0,0.0,0.0,0.0,0.0,0.0
160637000000,165,160636000000,base_link,-0.0038188893891514747,-0.00483676446610194,-0.7069448819297761,0.7072417943720718,0.0,0.0,0.0,0.0,0.0,0.0,0.0,0.0,0.0,0.055109563252183,0.48036202632889274,2.5691735665211686e-05,0.0,0.0,0.0,0.0,0.0,0.0,0.0,0.0,0.0,-32.500314348030436,6.117918648441196,11.301808021196395,0.0,0.0,0.0,0.0,0.0,0.0,0.0,0.0,0.0
160638000000,166,160637000000,base_link,-0.0037940123652831694,-0.004790218559950813,-0.7069407028212659,0.7072464223811209,0.0,0.0,0.0,0.0,0.0,0.0,0.0,0.0,0.0,-0.030546863864883304,0.10102463999248439,0.012569633766676844,0.0,0.0,0.0,0.0,0.0,0.0,0.0,0.0,0.0,37.698537993567854,-5.382237918347579,7.150971693073116,0.0,0.0,0.0,0.0,0.0,0.0,0.0,0.0,0.0
160639000000,167,160638000000,base_link,-0.0036802593822283097,-0.0046966010709437005,-0.7069464828123597,0.7072418738087374,0.0,0.0,0.0,0.0,0.0,0.0,0.0,0.0,0.0,0.028448864439892835,0.29325478051679066,-0.014986329602856851,0.0,0.0,0.0,0.0,0.0,0.0,0.0,0.0,0.0,-35.044668836082145,4.052925992130468,7.778206646006536,0.0,0.0,0.0,0.0,0.0,0.0,0.0,0.0,0.0
