%time,field.name0,field.name1,field.pose0.position.x,field.pose0.position.y,field.pose0.position.z,field.pose0.orientation.x,field.pose0.orientation.y,field.pose0.orientation.z,field.pose0.orientation.w,field.pose1.position.x,field.pose1.position.y,field.pose1.position.z,field.pose1.orientation.x,field.pose1.orientation.y,field.pose1.orientation.z,field.pose1.orientation.w,field.twist0.linear.x,field.twist0.linear.y,field.twist0.linear.z,field.twist0.angular.x,field.twist0.angular.y,field.twist0.angular.z,field.twist1.linear.x,field.twist1.linear.y,field.twist1.linear.z,field.twist1.angular.x,field.twist1.angular.y,field.twist1.angular.z
160471000000,hina_ssi_visual_root,khm2,0.0,0.0,0.0,0.0,0.0,0.0,1.0,-0.00015980800043203765,-0.0041341665139405645,0.17425183542470857,-0.0040630825483033645,-0.005103908821252376,-0.7071130471662995,0.7070704208225238,0.0,0.0,0.0,0.0,0.0,0.0,-0.00369080160581948,-0.0050282979223109404,-0.0007312137942585232,0.03090849889808219,0.042126661138135735,-0.4870272285037534
160472000000,hina_ssi_visual_root,khm2,0.0,0.0,0.0,0.0,0.0,0.0,1.0,-0.0001575256318569064,-0.004140236213061288,0.17425125377070164,-0.004046218455617197,-0.005112825575038097,-0.7069408502173359,0.7072426185014864,0.0,0.0,0.0,0.0,0.0,0.0,0.0022823685751312594,-0.006069699120723183,-0.0005816540069437312,0.01087944838375522,-0.033302123289110606,0.4872818084423261
160473000000,hina_ssi_visual_root,khm2,0.0,0.0,0.0,0.0,0.0,0.0,1.0,-0.0001592608548444415,-0.004145056901191759,0.17425058348280267,-0.004065956749354415,-0.005087078383159481,-0.707113042704836,0.7070705300505352,0.0,0.0,0.0,0.0,0.0,0.0,-0.001735222987535129,-0.004820688130471179,-0.0006702878989740535,0.008852123982164265,0.061173463656282165,-0.4872866522755516
160474000000,hina_ssi_visual_root,khm2,0.0,0.0,0.0,0.0,0.0,0.0,1.0,-0.00015512915384807783,-0.004150864525993342,0.1742504868223309,-0.004060574293666074,-0.005103027432171291,-0.7069408162970146,0.7072426408954304,0.0,0.0,0.0,0.0,0.0,0.0,0.0041317009963636785,-0.005807624801583794,-9.66604717775963e-05,-0.015296677982111706,-0.02701460215203034,0.48714055411056234
160475000000,hina_ssi_visual_root,khm2,0.0,0.0,0.0,0.0,0.0,0.0,1.0,-0.00015597507682044495,-0.004155418501612128,0.1742507886804398,-0.004089140981817386,-0.005086276828684952,-0.707113131252743,0.7070703135643539,0.0,0.0,0.0,0.0,0.0,0.0,-0.0008459229723671129,-0.0045539756187857675,0.0003018581088898107,-0.01636462979947326,0.06092522206139445,-0.48781501899266705
160476000000,hina_ssi_visual_root,khm2,0.0,0.0,0.0,0.0,0.0,0.0,1.0,-0.00015191255014412677,-0.004161085605013656,0.17425160066809964,-0.004083276850400637,-0.005111506070509533,-0.7069409325511492,0.7072423327541739,0.0,0.0,0.0,0.0,0.0,0.0,0.004062526676318198,-0.005667103401527392,0.0008119876598448681,-0.0277320298171331,-0.040812741760822634,0.48705323539645373
160477000000,hina_ssi_visual_root,khm2,0.0,0.0,0.0,0.0,0.0,0.0,1.0,-0.0001539265301248765,-0.0041656535966309895,0.17425247604850827,-0.004104246349792403,-0.0051004026848715574,-0.7071131106879873,0.7070701448565839,0.0,0.0,0.0,0.0,0.0,0.0,-0.0020139799807497374,-0.004567991617333785,0.0008753804086189757,-0.013608162674523184,0.042187583924853285,-0.48730174251200326
160478000000,hina_ssi_visual_root,khm2,0.0,0.0,0.0,0.0,0.0,0.0,1.0,-0.00015151944431527508,-0.004171467099582559,0.17425338369932034,-0.0040861004740869716,-0.005126738779849265,-0.7069409653028375,0.7072421734519876,0.0,0.0,0.0,0.0,0.0,0.0,0.0024070858096014386,-0.005813502951569528,0.0009076508120554345,-0.011928308618008827,-0.059737423656737065,0.4871263721394707
160479000000,hina_ssi_visual_root,khm2,0.0,0.0,0.0,0.0,0.0,0.0,1.0,-0.00015537108580469426,-0.004176259175087409,0.17425384862157783,-0.004094607315428801,-0.005112264120109527,-0.7071130995045158,0.7070701262644429,0.0,0.0,0.0,0.0,0.0,0.0,-0.00385164148941918,-0.004792075504849483,0.00046492225749269166,0.008791636184655744,0.0293310524982733,-0.4869410725461349
160480000000,hina_ssi_visual_root,khm2,0.0,0.0,0.0,0.0,0.0,0.0,1.0,-0.00015431979574578473,-0.004182290644928007,0.17425399444696066,-0.0040684466385534504,-0.005132116886311938,-0.7069408003722353,0.707242401081325,0.0,0.0,0.0,0.0,0.0,0.0,0.0010512900589095134,-0.006031469840598296,0.0001458253828149885,0.00856768248268915,-0.061899288997283544,0.487720771780751
160481000000,hina_ssi_visual_root,khm2,0.0,0.0,0.0,0.0,0.0,0.0,1.0,-0.0001584818096013632,-0.004187301079097673,0.17425297048267765,-0.004071368965585342,-0.005109338195029196,-0.7071129894284394,0.7070703916863798,0.0,0.0,0.0,0.0,0.0,0.0,-0.004162013855578468,-0.005010434169665711,-0.0010239642829912247,0.028440552806641994,0.033185309431360284,-0.4869750795469511
160482000000,hina_ssi_visual_root,khm2,0.0,0.0,0.0,0.0,0.0,0.0,1.0,-0.00015701539995799287,-0.004193417054821228,0.1742518254793191,-0.004049575345105922,-0.005120624801735466,-0.7069408013339911,0.7072425917253704,0.0,0.0,0.0,0.0,0.0,0.0,0.0014664096433703259,-0.006115975723554814,-0.001145003358539301,0.014500080928303707,-0.0436202174103191,0.48734259590390216
160483000000,hina_ssi_visual_root,khm2,0.0,0.0,0.0,0.0,0.0,0.0,1.0,-0.00015972889198980744,-0.004198384794255238,0.1742499771574265,-0.00406113690530212,-0.005094004115853151,-0.7071129661074531,0.7070705844905613,0.0,0.0,0.0,0.0,0.0,0.0,-0.0027134920318145576,-0.004967739434010415,-0.0018483218926111794,0.021654912978137136,0.05084528707140044,-0.48705641039563674
160484000000,hina_ssi_visual_root,khm2,0.0,0.0,0.0,0.0,0.0,0.0,1.0,-0.00015651885071582292,-0.00420434564756444,0.17424874288395914,-0.004051049324533686,-0.005106054102778076,-0.7069407438940415,0.7072427460450966,0.0,0.0,0.0,0.0,0.0,0.0,0.0032100412739845072,-0.005960853309202539,-0.0012342734673490303,-0.0031323988676034385,-0.02815368244209945,0.4872225173082267
160485000000,hina_ssi_visual_root,khm2,0.0,0.0,0.0,0.0,0.0,0.0,1.0,-0.00015762840101640326,-0.004209007234833578,0.17424821847977298,-0.004077566637237767,-0.005086038353945577,-0.7071130543325638,0.7070704590468008,0.0,0.0,0.0,0.0,0.0,0.0,-0.0011095503005803383,-0.004661587269137577,-0.0005244041861685936,-0.00884469105111878,0.0626488361293231,-0.48775699488989754
160486000000,hina_ssi_visual_root,khm2,0.0,0.0,0.0,0.0,0.0,0.0,1.0,-0.00015341319877215358,-0.004214706405297887,0.17424869659701164,-0.004074689124584727,-0.005108074181972144,-0.7069408420188885,0.7072424975723068,0.0,0.0,0.0,0.0,0.0,0.0,0.004215202244249677,-0.005699170464308877,0.0004781172386620607,-0.027443195516970574,-0.032076817108962825,0.48704284377836077
160487000000,hina_ssi_visual_root,khm2,0.0,0.0,0.0,0.0,0.0,0.0,1.0,-0.0001547178536718517,-0.00421923726822897,0.17424980352799616,-0.004100810332131796,-0.005096072973563517,-0.7071130186192178,0.7070702880860471,0.0,0.0,0.0,0.0,0.0,0.0,-0.0013046548996981152,-0.00453086293108311,0.0011069309845180286,-0.019624186512946448,0.05074537775589758,-0.4873897312922087
160488000000,hina_ssi_visual_root,khm2,0.0,0.0,0.0,0.0,0.0,0.0,1.0,-0.00015149964183732781,-0.004224970410962112,0.17425146912397216,-0.00408860202643291,-0.005123281547204184,-0.7069408632107682,0.7072422860961238,0.0,0.0,0.0,0.0,0.0,0.0,0.003218211834523899,-0.005733142733142059,0.0016655959759937413,-0.02155878408644229,-0.05257707119845046,0.48704361057107093
160489000000,hina_ssi_visual_root,khm2,0.0,0.0,0.0,0.0,0.0,0.0,1.0,-0.00015463606686278364,-0.0042296673344389855,0.1742531155885262,-0.004102620188455683,-0.005110430950461782,-0.7071130086959826,0.7070701838827635,0.0,0.0,0.0,0.0,0.0,0.0,-0.003136425025455812,-0.0046969234768730874,0.0016464645540177833,-0.0013026653837685401,0.034825870048415246,-0.48707804200710314
160490000000,hina_ssi_visual_root,khm2,0.0,0.0,0.0,0.0,0.0,0.0,1.0,-0.00015296950769393475,-0.004235636874199648,0.17425459171904004,-0.004077606258978431,-0.005133579719565636,-0.7069408987788648,0.7072422393495673,0.0,0.0,0.0,0.0,0.0,0.0,0.0016665591688488773,-0.005969539760662351,0.0014761305138380858,0.002288260730689416,-0.06494020227183385,0.48715851892019724
160491000000,hina_ssi_visual_root,khm2,0.0,0.0,0.0,0.0,0.0,0.0,1.0,-0.0001572134767274846,-0.004240635767800642,0.17425480339762495,-0.004080697785096924,-0.005111731967943637,-0.707113214844549,0.7070700951773319,0.0,0.0,0.0,0.0,0.0,0.0,-0.004243969033549851,-0.004998893600994213,0.00021167858490832477,0.026882547641767267,0.0321016532306864,-0.48733984084386217
160492000000,hina_ssi_visual_root,khm2,0.0,0.0,0.0,0.0,0.0,0.0,1.0,-0.00015596305225306758,-0.004246799503083184,0.1742545310657455,-0.004054210616277454,-0.005124529100480216,-0.7069410224132842,0.7072423159052615,0.0,0.0,0.0,0.0,0.0,0.0,0.001250424474417029,-0.006163735282542045,-0.00027233187943965544,0.01900368584558724,-0.05238977226294993,0.48743859044669285
160493000000,hina_ssi_visual_root,khm2,0.0,0.0,0.0,0.0,0.0,0.0,1.0,-0.00015934739431975638,-0.0042518537265208035,0.174253068471745,-0.004060739371403653,-0.005097076566435426,-0.707113200448211,0.7070703302770677,0.0,0.0,0.0,0.0,0.0,0.0,-0.0033843420666887832,-0.005054223437619488,-0.001462594000516005,0.029949952860415054,0.04490329575890627,-0.4870001009271029
160494000000,hina_ssi_visual_root,khm2,0.0,0.0,0.0,0.0,0.0,0.0,1.0,-0.00015676508796973686,-0.004257922534874579,0.1742516275288438,-0.004045657398599026,-0.005107024647787474,-0.70694098969839,0.7072425242020739,0.0,0.0,0.0,0.0,0.0,0.0,0.002582306350019506,-0.006068808353775025,-0.0014409429011819994,0.0069021184506405245,-0.03224333422971373,0.4872859739249525
160495000000,hina_ssi_visual_root,khm2,0.0,0.0,0.0,0.0,0.0,0.0,1.0,-0.0001583780961202115,-0.004262701610020418,0.17425024860940705,-0.004068702550491367,-0.005083410494083498,-0.7071132003731407,0.7070703829572831,0.0,0.0,0.0,0.0,0.0,0.0,-0.001613008150474637,-0.004779075145839091,-0.0013789194367422979,0.001156722945701795,0.0628333242739627,-0.4874032971140031
160496000000,hina_ssi_visual_root,khm2,0.0,0.0,0.0,0.0,0.0,0.0,1.0,-0.00015411312438525285,-0.004268462608757795,0.17424954038159474,-0.0040645148723168975,-0.005103430017122448,-0.7069409431401491,0.7072424885660007,0.0,0.0,0.0,0.0,0.0,0.0,0.004264971734958628,-0.005760998737377497,-0.0007082278123055012,-0.022740987663385295,-0.03108125580234073,0.4871977678509329
160497000000,hina_ssi_visual_root,khm2,0.0,0.0,0.0,0.0,0.0,0.0,1.0,-0.00015523247965882044,-0.004272986986079636,0.1742493792579696,-0.004094277822090155,-0.005089377738190077,-0.7071132785611255,0.7070701142078413,0.0,0.0,0.0,0.0,0.0,0.0,-0.0011193552735675816,-0.004524377321841245,-0.00016112362512475144,-0.021873216111428687,0.058797714079095266,-0.4879008790734396
160498000000,hina_ssi_visual_root,khm2,0.0,0.0,0.0,0.0,0.0,0.0,1.0,-0.00015144039665376525,-0.004278660501841217,0.1742499443350535,-0.004086843177815734,-0.005117578180865547,-0.7069410663580276,0.7072421344935391,0.0,0.0,0.0,0.0,0.0,0.0,0.0037920830050551836,-0.005673515761581652,0.0005650770838934518,-0.02971249451869153,-0.04723253160868829,0.4871144715802152
160499000000,hina_ssi_visual_root,khm2,0.0,0.0,0.0,0.0,0.0,0.0,1.0,-0.00015398234164742486,-0.004283270466168035,0.1742508074808846,-0.004106161835509191,-0.00510711325848988,-0.7071132358688139,0.7070699601088147,0.0,0.0,0.0,0.0,0.0,0.0,-0.002541944993659606,-0.004609964326818287,0.0008631458310879841,-0.012174888557555896,0.03894728285100002,-0.48724863191633067
160500000000,hina_ssi_visual_root,khm2,0.0,0.0,0.0,0.0,0.0,0.0,1.0,-0.0001519468825333231,-0.004289156727874795,0.17425192236025763,-0.004085192257226586,-0.005133269952521703,-0.7069410956103751,0.7072420010724891,0.0,0.0,0.0,0.0,0.0,0.0,0.00203545911410176,-0.005886261706759677,0.001114879373055126,-0.007682995099255153,-0.0634740229429362,0.48716430634789887
160501000000,hina_ssi_visual_root,khm2,0.0,0.0,0.0,0.0,0.0,0.0,1.0,-0.00015611902621108205,-0.004294062244612368,0.17425259589098713,-0.0040915836628985895,-0.0051154678876283955,-0.7071132261022826,0.7070699939911482,0.0,0.0,0.0,0.0,0.0,0.0,-0.004172143677758931,-0.004905516737573454,0.0006735307294961201,0.01649130250683411,0.031045141707888885,-0.48688465799557906
160502000000,hina_ssi_visual_root,khm2,0.0,0.0,0.0,0.0,0.0,0.0,1.0,-0.00015501126572686633,-0.00430020079668892,0.17425313277695592,-0.004063427867913984,-0.0051324792300213515,-0.7069409367929,0.7072422909422859,0.0,0.0,0.0,0.0,0.0,0.0,0.0011077604842157267,-0.006138552076551939,0.0005368859687851241,0.015405599569012074,-0.060702460123521054,0.48773538936645244
160503000000,hina_ssi_visual_root,khm2,0.0,0.0,0.0,0.0,0.0,0.0,1.0,-0.00015902384087945466,-0.00430529347502661,0.1742526393432228,-0.00406671231869583,-0.005106251128380451,-0.7071131364653952,0.7070702937391745,0.0,0.0,0.0,0.0,0.0,0.0,-0.004012575152588319,-0.005092678337689577,-0.0004934337331143259,0.03280745950924683,0.03857808592306383,-0.48700439087975006
160504000000,hina_ssi_visual_root,khm2,0.0,0.0,0.0,0.0,0.0,0.0,1.0,-0.0001571134273141543,-0.0043114578341640255,0.17425212546685273,-0.004046185721550734,-0.005115570573926841,-0.706940944730964,0.7072425043658661,0.0,0.0,0.0,0.0,0.0,0.0,0.0019104135653003635,-0.0061643591374157,-0.0005138763700793299,0.015489843545588512,-0.03904905043535481,0.48733355473512124
160505000000,hina_ssi_visual_root,khm2,0.0,0.0,0.0,0.0,0.0,0.0,1.0,-0.00015935409126929099,-0.004316390838079953,0.17425131465627808,-0.004062585479006705,-0.005088967500860113,-0.7071131338228799,0.7070704447112655,0.0,0.0,0.0,0.0,0.0,0.0,-0.002240663955136709,-0.00493300391592803,-0.000810810574648076,0.014785712858159446,0.05766318513187909,-0.48721400358356937
160506000000,hina_ssi_visual_root,khm2,0.0,0.0,0.0,0.0,0.0,0.0,1.0,-0.00015557824982087015,-0.00432230586323501,0.17425093589220358,-0.0040552088044209025,-0.005103415481664192,-0.706940899541056,0.7072425856720285,0.0,0.0,0.0,0.0,0.0,0.0,0.003775841448420845,-0.00591502515505671,-0.0003787640745057542,-0.010355371706602817,-0.02771229572260465,0.4872022950737806
160507000000,hina_ssi_visual_root,khm2,0.0,0.0,0.0,0.0,0.0,0.0,1.0,-0.00015653040485305906,-0.004326941346163076,0.17425089073147504,-0.004083594109752498,-0.005085175623202226,-0.7071132142175223,0.7070702705721634,0.0,0.0,0.0,0.0,0.0,0.0,-0.0009521550321889023,-0.004635482928065613,-4.516072854369481e-05,-0.014000350647103955,0.06277714270831163,-0.48780740971701336
160508000000,hina_ssi_visual_root,khm2,0.0,0.0,0.0,0.0,0.0,0.0,1.0,-0.0001523243865386399,-0.004332653722073758,0.17425135697691405,-0.004079524868413408,-0.005109370278364534,-0.7069410050697648,0.7072422973515916,0.0,0.0,0.0,0.0,0.0,0.0,0.004206018314419166,-0.005712375910682363,0.0004662454390183708,-0.028808694904369596,-0.03681343519768403,0.48705175775733384
160509000000,hina_ssi_visual_root,khm2,0.0,0.0,0.0,0.0,0.0,0.0,1.0,-0.00015399222066302836,-0.004337236963800947,0.1742519515932703,-0.004103332826380496,-0.0050980983313649655,-0.7071131839524739,0.707070093508214,0.0,0.0,0.0,0.0,0.0,0.0,-0.0016678341243884726,-0.004583241727188991,0.0005946163562550802,-0.01738435560656331,0.046441117778105376,-0.4873555636947248
160510000000,hina_ssi_visual_root,khm2,0.0,0.0,0.0,0.0,0.0,0.0,1.0,-0.00015119129569412756,-0.0043430492139423064,0.17425269933298915,-0.004087983212621035,-0.005125213153340112,-0.7069410324644427,0.7072421064964203,0.0,0.0,0.0,0.0,0.0,0.0,0.0028009249689008022,-0.005812250141358739,0.000747739718828716,-0.016983628382643376,-0.0568853216865614,0.487090685642089
160511000000,hina_ssi_visual_root,khm2,0.0,0.0,0.0,0.0,0.0,0.0,1.0,-0.00015473507224272157,-0.004347833080792563,0.17425320169735606,-0.004099342326651378,-0.0051116120953393985,-0.7071131675014654,0.7070700355412609,0.0,0.0,0.0,0.0,0.0,0.0,-0.003543776548594022,-0.004783866850256953,0.000502364366908533,0.0035206157662485537,0.032127759450960754,-0.48699798182229015
160512000000,hina_ssi_visual_root,khm2,0.0,0.0,0.0,0.0,0.0,0.0,1.0,-0.000153446773662857,-0.004353879558659969,0.17425350558192015,-0.004073570443306335,-0.005133153906108487,-0.7069408654430042,0.7072422990188834,0.0,0.0,0.0,0.0,0.0,0.0,0.0012882985798645472,-0.006046477867405333,0.0003038845640868336,0.005630908380647338,-0.06373667747513788,0.48771889281873204
160513000000,hina_ssi_visual_root,khm2,0.0,0.0,0.0,0.0,0.0,0.0,1.0,-0.0001576980637358748,-0.004358934188331139,0.1742527044733055,-0.004075956033269024,-0.005111035289568217,-0.7071130618484373,0.7070702805690617,0.0,0.0,0.0,0.0,0.0,0.0,-0.004251290073017793,-0.005054629671170599,-0.0008011086146653985,0.028265091180076744,0.03149048270183788,-0.4869876161323584
160514000000,hina_ssi_visual_root,khm2,0.0,0.0,0.0,0.0,0.0,0.0,1.0,-0.0001564132807881063,-0.0043651256023009965,0.17425179970234012,-0.004051594120101308,-0.005122970372831337,-0.7069408824469644,0.7072424820984331,0.0,0.0,0.0,0.0,0.0,0.0,0.0012847829477685,-0.0061914139698573895,-0.0009047709653750968,0.017216005266002612,-0.04816729328627601,0.4873641143673843
160515000000,hina_ssi_visual_root,khm2,0.0,0.0,0.0,0.0,0.0,0.0,1.0,-0.0001595071307861209,-0.0043701911345814795,0.17425014946785317,-0.00406040033086702,-0.005095837678884104,-0.7071130465136458,0.7070704950976913,0.0,0.0,0.0,0.0,0.0,0.0,-0.003093849998014591,-0.0050655322804825705,-0.0016502344869514188,0.026276509057400997,0.04767248341780481,-0.4870028717020982
160516000000,hina_ssi_visual_root,khm2,0.0,0.0,0.0,0.0,0.0,0.0,1.0,-0.00015661648776244374,-0.004376257094391469,0.17424906261359455,-0.004047884741098003,-0.005106896940103585,-0.7069408241864858,0.7072426778209148,0.0,0.0,0.0,0.0,0.0,0.0,0.0028906430236771722,-0.0060659598099896544,-0.0010868542586153374,0.0017015402982551498,-0.03018581552637221,0.48726933161572106
160517000000,hina_ssi_visual_root,khm2,0.0,0.0,0.0,0.0,0.0,0.0,1.0,-0.00015804017195331923,-0.0043810154053821075,0.174248629826696,-0.004073878000521879,-0.005084940091495556,-0.7071130451766195,0.707070497364549,0.0,0.0,0.0,0.0,0.0,0.0,-0.0014236841908755,-0.0047583109906386995,-0.00043278689855127776,-0.005357603248453392,0.06465615811996178,-0.4874901180590111
160518000000,hina_ssi_visual_root,khm2,0.0,0.0,0.0,0.0,0.0,0.0,1.0,-0.00015374335581742733,-0.004386786230822533,0.17424914182261264,-0.004070515468652468,-0.005106626727369602,-0.7069406324121771,0.7072427415760149,0.0,0.0,0.0,0.0,0.0,0.0,0.004296816135891889,-0.005770825440425675,0.0005119959166490547,-0.0262647262375405,-0.0322668619636539,0.4876191245421097
160519000000,hina_ssi_visual_root,khm2,0.0,0.0,0.0,0.0,0.0,0.0,1.0,-0.00015496983405811725,-0.004391365202554474,0.1742502241473999,-0.004098570087225618,-0.005093787456273232,-0.7071128437721176,0.7070704924016411,0.0,0.0,0.0,0.0,0.0,0.0,-0.0012264782406899294,-0.004578971731940317,0.001082324787276906,-0.02117309407871634,0.05466566133573967,-0.4875214177249797
160520000000,hina_ssi_visual_root,khm2,0.0,0.0,0.0,0.0,0.0,0.0,1.0,-0.00015147963194185704,-0.004397130884153153,0.17425181562900516,-0.00408831739063956,-0.005121450411422778,-0.7069406688104951,0.7072424953213478,0.0,0.0,0.0,0.0,0.0,0.0,0.003490202116260212,-0.005765681598680123,0.001591481605250333,-0.02496701734537268,-0.05045531210788168,0.4870618390407698
160521000000,hina_ssi_visual_root,khm2,0.0,0.0,0.0,0.0,0.0,0.0,1.0,-0.00015436467783231625,-0.004401854171474758,0.17425334322161073,-0.004104359579783029,-0.005109413933678853,-0.7071128268171842,0.7070703630278286,0.0,0.0,0.0,0.0,0.0,0.0,-0.002885045890459197,-0.004723287321605079,0.0015275926055855048,-0.005317350176101511,0.036536362887293235,-0.4871523048585223
160522000000,hina_ssi_visual_root,khm2,0.0,0.0,0.0,0.0,0.0,0.0,1.0,-0.00015254751257225688,-0.004407854742677464,0.17425467179565343,-0.004080770726575285,-0.005133487782547032,-0.7069407063248604,0.7072424141370278,0.0,0.0,0.0,0.0,0.0,0.0,0.0018171652600593733,-0.006000571202706109,0.0013285740426866397,-0.0010344471272912287,-0.06423272394985996,0.4871603709480619
160523000000,hina_ssi_visual_root,khm2,0.0,0.0,0.0,0.0,0.0,0.0,1.0,-0.00015685543191507655,-0.004412884503847563,0.17425487786333504,-0.004084230315172896,-0.00511373494134487,-0.707112821105492,0.7070704540609194,0.0,0.0,0.0,0.0,0.0,0.0,-0.004307919342819663,-0.005029761170099539,0.00020606768161195513,0.023398279094279953,0.029661311276786045,-0.4867816489016774
160524000000,hina_ssi_visual_root,khm2,0.0,0.0,0.0,0.0,0.0,0.0,1.0,-0.00015581181150345328,-0.004419104413526341,0.17425456719142016,-0.00405688297111047,-0.0051280813594057565,-0.7069405198872973,0.707242777144884,0.0,0.0,0.0,0.0,0.0,0.0,0.0010436204116232766,-0.006219909678777824,-0.0003106719148807356,0.018029335022717627,-0.05579330869883167,0.4877588222597089
160525000000,hina_ssi_visual_root,khm2,0.0,0.0,0.0,0.0,0.0,0.0,1.0,-0.00015947493171165065,-0.004424233445397014,0.17425303472366732,-0.004061803891539071,-0.00510134616785986,-0.7071127170062552,0.7070707768423566,0.0,0.0,0.0,0.0,0.0,0.0,-0.003663120208197373,-0.005129031870673381,-0.0015324677528459583,0.03121032197238143,0.04161290936339065,-0.48702571128711025
160526000000,hina_ssi_visual_root,khm2,0.0,0.0,0.0,0.0,0.0,0.0,1.0,-0.00015722086731858806,-0.004430391790143986,0.17425147474586086,-0.004045240887858885,-0.0051105391220661,-0.7069405159029768,0.7072429747907533,0.0,0.0,0.0,0.0,0.0,0.0,0.0022540643930625773,-0.006158344746972407,-0.0015599778064481814,0.01006347612322482,-0.03326818369360537,0.4872871357656086
160527000000,hina_ssi_visual_root,khm2,0.0,0.0,0.0,0.0,0.0,0.0,1.0,-0.0001589638284227058,-0.004435289044886561,0.17424980968042297,-0.004065467377541093,-0.005085629764203931,-0.7071127070805607,0.7070708789294781,0.0,0.0,0.0,0.0,0.0,0.0,-0.0017429611041177313,-0.004897254742574613,-0.0016650654378815976,0.006976424410987442,0.060679673792443205,-0.48729335517411343
160528000000,hina_ssi_visual_root,khm2,0.0,0.0,0.0,0.0,0.0,0.0,1.0,-0.00015486955356781322,-0.004441161291871426,0.17424887716283557,-0.004060921139369489,-0.00510274622164947,-0.7069404713322766,0.7072429857502976,0.0,0.0,0.0,0.0,0.0,0.0,0.0040942748548925744,-0.005872246984865124,-0.0009325175874027366,-0.018129969585400772,-0.0274835228275085,0.48714903208222754
160529000000,hina_ssi_visual_root,khm2,0.0,0.0,0.0,0.0,0.0,0.0,1.0,-0.00015576450940598966,-0.004445774204829236,0.17424863412629388,-0.00409032676206869,-0.0050874516067936125,-0.7071127780897636,0.7070706514382457,0.0,0.0,0.0,0.0,0.0,0.0,-0.0008949558381764356,-0.0046129129578095516,-0.0002430365417102568,-0.01961027370449564,0.060051864683648086,-0.4878100249007542
160530000000,hina_ssi_visual_root,khm2,0.0,0.0,0.0,0.0,0.0,0.0,1.0,-0.0001517838568930567,-0.004451504531239781,0.17424928436134385,-0.004084961365307686,-0.005114120130467668,-0.7069405743435696,0.7072426621837228,0.0,0.0,0.0,0.0,0.0,0.0,0.003980652512932953,-0.005730326410544834,0.0006502350499769001,-0.030472875612644064,-0.042142011426455905,0.48705519514629586
160531000000,hina_ssi_visual_root,khm2,0.0,0.0,0.0,0.0,0.0,0.0,1.0,-0.00015391850138933894,-0.004456148401833177,0.17425037928614726,-0.004106049760931968,-0.005103874358350511,-0.7071127438869133,0.7070704761582227,0.0,0.0,0.0,0.0,0.0,0.0,-0.002134644496282245,-0.0046438705933959734,0.0010949248034088296,-0.014988677591965541,0.04114120865263491,-0.4872812868076459
160532000000,hina_ssi_visual_root,khm2,0.0,0.0,0.0,0.0,0.0,0.0,1.0,-0.00015162195571708734,-0.004462054481473489,0.17425184114828807,-0.004087255618093172,-0.005130639893233354,-0.7069406027670831,0.7072425008687696,0.0,0.0,0.0,0.0,0.0,0.0,0.0022965456722515987,-0.005906079640311659,0.0014618621408075544,-0.01161942417528971,-0.06125977163261171,0.48712519912099683
160533000000,hina_ssi_visual_root,khm2,0.0,0.0,0.0,0.0,0.0,0.0,1.0,-0.00015560882059260367,-0.0044669727109836925,0.1742529581868403,-0.004094413302909916,-0.0051150841808441025,-0.7071127356393057,0.7070704708798304,0.0,0.0,0.0,0.0,0.0,0.0,-0.003986864875516327,-0.004918229510203759,0.0011170385522309353,0.012229534414121654,0.028951088818747184,-0.4869099560561901
160534000000,hina_ssi_visual_root,khm2,0.0,0.0,0.0,0.0,0.0,0.0,1.0,-0.00015461190598244437,-0.004473137780636948,0.17425388394871075,-0.004066891991164095,-0.005133459560193457,-0.7069404453292878,0.7072427551697539,0.0,0.0,0.0,0.0,0.0,0.0,0.0009969146101593022,-0.00616506965325552,0.0009257618704359479,0.012580331869262964,-0.06173336543186257,0.4877236475676544
160535000000,hina_ssi_visual_root,khm2,0.0,0.0,0.0,0.0,0.0,0.0,1.0,-0.0001587600863187674,-0.004478277879089176,0.17425365086129724,-0.004069082831119311,-0.005108898144273726,-0.7071126389548547,0.7070707585206494,0.0,0.0,0.0,0.0,0.0,0.0,-0.004148180336323028,-0.005140098452228237,-0.00023308741350383,0.031996920638910506,0.03467289327766505,-0.48697044876182904
160536000000,hina_ssi_visual_root,khm2,0.0,0.0,0.0,0.0,0.0,0.0,1.0,-0.00015717106149796257,-0.0044845123488956844,0.17425319492731872,-0.00404716608177961,-0.005118649641055711,-0.7069404523002224,0.7072429686989582,0.0,0.0,0.0,0.0,0.0,0.0,0.0015890248208048265,-0.006234469806508458,-0.000455933978508051,0.016844679216813298,-0.041624326583750086,0.4873435990410079
160537000000,hina_ssi_visual_root,khm2,0.0,0.0,0.0,0.0,0.0,0.0,1.0,-0.0001596978653621319,-0.0044895830327592685,0.17425183435756797,-0.004059271789827825,-0.005090953075453622,-0.7071126265118526,0.7070709567906386,0.0,0.0,0.0,0.0,0.0,0.0,-0.0025268038641693188,-0.005070683863583867,-0.0013605697507556042,0.022406569516285155,0.05313786095793193,-0.48709048327667753
160538000000,hina_ssi_visual_root,khm2,0.0,0.0,0.0,0.0,0.0,0.0,1.0,-0.00015627491755827836,-0.004495632230222498,0.17425080071242519,-0.004050094654194235,-0.005102527389935621,-0.7069403993544928,0.70724312135788,0.0,0.0,0.0,0.0,0.0,0.0,0.00342294780385354,-0.0060491974632287055,-0.0010336451427895733,-0.0037467910031578795,-0.026195063824202326,0.48722054235838314
160539000000,hina_ssi_visual_root,khm2,0.0,0.0,0.0,0.0,0.0,0.0,1.0,-0.00015719420259991198,-0.004500371493631226,0.1742501564208642,-0.0040775329317482255,-0.005082714459966269,-0.7071127133862781,0.7070708241091584,0.0,0.0,0.0,0.0,0.0,0.0,-0.0009192850416336355,-0.004739263408727772,-0.0006442915609968063,-0.010435111388140223,0.06366549343983782,-0.48778411139539657
160540000000,hina_ssi_visual_root,khm2,0.0,0.0,0.0,0.0,0.0,0.0,1.0,-0.00015286673601171155,-0.004506141623178891,0.17425019782856338,-0.004075526193536799,-0.005105419088659336,-0.7069404995659786,0.7072428542273013,0.0,0.0,0.0,0.0,0.0,0.0,0.00432746658820044,-0.0057701295476658455,4.1407699178491394e-05,-0.029619362411835617,-0.03179236721059518,0.4870296745850289
160541000000,hina_ssi_visual_root,khm2,0.0,0.0,0.0,0.0,0.0,0.0,1.0,-0.00015414004467935807,-0.004510744344194399,0.17425060811396947,-0.004101855009743231,-0.005094624981523007,-0.7071126766317674,0.7070706344690284,0.0,0.0,0.0,0.0,0.0,0.0,-0.0012733086676465291,-0.00460272101550837,0.0004102854061047573,-0.02162585202704301,0.049331992360798854,-0.48739708004312
160542000000,hina_ssi_visual_root,khm2,0.0,0.0,0.0,0.0,0.0,0.0,1.0,-0.0001510243588886957,-0.004516550473717007,0.1742514524789343,-0.0040897988521793795,-0.0051229213138586594,-0.7069405169244454,0.7072426279242215,0.0,0.0,0.0,0.0,0.0,0.0,0.00311568579066235,-0.005806129522607748,0.0008443649648469595,-0.023311475198690222,-0.05390030400379553,0.48705064466198034
160543000000,hina_ssi_visual_root,khm2,0.0,0.0,0.0,0.0,0.0,0.0,1.0,-0.0001542988077786704,-0.004521326537347185,0.17425227283012404,-0.0041032615626773305,-0.005111376706010245,-0.7071126522505269,0.7070705297917196,0.0,0.0,0.0,0.0,0.0,0.0,-0.0032744488899747,-0.004776063630178512,0.0008203511897423941,-0.0023641255212547762,0.0321930614819475,-0.4870415478239613
160544000000,hina_ssi_visual_root,khm2,0.0,0.0,0.0,0.0,0.0,0.0,1.0,-0.00015285465309226135,-0.004527379715883614,0.17425305791976714,-0.004077861338502771,-0.0051352711293420695,-0.706940541255742,0.7072425829702073,0.0,0.0,0.0,0.0,0.0,0.0,0.0014441546864090611,-0.0060531785364291504,0.000785089643097165,0.0017799119981961118,-0.0665404368308726,0.48716694835638263
160545000000,hina_ssi_visual_root,khm2,0.0,0.0,0.0,0.0,0.0,0.0,1.0,-0.0001572802373506129,-0.004532471808559399,0.17425278849899153,-0.004079996078751584,-0.0051140996510362375,-0.7071128510339061,0.7070704459383504,0.0,0.0,0.0,0.0,0.0,0.0,-0.0044255842583515274,-0.005092092675784712,-0.0002694207756088682,0.027280208029620123,0.02979176032368406,-0.48730552631154234
160546000000,hina_ssi_visual_root,khm2,0.0,0.0,0.0,0.0,0.0,0.0,1.0,-0.0001562212255805547,-0.004538728929123239,0.1742523690528534,-0.004053449711969863,-0.005126697050918624,-0.7069406559415833,0.7072426708702356,0.0,0.0,0.0,0.0,0.0,0.0,0.0010590117700581912,-0.006257120563840371,-0.00041944613813461006,0.019368845057053597,-0.052190392543515825,0.4874473775238417
160547000000,hina_ssi_visual_root,khm2,0.0,0.0,0.0,0.0,0.0,0.0,1.0,-0.00015964034402566327,-0.004543879328251652,0.17425106944941907,-0.004059652674394325,-0.005099148197340085,-0.7071128264532068,0.7070706955978178,0.0,0.0,0.0,0.0,0.0,0.0,-0.003419118445108559,-0.005150399128413228,-0.0012996034343280248,0.030547956601906477,0.04457860429119362,-0.48697224056562216
160548000000,hina_ssi_visual_root,khm2,0.0,0.0,0.0,0.0,0.0,0.0,1.0,-0.00015706523136777722,-0.004550039374347469,0.17425012796319628,-0.004045216368950559,-0.005108425585501183,-0.7069406166409092,0.7072428895053923,0.0,0.0,0.0,0.0,0.0,0.0,0.0025751126578860487,-0.006160046095817109,-0.0009414862227828166,0.006936505148204301,-0.03038142444104699,0.48727263109642727
160549000000,hina_ssi_visual_root,khm2,0.0,0.0,0.0,0.0,0.0,0.0,1.0,-0.0001585482487082915,-0.00455491122580483,0.17424946755765525,-0.0040685127079988954,-0.005084436193871232,-0.7071128248931601,0.7070707521772841,0.0,0.0,0.0,0.0,0.0,0.0,-0.0014830173405142996,-0.00487185145736014,-0.0006604055410250609,0.0013325709857221531,0.06371897107277419,-0.4873999761054173
160550000000,hina_ssi_visual_root,khm2,0.0,0.0,0.0,0.0,0.0,0.0,1.0,-0.00015417315939043422,-0.0045607654954301444,0.17424960938519704,-0.004064957574632815,-0.005103685908534978,-0.7069405745438241,0.707242852614087,0.0,0.0,0.0,0.0,0.0,0.0,0.004375089317857298,-0.005854269625314431,0.00014182754178124202,-0.022547185447538094,-0.02909790926568725,0.4871680218518745
160551000000,hina_ssi_visual_root,khm2,0.0,0.0,0.0,0.0,0.0,0.0,1.0,-0.00015512495192875848,-0.004565385794348504,0.17425028924312486,-0.004094916226588528,-0.0050891290393688775,-0.7071129114094256,0.7070704794748566,0.0,0.0,0.0,0.0,0.0,0.0,-0.0009517925383242549,-0.0046202989183591996,0.0006798579278257198,-0.02143667521524483,0.059787897591992975,-0.4879073250194944
160552000000,hina_ssi_visual_root,khm2,0.0,0.0,0.0,0.0,0.0,0.0,1.0,-0.00015121988415319412,-0.004571160957964901,0.17425152905061073,-0.0040875048848151305,-0.005116639011222134,-0.7069407068571577,0.7072424968123363,0.0,0.0,0.0,0.0,0.0,0.0,0.003905067775564361,-0.0057751636163978414,0.0012398074858700429,-0.028768580683538318,-0.04622312699727494,0.48709362255199373
160553000000,hina_ssi_visual_root,khm2,0.0,0.0,0.0,0.0,0.0,0.0,1.0,-0.00015369109775853154,-0.004575888977044553,0.1742527015699744,-0.004105214652970269,-0.005106091696342922,-0.7071128847571081,0.7070703241196892,0.0,0.0,0.0,0.0,0.0,0.0,-0.002471213605337433,-0.004728019079651754,0.0011725193636715498,-0.009783118240738962,0.03678908470788527,-0.4872422937272616
160554000000,hina_ssi_visual_root,khm2,0.0,0.0,0.0,0.0,0.0,0.0,1.0,-0.00015177406348599863,-0.004581888350252122,0.17425380981797303,-0.00408409907824705,-0.005131159856825612,-0.7069407501184334,0.7072423680431125,0.0,0.0,0.0,0.0,0.0,0.0,0.0019170342725329005,-0.005999373207568523,0.0011082479986240026,-0.005936962228503937,-0.062141853120994135,0.4871530106829641
160555000000,hina_ssi_visual_root,khm2,0.0,0.0,0.0,0.0,0.0,0.0,1.0,-0.0001559106198568931,-0.004586908659186212,0.17425408406296436,-0.004088776993508225,-0.005113851871866781,-0.7071128808556083,0.7070703671840676,0.0,0.0,0.0,0.0,0.0,0.0,-0.004136556370894465,-0.005020308934090345,0.0002742449913228865,0.018216124105948948,0.02792477343876531,-0.48685452877880936
160556000000,hina_ssi_visual_root,khm2,0.0,0.0,0.0,0.0,0.0,0.0,1.0,-0.0001549792027166829,-0.004593142680097024,0.17425397937016243,-0.004061494611469417,-0.005130074508913318,-0.7069405973221972,0.7072426588200045,0.0,0.0,0.0,0.0,0.0,0.0,0.0009314171402102084,-0.0062340209108125,-0.00010469280193170158,0.01528551621371949,-0.05835353544258151,0.4877041448602783
160557000000,hina_ssi_visual_root,khm2,0.0,0.0,0.0,0.0,0.0,0.0,1.0,-0.00015891775698834487,-0.004598332889648133,0.1742525847465769,-0.004063235939252781,-0.005105320384240293,-0.7071127904407676,0.7070706664913678,0.0,0.0,0.0,0.0,0.0,0.0,-0.0039385542716619685,-0.005190209551109029,-0.001394623585534072,0.03290594499141208,0.03431298776626017,-0.486960315441266
160558000000,hina_ssi_visual_root,khm2,0.0,0.0,0.0,0.0,0.0,0.0,1.0,-0.0001572374816621993,-0.0046045721548459385,0.17425119984446943,-0.004044719876085071,-0.005114054722288869,-0.7069405961194248,0.7072428721759831,0.0,0.0,0.0,0.0,0.0,0.0,0.0016802753261455994,-0.0062392651978053874,-0.0013849021074642896,0.013473216647299096,-0.03537981700232643,0.48730484624597764
160559000000,hina_ssi_visual_root,khm2,0.0,0.0,0.0,0.0,0.0,0.0,1.0,-0.00015935526082158478,-0.004609597472643977,0.17424942959543133,-0.004058768681613579,-0.005089971511278149,-0.7071127746031749,0.7070708186453483,0.0,0.0,0.0,0.0,0.0,0.0,-0.0021177791593854937,-0.00502531779803828,-0.0017702490381152607,0.014548208093738052,0.05077609227440923,-0.4871457887970155
160560000000,hina_ssi_visual_root,khm2,0.0,0.0,0.0,0.0,0.0,0.0,1.0,-0.00015595786398944124,-0.00461558275678034,0.17424841011112344,-0.004054006773467564,-0.0051034417838319536,-0.7069405413840598,0.7072429503774865,0.0,0.0,0.0,0.0,0.0,0.0,0.0033973968321435307,-0.005985284136363197,-0.0010194843078989262,-0.012672029985261431,-0.02263288530346482,0.48715309578078353
160561000000,hina_ssi_visual_root,khm2,0.0,0.0,0.0,0.0,0.0,0.0,1.0,-0.0001567329593871828,-0.004620300642397986,0.17424795727002618,-0.004080169342409122,-0.005088177147138157,-0.7071128321546857,0.707070650835994,0.0,0.0,0.0,0.0,0.0,0.0,-0.0007750953977415471,-0.004717885617646191,-0.000452841097260924,-0.015062659473722349,0.0554267990963916,-0.48770474704389166
160562000000,hina_ssi_visual_root,khm2,0.0,0.0,0.0,0.0,0.0,0.0,1.0,-0.00015291405457807042,-0.004626076884889551,0.17424852168488694,-0.004079205569016286,-0.005111208004507923,-0.7069406326911638,0.7072426581343051,0.0,0.0,0.0,0.0,0.0,0.0,0.0038189048091123758,-0.005776242491564465,0.0005644148607779967,-0.03155664368579137,-0.030776267453487435,0.4869692710612626
160563000000,hina_ssi_visual_root,khm2,0.0,0.0,0.0,0.0,0.0,0.0,1.0,-0.0001543257807626808,-0.004630739793866206,0.1742495503158369,-0.004101344960019859,-0.005102339249414851,-0.7071127885185458,0.707070469908926,0.0,0.0,0.0,0.0,0.0,0.0,-0.0014117261846103776,-0.004662908976655037,0.0010286309499386893,-0.018421411213528877,0.04068249754591873,-0.48726428352270457
160564000000,hina_ssi_visual_root,khm2,0.0,0.0,0.0,0.0,0.0,0.0,1.0,-0.0001518056799186836,-0.004636638522214021,0.17425103258242325,-0.004087738497029293,-0.005127941038265754,-0.7069406561570346,0.707242464284314,0.0,0.0,0.0,0.0,0.0,0.0,0.00252010084399719,-0.0058987283478147716,0.0014822665863673916,-0.017310987648722163,-0.052280051599545636,0.4870071319993748
160565000000,hina_ssi_visual_root,khm2,0.0,0.0,0.0,0.0,0.0,0.0,1.0,-0.00015514094465228566,-0.0046415261913528095,0.1742524282250018,-0.0040973886227451545,-0.005115069919814983,-0.7071127840220718,0.7070704053619726,0.0,0.0,0.0,0.0,0.0,0.0,-0.0033352647336020586,-0.004887669138788166,0.001395642578573563,0.004906935932887493,0.02867829290822978,-0.4869473783659331
160566000000,hina_ssi_visual_root,khm2,0.0,0.0,0.0,0.0,0.0,0.0,1.0,-0.00015399257837906094,-0.0046476842064696895,0.17425365249486258,-0.004072430005536694,-0.005134342548851166,-0.7069405061797566,0.7072426560684465,0.0,0.0,0.0,0.0,0.0,0.0,0.0011483662732247098,-0.006158015116879753,0.0012242698607800653,0.007688284411069994,-0.05937740028397652,0.4876397605697171
160567000000,hina_ssi_visual_root,khm2,0.0,0.0,0.0,0.0,0.0,0.0,1.0,-0.0001580115434074876,-0.004652864527492481,0.1742536124013419,-0.004072710647702392,-0.005111964053994551,-0.7071126991792526,0.7070706552466469,0.0,0.0,0.0,0.0,0.0,0.0,-0.004018965028426661,-0.005180321022791343,-4.0093520675882344e-05,0.0316108387582574,0.02888213762302001,-0.4869383307702351
160568000000,hina_ssi_visual_root,khm2,0.0,0.0,0.0,0.0,0.0,0.0,1.0,-0.00015681600453654095,-0.004659184977215953,0.1742531851907723,-0.004048326378399492,-0.005121431640317235,-0.7069405362074789,0.7072428580467746,0.0,0.0,0.0,0.0,0.0,0.0,0.0011955388709466493,-0.006320449723473019,-0.0004272105696212433,0.02073598463960175,-0.044710430253901416,0.48732277924137196
160569000000,hina_ssi_visual_root,khm2,0.0,0.0,0.0,0.0,0.0,0.0,1.0,-0.00015972865463640662,-0.004664386728365379,0.17425160435417267,-0.004054595653103763,-0.005093995094570994,-0.7071127066787437,0.7070708815398407,0.0,0.0,0.0,0.0,0.0,0.0,-0.002912650099865653,-0.005201751149425652,-0.0015808365996218977,0.03029529865177693,0.044517075866081085,-0.48697337451027634
160570000000,hina_ssi_visual_root,khm2,0.0,0.0,0.0,0.0,0.0,0.0,1.0,-0.00015698751090579896,-0.004670580611332677,0.17425018986789714,-0.004041949911673601,-0.005103104530927255,-0.7069404872808466,0.7072430758997766,0.0,0.0,0.0,0.0,0.0,0.0,0.002741143730607659,-0.00619388296729801,-0.0014144862755201878,0.0046418622937479895,-0.027615089619234378,0.4872670021978448
160571000000,hina_ssi_visual_root,khm2,0.0,0.0,0.0,0.0,0.0,0.0,1.0,-0.00015830149580201786,-0.004675477960247297,0.17424889473176708,-0.0040654336205066385,-0.005081023026429458,-0.7071127217047591,0.7070708976176081,0.0,0.0,0.0,0.0,0.0,0.0,-0.0013139848962189105,-0.00489734891462066,-0.0012951361300524277,-0.00163077333400693,0.0612875399307733,-0.48748100390002386
160572000000,hina_ssi_visual_root,khm2,0.0,0.0,0.0,0.0,0.0,0.0,1.0,-0.00015416735640357712,-0.004681346204337021,0.17424839334498227,-0.004063426628677231,-0.00510155895671895,-0.7069403150551745,0.7072431361349044,0.0,0.0,0.0,0.0,0.0,0.0,0.004134139398440741,-0.0058682440897229555,-0.0005013867848198111,-0.02655582068002471,-0.028726945771352933,0.487578927098302
160573000000,hina_ssi_visual_root,khm2,0.0,0.0,0.0,0.0,0.0,0.0,1.0,-0.00015520817109627568,-0.004685985679389756,0.1742484757883858,-0.004092223635776588,-0.005090590308121591,-0.7071125136630246,0.7070708823146293,0.0,0.0,0.0,0.0,0.0,0.0,-0.0010408146926985532,-0.004639475052736146,8.244340350700013e-05,-0.02486753100359863,0.053073576152281636,-0.48750188140566186
160574000000,hina_ssi_visual_root,khm2,0.0,0.0,0.0,0.0,0.0,0.0,1.0,-0.00015174178221533143,-0.004691685054418551,0.1742493382919535,-0.004088691838270769,-0.005122354577398348,-0.7069403043195631,0.7072428509438596,0.0,0.0,0.0,0.0,0.0,0.0,0.003466388880944249,-0.0056993750287949955,0.0008625035677043442,-0.040273189693254975,-0.046753655674090885,0.48702670974789053
160575000000,hina_ssi_visual_root,khm2,0.0,0.0,0.0,0.0,0.0,0.0,1.0,-0.00015434245273851713,-0.004696319330615245,0.17425087852598242,-0.004111211869640716,-0.0051195378608853825,-0.7071125477946509,0.7070705290283363,0.0,0.0,0.0,0.0,0.0,0.0,-0.0026006705231857,-0.004634276196694043,0.0015402340289291556,-0.027516320457969954,0.032650952984200156,-0.4875323066964337
160576000000,hina_ssi_visual_root,khm2,0.0,0.0,0.0,0.0,0.0,0.0,1.0,-0.00015280528038869376,-0.004702367032000819,0.174253775710275,-0.004095601519674641,-0.005150597489881073,-0.7069403671542193,0.7072425430370733,0.0,0.0,0.0,0.0,0.0,0.0,0.001537172349823374,-0.0060477013855743155,0.0028971842925800215,-0.022198669184893438,-0.06282224053636898,0.48716947669481653
160577000000,hina_ssi_visual_root,khm2,0.0,0.0,0.0,0.0,0.0,0.0,1.0,-0.00015707251815932105,-0.004707822416876742,0.17425804304259476,-0.004100490869788955,-0.005137294833472525,-0.7071123850134461,0.7070706252822392,0.0,0.0,0.0,0.0,0.0,0.0,-0.004267237770627277,-0.005455384875922228,0.004267332319752111,0.012256233429541146,0.022549376169742556,-0.4865472432063517
160578000000,hina_ssi_visual_root,khm2,0.0,0.0,0.0,0.0,0.0,0.0,1.0,-0.0001564643728639355,-0.004715109394878101,0.17426562948946825,-0.004073849617211827,-0.005152410733299599,-0.7069402401293122,0.7072427824296564,0.0,0.0,0.0,0.0,0.0,0.0,0.0006081452953855381,-0.0072869780013595665,0.007586446873486656,0.01594035433378422,-0.055872137366730946,0.48730379176931055
160579000000,hina_ssi_visual_root,khm2,0.0,0.0,0.0,0.0,0.0,0.0,1.0,-0.00016038032392501155,-0.004722291582840695,0.1742764410176605,-0.0040732145205562365,-0.005122099531090182,-0.7071120112558471,0.7070712669579877,0.0,0.0,0.0,0.0,0.0,0.0,-0.00391595106107605,-0.0071821879625935305,0.010811528192248636,0.04412736782387646,0.03880983258509367,-0.485710592932384
160580000000,hina_ssi_visual_root,khm2,0.0,0.0,0.0,0.0,0.0,0.0,1.0,-0.00015815937519661084,-0.0047317927632854855,0.17429163205930812,-0.004052539450462036,-0.005120164871847887,-0.7069395798682107,0.7072437990194368,0.0,0.0,0.0,0.0,0.0,0.0,0.0022209487284007177,-0.009501180444790118,0.015191041647624625,0.031612637271416666,-0.023331144724368053,0.48803759898717347
160581000000,hina_ssi_visual_root,khm2,0.0,0.0,0.0,0.0,0.0,0.0,1.0,-0.0001592851652503573,-0.0047414821353133334,0.17431085556277243,-0.00406850603705024,-0.00508393144748813,-0.7071110449886957,0.7070725358509258,0.0,0.0,0.0,0.0,0.0,0.0,-0.0011257900537464589,-0.009689372027848177,0.019223503464315964,0.029012903630549553,0.07068302590281725,-0.4851379037120743
160582000000,hina_ssi_visual_root,khm2,0.0,0.0,0.0,0.0,0.0,0.0,1.0,-0.00015402053609871852,-0.004753736551585536,0.17433413828606614,-0.0040656605282763745,-0.005090849311474038,-0.7069386141806712,0.7072449006094488,0.0,0.0,0.0,0.0,0.0,0.0,0.00526462915163876,-0.01225441627220191,0.02328272329371875,-0.006110152730669143,-0.010651392145039958,0.4876894644084905
160583000000,hina_ssi_visual_root,khm2,0.0,0.0,0.0,0.0,0.0,0.0,1.0,-0.00015361413214706336,-0.0047664523030612575,0.17436047955400538,-0.004101526159215221,-0.005069759621013528,-0.7071104810858315,0.7070730107698314,0.0,0.0,0.0,0.0,0.0,0.0,0.0004064039516551614,-0.012715751475721905,0.0263412679392273,-0.020561131147879205,0.07739311775766468,-0.4866717894259274
160584000000,hina_ssi_visual_root,khm2,0.0,0.0,0.0,0.0,0.0,0.0,1.0,-0.00014763326622920693,-0.004781889633492092,0.17438862346191802,-0.004109775755080274,-0.005098196047092858,-0.7069384868007761,0.7072447200369453,0.0,0.0,0.0,0.0,0.0,0.0,0.00598086591785642,-0.015437330430834516,0.028143907912630238,-0.05221692384866475,-0.025394580629484406,0.4862095120174609
160585000000,hina_ssi_visual_root,khm2,0.0,0.0,0.0,0.0,0.0,0.0,1.0,-0.00014823946418402869,-0.00479789050717974,0.17441709204244515,-0.004153049966728126,-0.005092434371378814,-0.7071105209902108,0.7070725071681826,0.0,0.0,0.0,0.0,0.0,0.0,-0.0006061979548217539,-0.016000873687647597,0.028468580527137355,-0.05272600089072065,0.06616424906243486,-0.48731696811018044
160586000000,hina_ssi_visual_root,khm2,0.0,0.0,0.0,0.0,0.0,0.0,1.0,-0.00014343679156488483,-0.004816761800914676,0.17444484816872224,-0.00415893972963219,-0.0051312200601768216,-0.7069391203625944,0.7072435605235162,0.0,0.0,0.0,0.0,0.0,0.0,0.004802672619143845,-0.018871293734935488,0.027756126277103416,-0.06350542461436176,-0.0433533364008071,0.4845547833364466
160587000000,hina_ssi_visual_root,khm2,0.0,0.0,0.0,0.0,0.0,0.0,1.0,-0.0001457265607447035,-0.004836312342622728,0.17447067076254655,-0.00419211061301653,-0.005128113692337729,-0.7071112497884057,0.7070712899568513,0.0,0.0,0.0,0.0,0.0,0.0,-0.002289769179818683,-0.01955054170805216,0.025822593824298537,-0.042194220602675685,0.048093840807003234,-0.4874107290093852
160588000000,hina_ssi_visual_root,khm2,0.0,0.0,0.0,0.0,0.0,0.0,1.0,-0.0001427101704072624,-0.004858853708147524,0.17449402604973807,-0.004182679686438312,-0.005162287876685743,-0.7069402454874791,0.7072420697926712,0.0,0.0,0.0,0.0,0.0,0.0,0.0030163903374411105,-0.02254136552479653,0.02335528719153175,-0.03531522969049259,-0.05847930480524546,0.4837284136593582
160589000000,hina_ssi_visual_root,khm2,0.0,0.0,0.0,0.0,0.0,0.0,1.0,-0.00014657359705717504,-0.0048821424579121855,0.17451443864308622,-0.0041982271379183995,-0.005150874476962604,-0.7071120978286796,0.7070702401355505,0.0,0.0,0.0,0.0,0.0,0.0,-0.003863426649912647,-0.023288749764661897,0.020412593348157218,-0.005517554806881074,0.03491463735187102,-0.4862850234337709
160590000000,hina_ssi_visual_root,khm2,0.0,0.0,0.0,0.0,0.0,0.0,1.0,-0.00014492078633979315,-0.004908034893448,0.17453208237553308,-0.004173701819357665,-0.00517386984853866,-0.7069403216490843,0.7072419620685717,0.0,0.0,0.0,0.0,0.0,0.0,0.0016528107173818902,-0.02589243553581482,0.017643732446873395,0.0018338952327361766,-0.06399163956162604,0.48621470959337904
160591000000,hina_ssi_visual_root,khm2,0.0,0.0,0.0,0.0,0.0,0.0,1.0,-0.00014950414069970206,-0.004934316796950518,0.17454713464513139,-0.004176382774387487,-0.005154285041267315,-0.7071121438233743,0.7070702986479822,0.0,0.0,0.0,0.0,0.0,0.0,-0.004583354359908898,-0.02628190350251781,0.015052269598294582,0.0242434401045505,0.028282348869937843,-0.48594252942173083
160592000000,hina_ssi_visual_root,khm2,0.0,0.0,0.0,0.0,0.0,0.0,1.0,-0.00014847886461084422,-0.004963313769512711,0.1745595570511581,-0.004143732711769043,-0.0051734929529943605,-0.7069400561452985,0.707242406440084,0.0,0.0,0.0,0.0,0.0,0.0,0.0010252760888578337,-0.02899697256219312,0.012422406026726814,0.01867108248678117,-0.07012560817252202,0.48725222096766185
160593000000,hina_ssi_visual_root,khm2,0.0,0.0,0.0,0.0,0.0,0.0,1.0,-0.00015377052004548987,-0.004992837451016208,0.174569391886476,-0.004140945810096947,-0.005155016695831171,-0.7071121035263225,0.7070705420375274,0.0,0.0,0.0,0.0,0.0,0.0,-0.005291655434645643,-0.02952368150349695,0.009834835317888388,0.030421095080490176,0.018989925599500825,-0.48647836811903833
160594000000,hina_ssi_visual_root,khm2,0.0,0.0,0.0,0.0,0.0,0.0,1.0,-0.00015349226627907285,-0.005025280458253101,0.17457708358826884,-0.004108463791385444,-0.005174419872532806,-0.706939931126532,0.7072427303854539,0.0,0.0,0.0,0.0,0.0,0.0,0.00027825376641702013,-0.0324430072368932,0.007691701792859313,0.018144657564189787,-0.07017450784989267,0.4874845944026498
160595000000,hina_ssi_visual_root,khm2,0.0,0.0,0.0,0.0,0.0,0.0,1.0,-0.00015895240748868287,-0.00505828709444986,0.17458283305160852,-0.004108617779108196,-0.005156868741467855,-0.7071121697860998,0.707070650858259,0.0,0.0,0.0,0.0,0.0,0.0,-0.005460141209610017,-0.03300663619675902,0.005749463339667795,0.024965883393665744,0.02184744445962009,-0.48707468242654806
160596000000,hina_ssi_visual_root,khm2,0.0,0.0,0.0,0.0,0.0,0.0,1.0,-0.00015842877781239645,-0.005094334207513977,0.17458695576667618,-0.004079891896299514,-0.005177679910026386,-0.7069396693067187,0.7072431336346583,0.0,0.0,0.0,0.0,0.0,0.0,0.0005236296762864091,-0.03604711306411732,0.004122715067665636,0.010829003470013402,-0.06685835852157129,0.48833668932511776
160597000000,hina_ssi_visual_root,khm2,0.0,0.0,0.0,0.0,0.0,0.0,1.0,-0.0001634759627259009,-0.005131230041377548,0.17459039243118124,-0.0040912257082319796,-0.005157938462840061,-0.7071115216172507,0.7070713921091378,0.0,0.0,0.0,0.0,0.0,0.0,-0.005047184913504441,-0.0368958338635708,0.003436664505055668,0.01225872211677721,0.04076792668290878,-0.48618299387784436
160598000000,hina_ssi_visual_root,khm2,0.0,0.0,0.0,0.0,0.0,0.0,1.0,-0.0001613967885230143,-0.005171470257474991,0.17459356916267074,-0.0040709187872014566,-0.005180706453520081,-0.7069389815775533,0.7072438506109205,0.0,0.0,0.0,0.0,0.0,0.0,0.002079174202886589,-0.04024021609744373,0.003176731489505733,-0.003850899841283468,-0.05772484596293611,0.48828683578197174
160599000000,hina_ssi_visual_root,khm2,0.0,0.0,0.0,0.0,0.0,0.0,1.0,-0.00016543839850491918,-0.005212942135323234,0.1745967405857256,-0.004087673285894167,-0.005160568703024014,-0.7071108515286644,0.7070720635891199,0.0,0.0,0.0,0.0,0.0,0.0,-0.004041609981904872,-0.041471877848243646,0.0031714230548522057,0.005155442967795943,0.048994124864845036,-0.48633138963470873
160600000000,hina_ssi_visual_root,khm2,0.0,0.0,0.0,0.0,0.0,0.0,1.0,-0.0001624589734016016,-0.005257955878091869,0.17460067868297358,-0.0040741296058016295,-0.005185526222169933,-0.7069385830018184,0.7072441952035631,0.0,0.0,0.0,0.0,0.0,0.0,0.0029794251033175706,-0.045013742768634436,0.0039380972479757075,-0.016513521595996252,-0.05126234804104351,0.48738862766556523
160601000000,hina_ssi_visual_root,khm2,0.0,0.0,0.0,0.0,0.0,0.0,1.0,-0.00016580332914530653,-0.005304598735673299,0.1746058694925746,-0.0041001172064033704,-0.005166200715914009,-0.7071102181923917,0.7070725837825739,0.0,0.0,0.0,0.0,0.0,0.0,-0.003344355743704932,-0.04664285758142985,0.005190809601015178,-0.009053564379568202,0.060900662083756614,-0.48584045658141073
160602000000,hina_ssi_visual_root,khm2,0.0,0.0,0.0,0.0,0.0,0.0,1.0,-0.00016170651449625638,-0.0053551744998168805,0.17461293999172206,-0.004094176608389297,-0.005195217787749313,-0.7069379960540172,0.7072445950059764,0.0,0.0,0.0,0.0,0.0,0.0,0.004096814649050157,-0.050575764143581614,0.007070499147458166,-0.033004604927293874,-0.0462461175022034,0.48710823423176164
160603000000,hina_ssi_visual_root,khm2,0.0,0.0,0.0,0.0,0.0,0.0,1.0,-0.00016440119663825207,-0.005407785317902804,0.17462208706514634,-0.004129795791792013,-0.0051770540894091705,-0.7071095605037109,0.7070729894020291,0.0,0.0,0.0,0.0,0.0,0.0,-0.0026946821419956838,-0.05261081808592334,0.009147073424270064,-0.02432427154226795,0.07286557814212925,-0.4858239473141604
160604000000,hina_ssi_visual_root,khm2,0.0,0.0,0.0,0.0,0.0,0.0,1.0,-0.0001592207646987894,-0.005464737875275096,0.17463384357559494,-0.004128942141677339,-0.005209849947593565,-0.7069374463152003,0.7072448347620913,0.0,0.0,0.0,0.0,0.0,0.0,0.005180431939462673,-0.05695255737229219,0.01175651044860808,-0.045536061665875115,-0.04438448227341034,0.4867013154708072
160605000000,hina_ssi_visual_root,khm2,0.0,0.0,0.0,0.0,0.0,0.0,1.0,-0.0001615860302883217,-0.005523942487529391,0.1746479118840497,-0.004169697972073376,-0.00519691583420507,-0.7071097321714441,0.7070724378400437,0.0,0.0,0.0,0.0,0.0,0.0,-0.0023652655895322946,-0.05920461225429541,0.014068308454773292,-0.038989950998180437,0.0726997764683856,-0.48797573038504644
160606000000,hina_ssi_visual_root,khm2,0.0,0.0,0.0,0.0,0.0,0.0,1.0,-0.00015626166001480332,-0.005587774469943706,0.17466451775049827,-0.004173546043069488,-0.005233213137417782,-0.7069375688134952,0.7072442780212147,0.0,0.0,0.0,0.0,0.0,0.0,0.005324370273518391,-0.06383198241431405,0.016605866448563177,-0.0571304779673087,-0.04266581340109039,0.4867463754969974
160607000000,hina_ssi_visual_root,khm2,0.0,0.0,0.0,0.0,0.0,0.0,1.0,-0.00015851614710597945,-0.005654085999134243,0.17468325637160145,-0.004217180255537523,-0.005223064023696648,-0.7071097120055823,0.7070719837331125,0.0,0.0,0.0,0.0,0.0,0.0,-0.0022544870911761408,-0.06631152919053696,0.01873862110317607,-0.047006948330073135,0.07280893506317905,-0.48763861031747074
160608000000,hina_ssi_visual_root,khm2,0.0,0.0,0.0,0.0,0.0,0.0,1.0,-0.00015313224511316416,-0.005707328090219621,0.17470391262277726,-0.004170260945194429,-0.0052100987811542,-0.7070098287331479,0.7071722321111488,0.0,0.0,0.0,0.0,0.0,0.0,0.005383901992815278,-0.05324209108537841,0.02065625117581503,0.08448849597337285,-0.04612982211458521,0.2834033053757845
160609000000,hina_ssi_visual_root,khm2,0.0,0.0,0.0,0.0,0.0,0.0,1.0,-0.0001551920274167224,-0.0057283827439122146,0.17472620770534264,-0.004069040271353003,-0.005060768189616431,-0.7070318076629915,0.7071519316875292,0.0,0.0,0.0,0.0,0.0,0.0,-0.002059782303558224,-0.02105465369259376,0.02229508256537835,0.35437700619680274,0.06768202388817786,-0.05998173245856534
160610000000,hina_ssi_visual_root,khm2,0.0,0.0,0.0,0.0,0.0,0.0,1.0,-0.0001510730012076839,-0.005788091938752734,0.17474836171965472,-0.004053644440740288,-0.005060285189684248,-0.7070230638281373,0.7071607658062069,0.0,0.0,0.0,0.0,0.0,0.0,0.00411902620903849,-0.05970919484051899,0.022154014312078828,0.02244076707688222,-0.020927002345293922,0.02501034398284495
160611000000,hina_ssi_visual_root,khm2,0.0,0.0,0.0,0.0,0.0,0.0,1.0,-0.0001511452389510955,-0.005814829190929422,0.17477025656211048,-0.003982792366880158,-0.004952391771918725,-0.7070292100232788,0.7071557871887624,0.0,0.0,0.0,0.0,0.0,0.0,-7.223774341160154e-05,-0.026737252176688223,0.021894842455761815,0.25279572523517696,0.05230766819631043,-0.015890350683723856
160612000000,hina_ssi_visual_root,khm2,0.0,0.0,0.0,0.0,0.0,0.0,1.0,-0.00014781992759364796,-0.0058383358733263705,0.17479038920920578,-0.0038958674351091548,-0.0048815664588479305,-0.7069121498636498,0.7072737835527263,0.0,0.0,0.0,0.0,0.0,0.0,0.0033253113574475304,-0.0235066823969487,0.020132647095292625,0.2228705263781113,-0.020646690998311238,0.33271010494811776
160613000000,hina_ssi_visual_root,khm2,0.0,0.0,0.0,0.0,0.0,0.0,1.0,-0.00014865424741245426,-0.005862420958047528,0.17480742456704523,-0.0038543274219414885,-0.0048098176543368,-0.70707631096817,0.7071103876212683,0.0,0.0,0.0,0.0,0.0,0.0,-0.0008343198188062958,-0.024085084721157394,0.017035357839445403,0.16053012162231076,0.039887462044052295,-0.46338033039842874
160614000000,hina_ssi_visual_root,khm2,0.0,0.0,0.0,0.0,0.0,0.0,1.0,-0.00014562812588588296,-0.005888358777160304,0.17482215826074188,-0.003818280168075158,-0.004793158193778116,-0.7069059786998265,0.7072809792787644,0.0,0.0,0.0,0.0,0.0,0.0,0.0030261215265712962,-0.02593781911277594,0.014733693696643358,0.07421429525641733,-0.024462101875091912,0.4823484261149533
160615000000,hina_ssi_visual_root,khm2,0.0,0.0,0.0,0.0,0.0,0.0,1.0,-0.00014707083229511113,-0.005913978587801288,0.17483362381790554,-0.003822999594322458,-0.004771378645198841,-0.7070786718485694,0.707108457336489,0.0,0.0,0.0,0.0,0.0,0.0,-0.0014427064092281572,-0.025619810640984234,0.011465557163651182,0.024454283047460352,0.034508271619520074,-0.4884103210406182
160616000000,hina_ssi_visual_root,khm2,0.0,0.0,0.0,0.0,0.0,0.0,1.0,-0.00014450435457128105,-0.005941831977558476,0.17484355323577488,-0.0038293764511933065,-0.004804928549935265,-0.7069070034885471,0.7072798151767575,0.0,0.0,0.0,0.0,0.0,0.0,0.002566477723830079,-0.02785338975718788,0.009929417869351928,-0.056791092302753865,-0.035481162433796086,0.4852989309795062
160617000000,hina_ssi_visual_root,khm2,0.0,0.0,0.0,0.0,0.0,0.0,1.0,-0.00014701057260314753,-0.005970025153598572,0.17485137457164662,-0.0038748652351192777,-0.004826443543579661,-0.7070795529593459,0.7071069202383342,0.0,0.0,0.0,0.0,0.0,0.0,-0.0025062180318664814,-0.028193176040095885,0.007821335871729682,-0.0944307835411535,0.03089542996721118,-0.4887951792034331
160618000000,hina_ssi_visual_root,khm2,0.0,0.0,0.0,0.0,0.0,0.0,1.0,-0.00014481534703074167,-0.006001155732816037,0.17485850861443505,-0.003914981743072519,-0.004899041145035366,-0.7069077215872439,0.7072779831679638,0.0,0.0,0.0,0.0,0.0,0.0,0.002195225572405864,-0.031130579217465718,0.007134042788445144,-0.15973086242498832,-0.04295451119007082,0.48509189192560537
160619000000,hina_ssi_visual_root,khm2,0.0,0.0,0.0,0.0,0.0,0.0,1.0,-0.0001480098604416278,-0.006033019947274439,0.17486341791816506,-0.003991706222375195,-0.004949531679469639,-0.7070792785862974,0.7071056938050136,0.0,0.0,0.0,0.0,0.0,0.0,-0.003194513410886123,-0.031864214458402096,0.004909303729998904,-0.17958346317126553,0.034021177734972964,-0.4866187687680897
160620000000,hina_ssi_visual_root,khm2,0.0,0.0,0.0,0.0,0.0,0.0,1.0,-0.00014589267495957286,-0.006068105634417801,0.1748670817905479,-0.004044302633617077,-0.005047802942293895,-0.7069076226297808,0.707276308361573,0.0,0.0,0.0,0.0,0.0,0.0,0.0021171854820549525,-0.03508568714336162,0.003663872382856809,-0.2136907453740596,-0.061537351506334076,0.4842977456009012
160621000000,hina_ssi_visual_root,khm2,0.0,0.0,0.0,0.0,0.0,0.0,1.0,-0.00015033759778748253,-0.006104182204121595,0.17486880157529266,-0.004124936748855192,-0.005101902408629154,-0.7070787234007122,0.7071044013458336,0.0,0.0,0.0,0.0,0.0,0.0,-0.004444922827909663,-0.03607656970379423,0.0017197847447450298,-0.19021097750706953,0.03435572883961008,-0.4854522804509948
160622000000,hina_ssi_visual_root,khm2,0.0,0.0,0.0,0.0,0.0,0.0,1.0,-0.00014858663434333389,-0.006143909084045163,0.17486974693216484,-0.004161912696910485,-0.00518735601853294,-0.7069072734009209,0.7072749653657452,0.0,0.0,0.0,0.0,0.0,0.0,0.0017509634441486488,-0.03972687992356725,0.0009453568721658374,-0.1734788866005638,-0.0654045944714734,0.48399818020722213
160623000000,hina_ssi_visual_root,khm2,0.0,0.0,0.0,0.0,0.0,0.0,1.0,-0.0001533386593539774,-0.006185234904802117,0.17486992727862918,-0.0042169422195560665,-0.005212181762131,-0.7070780728728843,0.7071037048566239,0.0,0.0,0.0,0.0,0.0,0.0,-0.004752025010643521,-0.041325820756955005,0.0001803464643553767,-0.11259455561640144,0.03948580351242128,-0.48409926566185524
160624000000,hina_ssi_visual_root,khm2,0.0,0.0,0.0,0.0,0.0,0.0,1.0,-0.00015115176072261728,-0.006230751679779051,0.17487010194695482,-0.004224514563438338,-0.005259744625019395,-0.7069066181905482,0.7072747144650268,0.0,0.0,0.0,0.0,0.0,0.0,0.002186898631360135,-0.04551677497693382,0.00017466832564243424,-0.07831521273852145,-0.05332658280903577,0.48462898848976105
160625000000,hina_ssi_visual_root,khm2,0.0,0.0,0.0,0.0,0.0,0.0,1.0,-0.00015487830838020825,-0.0062778580567467955,0.17487018769298684,-0.00424905682219247,-0.005249799619143517,-0.7070781041474372,0.7071032030441854,0.0,0.0,0.0,0.0,0.0,0.0,-0.003726547657590969,-0.047106376967744217,8.574603202723789e-05,-0.02030101807656876,0.045512771621875565,-0.48540269148118165
160626000000,hina_ssi_visual_root,khm2,0.0,0.0,0.0,0.0,0.0,0.0,1.0,-0.00015197299104240252,-0.006329143620573387,0.1748713826829639,-0.00423062822364,-0.005267221743022677,-0.7069068278181403,0.7072744127593176,0.0,0.0,0.0,0.0,0.0,0.0,0.002905317337805728,-0.05128556382659146,0.001194989977041037,0.0010808643143739988,-0.047446238551752964,0.48467892613429164
160627000000,hina_ssi_visual_root,khm2,0.0,0.0,0.0,0.0,0.0,0.0,1.0,-0.00015514062707006025,-0.006382348845180982,0.17487346651292068,-0.004232394898614581,-0.005232670337006243,-0.7070789750073201,0.7071025591080574,0.0,0.0,0.0,0.0,0.0,0.0,-0.003167636027657723,-0.05320522460759553,0.0020838299567933777,0.046709580067901574,0.04810543736524643,-0.4867906171304192
160628000000,hina_ssi_visual_root,khm2,0.0,0.0,0.0,0.0,0.0,0.0,1.0,-0.00015186249964828,-0.0064399695429207746,0.1748778062852041,-0.0041971329420184625,-0.005229802025389469,-0.7069077138268651,0.7072740044550747,0.0,0.0,0.0,0.0,0.0,0.0,0.0032781274217802336,-0.057620697739792635,0.004339772283411654,0.05358282900587765,-0.04256567270435361,0.4849940017061809
160629000000,hina_ssi_visual_root,khm2,0.0,0.0,0.0,0.0,0.0,0.0,1.0,-0.0001545749649135724,-0.006499751303487005,0.1748840791122328,-0.0041874969360639405,-0.00518014404529264,-0.7070798737823937,0.7071023144276609,0.0,0.0,0.0,0.0,0.0,0.0,-0.002712465265292387,-0.059781760566230996,0.006272827028697471,0.08419732722876003,0.0533790984915819,-0.4865826003250984
160630000000,hina_ssi_visual_root,khm2,0.0,0.0,0.0,0.0,0.0,0.0,1.0,-0.00015080136534112996,-0.006564194189730794,0.17489383501723643,-0.004145791970740636,-0.005171159488241443,-0.7069086784859404,0.7072737742909346,0.0,0.0,0.0,0.0,0.0,0.0,0.0037735995724424275,-0.06444288624378856,0.00975590500361609,0.07134729881039022,-0.04306134922873522,0.48493366216813466
160631000000,hina_ssi_visual_root,khm2,0.0,0.0,0.0,0.0,0.0,0.0,1.0,-0.00015344170316406724,-0.006631020360514727,0.17490628358558208,-0.004137314508121727,-0.005120284954860317,-0.707080836378285,0.7071020832505213,0.0,0.0,0.0,0.0,0.0,0.0,-0.0026403378229372795,-0.06682617078393246,0.01244856834564004,0.08427599605433901,0.056775719318598636,-0.4865994664296729
