%time,field.header.seq,field.header.stamp,field.header.frame_id,field.wrench.force.x,field.wrench.force.y,field.wrench.force.z,field.wrench.torque.x,field.wrench.torque.y,field.wrench.torque.z
160471000000,0,160471000000,BR_wheel_link,22.94447893663555,22.538667857848953,4.420293381514813,-0.003951987452042897,-0.03442902079723752,0.4228120907815394
160472000000,1,160472000000,BR_wheel_link,-22.194130028533554,-22.617399560588975,5.24126059013903,0.005764538007774695,0.027309595389323562,-0.4227301024887086
160473000000,2,160473000000,BR_wheel_link,23.3445128109084,22.642294581834733,4.2227960660773665,0.00106463587803431,-0.03322009195701314,0.42272170399442127
160474000000,3,160474000000,BR_wheel_link,-22.266019807773798,-22.58031963248056,5.054936020883458,0.0070561985189740006,0.03127428017804802,-0.42271203584927275
160475000000,4,160475000000,BR_wheel_link,22.810194352710894,22.644061849274067,4.051783321594116,0.0007562742303846841,-0.031208362226229105,0.422926155816053
160476000000,5,160476000000,BR_wheel_link,-22.840918792480586,-22.652423225410654,5.021812353989859,0.003096436307174312,0.035497120781402894,-0.42281707758064546
160477000000,6,160477000000,BR_wheel_link,22.141070138161506,22.558056080893838,4.091250571344928,-0.0039547249362583406,-0.029687294893467706,0.4227007871135443
160478000000,7,160478000000,BR_wheel_link,-23.108431579995198,-22.735658620579045,5.147427531865221,-0.0009599264783762476,0.03556029983040436,-0.42261517799054715
160479000000,8,160479000000,BR_wheel_link,22.01930731593038,22.512218931963886,4.247134423361344,-0.005989098360284268,-0.03156622385133567,0.42254549191582785
160480000000,9,160480000000,BR_wheel_link,-22.831842838540258,-22.732988650888267,5.283409257798627,-0.00038138108621500706,0.03223428983499353,-0.4227788953018961
160481000000,10,160481000000,BR_wheel_link,22.65540308431961,22.506150417592984,4.344032991797109,-0.005717408678863485,-0.0334202499234534,0.42278555494712966
160482000000,11,160482000000,BR_wheel_link,-22.395673784331727,-22.65550211288876,5.263375518443361,0.0038720419163903383,0.027741804957210087,-0.4227215058896646
160483000000,12,160483000000,BR_wheel_link,23.24100364297561,22.583250551498352,4.323176062334048,-0.0017772812336736082,-0.03321589012849202,0.42265372668881673
160484000000,13,160484000000,BR_wheel_link,-22.224191280204614,-22.585660154575308,5.180574561713379,0.007247272959921393,0.02841796242793808,-0.42270015323432575
160485000000,14,160485000000,BR_wheel_link,23.192329411612743,22.670076124528848,4.246409574187491,0.0022020001668351177,-0.03208959413315373,0.4229181454905373
160486000000,15,160486000000,BR_wheel_link,-22.59551684969668,-22.610483849013942,5.166356332713228,0.005338113039334868,0.03331514322985561,-0.4228323392208143
160487000000,16,160487000000,BR_wheel_link,22.469044093168222,22.595599833799103,4.237239092984454,-0.0020005958803267433,-0.029629416219542435,0.42273212961855455
160488000000,17,160488000000,BR_wheel_link,-23.04872114720807,-22.71206311605383,5.240845223953876,0.00016552396293387182,0.03599459323799115,-0.4226120327924103
160489000000,18,160489000000,BR_wheel_link,21.96792200441338,22.519304018790933,4.284740398829536,-0.005850557947135528,-0.031054173468122725,0.42257780720961674
160490000000,19,160490000000,BR_wheel_link,-22.879097390844624,-22.75363461939469,5.323195425578693,-0.0015605852834433523,0.034886806318408,-0.4225428638078361
160491000000,20,160491000000,BR_wheel_link,22.236224263321127,22.481586239309813,4.274206969165803,-0.0071848388794809506,-0.034032456831351504,0.4226909026599594
160492000000,21,160492000000,BR_wheel_link,-22.496037399284717,-22.68653094047911,5.232286660280479,0.001991216793273794,0.030131778403797556,-0.42287377521949554
160493000000,22,160493000000,BR_wheel_link,22.977760590040404,22.561984412983012,4.197069844848888,-0.0029506592057638656,-0.034093281732290995,0.4226572051662876
160494000000,23,160494000000,BR_wheel_link,-22.198178577016353,-22.59738493920288,5.047710005718118,0.006703819958839486,0.027839936418901586,-0.4227127585409781
160495000000,24,160495000000,BR_wheel_link,23.246686366271405,22.665970844083258,4.075969998831431,0.002215240345465875,-0.033407625482734904,0.422768619955778
160496000000,25,160496000000,BR_wheel_link,-22.271222942170386,-22.57554394961433,5.035159845474323,0.006979932925184403,0.0330547043846482,-0.4227549154602096
160497000000,26,160497000000,BR_wheel_link,22.581842991206216,22.63037474870616,4.075990382230229,0.00015552180317133957,-0.03181523496289535,0.42297812148265646
160498000000,27,160498000000,BR_wheel_link,-22.845512096079226,-22.674270751785247,5.18511651375859,0.0020002468638566765,0.03683430688456647,-0.4228538539730534
160499000000,28,160499000000,BR_wheel_link,21.99059361694821,22.534794060086664,4.269805347768457,-0.005010833041163227,-0.03067747581966214,0.42268795395927095
160500000000,29,160500000000,BR_wheel_link,-23.01542239462962,-22.756683754282218,5.387078476670857,-0.001836129695578709,0.03571627996161466,-0.4226035189396238
160501000000,30,160501000000,BR_wheel_link,22.044367087023566,22.48636093898102,4.423984812028986,-0.007057864893850687,-0.03325613284806501,0.4225087874785142
160502000000,31,160502000000,BR_wheel_link,-22.610244969783803,-22.730881710250802,5.45073158842053,-0.00011601588521489715,0.03239122062672654,-0.42275858478644196
160503000000,32,160503000000,BR_wheel_link,22.71044339017441,22.519449951314336,4.387656300440274,-0.004950618244092827,-0.034717719927637336,0.4227798681165665
160504000000,33,160504000000,BR_wheel_link,-22.22432876882167,-22.635113239491783,5.2483898600000884,0.004921442989419773,0.02799244259677458,-0.4227283346177855
160505000000,34,160505000000,BR_wheel_link,23.264821318446117,22.632463622417415,4.208691055671366,0.0006572404614948144,-0.03391230104328827,0.4227009030930995
160506000000,35,160506000000,BR_wheel_link,-22.17748385879008,-22.576749738311776,5.044222035779704,0.007360997050840692,0.030398539254468775,-0.4227240776744528
160507000000,36,160507000000,BR_wheel_link,22.956841740669798,22.659781583659214,4.037268716075258,0.001557650813084062,-0.031995963651134364,0.42293407788193665
160508000000,37,160508000000,BR_wheel_link,-22.69511434050314,-22.630976216257114,5.003172882871291,0.004163650808452929,0.03482805340858011,-0.42282784959618863
160509000000,38,160509000000,BR_wheel_link,22.261425645222143,22.575285974883105,4.077431512408522,-0.0031185179105589302,-0.02976538123981921,0.42272064660483144
160510000000,39,160510000000,BR_wheel_link,-23.081275517537733,-22.726170727935173,5.145971987303257,-0.0005608924735556684,0.03599598845132632,-0.42261598470742734
160511000000,40,160511000000,BR_wheel_link,21.971231324132912,22.51606362320871,4.244835576287079,-0.005924975329408245,-0.031551799302304104,0.4225546413696005
160512000000,41,160512000000,BR_wheel_link,-22.873844207857612,-22.747320673761113,5.324851848531321,-0.0011034209817895769,0.03367563577854723,-0.42277473208975713
160513000000,42,160513000000,BR_wheel_link,22.465895533351723,22.48862026205297,4.367239201938488,-0.006574994167318213,-0.03346754472611402,0.4227906964767184
160514000000,43,160514000000,BR_wheel_link,-22.450875355094492,-22.674214773104463,5.319784251224648,0.002974489196985145,0.028628601294660435,-0.42271805555088454
160515000000,44,160515000000,BR_wheel_link,23.12322758803664,22.569935974641364,4.351567519131997,-0.0023666962260181115,-0.03364193324365273,0.42263318464290384
160516000000,45,160516000000,BR_wheel_link,-22.187696985029067,-22.5898984926217,5.204335600303441,0.0071791219976322955,0.02806224567957271,-0.42270363699718044
160517000000,46,160517000000,BR_wheel_link,23.18123686379059,22.672662673087498,4.222847217632346,0.002620930263806475,-0.03333900156965043,0.42279924922635803
160518000000,47,160518000000,BR_wheel_link,-22.37534078345614,-22.595152099238703,5.162247630194833,0.006053391278836198,0.033995068758383686,-0.4229561783899928
160519000000,48,160519000000,BR_wheel_link,22.501613350885247,22.60467787820147,4.163778735824545,-0.0011544399358472165,-0.030905422406653525,0.423015001532302
160520000000,49,160520000000,BR_wheel_link,-22.940282873459758,-22.70096830004789,5.1974173013347285,0.0007436663769723946,0.03655255350954798,-0.4226683407017188
160521000000,50,160521000000,BR_wheel_link,21.959950646718923,22.523427102739433,4.229870883982848,-0.005663913863907455,-0.030927929139449212,0.42261990330688104
160522000000,51,160522000000,BR_wheel_link,-22.940208131302285,-22.75603767724948,5.2864081342882026,-0.0017736005613891218,0.035200293398356196,-0.42256964537396846
160523000000,52,160523000000,BR_wheel_link,22.087285092735982,22.48281979839008,4.2876211964007185,-0.007135542684681997,-0.033056665629336984,0.4224666208469819
160524000000,53,160524000000,BR_wheel_link,-22.56804630897102,-22.702543251889697,5.260218353598042,0.001211842092363597,0.030432858094714167,-0.422762999257436
160525000000,54,160525000000,BR_wheel_link,22.954392701003705,22.547234505677334,4.2583939728289035,-0.0036418782132614123,-0.0341320659386389,0.42280784425142914
160526000000,55,160526000000,BR_wheel_link,-22.227508337042156,-22.60853998582589,5.114456804009397,0.0061118263454395085,0.027138274861250554,-0.42273573588797414
160527000000,56,160527000000,BR_wheel_link,23.35734023341216,22.650063121775005,4.168967299293266,0.0013930105326489324,-0.03305582287391819,0.4227293774324096
160528000000,57,160528000000,BR_wheel_link,-22.284446058853597,-22.573455045816548,5.071284610843147,0.007353488401938276,0.03126700698955233,-0.42271940010208625
160529000000,58,160529000000,BR_wheel_link,22.804415748964622,22.64563871376489,4.143805863370272,0.0008842884502890942,-0.031084463216519198,0.4229295868580487
160530000000,59,160530000000,BR_wheel_link,-22.859582919699935,-22.65690439107044,5.171346443256098,0.0029392967770688464,0.03564095194522668,-0.4228126096969725
160531000000,60,160531000000,BR_wheel_link,22.11763644955903,22.548389501818924,4.2710903470678945,-0.004375864856165873,-0.029777629813801016,0.42269171392547156
160532000000,61,160532000000,BR_wheel_link,-23.10082788979268,-22.748126606349512,5.340380337234413,-0.0014853820844846857,0.035710242132847514,-0.4226016549127063
160533000000,62,160533000000,BR_wheel_link,22.002828083896063,22.49063120204255,4.3987070798308885,-0.006958428441843936,-0.03192132531082135,0.4225268070301437
160534000000,63,160534000000,BR_wheel_link,-22.78357335563365,-22.738662791815525,5.393648350316293,-0.0005609506003348162,0.032064105626008074,-0.4227693033514698
160535000000,64,160535000000,BR_wheel_link,22.69460689359047,22.507876610912543,4.375762247884819,-0.00557522281542608,-0.03382838259417921,0.42277720044502565
160536000000,65,160536000000,BR_wheel_link,-22.331827734510718,-22.648464055990075,5.22097051115016,0.004248107373521673,0.027581608103888152,-0.4227238062589913
160537000000,66,160537000000,BR_wheel_link,23.279897593079344,22.59361672534964,4.2084940810257265,-0.0012839842150986374,-0.033305653116667354,0.42266658182188194
160538000000,67,160538000000,BR_wheel_link,-22.210850924421923,-22.57465861360491,5.015685156601142,0.007672604687985499,0.02851966173685154,-0.42271332330276934
160539000000,68,160539000000,BR_wheel_link,23.180687925758434,22.678479378431398,4.059983830997043,0.002503099072129936,-0.03179622707254311,0.4229339993619389
160540000000,69,160540000000,BR_wheel_link,-22.64206564656179,-22.604124234583466,4.98667885194255,0.005521529061001337,0.033541862931929976,-0.4228347513380038
160541000000,70,160541000000,BR_wheel_link,22.422348287508825,22.596875941445127,4.101563841520148,-0.00205575258997534,-0.02910289836725914,0.42273933179978795
160542000000,71,160542000000,BR_wheel_link,-23.127986556383092,-22.711679499748794,5.154586845444738,8.871812577767585e-05,0.035967398547882765,-0.42261859772822896
160543000000,72,160543000000,BR_wheel_link,21.946742465384464,22.51615853356002,4.282888948907965,-0.006064583094900356,-0.03064873898847714,0.42257276861456233
160544000000,73,160544000000,BR_wheel_link,-22.92694070823693,-22.75716574500439,5.378590704854072,-0.0017332145814354342,0.03456738098111996,-0.42253603312594284
160545000000,74,160545000000,BR_wheel_link,22.25908144746735,22.47444642831953,4.4047031106537675,-0.00746431376599235,-0.0338129356625194,0.4226841696544911
160546000000,75,160546000000,BR_wheel_link,-22.500645365792135,-22.688789920968354,5.38129893958182,0.001999708242363207,0.029353776972959152,-0.4228767883058525
160547000000,76,160547000000,BR_wheel_link,23.068345471333927,22.558019521177354,4.381063968164122,-0.0030215875609385713,-0.03393096270203801,0.42265196541125943
160548000000,77,160548000000,BR_wheel_link,-22.17973967129703,-22.59672857015438,5.197035262947023,0.006877912846695213,0.02716174989044728,-0.4227075022632116
160549000000,78,160549000000,BR_wheel_link,23.325995965015977,22.663323782775596,4.207149019674349,0.002171567745135958,-0.033105045253292456,0.42276689724318983
160550000000,79,160550000000,BR_wheel_link,-22.28103948993099,-22.576852872440007,5.093748862411686,0.0069746668224954424,0.032714301543677805,-0.42274667662126475
160551000000,80,160551000000,BR_wheel_link,22.614450562280883,22.62895442598834,4.08547693043551,7.95079997220062e-05,-0.031507156683004515,0.42297372245807807
160552000000,81,160552000000,BR_wheel_link,-22.87673605323995,-22.676971552539385,5.12221022061762,0.0018437428349643858,0.03682807510540729,-0.4228473901725444
160553000000,82,160553000000,BR_wheel_link,21.965638095454235,22.526644891949132,4.1798632658617745,-0.005460042282966479,-0.029693595921291404,0.4226950472419294
160554000000,83,160554000000,BR_wheel_link,-23.125955153471345,-22.75177285118077,5.225354956254226,-0.0016356538114282101,0.03463164265666301,-0.4226162292334265
160555000000,84,160555000000,BR_wheel_link,22.13436570432381,22.48726899079825,4.309816241670654,-0.007050732893414942,-0.031872490751367846,0.4225162373467569
160556000000,85,160556000000,BR_wheel_link,-22.732984427062917,-22.71776048655194,5.290063905584877,0.0004561355181112453,0.030692164131674905,-0.42276429672517435
160557000000,86,160557000000,BR_wheel_link,22.854651499009044,22.519535551453963,4.353417961997161,-0.005017335040349123,-0.03266373442254088,0.4227848900565177
160558000000,87,160558000000,BR_wheel_link,-22.399995202890615,-22.62138994064448,5.170099928487531,0.0055770754428292515,0.02552951016643722,-0.4227429484168421
160559000000,88,160559000000,BR_wheel_link,23.46914480288558,22.62167613851782,4.330240354204304,0.00010738958499947681,-0.03063616884605047,0.4227194752172362
160560000000,89,160560000000,BR_wheel_link,-22.46592834659376,-22.5650515408431,5.078590143935624,0.00800453556214054,0.026685396092569782,-0.42274184156795463
160561000000,90,160561000000,BR_wheel_link,23.277793095918152,22.650235293228246,4.308850219748231,0.0011711576649886697,-0.02813954853217674,0.4229389094066125
160562000000,91,160562000000,BR_wheel_link,-23.01796715663086,-22.623304225292145,5.127074920643877,0.004684681111155308,0.030675108121525393,-0.4228239835303178
160563000000,92,160563000000,BR_wheel_link,22.63123664565635,22.56343461241777,4.396075471968897,-0.0036469670714176635,-0.026106731009348367,0.42271280840916564
160564000000,93,160564000000,BR_wheel_link,-23.386786563106618,-22.73336924011561,5.283307312623588,-0.0007831124724185912,0.032781432377123505,-0.4225980715118014
160565000000,94,160565000000,BR_wheel_link,22.251118338601763,22.50393259162203,4.4794152798298255,-0.00645464562071062,-0.0290530954888351,0.4225429821262481
160566000000,95,160566000000,BR_wheel_link,-23.072779473790323,-22.753569277941875,5.376123428944292,-0.0013130230849703226,0.03125244176705605,-0.42276208326470155
160567000000,96,160567000000,BR_wheel_link,22.678526820300746,22.480358276780578,4.454885773262706,-0.006973277802720636,-0.03130407420633397,0.4227752437411794
160568000000,97,160568000000,BR_wheel_link,-22.634806025943895,-22.676152615655432,5.238216095603744,0.002919383523682751,0.026744023021645188,-0.4227130083959209
160569000000,98,160569000000,BR_wheel_link,23.27905231246384,22.567009308811887,4.309651210009944,-0.0025199493375065805,-0.03158645024763397,0.4226403957307808
160570000000,99,160570000000,BR_wheel_link,-22.379052075745772,-22.582950390673968,5.0425425967525985,0.007512351482696819,0.026280890047908925,-0.42272322750396607
160571000000,100,160571000000,BR_wheel_link,23.33268401064329,22.66729974162501,4.143944750711501,0.0023787992445887356,-0.031490587019651156,0.4228288884445577
160572000000,101,160572000000,BR_wheel_link,-22.534755444142014,-22.568687804075882,5.033344482576327,0.007298617513988139,0.03184591357414322,-0.42297703460192676
160573000000,102,160573000000,BR_wheel_link,22.70302163013978,22.626818978621646,4.179194950014294,-9.753051153222436e-05,-0.02930934408557427,0.4230165137870918
160574000000,103,160574000000,BR_wheel_link,-23.06118391922684,-22.627177228731778,5.291168691743462,-0.057703431686897545,0.03485721237595659,-0.4226856490488019
160575000000,104,160575000000,BR_wheel_link,22.14575741541477,22.53421642213599,4.821229303311026,-0.06557323066969563,-0.028407986500299433,0.4228195331395442
160576000000,105,160576000000,BR_wheel_link,-23.28042960017003,-22.858848027397553,6.569606739934891,-0.0641455889401739,0.03321484190630875,-0.42280242520733063
160577000000,106,160577000000,BR_wheel_link,22.276705492713145,22.178072700058742,6.683918364655418,-0.07229069514004671,-0.029826261697861577,0.42247445753543766
160578000000,107,160578000000,BR_wheel_link,-22.791433717248253,-23.16788662158905,8.41794310382394,-0.04175664702549811,0.027376598585189506,-0.4225854710212409
160579000000,108,160579000000,BR_wheel_link,23.029265042444102,21.845891591026284,7.85556385760867,-0.008294022453516021,-0.032116849035329006,0.42219967706462197
160580000000,109,160580000000,BR_wheel_link,-21.990901839880753,-23.434814635551138,8.986699132931637,0.0034328302764957217,0.021730372264856263,-0.4226783171143268
160581000000,110,160581000000,BR_wheel_link,23.798656581266048,21.724981734501373,7.764097297335688,0.0012373471439012425,-0.03133064694754485,0.4223527725964043
160582000000,111,160582000000,BR_wheel_link,-21.801789762804734,-23.478621449030992,8.301071576380014,0.010471127605619926,0.027117953896029,-0.4222811836904965
160583000000,112,160583000000,BR_wheel_link,22.919730582792987,21.701432224984913,6.256058933526805,0.0048926669314714975,-0.02893530185285716,0.42296149909372843
160584000000,113,160584000000,BR_wheel_link,-22.39379305645546,-23.448356827702735,6.748470375740406,0.009412089503837236,0.033244118033858516,-0.4223230253279799
160585000000,114,160585000000,BR_wheel_link,21.807493366071906,21.63860413832592,4.806134966653889,0.0005570607910906066,-0.029501787966968566,0.4226658722194759
160586000000,115,160586000000,BR_wheel_link,-22.52860581133753,-23.641967510540113,6.389060658105724,0.002940460471242742,0.034811116577464316,-0.4219494012315863
160587000000,116,160587000000,BR_wheel_link,21.367259706408724,21.463852617654993,4.365810767806239,-0.0062112773164559945,-0.028937098672916706,0.4220648423560767
160588000000,117,160588000000,BR_wheel_link,-22.58450686414271,-23.887835221649485,6.184902373030123,-0.0025440918670595184,0.03335829757239589,-0.4217166138432871
160589000000,118,160589000000,BR_wheel_link,21.402292365353553,21.29839435528622,4.204034701485547,-0.00883516761878106,-0.028987200179971077,0.4212884941329565
160590000000,119,160590000000,BR_wheel_link,-22.40433377605942,-23.54928873684826,6.034499839161829,-0.0027022643284068484,0.030413325480767934,-0.42239678967036737
160591000000,120,160591000000,BR_wheel_link,21.96322471531459,21.66914055535894,4.135353241124627,-0.006530224944104816,-0.028065316732273814,0.42228874277847783
160592000000,121,160592000000,BR_wheel_link,-22.339094069362474,-23.57946804788579,5.479600652067923,0.0012932419367884351,0.02967887574893857,-0.42278931254095176
160593000000,122,160593000000,BR_wheel_link,21.974879337331135,21.616492284286846,3.509256886061586,-0.0032056351693557166,-0.026505779719991494,0.42303351771789227
160594000000,123,160594000000,BR_wheel_link,-22.40220664940053,-23.66326529432197,5.7145309574590994,0.003355869840114226,0.02623287372892751,-0.4231927185143723
160595000000,124,160595000000,BR_wheel_link,22.327189783724574,21.62719240479192,3.791235680489439,-0.001661681681018658,-0.02683162679944346,0.42346806862515235
160596000000,125,160596000000,BR_wheel_link,-22.20494812725861,-23.653974259641135,6.08919683900864,0.003919368122965703,0.025515786491324285,-0.4238900604687412
160597000000,126,160597000000,BR_wheel_link,22.498134354649387,21.487155913147674,4.3857482889815875,1.7085810719134725e-05,-0.031105325805298723,0.423568849863841
160598000000,127,160598000000,BR_wheel_link,-21.47064081541897,-23.83601948315828,7.197578578254998,0.0045301421870832855,0.02799132378204355,-0.42357555225041676
160599000000,128,160599000000,BR_wheel_link,22.175509184975976,21.199585711073883,5.3425618422919765,-0.002332443684188857,-0.03026265484217135,0.4236981182494966
160600000000,129,160600000000,BR_wheel_link,-21.60903048851375,-23.698910018832056,7.270025991172581,0.006256144086865232,0.02798326312860221,-0.42333028747261814
160601000000,130,160601000000,BR_wheel_link,22.016323058868316,20.982500193115488,5.964231183785043,-0.0018578428069108363,-0.03140380496911224,0.42320009572386497
160602000000,131,160602000000,BR_wheel_link,-21.334229554424187,-23.896654900878616,7.9985819207605475,0.00697111451255386,0.029576816687932713,-0.4230983324958822
160603000000,132,160603000000,BR_wheel_link,21.73300315292068,20.73170013406306,6.465255831347092,-0.0022460831053952596,-0.033018779043247605,0.42319166524151763
160604000000,133,160604000000,BR_wheel_link,-21.07433655021998,-24.15037534604343,8.778720391570502,0.006132202404496027,0.03217488329484397,-0.42304127997812957
160605000000,134,160605000000,BR_wheel_link,21.331301830790345,20.857102116421096,6.005553744401573,-0.0015918118138372379,-0.031847572790838136,0.4240178858194985
160606000000,135,160606000000,BR_wheel_link,-21.30432193889663,-24.342225143785004,9.111402650051035,0.005187415938590822,0.03104973063600802,-0.42406031268877603
160607000000,136,160607000000,BR_wheel_link,21.305569579464155,20.634928759071304,6.243417305990291,-0.002711045473887441,-0.030820098325483238,0.42396069059318015
160608000000,137,160608000000,BR_wheel_link,-23.32960294076055,2.5559204095310117,7.388913863011066,-0.04114236880577645,0.032710244897981584,-0.3356205767968792
160609000000,138,160609000000,BR_wheel_link,12.897791331728657,22.62105471555648,2.904907534536331,-0.08358664498641102,-0.03328920125716986,0.15017908532538152
160610000000,139,160610000000,BR_wheel_link,0.007577330449478977,-27.96530265624473,7.838491163638273,0.10294749429140686,0.026949521987901435,-0.03783353708680791
160611000000,140,160611000000,BR_wheel_link,-0.9946822117584264,26.726088344845923,-0.3008712481081342,-0.07145152309248533,-0.022440036600030824,0.018545645343509616
160612000000,141,160612000000,BR_wheel_link,4.259697301843121,-29.732665892262062,2.412881939817572,0.00914270181089923,0.02018529063484564,-0.15205914075296117
160613000000,142,160613000000,BR_wheel_link,13.87715156656169,24.556868353808156,-0.0909408391198778,0.01967314671062812,-0.01299433575736821,0.3462381168289312
160614000000,143,160614000000,BR_wheel_link,-22.107631278305153,-22.64544270766659,2.2022110086364552,0.026384114864117198,0.012811225299284308,-0.41135318546479543
160615000000,144,160615000000,BR_wheel_link,22.844827841686175,22.62326890498342,-0.09235160493029917,0.01584088673899498,-0.010690512420501135,0.4221064022540644
160616000000,145,160616000000,BR_wheel_link,-23.55574037075791,-22.639326069370117,2.9053786118255673,0.024797917913159846,0.013823540190290789,-0.4235981872322498
160617000000,146,160617000000,BR_wheel_link,22.65183521869383,22.03287507785648,0.9968528272422511,0.012084691133211822,-0.012467439309329783,0.42366862422661616
160618000000,147,160618000000,BR_wheel_link,-23.082687869182834,-23.416611284669088,4.747557803540671,0.019846635167990005,0.014555659794175238,-0.4237452917094812
160619000000,148,160619000000,BR_wheel_link,22.409248319806668,21.559026790006477,1.7648634145599014,0.0065683035217500955,-0.01533244548527031,0.4227976956986626
160620000000,149,160620000000,BR_wheel_link,-22.56260083275638,-23.720466743128586,5.32058786058906,0.010163102453414025,0.020886958700591554,-0.4227384247936204
160621000000,150,160621000000,BR_wheel_link,21.64732761392305,21.341899032254222,3.4172318675356466,-0.006866611749798734,-0.02078240491635365,0.4222389998432043
160622000000,151,160622000000,BR_wheel_link,-21.93808999617938,-24.076603254471017,8.119703772059069,-0.005618126473814342,0.02175546922681597,-0.42216937828273493
160623000000,152,160623000000,BR_wheel_link,21.630537557543878,20.893112101878174,6.046324506567998,-0.01846436540845197,-0.023102493835648275,0.42171018828280293
160624000000,153,160624000000,BR_wheel_link,-21.408230332460054,-24.451979323748684,10.165441239651502,-0.011065007499654592,0.01909153099044015,-0.4217955026151467
160625000000,154,160625000000,BR_wheel_link,22.055537749595704,21.11148902081295,6.532588635406657,-0.01757220752786606,-0.020658985720659176,0.42252321007612936
160626000000,155,160626000000,BR_wheel_link,-21.727525236669194,-24.118543412638715,10.30489252872394,-0.007063705735602631,0.01855146202360155,-0.42243891430466346
160627000000,156,160627000000,BR_wheel_link,21.961837889888525,20.915930701812613,6.717982298127653,-0.013729830633073349,-0.019035410133291873,0.4231469795232755
160628000000,157,160628000000,BR_wheel_link,-21.916662959591953,-24.261477767842546,10.47388389262714,-0.002561139631332586,0.017219342208905586,-0.42320095528673085
160629000000,158,160629000000,BR_wheel_link,22.028857914065746,20.752665898022748,6.862121120036068,-0.009075754055018877,-0.018544822343884666,0.4232451774977946
160630000000,159,160630000000,BR_wheel_link,-21.886992209150762,-24.34282614291512,10.375288485616412,0.0035621767495746842,0.018394730287098662,-0.4232374958713721
160631000000,160,160631000000,BR_wheel_link,21.784034267098196,20.665379965652086,6.513061568770723,-0.003593151050910338,-0.019141814796855172,0.4233328007296622
160632000000,161,160632000000,BR_wheel_link,-21.79135881881289,-24.328570757366435,9.936986738886935,0.009910502541100399,0.019804791027095377,-0.42340816229670275
160633000000,162,160633000000,BR_wheel_link,21.51066366118777,20.654773743344364,5.7381823430766365,0.0010311965333641181,-0.019373434520491572,0.4235182153862789
160634000000,163,160634000000,BR_wheel_link,-21.775150546269966,-24.25804802390999,9.157823009013981,0.013574043628792819,0.02158158390801474,-0.4235691811299559
160635000000,164,160635000000,BR_wheel_link,25.087246719941987,20.174729657506955,2.159157461257678,-0.08132925360001583,-0.025242189462479882,0.25287162745857134
160636000000,165,160636000000,BR_wheel_link,-2.3822839701246163,28.059349644956708,0.7148512440794486,-0.06629821494622633,0.03193787618770861,-0.04297976063135845
160637000000,166,160637000000,BR_wheel_link,-2.9276083100491457,-27.53256453513119,4.3712148170913405,0.11769030180236419,-0.02674589242449414,-0.0033205220680377306
160638000000,167,160638000000,BR_wheel_link,2.937305292327307,28.009502284316035,-2.764650725777472,-0.05964038047119612,0.018771025651354415,0.01046252434946766
160639000000,168,160639000000,BR_wheel_link,-2.2796946395370723,-26.95810373489333,4.079713160401637,0.11564787552567851,-0.0141206396435501,-0.012203624021837008
160640000000,169,160640000000,BR_wheel_link,1.9938275303317312,28.051395931520293,-3.1661048281102375,-0.06712043098383214,0.010104101610249813,0.01266268464622994
160641000000,170,160641000000,BR_wheel_link,0.37075922536816336,-0.6732595063738355,-0.6297497564184873,-0.016799647827803202,-0.010515311202660436,-0.0977434632188864
160642000000,171,160642000000,BR_wheel_link,9.349660104046132,26.194060636177095,-0.6233720951719623,0.015816160874208125,0.013100834842330194,0.28258775905746963
160643000000,172,160643000000,BR_wheel_link,-22.639216605190267,-22.670900978367445,2.0788440494290845,0.02591019671705279,-0.015033716968817954,-0.3990076464386527
160644000000,173,160644000000,BR_wheel_link,24.722920807071954,22.993534743857374,-0.24984200183171276,0.014568484634175734,0.012040683171623118,0.4186220972482822
160645000000,174,160645000000,BR_wheel_link,-24.645925660019945,-22.238966513788515,3.334748023327,0.022568383896000452,-0.009407432760803022,-0.42201200497313696
160646000000,175,160646000000,BR_wheel_link,24.453677679949696,22.72935886598926,1.1043187139465873,0.009813691137564041,0.008186025620576633,0.4226461901142405
160647000000,176,160647000000,BR_wheel_link,-24.317772882266684,-22.403332671817914,4.947443501035297,0.018389458274854806,-0.006049746071398056,-0.422938743732648
160648000000,177,160648000000,BR_wheel_link,24.05309806797797,22.555268661451713,1.52148224233832,0.007199687184930261,0.005567120971336407,0.42301893927822565
160649000000,178,160649000000,BR_wheel_link,-24.008554613495043,-22.546495481275127,5.148334263482629,0.01577864468874363,-0.0038163499124760003,-0.4231310481208068
160650000000,179,160650000000,BR_wheel_link,23.75730605859533,22.358218579398326,1.9576599678268376,0.001906043531314549,0.0030527208454229956,0.4231442454948926
160651000000,180,160651000000,BR_wheel_link,-23.66513926312795,-22.855333011543333,7.47393549244892,0.0029419238372497655,-0.0013102318308656502,-0.42319787905712564
160652000000,181,160652000000,BR_wheel_link,23.42335393711732,21.956567484480573,5.5433102049356835,-0.014100801595395092,-5.179755295813493e-05,0.4231470916989824
160653000000,182,160653000000,BR_wheel_link,-23.20863804851774,-23.2966130271127,10.614081485690603,-0.010153085267324922,0.00019381407210548537,-0.42305407019472363
160654000000,183,160654000000,BR_wheel_link,23.29704620445809,21.654882004432725,6.544559645942302,-0.01651940405241285,-0.004951423705140583,0.4232415663727397
160655000000,184,160655000000,BR_wheel_link,-22.470546173675682,-23.48800251340506,11.002247489669738,-0.007118132554328351,0.00112850718016891,-0.42308936948066284
160656000000,185,160656000000,BR_wheel_link,23.242308527518425,21.42442158732377,6.735085955692444,-0.014053889874002391,-0.003821754640408313,0.42351404690994515
160657000000,186,160657000000,BR_wheel_link,-22.533526981481486,-23.683968480064895,11.265804014006703,-0.004150762480708525,0.001076826150255245,-0.42327615553766623
160658000000,187,160658000000,BR_wheel_link,23.124411670204058,21.201792633249852,6.8958818202385155,-0.01141181714519269,-0.003067219839813839,0.42356256903671846
160659000000,188,160659000000,BR_wheel_link,-22.572518587711176,-23.855095271109075,11.555952629911827,-0.00018746282915571683,0.001913741297632601,-0.4233704159864026
160660000000,189,160660000000,BR_wheel_link,22.884351880298226,21.010950878259436,7.032038303789218,-0.00783392451779272,-0.002813930149702203,0.4236023132543005
160661000000,190,160661000000,BR_wheel_link,-22.515487659923327,-24.142540972287847,12.673330168660211,0.002986067536219215,0.0009439819353515114,-0.4235866012377591
160662000000,191,160662000000,BR_wheel_link,22.937872009155154,20.65771828818775,8.11562907198979,-0.005859574255940887,-0.0032837095087405836,0.42369648789389674
160663000000,192,160663000000,BR_wheel_link,-22.397720252760212,-24.24810412349229,12.481553995590854,0.006636306726620918,0.0048872851784898695,-0.4234678392309808
160664000000,193,160664000000,BR_wheel_link,22.283890874118683,20.577114884379597,7.336028009135655,-0.0029457266736030744,-0.004008909545209013,0.4237535773156717
160665000000,194,160665000000,BR_wheel_link,-22.485480336932255,-24.238234406349232,11.573543004014892,0.008628486275200775,0.008602062445511115,-0.42374790527808304
160666000000,195,160666000000,BR_wheel_link,21.61878969939633,20.580222886407743,6.1024446506515195,-0.0018474667742602905,-0.004897256393638661,0.42370576447328934
160667000000,196,160667000000,BR_wheel_link,-22.56061485125894,-24.18135161935705,10.440420634617931,0.008814094441729889,0.012088294402912064,-0.4239456620748782
160668000000,197,160668000000,BR_wheel_link,21.03498406378999,20.61810475507644,4.775260649572101,-0.0024239215470258633,-0.007653513200829321,0.42335306007637835
160669000000,198,160669000000,BR_wheel_link,-22.288189895293115,-24.18565329197421,9.476945391782754,0.006250245802553737,0.01454006986603761,-0.4238905272363906
160670000000,199,160670000000,BR_wheel_link,20.846589150052175,21.43966110977019,3.447719438919888,-0.005133106321655567,-0.01269295564939762,0.42366638048412386
160671000000,200,160671000000,BR_wheel_link,-21.659621827158375,-23.56618081109855,8.575495113312742,0.0022458733110440323,0.013564246833679773,-0.42523886868425503
160672000000,201,160672000000,BR_wheel_link,21.326907561990676,21.295863857254332,2.685041202134424,-0.005333006396113549,-0.014494957890088738,0.4242956723298355
160673000000,202,160673000000,BR_wheel_link,-21.090017659324957,-23.67963866686888,8.091825719972158,0.002781260399647711,0.01132143365818149,-0.4240523590524569
160674000000,203,160674000000,BR_wheel_link,21.594083514425915,21.23015892528011,2.3458203629217835,-0.004027665623359689,-0.011785101181040786,0.42432234061288066
160675000000,204,160675000000,BR_wheel_link,-21.216032505788355,-23.684113991841567,7.929451475557808,0.0054176626826274105,0.006930951784988323,-0.4243935110637086
160676000000,205,160676000000,BR_wheel_link,22.037265529939486,21.183362195049842,2.516715676846062,-0.002767322632273746,-0.0068450684171387725,0.42493273684657007
160677000000,206,160677000000,BR_wheel_link,-21.66477935558835,-23.711236950417433,8.226044206534766,0.005227382555920377,0.0031020088406518583,-0.4245083171855714
160678000000,207,160678000000,BR_wheel_link,26.21141231586448,20.54033642056204,0.4794713295832133,-0.08839025885057053,-0.01325372600919993,0.2545046553841674
160679000000,208,160679000000,BR_wheel_link,0.7227322425147081,-29.785374246091312,7.204390055266774,-0.004925951019049104,0.017769904275161928,-0.1950116304187405
160680000000,209,160680000000,BR_wheel_link,14.14648730849245,22.929499780870028,1.2573642695371612,0.007550480380718238,-0.0013609289578129808,0.3546028408896132
160681000000,210,160681000000,BR_wheel_link,-21.543414676098234,-23.599862256490816,6.983648254074695,0.023613586316667007,-0.0013255284613736542,-0.4127740813853351
160682000000,211,160682000000,BR_wheel_link,22.370686499547688,21.39470710060265,1.642951599105713,0.014513907684676487,0.0006063957961943972,0.4222669611869932
160683000000,212,160683000000,BR_wheel_link,-22.2048790190395,-23.504711660739762,7.621986509142006,0.02555981086625435,-0.0034540894035562895,-0.42369949194516304
160684000000,213,160684000000,BR_wheel_link,22.723879197835757,21.255173933781563,1.841881004430753,0.014318261130673547,0.0026915358283527485,0.42417648360710425
160685000000,214,160685000000,BR_wheel_link,-22.33276691447322,-23.44574234967004,7.514942821818604,0.026033863719254216,-0.003927463936168455,-0.42392982567002574
160686000000,215,160686000000,BR_wheel_link,22.62102411209051,21.20002200769364,1.8074152248979283,0.013813109345887227,0.001413068338417228,0.42424493201395247
160687000000,216,160687000000,BR_wheel_link,-22.044123370071855,-23.5258701795717,7.8230430420274795,0.023384871053476645,-0.0018262861726708536,-0.42408044337026696
160688000000,217,160688000000,BR_wheel_link,26.228220563443966,20.41379935121047,0.8846579736750888,-0.08036236554565296,-0.014632708123410647,0.25430611212842025
160689000000,218,160689000000,BR_wheel_link,-2.0154387208130027,27.372206946421226,1.620524766569682,-0.07618941798419515,0.024317285405819438,-0.04425363400356934
160690000000,219,160690000000,BR_wheel_link,-2.114266224402292,-28.83782949708493,9.34281730048895,0.10580498039817454,-0.02220958115564638,-0.0016596366985565246
160691000000,220,160691000000,BR_wheel_link,2.7343526584570794,26.131704055615923,0.2261842713630094,-0.07081359720996074,0.016898129199709323,0.009910914421134003
160692000000,221,160692000000,BR_wheel_link,-2.136763663149714,-28.65866166013708,9.765509583449314,0.10581339439609107,-0.0136572862148105,-0.011342758766308155
160693000000,222,160693000000,BR_wheel_link,1.9974880955555068,26.042858555298245,0.09399106560046867,-0.07432670946804053,0.011580925330449273,0.012060981916174135
160694000000,223,160694000000,BR_wheel_link,-1.7906493098778944,-28.756576959029385,10.293737064655055,0.10290445563735737,-0.00779522056736549,-0.012534571259486054
160695000000,224,160695000000,BR_wheel_link,1.3904004664234175,25.81605817143738,1.1404946927924544,-0.08197718417939998,0.007082339980082633,0.012919766029116694
160696000000,225,160696000000,BR_wheel_link,-1.6887188363960846,26.19427718841478,0.8851886997335652,-0.078374805249517,-0.0038205389072324064,-0.0019750902854032606
160697000000,226,160697000000,BR_wheel_link,-0.24396221433874596,-28.67136337226699,10.350176934900428,0.10430454450931084,0.0033991233017153857,-0.011367179433182412
160698000000,227,160698000000,BR_wheel_link,0.2873263441286597,25.84436938552746,-0.13642261238398815,-0.07280687499941586,-0.0011792723046620004,0.013275310159013527
160699000000,228,160699000000,BR_wheel_link,-0.6683845971594513,-28.642541729326524,10.436047964596892,0.10501216474157711,0.0023128850831777028,-0.013630688128994643
160700000000,229,160700000000,BR_wheel_link,0.3806688357597393,25.82229666525296,-0.22067386163385347,-0.07703395440549751,-0.0006437206148466061,0.013318786715879759
160701000000,230,160701000000,BR_wheel_link,-0.5681953377236476,-29.23097882073946,11.45004515857197,0.09895653148787521,-0.0035597977905426938,-0.013476132173456338
160702000000,231,160702000000,BR_wheel_link,1.2488959662836459,25.217523929160375,0.907532484045316,-0.08506194848766474,0.002216351069865177,0.013507228555752945
160703000000,232,160703000000,BR_wheel_link,-0.7688359034851933,-29.36570945019276,12.196039800445813,0.09375166660542798,-0.0026693520916129163,-0.013219836098232966
160704000000,233,160704000000,BR_wheel_link,1.027548514682822,24.999614850100293,1.6737875836434544,-0.09191122189999824,0.003663872043695686,0.013293607673131341
160705000000,234,160705000000,BR_wheel_link,0.8319103029891125,-29.84667191905222,11.814240370660995,0.04761621829069336,-0.008963828317390054,-0.09477857968873248
160706000000,235,160706000000,BR_wheel_link,12.217164547348235,22.776574612863566,2.2466582950649148,-0.08996016197981037,0.009794742348911334,0.10783723030607135
160707000000,236,160707000000,BR_wheel_link,-2.5397597336345745,-29.122374004241518,12.918153755109056,0.0901571249313206,-0.00016504490255269826,-0.029354742628983382
160708000000,237,160708000000,BR_wheel_link,0.8773587376535357,24.850854638207764,1.8092019325734008,-0.08773229659165203,0.00021187391139768959,0.016128933819233332
160709000000,238,160709000000,BR_wheel_link,-0.7413019759273682,-29.54021327349487,12.981657494242326,0.0903230415730343,0.0023513757620883197,-0.014194004249581893
160710000000,239,160710000000,BR_wheel_link,0.3919647030006563,24.81249674860135,1.6851879724816905,-0.08792395553831975,-0.00011299879366307694,0.01353193343761273
160711000000,240,160711000000,BR_wheel_link,-0.7254651104124145,-29.58080149108392,13.102436650672193,0.09166758611795033,0.0025305984661585885,-0.014006617713443635
160712000000,241,160712000000,BR_wheel_link,0.36855690397800084,24.730324397951655,1.6782738625536056,-0.08751813340578916,-0.0007135412785014398,0.013489828919466797
160713000000,242,160713000000,BR_wheel_link,-0.8185838631529883,25.209073171851603,1.1938421722503652,-0.08410977152911144,0.001169756459242307,-0.002882594760691496
160714000000,243,160714000000,BR_wheel_link,-0.45888629356997834,-28.372585935771447,9.692841227415592,0.10326123880645702,-0.002859137983037891,-0.009731783647846957
160715000000,244,160715000000,BR_wheel_link,1.0271531667346443,26.039292234859243,-1.935319947079128,-0.0724284280485242,0.0012167668402648258,0.012532655097738233
160716000000,245,160716000000,BR_wheel_link,-0.6387723361830283,-28.203939393121054,9.537148348020255,0.10449255890268037,-0.001572773262229143,-0.012683170020101431
160717000000,246,160717000000,BR_wheel_link,1.0031340325998839,25.88583494092367,-1.9858500668189465,-0.07466914881829463,-0.00349210747476607,0.012587858267176335
160718000000,247,160718000000,BR_wheel_link,-0.03146757229608556,-27.91724313415777,8.880358692951296,0.1007972564947041,0.00439013203495119,-0.012585843061449109
160719000000,248,160719000000,BR_wheel_link,0.22355610081991825,26.325096038761515,-3.210158169956303,-0.07609755047320693,-0.0006121078646300846,0.014005913345544761
160720000000,249,160720000000,BR_wheel_link,-0.7856416399312247,-28.081558379515563,9.342228912993573,0.09960935210200722,0.0014247195033355372,-0.01382855541317532
160721000000,250,160721000000,BR_wheel_link,0.39630959132036997,26.2923483275204,-3.1832997592015126,-0.07708577870712593,0.0008843986229984236,0.013505466409531895
160722000000,251,160722000000,BR_wheel_link,0.8893056620230916,-1.4573115260289433,1.9333733823435706,-0.03070213074742108,-0.004702108803962335,-0.09435441482790054
160723000000,252,160723000000,BR_wheel_link,7.440665909426055,24.866514662919716,-0.4896315053682557,0.007288178942120639,0.025920296942350554,0.27764969864540545
160724000000,253,160724000000,BR_wheel_link,-22.88979193084504,-23.75242696002479,5.982074645734845,0.012732428675256644,-0.029814024791132838,-0.3968809019930281
160725000000,254,160725000000,BR_wheel_link,23.34456119388222,21.71643151534473,-0.4336722862624457,0.00735923973965612,0.03223642738038107,0.4155592753778516
160726000000,255,160726000000,BR_wheel_link,-24.663829103866483,-23.204445392948692,6.342458745573947,0.012677292576611491,-0.02679570910773869,-0.4201808660114161
160727000000,256,160727000000,BR_wheel_link,23.372284017110456,21.654426526274165,0.33194744282564914,0.006044004406448913,0.026677312924195874,0.4205898665698678
160728000000,257,160728000000,BR_wheel_link,-24.018488407766363,-23.13224957547319,8.100646803118824,0.009491284401743502,-0.024714055522824203,-0.4209562126204795
160729000000,258,160729000000,BR_wheel_link,23.223480778612164,21.620516625027317,2.118832444838252,0.0016975382854628133,0.023736410666523655,0.42108906607237473
160730000000,259,160730000000,BR_wheel_link,-23.608747344915926,-23.192712260012705,10.308923812853866,0.0045418866514494605,-0.0240154705227009,-0.42114278328900817
160731000000,260,160731000000,BR_wheel_link,23.13945206568576,21.465582189006987,3.2355512941474958,-0.0018336130152505365,0.024769189897389212,0.42092558856081774
160732000000,261,160732000000,BR_wheel_link,-23.746362924618797,-23.360066712304935,10.590044131215837,0.002648418740919113,-0.02179084323861683,-0.421547089833736
160733000000,262,160733000000,BR_wheel_link,22.712680169140604,21.28276246802351,3.236045093256868,-0.003438436425529248,0.026279781677920947,0.42079996382311907
160734000000,263,160734000000,BR_wheel_link,-24.01034358248927,-23.504450411137928,10.697048979841359,0.0018465651148604316,-0.02184514208646648,-0.42173544519265543
160735000000,264,160735000000,BR_wheel_link,22.592977106965858,21.1469383726371,3.2716524266117326,-0.003511264279285514,0.026576054524735007,0.4206947683093573
160736000000,265,160736000000,BR_wheel_link,-24.001220530324108,-23.62530225872237,10.829021082106454,0.002199843672043132,-0.022801138885658778,-0.4217068753025477
160737000000,266,160737000000,BR_wheel_link,22.740124249162584,21.051770106768206,3.307262324661747,-0.0014297464232134014,0.02378987500374593,0.42135771660490484
160738000000,267,160738000000,BR_wheel_link,-23.636741374098893,-23.740128405158696,11.087598241126937,0.0017075296865444994,-0.01814933226842948,-0.4217012767445142
160739000000,268,160739000000,BR_wheel_link,22.134404437193783,20.94702717904591,3.19026592910979,-0.0010347190161262645,0.01856423838607199,0.421020217287645
160740000000,269,160740000000,BR_wheel_link,-22.88518699307674,-23.75704572583637,11.052077775229664,0.004779455344258922,-0.019693983465170966,-0.4216493318142506
160741000000,270,160741000000,BR_wheel_link,22.495152562100863,20.819555721117457,3.2700502328505854,-0.0008145983056816704,0.01981922305467626,0.4215058097634829
160742000000,271,160742000000,BR_wheel_link,-22.86865798676744,-23.854768652730964,11.129667382821099,0.004941274376063958,-0.021833838485176907,-0.42135674050122757
160743000000,272,160743000000,BR_wheel_link,22.729809542715394,20.709060319596453,3.3340416061368505,-0.0006680462584913263,0.020631627628789742,0.4213992616333254
160744000000,273,160744000000,BR_wheel_link,-22.810536070361614,-23.95031173786843,11.222329474649454,0.004923459559627545,-0.02334217428015489,-0.4210918728735755
160745000000,274,160745000000,BR_wheel_link,26.805712833632455,19.83035299945205,0.7750589138023822,-0.08539779799274018,0.004303827550825662,0.2522376523785617
160746000000,275,160746000000,BR_wheel_link,-3.2500711597183565,26.717948977167264,0.6441563935401972,-0.08219085288636606,0.012960320915548077,-0.043507237039717116
160747000000,276,160747000000,BR_wheel_link,-1.2409076193403226,-28.662246851600592,12.302397666422928,0.09985542839231734,-0.02174083055928822,-0.0014747753750879043
160748000000,277,160748000000,BR_wheel_link,2.964039515988077,25.548261616796232,0.1234340034571129,-0.07581645198897036,0.00893126786902126,0.010640970182242372
160749000000,278,160749000000,BR_wheel_link,-0.961087444512542,-27.566843457197002,12.001727295603814,0.10131581209230056,-0.015264358799128493,-0.009183385124879392
160750000000,279,160750000000,BR_wheel_link,2.29248787332268,26.455831834954484,-0.9866149735648554,-0.07817339103015516,0.00752727724276946,0.012296260434336171
160751000000,280,160751000000,BR_wheel_link,-1.2421709513575176,-27.725214423582067,11.823002224279035,0.0979335981067143,-0.009730879934157203,-0.01195627812042283
160752000000,281,160752000000,BR_wheel_link,1.581647629808935,26.376693192032764,-1.3675632068347472,-0.07841748479436739,0.004919961551976348,0.013874804657090482
160753000000,282,160753000000,BR_wheel_link,2.625009693487221,-28.496341659576796,9.433891005308112,0.01245658194023085,-0.023791010724825305,-0.18150231213740184
160754000000,283,160754000000,BR_wheel_link,20.64525010974102,22.523994009359786,1.003082911586117,0.007273791888289722,0.04367830707146601,0.37855248114575996
160755000000,284,160755000000,BR_wheel_link,-24.66212031783328,-23.217074537293076,8.296344907757012,0.01279417541709295,-0.04294387750307716,-0.41124494289947217
160756000000,285,160756000000,BR_wheel_link,24.02687057882227,21.61438565558046,0.6888978934349441,0.00797412042427183,0.04227683675622278,0.41714762959079404
160757000000,286,160757000000,BR_wheel_link,-24.88490903738438,-23.003867187968318,8.534657299257022,0.013819961915228836,-0.041094861782521835,-0.41829094315438703
160758000000,287,160758000000,BR_wheel_link,23.938091064530763,21.661728667568912,0.9497587671210141,0.00954136509403696,0.03821656825291406,0.41903297570063486
160759000000,288,160759000000,BR_wheel_link,-24.297458574599215,-22.817129894254276,9.579865980037884,0.014920494482668,-0.04214868922832358,-0.41811952845658
160760000000,289,160760000000,BR_wheel_link,24.182491805005824,21.76451984729424,1.732194732425679,0.008989339416455357,0.03557406231730891,0.42017066950509535
160761000000,290,160761000000,BR_wheel_link,-23.827745546037136,-22.66858434361407,10.587518731789775,0.013812570407300643,-0.04398457477867361,-0.41808905976297683
160762000000,291,160762000000,BR_wheel_link,24.52117433461793,21.826570878916716,2.9574800621658364,0.006503424266513071,0.03312087762529299,0.42031018826072186
160763000000,292,160763000000,BR_wheel_link,-23.37406751870371,-22.72731310607188,11.790081933223304,0.00958208513550784,-0.040205138863026235,-0.4184613895030328
160764000000,293,160764000000,BR_wheel_link,27.12977182288358,21.01192646712419,1.57853934743648,-0.06598357843991019,0.01957289850985363,0.28546170124092496
160765000000,294,160765000000,BR_wheel_link,-4.772175450477543,-26.515514266149687,12.141589349427779,0.010562144097180854,-0.026749257710802308,-0.2633700369462626
160766000000,295,160766000000,BR_wheel_link,22.147627541720226,22.11317371233587,2.876225686226604,0.00695289615648352,0.03186311402722912,0.3933452058638702
160767000000,296,160767000000,BR_wheel_link,-22.405513348343973,-23.149277018042756,11.076672977531265,0.012213478873671874,-0.04308270083087473,-0.4137957508764273
160768000000,297,160768000000,BR_wheel_link,24.875266038198625,21.338888357339513,2.470547990081518,0.006078287617779008,0.03806612353184614,0.4192485991396094
160769000000,298,160769000000,BR_wheel_link,-23.41898759904184,-23.05054917392506,10.481502522679252,0.012082539648815938,-0.042899203571518295,-0.41800680957972336
160770000000,299,160770000000,BR_wheel_link,24.516116694362008,21.29065176321979,2.1005070797662233,0.0038923734576810556,0.04322779269261723,0.4190063545332084
160771000000,300,160771000000,BR_wheel_link,-24.29062249557788,-23.20584716119217,10.617577877186367,0.007936928358972407,-0.04092324038576199,-0.4187762859398168
160772000000,301,160772000000,BR_wheel_link,23.92425991170799,21.131520823828005,2.363211996727356,0.0009544922430915144,0.04375761356354415,0.4185835995701634
160773000000,302,160773000000,BR_wheel_link,-24.531426916120378,-23.36741093934205,11.259763680550526,0.004407747784676375,-0.03867278419766426,-0.41908437218806344
160774000000,303,160774000000,BR_wheel_link,27.20812468047191,20.92192848461126,0.24137145504643479,-0.08782556639359132,0.02240863782075999,0.2508077938103073
160775000000,304,160775000000,BR_wheel_link,-0.9876906383199792,-27.288407573762072,11.531251980657068,0.003876073435255671,-0.016100005471999693,-0.22509757171305014
160776000000,305,160776000000,BR_wheel_link,20.082583498277387,22.269217846412094,1.3602637761053806,0.0006756131201058212,0.042332789751089395,0.3857905122475083
160777000000,306,160777000000,BR_wheel_link,-24.000380625057097,-23.052958910920584,9.677265338031216,0.008414232156089031,-0.04285565827456314,-0.4134241958552458
160778000000,307,160778000000,BR_wheel_link,23.907355340718205,21.409549099319744,0.7004501005191137,0.004922537609028463,0.045572330159953336,0.4172900693608592
160779000000,308,160779000000,BR_wheel_link,-24.444854143548458,-22.898774701334872,9.165261962505625,0.013499577456762208,-0.04318729378453204,-0.4186019148462124
160780000000,309,160780000000,BR_wheel_link,23.976096611008877,21.530738644382293,0.30614730287609687,0.011402973626850063,0.044623896592235215,0.41796988987720274
160781000000,310,160781000000,BR_wheel_link,-24.254091385754336,-22.723963158148987,9.531325800097829,0.02102920964401645,-0.04235920928368494,-0.4186268181197166
160782000000,311,160782000000,BR_wheel_link,23.813280248503972,21.64754338792182,1.030009493139523,0.017119341993301476,0.04604853535601669,0.41814382931601835
160783000000,312,160783000000,BR_wheel_link,-24.495296667929278,-22.697527938934197,10.764298908926628,0.022197447429913024,-0.04283770429144391,-0.4186332580490764
160784000000,313,160784000000,BR_wheel_link,27.67260324252018,20.63787724758224,0.037634981265963326,-0.07157579869574403,0.02424861988129744,0.25024505700717964
160785000000,314,160785000000,BR_wheel_link,-5.004210714536642,27.482975444475535,-0.7403478189714521,-0.06796783757792585,0.005359070440120511,-0.04425977383145982
160786000000,315,160786000000,BR_wheel_link,-1.0405340840024584,-27.321988804670767,13.671599544474233,0.1187543944630103,-0.005541144196431991,-0.0020734723644421013
160787000000,316,160787000000,BR_wheel_link,0.6780278741536395,26.412080080514468,-1.1553793591964443,-0.05850622344765794,0.010765265269631293,0.009478744318629877
160788000000,317,160788000000,BR_wheel_link,-2.01093454584962,-27.345490613571467,13.719173176196293,0.11382687099213115,-0.011135992928552423,-0.011495373054963811
160789000000,318,160789000000,BR_wheel_link,1.6656124209615986,25.848103327655792,-0.760466829270932,-0.07351311344039285,0.00947493380137939,0.011576724082968792
160790000000,319,160790000000,BR_wheel_link,-1.9786415548422591,26.07434671563183,-1.2046355326956193,-0.07356213714152235,-0.004758850623470022,-0.0004908683591896713
160791000000,320,160791000000,BR_wheel_link,-0.4505475260316339,-27.41406514034583,13.86730889898054,0.10889595445506202,0.0060816262179412064,-0.012477562294147758
160792000000,321,160792000000,BR_wheel_link,-0.4025521384882087,25.76318357714808,-1.8750214567843553,-0.07228266455467709,-0.00023836707994968507,0.013486169355344753
160793000000,322,160793000000,BR_wheel_link,-1.1764269308521649,-27.569850935544515,13.456036087829526,0.10619215122467363,0.006541962173499869,-0.014960791375502203
160794000000,323,160794000000,BR_wheel_link,-0.6641191551346155,25.467801385780586,-2.653164135016035,-0.07958886145051827,-0.00021543948138879446,0.013159606940776168
160795000000,324,160795000000,BR_wheel_link,0.70569864233508,-28.331178569859567,12.623568673860527,0.056017220065962305,-0.0064418698896323906,-0.09489644305359303
160796000000,325,160796000000,BR_wheel_link,11.029382140917175,23.71803203053384,-2.137995831518821,-0.08551443768567704,0.010563733562540093,0.1065229114927706
160797000000,326,160797000000,BR_wheel_link,-2.225949815685444,-26.926994260289327,13.832336561216948,0.09686950955425429,-0.0026591028183552546,-0.030970922628062936
160798000000,327,160798000000,BR_wheel_link,1.2772446929161967,25.882958918996806,-2.4150499978286937,-0.08279503499511427,-0.0024320300596986397,0.0172635011629778
160799000000,328,160799000000,BR_wheel_link,-0.01701916946913964,-27.297521175895593,14.160835513311486,0.09539740028667917,-0.0014301611614527129,-0.013919141935788854
160800000000,329,160800000000,BR_wheel_link,1.161484134931553,25.908466021398393,-2.40309940444425,-0.08382769425692066,-0.0014838882535886911,0.014332535823002857
160801000000,330,160801000000,BR_wheel_link,1.8245846124018297,-2.0585868990913574,4.957330349942782,-0.03353293753200269,-0.01374994591407952,-0.0950598102734027
160802000000,331,160802000000,BR_wheel_link,8.734601487736999,24.83479815665675,0.7170994311387477,0.010098393655982373,0.04136862610651715,0.27746742596237534
160803000000,332,160803000000,BR_wheel_link,-22.674440485668697,-23.106719042171882,10.69122658041794,0.01696928327820671,-0.05444663485598813,-0.3921897181468838
160804000000,333,160804000000,BR_wheel_link,24.17022560975551,21.76788396187708,1.1852080059558894,0.011397787517449798,0.057460180887093856,0.4116792160069016
160805000000,334,160805000000,BR_wheel_link,-24.983600744683528,-22.515917375462863,10.910052658203417,0.016583841567596205,-0.05471977359551327,-0.4159060186390754
160806000000,335,160806000000,BR_wheel_link,24.300700782414953,21.70013896803926,1.2500643387947623,0.011437463429706269,0.05499101837667241,0.4161185301379007
160807000000,336,160807000000,BR_wheel_link,-24.63170928524978,-22.43101716136012,11.109392908513147,0.0172634952600587,-0.053627722424162055,-0.4172322198410549
160808000000,337,160808000000,BR_wheel_link,24.294763823476178,21.651868232538355,1.1719524336431653,0.010769777506357422,0.052807121385879806,0.4171556084414273
160809000000,338,160809000000,BR_wheel_link,-24.25288417695024,-22.502460029454262,11.21693865923838,0.014158179898149766,-0.05226275534700001,-0.4176000039499187
160810000000,339,160810000000,BR_wheel_link,24.188051455589655,21.445384474991865,1.0581699708454662,0.004517537608073317,0.051007516754065375,0.4175721770444592
160811000000,340,160811000000,BR_wheel_link,-23.932649372498542,-22.752202615946004,11.250952411612376,0.0056617288972792825,-0.051488363941556516,-0.41754058101275204
160812000000,341,160812000000,BR_wheel_link,24.125714241243,21.159757999574865,0.9548714915062472,-0.004650844839891957,0.05022897074667684,0.41743352451532
160813000000,342,160813000000,BR_wheel_link,-23.740126786360488,-23.01449076006594,11.264763396617314,-0.002520002294703587,-0.051672211261303704,-0.41675585964807943
160814000000,343,160814000000,BR_wheel_link,24.11781224528501,20.978724549792485,0.9303169788697272,-0.010395617404114392,0.05052170329059607,0.41703922201139193
160815000000,344,160815000000,BR_wheel_link,-23.679622873807105,-23.332049711716937,11.776759661319955,-0.00500507752081818,-0.05318133819380495,-0.41709326516689166
160816000000,345,160816000000,BR_wheel_link,24.459943218207492,20.171790981657285,2.9173780757423113,-0.010351677977631209,0.047100578153294125,0.41690331795558094
160817000000,346,160817000000,BR_wheel_link,-22.563359741920788,-24.383593512008943,15.547548855185529,-0.00382043525069603,-0.05452354182275887,-0.41602124843732663
160818000000,347,160818000000,BR_wheel_link,24.81428159199571,19.66676776470901,5.149011028908314,-0.0077145657131685585,0.050115830437509896,0.418671538960804
160819000000,348,160819000000,BR_wheel_link,-25.007454571000377,2.406998006326253,8.55267237529807,-0.0428144773899072,-0.03998836336574649,-0.33073910069844387
160820000000,349,160820000000,BR_wheel_link,16.06336004902881,21.298366563609886,2.228625904340675,-0.08362196392783819,0.009695456851568461,0.15090692025104754
160821000000,350,160821000000,BR_wheel_link,-1.6936898697109657,-27.777711439944376,18.875902638088125,0.09821645817730082,0.0024019018462467447,-0.03861943893952272
160822000000,351,160822000000,BR_wheel_link,1.0084839196556923,24.48811093468294,1.595004753769061,-0.07710725268242188,-0.006614661117065661,0.02017781906530572
160823000000,352,160823000000,BR_wheel_link,0.17461893321025715,25.06904339656268,1.3124886124036368,-0.07604202337851008,0.004747745836989987,-0.004119296866254806
160824000000,353,160824000000,BR_wheel_link,-0.6243757178446017,-28.040125063256493,15.651007593929751,0.10079372757485279,-0.010286279326466887,-0.009354790325180651
160825000000,354,160825000000,BR_wheel_link,2.1579732416313617,25.011948815386525,-1.378889585927182,-0.07165479258902714,0.009527122354822856,0.01149681765027065
160826000000,355,160826000000,BR_wheel_link,-1.321935757538043,-27.480528804358595,14.135655262736734,0.11132752168626915,-0.004540569427492134,-0.012877240415322164
160827000000,356,160827000000,BR_wheel_link,1.2134087096171167,25.29347262389039,-2.5008556317031085,-0.06436368798572921,0.008853078993086112,0.011172681864696552
160828000000,357,160828000000,BR_wheel_link,1.7433016722217374,-29.993209676309025,12.046275581903238,0.01395135937811104,-0.023589309494935658,-0.14983733089788576
160829000000,358,160829000000,BR_wheel_link,16.160506288143385,23.02253853280016,-0.24815752222941387,0.02391706833854311,0.05987003035114966,0.3372655954471364
160830000000,359,160830000000,BR_wheel_link,-24.075936082459396,-22.813349063355805,10.034698838281534,0.030056127254237328,-0.06101602428399007,-0.40090653428528217
160831000000,360,160831000000,BR_wheel_link,24.223625140728785,21.44769333640959,-0.4568153016753542,0.022410792964492655,0.06528215998875082,0.410022716191634
160832000000,361,160832000000,BR_wheel_link,-24.696802231913242,-22.802576929720342,10.474586376318118,0.02356537828768945,-0.059208960598571836,-0.4134058419358346
160833000000,362,160833000000,BR_wheel_link,24.104157736311528,20.907549745229478,-0.07288733615371894,0.013335002292072635,0.05980066579668307,0.41384630429187885
160834000000,363,160834000000,BR_wheel_link,-24.042739686075418,-23.475339452628226,11.367579782062569,0.007865424249823443,-0.05618544409969706,-0.4140476142075958
160835000000,364,160835000000,BR_wheel_link,27.543529317008776,19.105167214780646,-2.0042933461613672,-0.09092355723080059,0.032232558479810595,0.24821351638652386
160836000000,365,160836000000,BR_wheel_link,-4.745855881005477,26.013091292114044,-3.014609451920668,-0.08575848294395831,0.001034038362690381,-0.04376980328545935
