%time,field.header.seq,field.header.stamp,field.header.frame_id,field.wrench.force.x,field.wrench.force.y,field.wrench.force.z,field.wrench.torque.x,field.wrench.torque.y,field.wrench.torque.z
160471000000,0,160471000000,BL_wheel_link,22.482940728369005,-21.0124891678339,6.152525327373128,-0.003951987452042724,-0.03442902079723725,0.4228120907815374
160472000000,1,160472000000,BL_wheel_link,-21.70820000149293,20.912332071764542,5.646695887212721,0.00576453800777484,0.02730959538932393,-0.42273010248870646
160473000000,2,160473000000,BL_wheel_link,22.885620309863576,-20.910707924710504,5.8629911000652655,0.0010646358780344832,-0.0332200919570129,0.4227217039944185
160474000000,3,160474000000,BL_wheel_link,-21.766396066783205,20.93931345712257,5.946919121549209,0.007056198518974155,0.03127428017804838,-0.4227120358492707
160475000000,4,160475000000,BL_wheel_link,22.346390645413454,-20.917829258445586,6.685890262756778,0.0007562742303848687,-0.031208362226228883,0.4229261558160502
160476000000,5,160476000000,BL_wheel_link,-22.343943496287146,20.849547520920524,7.058345716010578,0.0030964363071745095,0.03549712078140317,-0.4228170775806435
160477000000,6,160477000000,BL_wheel_link,21.67333093318734,-21.02124769851751,7.628434580284764,-0.003954724936258133,-0.029687294893467404,0.42270078711354236
160478000000,7,160478000000,BL_wheel_link,-22.597273946071027,20.769644472095123,7.552789461716478,-0.0009599264783760308,0.03556029983040466,-0.4226151779905452
160479000000,8,160479000000,BL_wheel_link,21.549778165319804,-21.06770899822698,7.480665645175437,-0.005989098360284052,-0.03156622385133545,0.42254549191582547
160480000000,9,160480000000,BL_wheel_link,-22.343504526539988,20.779342988044753,6.8438213377586115,-0.0003813810862147917,0.032234289834993775,-0.42277889530189416
160481000000,10,160481000000,BL_wheel_link,22.193144930747472,-21.0522760568237,6.457339035355084,-0.005717408678863315,-0.03342024992345314,0.4227855549471276
160482000000,11,160482000000,BL_wheel_link,-21.908579819169027,20.871279350830083,5.860404971960418,0.003872041916390502,0.02774180495721039,-0.422721505889663
160483000000,12,160483000000,BL_wheel_link,22.78339729191481,-20.972060993207407,5.876046162595654,-0.0017772812336734403,-0.03321589012849179,0.4226537266888143
160484000000,13,160484000000,BL_wheel_link,-21.73219267155442,20.938127967200593,5.821101303201014,0.0072472729599215675,0.02841796242793836,-0.4227001532343237
160485000000,14,160485000000,BL_wheel_link,22.72851509193075,-20.88553498195999,6.433685816013869,0.0022020001668352908,-0.03208959413315351,0.4229181454905354
160486000000,15,160486000000,BL_wheel_link,-22.10162864441953,20.896860927724205,6.834278679673138,0.005338113039335054,0.03331514322985589,-0.422832339220812
160487000000,16,160487000000,BL_wheel_link,22.003051624895708,-20.979690535192628,7.569142253136285,-0.00200059588032653,-0.02962941621954217,0.4227321296185526
160488000000,17,160488000000,BL_wheel_link,-22.53695037793989,20.793597235912493,7.742839386634824,0.0001655239629340918,0.035994593237991444,-0.4226120327924081
160489000000,18,160489000000,BL_wheel_link,21.496642076549907,-21.061814072353272,7.890518741083555,-0.005850557947135312,-0.03105417346812248,0.4225778072096144
160490000000,19,160490000000,BL_wheel_link,-22.364274685841917,20.75428217244952,7.317644029660589,-0.0015605852834431524,0.03488680631840832,-0.42254286380783423
160491000000,20,160491000000,BL_wheel_link,21.773739215380058,-21.08765824991659,6.847338843013612,-0.007184838879480758,-0.0340324568313513,0.42269090265995757
160492000000,21,160492000000,BL_wheel_link,-22.007298373130062,20.83052487242555,6.012515661999329,0.0019912167932739614,0.030131778403797837,-0.42287377521949393
160493000000,22,160493000000,BL_wheel_link,22.517640779819295,-20.99391098784059,5.7757913252427855,-0.002950659205763705,-0.03409328173229077,0.4226572051662852
160494000000,23,160494000000,BL_wheel_link,-21.709799693849128,20.930912963137164,5.4216965892605415,0.006703819958839636,0.027839936418901937,-0.4227127585409767
160495000000,24,160495000000,BL_wheel_link,22.787358794318973,-20.885197006721473,5.850299637202585,0.002215240345466033,-0.033407625482734744,0.42276861995577575
160496000000,25,160496000000,BL_wheel_link,-21.762616785148243,20.93850392428787,6.0968923472134895,0.0069799329251845725,0.0330547043846485,-0.42275491546020794
160497000000,26,160497000000,BL_wheel_link,22.11825515239586,-20.932496350271066,7.009325163177392,0.00015552180317154004,-0.031815234962895046,0.42297812148265407
160498000000,27,160498000000,BL_wheel_link,-22.34715010239802,20.822112394758683,7.465994930215072,0.0020002468638568834,0.036834306884566785,-0.422853853973051
160499000000,28,160499000000,BL_wheel_link,21.523085851586675,-21.046823907181246,8.032493311909258,-0.005010833041163004,-0.030677475819661876,0.42268795395926884
160500000000,29,160500000000,BL_wheel_link,-22.505235325917614,20.747725737011802,7.8245672956665455,-0.001836129695578496,0.0357162799616149,-0.42260351893962184
160501000000,30,160501000000,BL_wheel_link,21.57914730852114,-21.09426997746177,7.61972771697638,-0.007057864893850473,-0.0332561328480647,0.422508787478512
160502000000,31,160502000000,BL_wheel_link,-22.12266710613195,20.7848050310373,6.812657745785034,-0.00011601588521471733,0.032391220626726856,-0.4227585847864401
160503000000,32,160503000000,BL_wheel_link,22.248672234288055,-21.036090709013397,6.353328747979835,-0.004950618244092656,-0.0347177199276371,0.4227798681165646
160504000000,33,160504000000,BL_wheel_link,-21.73787767816053,20.893254722636062,5.687807467701295,0.004921442989419947,0.02799244259677484,-0.42272833461778353
160505000000,34,160505000000,BL_wheel_link,22.80656318814471,-20.92006537490811,5.7556484086820205,0.0006572404614949662,-0.03391230104328802,0.42270090309309727
160506000000,35,160506000000,BL_wheel_link,-21.68129583304012,20.945190418484728,5.706532141082618,0.007360997050840847,0.03039853925446907,-0.42272407767445086
160507000000,36,160507000000,BL_wheel_link,22.492797352799,-20.89744439292528,6.390912541349963,0.0015576508130842382,-0.031995963651134114,0.42293407788193466
160508000000,37,160508000000,BL_wheel_link,-22.1995092871187,20.874459809047643,6.766394470707203,0.004163650808453114,0.034828053408580445,-0.4228278495961869
160509000000,38,160509000000,BL_wheel_link,21.794221468751324,-21.001157078576632,7.472322275509724,-0.003118517910558725,-0.029765381239818936,0.4227206466048296
160510000000,39,160510000000,BL_wheel_link,-22.569290533711055,20.779623096799344,7.577065754722503,-0.0005608924735554621,0.035995988451326615,-0.42261598470742534
160511000000,40,160511000000,BL_wheel_link,21.500432210611123,-21.064964682004568,7.691761710657935,-0.005924975329408029,-0.03155179930230383,0.42255464136959825
160512000000,41,160512000000,BL_wheel_link,-22.384718144631282,20.760479777185814,7.153578961840649,-0.0011034209817893969,0.033675635778547555,-0.42277473208975574
160513000000,42,160513000000,BL_wheel_link,22.00327105509715,-21.073198701887588,6.761149558410932,-0.006574994167318036,-0.03346754472611383,0.4227906964767167
160514000000,43,160514000000,BL_wheel_link,-21.962625742783693,20.84912978801243,6.086805081755421,0.0029744891969853355,0.02862860129466078,-0.42271805555088304
160515000000,44,160515000000,BL_wheel_link,22.66560422506633,-20.98703066012273,5.97264043537459,-0.0023666962260179623,-0.033641933243652465,0.42263318464290117
160516000000,45,160516000000,BL_wheel_link,-21.697360894115445,20.93442071621885,5.761300893282201,0.007179121997632433,0.028062245679572946,-0.42270363699717867
160517000000,46,160517000000,BL_wheel_link,22.722409130404593,-20.878666489930293,6.274235564063003,0.002620930263806648,-0.03333900156965011,0.4227992492263559
160518000000,47,160518000000,BL_wheel_link,-21.886761713382388,20.90989925247234,6.560361099453812,0.006053391278836369,0.03399506875838401,-0.4229561783899912
160519000000,48,160519000000,BL_wheel_link,22.03618848508763,-20.95704167984114,7.331402210111634,-0.0011544399358470194,-0.030905422406653286,0.4230150015322996
160520000000,49,160520000000,BL_wheel_link,-22.434373913553763,20.80349690089991,7.562642561151942,0.0007436663769726087,0.03655255350954832,-0.4226683407017166
160521000000,50,160521000000,BL_wheel_link,21.489938510404233,-21.057176876882377,7.838895434710183,-0.005663913863907223,-0.030927929139449025,0.4226199033068784
160522000000,51,160522000000,BL_wheel_link,-22.427118146929523,20.751709957281463,7.381669376775956,-0.0017736005613889412,0.03520029339835649,-0.4225696453739668
160523000000,52,160523000000,BL_wheel_link,21.62170889365293,-21.093264199125258,6.987279930837824,-0.007135542684681799,-0.03305666562933668,0.42246662084698006
160524000000,53,160524000000,BL_wheel_link,-22.081541124889494,20.82060645467673,6.172975924517569,0.0012118420923637558,0.030432858094714448,-0.4227629992574342
160525000000,54,160525000000,BL_wheel_link,22.49244765837425,-21.002936823558098,5.875505462391972,-0.0036418782132612484,-0.03413206593863863,0.4228078442514269
160526000000,55,160526000000,BL_wheel_link,-21.7414117297371,20.9219112922868,5.46549367914917,0.006111826345439669,0.027138274861250807,-0.42273573588797214
160527000000,56,160527000000,BL_wheel_link,22.89804972533363,-20.902654791229054,5.801275594445748,0.00139301053264911,-0.03305582287391795,0.42272937743240746
160528000000,57,160528000000,BL_wheel_link,-21.78410726894306,20.945220320265566,6.028367261869411,0.007353488401938445,0.03126700698955261,-0.4227194001020843
160529000000,58,160529000000,BL_wheel_link,22.34081420454355,-20.91772344367663,6.895628817067407,0.0008842884502892799,-0.03108446321651894,0.42292958685804605
160530000000,59,160530000000,BL_wheel_link,-22.362195175780947,20.84282713659217,7.40160877866662,0.0029392967770690594,0.03564095194522697,-0.42281260969697065
160531000000,60,160531000000,BL_wheel_link,21.650300692485924,-21.033354665243298,8.015814488239236,-0.004375864856165652,-0.029777629813800787,0.4226917139254695
160532000000,61,160532000000,BL_wheel_link,-22.589509538280247,20.755770533412708,7.902912287223681,-0.0014853820844844573,0.035710242132847764,-0.4226016549127042
160533000000,62,160533000000,BL_wheel_link,21.534177149650365,-21.09091556545802,7.726411434612429,-0.006958428441843721,-0.03192132531082101,0.4225268070301414
160534000000,63,160534000000,BL_wheel_link,-22.295530839241767,20.774448460142985,6.9357623053601944,-0.0005609506003346203,0.03206410562600836,-0.4227693033514682
160535000000,64,160535000000,BL_wheel_link,22.232648418683592,-21.049335844777925,6.397158550254714,-0.005575222815425911,-0.03382838259417896,0.4227772004450235
160536000000,65,160536000000,BL_wheel_link,-21.84558924310793,20.880275429818504,5.6750978281340085,0.004248107373521844,0.02758160810388845,-0.4227238062589892
160537000000,66,160537000000,BL_wheel_link,22.822372992202915,-20.959192083896923,5.612352597354027,-0.0012839842150984793,-0.03330565311666713,0.42266658182187966
160538000000,67,160538000000,BL_wheel_link,-21.718710518507994,20.950538218430594,5.526623454159733,0.0076726046879856515,0.028519661736851807,-0.4227133233027674
160539000000,68,160539000000,BL_wheel_link,22.71645864460087,-20.875534813074754,6.157703597480021,0.0025030990721300814,-0.03179622707254287,0.4229339993619365
160540000000,69,160540000000,BL_wheel_link,-22.147723882102714,20.903966114558283,6.590481474108452,0.00552152906100151,0.033541862931930205,-0.42283475133800197
160541000000,70,160541000000,BL_wheel_link,21.955552216933008,-20.978120189413776,7.416841504612759,-0.002055752589975133,-0.029102898367258954,0.42273933179978596
160542000000,71,160542000000,BL_wheel_link,-22.615249737263984,20.793757065658635,7.705340817552008,8.871812577788645e-05,0.03596739854788305,-0.4226185977282272
160543000000,72,160543000000,BL_wheel_link,21.47473989005296,-21.06594889345934,7.948486373317218,-0.006064583094900111,-0.03064873898847686,0.42257276861455995
160544000000,73,160544000000,BL_wheel_link,-22.41225317980228,20.75006742272533,7.469486334050974,-0.001733214581435236,0.034567380981120256,-0.4225360331259409
160545000000,74,160545000000,BL_wheel_link,21.796926323376347,-21.09607921106368,7.043513339242868,-0.007464313765992139,-0.033812935662519125,0.42268416965448896
160546000000,75,160546000000,BL_wheel_link,-22.012424929349123,20.827419314419867,6.2514294799692935,0.0019997082423633713,0.029353776972959492,-0.42287678830585007
160547000000,76,160547000000,BL_wheel_link,22.608910518368365,-20.998285650686135,5.974385106569855,-0.0030215875609384216,-0.03393096270203771,0.42265196541125755
160548000000,77,160548000000,BL_wheel_link,-21.69251577300916,20.93161655542091,5.615211552584357,0.0068779128466953795,0.027161749890447617,-0.42270750226320974
160549000000,78,160549000000,BL_wheel_link,22.867475263436702,-20.887918857350815,5.987192784995932,0.002171567745136113,-0.03310504525329218,0.42276689724318767
160550000000,79,160550000000,BL_wheel_link,-21.77310021309151,20.937200984425456,6.193845947014036,0.006974666822495611,0.032714301543678104,-0.4227466766212629
160551000000,80,160551000000,BL_wheel_link,22.15087691708435,-20.93427465343642,7.011213418273969,7.950799972219565e-05,-0.03150715668300428,0.4229737224580761
160552000000,81,160552000000,BL_wheel_link,-22.37833992869292,20.819980379400704,7.38085939916064,0.0018437428349645727,0.03682807510540755,-0.42284739017254214
160553000000,82,160553000000,BL_wheel_link,21.497738999656352,-21.054138117134688,7.827242830016205,-0.005460042282966266,-0.029693595921291106,0.42269504724192725
160554000000,83,160554000000,BL_wheel_link,-22.616684018273112,20.753640387428533,7.560602785179383,-0.001635653811427995,0.03463164265666325,-0.42261622923342435
160555000000,84,160555000000,BL_wheel_link,21.667251953124214,-21.091336374658454,7.273879315957183,-0.007050732893414722,-0.0318724907513676,0.4225162373467554
160556000000,85,160556000000,BL_wheel_link,-22.245693524542308,20.800836609621207,6.524053906756034,0.0004561355181114171,0.03069216413167517,-0.4227642967251729
160557000000,86,160557000000,BL_wheel_link,22.392741368081026,-21.034703472210612,6.102503879151664,-0.005017335040348956,-0.03266373442254058,0.42278489005651604
160558000000,87,160558000000,BL_wheel_link,-21.914798004065737,20.908605177223013,5.610819100081617,0.0055770754428293825,0.025529510166437477,-0.4227429484168403
160559000000,88,160559000000,BL_wheel_link,23.011079824578616,-20.930053446539837,5.688473475710173,0.0001073895849996348,-0.030636168846050152,0.422719475217234
160560000000,89,160560000000,BL_wheel_link,-21.973003547101783,20.957548739517573,5.858017663466771,0.008004535562140681,0.026685396092570084,-0.4227418415679531
160561000000,90,160561000000,BL_wheel_link,22.814014059542302,-20.907904222520965,6.501278928285499,0.001171157664988839,-0.028139548532176505,0.42293890940661094
160562000000,91,160562000000,BL_wheel_link,-22.523976788050856,20.883147131947315,7.08227883099074,0.0046846811111555045,0.030675108121525706,-0.42282398353031564
160563000000,92,160563000000,BL_wheel_link,22.16577077290618,-21.014777480352024,7.69614541339051,-0.0036469670714174454,-0.026106731009348082,0.422712808409164
160564000000,93,160564000000,BL_wheel_link,-22.878544006624498,20.77377075271017,7.856001209413464,-0.0007831124724183592,0.032781432377123824,-0.42259807151179934
160565000000,94,160565000000,BL_wheel_link,21.782920883891997,-21.077903170485413,7.794605112459283,-0.006454645620710406,-0.029053095488834873,0.42254298212624597
160566000000,95,160566000000,BL_wheel_link,-22.584289398102698,20.756953240806773,7.196013290371705,-0.0013130230849701236,0.0312524417670564,-0.42276208326469944
160567000000,96,160567000000,BL_wheel_link,22.216301570310975,-21.08076485838636,6.602127759998183,-0.0069732778027204595,-0.0313040742063337,0.4227752437411773
160568000000,97,160568000000,BL_wheel_link,-22.14849628597412,20.851477526562437,5.854751906024018,0.0029193835236829228,0.026744023021645517,-0.42271300839591874
160569000000,98,160569000000,BL_wheel_link,22.82213874607705,-20.986866164065276,5.58235813796337,-0.002519949337506421,-0.03158645024763373,0.42264039573077883
160570000000,99,160570000000,BL_wheel_link,-21.892404054032774,20.945646752242446,5.364749605946497,0.007512351482696965,0.026280890047909202,-0.4227232275039643
160571000000,100,160571000000,BL_wheel_link,22.875554247801304,-20.879687133930346,5.799646819242615,0.0023787992445889004,-0.031490587019650934,0.4228288884445558
160572000000,101,160572000000,BL_wheel_link,-22.04697159574521,20.9409312186081,6.150407293571371,0.007298617513988298,0.03184591357414351,-0.42297703460192504
160573000000,102,160573000000,BL_wheel_link,22.237837454859392,-20.932214484788172,7.021253179735872,-9.753051153202737e-05,-0.029309344085574028,0.42301651378708915
160574000000,103,160574000000,BL_wheel_link,-22.557022602086715,20.879647664095053,7.593322208502753,-0.05770343168689736,0.03485721237595687,-0.42268564904879996
160575000000,104,160575000000,BL_wheel_link,21.685272367898108,-21.044042015483647,8.386951533547686,-0.06557323066969535,-0.028407986500299156,0.42281953313954207
160576000000,105,160576000000,BL_wheel_link,-22.787507563947543,20.619764559097828,8.970127786579726,-0.0641455889401736,0.033214841906309175,-0.4228024252073287
160577000000,106,160577000000,BL_wheel_link,21.818697145299517,-21.403287957431544,9.47362337753913,-0.07229069514004645,-0.029826261697861258,0.42247445753543583
160578000000,107,160578000000,BL_wheel_link,-22.310408751859,20.318181980398162,9.300935896137794,-0.04175664702549787,0.02737659858518993,-0.42258547102123906
160579000000,108,160579000000,BL_wheel_link,22.573972075845468,-21.729410810944376,9.465591412864413,-0.008294022453515758,-0.03211684903532854,0.4221996770646201
160580000000,109,160580000000,BL_wheel_link,-21.514090530379065,20.08074994076572,8.463551086072016,0.003432830276495956,0.02173037226485682,-0.42267831711432513
160581000000,110,160581000000,BL_wheel_link,23.34833525860431,-21.678239098913973,8.198288098259527,0.0012373471439014357,-0.0313306469475444,0.4223527725964023
160582000000,111,160582000000,BL_wheel_link,-21.330658037804838,20.132169342984646,7.1112117281506055,0.010471127605620174,0.027117953896029494,-0.4222811836904943
160583000000,112,160583000000,BL_wheel_link,22.459736862486793,-21.795094409675368,7.824215613163392,0.004892666931471711,-0.028935301852856844,0.4229614990937268
160584000000,113,160584000000,BL_wheel_link,-21.891471594852334,20.01859293041098,6.446732354687943,0.009412089503837416,0.03324411803385891,-0.42232302532797805
160585000000,114,160585000000,BL_wheel_link,21.33491832705257,-21.98219129813938,7.320687315628874,0.0005570607910908086,-0.02950178796696824,0.42266587221947416
160586000000,115,160586000000,BL_wheel_link,-22.00085136219716,19.701826219025865,5.70945983595757,0.002940460471242896,0.034811116577464635,-0.42194940123158414
160587000000,116,160587000000,BL_wheel_link,20.876200123673335,-22.300122079326812,7.014860147546929,-0.006211277316455807,-0.028937098672916474,0.42206484235607505
160588000000,117,160588000000,BL_wheel_link,-22.056998938572544,19.437213673193412,5.423508726808949,-0.0025440918670593597,0.03335829757239628,-0.4217166138432855
160589000000,118,160589000000,BL_wheel_link,20.912586526165708,-22.48682566334223,6.752702365642,-0.008835167618780861,-0.028987200179970828,0.4212884941329551
160590000000,119,160590000000,BL_wheel_link,-21.93138965771407,20.07758160995552,4.9544293867327385,-0.00270226432840672,0.030413325480768277,-0.4223967896703652
160591000000,120,160591000000,BL_wheel_link,21.507828548273107,-21.856674551353414,6.3275563003605155,-0.006530224944104631,-0.0280653167322736,0.42228874277847583
160592000000,121,160592000000,BL_wheel_link,-21.85534301548453,19.95309469264445,4.7125285526186955,0.0012932419367885654,0.02967887574893888,-0.4227893125409505
160593000000,122,160593000000,BL_wheel_link,21.508064533477015,-21.939646866086086,6.191937642075553,-0.0032056351693555305,-0.026505779719991313,0.42303351771789044
160594000000,123,160594000000,BL_wheel_link,-21.915105885262577,19.81431215494157,4.669277294023766,0.003355869840114319,0.02623287372892783,-0.42319271851437057
160595000000,124,160595000000,BL_wheel_link,21.874954007978225,-21.82196075387329,6.280144976684641,-0.0016616816810184492,-0.026831626799443252,0.42346806862515046
160596000000,125,160596000000,BL_wheel_link,-21.73066934541316,19.8936077511566,4.847056638133025,0.003919368122965838,0.02551578649132468,-0.4238900604687395
160597000000,126,160597000000,BL_wheel_link,22.043114105491547,-21.963301378943875,6.936175940923867,1.7085810719338162e-05,-0.031105325805298453,0.42356884986383947
160598000000,127,160598000000,BL_wheel_link,-20.997037810542036,19.705270177560923,5.421185273708527,0.004530142187083433,0.027991323782044004,-0.42357555225041466
160599000000,128,160599000000,BL_wheel_link,21.72104458350416,-22.23233298467125,7.707099055782163,-0.002332443684188638,-0.030262654842171048,0.42369811824949466
160600000000,129,160600000000,BL_wheel_link,-21.037317012233373,19.491553771354468,6.259195343472555,0.006256144086865402,0.02798326312860263,-0.4233302874726158
160601000000,130,160601000000,BL_wheel_link,21.559188505585066,-22.494568106524202,8.75425946262824,-0.0018578428069105887,-0.031403804969111854,0.4232000957238628
160602000000,131,160602000000,BL_wheel_link,-20.746461528962538,19.24816360325824,6.9657040753798105,0.0069711145125540205,0.02957681668793314,-0.42309833249588
160603000000,132,160603000000,BL_wheel_link,21.27170528048636,-22.776900860587762,9.65391073862475,-0.0022460831053949175,-0.03301877904324724,0.4231916652415157
160604000000,133,160604000000,BL_wheel_link,-20.4697357025842,18.948181929444107,7.602609705222462,0.006132202404496207,0.03217488329484447,-0.42304127997812774
160605000000,134,160605000000,BL_wheel_link,20.763041606631024,-23.02809918628431,10.39929685706263,-0.0015918118138369547,-0.03184757279083781,0.4240178858194971
160606000000,135,160606000000,BL_wheel_link,-20.694783902041603,18.70891806951801,7.682151107677218,0.005187415938591029,0.031049730636008563,-0.42406031268877403
160607000000,136,160607000000,BL_wheel_link,20.737939989360584,-23.233723104236944,10.442869954187266,-0.0027110454738871544,-0.030820098325482922,0.4239606905931779
160608000000,137,160608000000,BL_wheel_link,-22.69184442658638,18.249623496656856,6.303489492288638,-0.041142368805776285,0.032710244897982015,-0.33562057679687907
160609000000,138,160609000000,BL_wheel_link,12.543144360545716,27.314235160526657,5.833084646360028,-0.08358664498641089,-0.033289201257169665,0.15017908532537985
160610000000,139,160610000000,BL_wheel_link,0.13432137255134438,-28.349252419328693,8.255738091477545,0.10294749429140719,0.026949521987901882,-0.03783353708680633
160611000000,140,160611000000,BL_wheel_link,-1.0237675698452622,25.072604358296495,2.8275381814643255,-0.0714515230924853,-0.022440036600030844,0.01854564534350809
160612000000,141,160612000000,BL_wheel_link,4.290134153457302,25.47271833034885,2.1743270225862275,0.009142701810899262,0.02018529063484575,-0.1520591407529595
160613000000,142,160613000000,BL_wheel_link,13.542075790937393,-22.898999738100933,3.114637982082752,0.019673146710628194,-0.012994335757368235,0.34623811682892963
160614000000,143,160614000000,BL_wheel_link,-21.546121177803958,20.89845931880108,1.077906263726851,0.02638411486411721,0.012811225299284468,-0.41135318546479305
160615000000,144,160615000000,BL_wheel_link,22.2768898824342,-21.404547512714228,3.2429020846340326,0.015840886738995082,-0.010690512420501194,0.42210640225406254
160616000000,145,160616000000,BL_wheel_link,-22.911698300486037,20.181907951444924,2.0163407495674033,0.024797917913159953,0.013823540190290922,-0.42359818723224807
160617000000,146,160617000000,BL_wheel_link,22.01337026308228,-22.10190631895167,5.068871898598482,0.012084691133211966,-0.012467439309329698,0.4236686242266139
160618000000,147,160618000000,BL_wheel_link,-22.475224295430397,19.610895527431232,3.0798586485072343,0.01984663516799006,0.014555659794175484,-0.4237452917094791
160619000000,148,160619000000,BL_wheel_link,21.80521550438974,-22.400396110040177,5.966863390532014,0.006568303521750272,-0.015332445485270196,0.42279769569866094
160620000000,149,160620000000,BL_wheel_link,-21.941839689909248,19.399869717702636,4.673421989045726,0.01016310245341416,0.020886958700591877,-0.42273842479361823
160621000000,150,160621000000,BL_wheel_link,21.032874170029533,-22.60877774041937,8.426206595225661,-0.006866611749798515,-0.020782404916353445,0.42223899984320296
160622000000,151,160622000000,BL_wheel_link,-21.320698056346103,19.051596343416495,6.97257443175288,-0.005618126473814155,0.021755469226816433,-0.42216937828273243
160623000000,152,160623000000,BL_wheel_link,21.020585840001097,-23.090621610756433,10.763720680084528,-0.018464365408451682,-0.02310249383564788,0.42171018828280155
160624000000,153,160624000000,BL_wheel_link,-20.80777033845206,18.702784281240962,7.727133656001639,-0.011065007499654384,0.01909153099044074,-0.42179550261514454
160625000000,154,160625000000,BL_wheel_link,21.464949901546106,-22.84263571849738,10.805193988961692,-0.01757220752786581,-0.020658985720658784,0.4225232100761276
160626000000,155,160626000000,BL_wheel_link,-21.129622871804262,18.983346027893273,7.806835215029798,-0.007063705735602419,0.01855146202360207,-0.4224389143046618
160627000000,156,160627000000,BL_wheel_link,21.382113034305615,-23.01579521797634,11.025850839424702,-0.013729830633073073,-0.01903541013329149,0.423146979523274
160628000000,157,160628000000,BL_wheel_link,-21.319548096031777,18.78991527962023,7.999603175240617,-0.0025611396313323536,0.017219342208906162,-0.4232009552867291
160629000000,158,160629000000,BL_wheel_link,21.455757993314275,-23.171755490762713,11.078481678546257,-0.009075754055018573,-0.018544822343884323,0.423245177497793
160630000000,159,160630000000,BL_wheel_link,-21.282971899230688,18.66452867023968,8.126799190245842,0.0035621767495749154,0.018394730287099224,-0.4232374958713699
160631000000,160,160631000000,BL_wheel_link,21.20912131354416,-23.26631133094513,11.053763383297284,-0.00359315105091003,-0.01914181479685484,0.42333280072966006
160632000000,161,160632000000,BL_wheel_link,-21.1755490295489,18.613664850256015,7.698879300305686,0.009910502541100603,0.019804791027095953,-0.42340816229670053
160633000000,162,160633000000,BL_wheel_link,20.93217136023812,-23.268365834330897,10.522234676032536,0.0010311965333644577,-0.019373434520491298,0.42351821538627693
160634000000,163,160634000000,BL_wheel_link,-21.138423335757118,18.59110858954415,6.92915721186566,0.013574043628793024,0.02158158390801524,-0.4235691811299545
160635000000,164,160635000000,BL_wheel_link,24.40940855245442,29.457349373241666,4.807915376362958,-0.08132925360001579,-0.025242189462479806,0.25287162745856945
160636000000,165,160636000000,BL_wheel_link,-2.195377804599673,23.331344632205003,1.0823337427308195,-0.06629821494622627,0.03193787618770872,-0.04297976063136001
160637000000,166,160637000000,BL_wheel_link,-2.9195398979685994,-25.76516132000197,5.90875785828081,0.11769030180236427,-0.026745892424493906,-0.0033205220680361017
160638000000,167,160638000000,BL_wheel_link,2.94163468365657,26.318613383141752,-3.5846736348679333,-0.05964038047119627,0.01877102565135432,0.010462524349466002
160639000000,168,160639000000,BL_wheel_link,-2.256470646125844,-25.535298906972088,4.829244113008314,0.11564787552567862,-0.014120639643549888,-0.012203624021835441
160640000000,169,160640000000,BL_wheel_link,1.9853971417873113,26.654482577324202,-3.5578468208825265,-0.06712043098383229,0.010104101610249668,0.012662684646228373
160641000000,170,160641000000,BL_wheel_link,0.3601290796065296,26.6509344472382,-1.5913691818359936,-0.01679964782780324,-0.010515311202660466,-0.09774346321888645
160642000000,171,160642000000,BL_wheel_link,9.205374520107096,-23.77281165664176,1.7687910178113098,0.01581616087420817,0.013100834842330163,0.28258775905746775
160643000000,172,160643000000,BL_wheel_link,-22.209227944067106,21.892249717984974,-0.23384002401602208,0.02591019671705279,-0.015033716968817822,-0.39900764643865066
160644000000,173,160644000000,BL_wheel_link,24.247596020432418,-20.677088472468167,2.423567123198225,0.01456848463417579,0.012040683171623096,0.4186220972482795
160645000000,174,160645000000,BL_wheel_link,-24.159196094082183,21.25086544700115,1.0528457459666087,0.022568383896000403,-0.009407432760802824,-0.4220120049731349
160646000000,175,160646000000,BL_wheel_link,23.98223043049971,-20.713460518688365,4.521036638389521,0.009813691137564143,0.008186025620576699,0.4226461901142384
160647000000,176,160647000000,BL_wheel_link,-23.837292752982815,21.06250542093227,2.4914840832845226,0.01838945827485488,-0.006049746071397796,-0.4229387437326461
160648000000,177,160648000000,BL_wheel_link,23.57890502809178,-20.887425391233922,5.357161231591671,0.007199687184930402,0.005567120971336595,0.42301893927822415
160649000000,178,160649000000,BL_wheel_link,-23.522166221780928,20.882297689183485,2.4704485233611604,0.01577864468874373,-0.0038163499124757227,-0.4231310481208047
160650000000,179,160650000000,BL_wheel_link,23.280670683974243,-21.09181989824942,6.007974446167193,0.001906043531314722,0.003052720845423096,0.42314424549489005
160651000000,180,160651000000,BL_wheel_link,-23.173963107184047,20.56330895155428,4.744492333719839,0.0029419238372498835,-0.0013102318308652165,-0.4231978790571229
160652000000,181,160652000000,BL_wheel_link,22.945987304435555,-21.494264265009644,9.721589452509116,-0.014100801595394796,-5.1797552957848725e-05,0.4231470916989807
160653000000,182,160653000000,BL_wheel_link,-22.716979372936084,20.110016992390808,7.353656909235255,-0.010153085267324781,0.0001938140721060821,-0.42305407019472163
160654000000,183,160654000000,BL_wheel_link,22.82767524626413,-21.769465951736485,9.616777063360134,-0.01651940405241256,-0.00495142370514021,0.4232415663727381
160655000000,184,160655000000,BL_wheel_link,-21.993266560852014,19.944572968683726,5.9951567233990275,-0.007118132554328187,0.0011285071801695136,-0.423089369480661
160656000000,185,160656000000,BL_wheel_link,22.772563031927255,-21.944491670908114,9.84001618503136,-0.014053889874002102,-0.00382175464040794,0.42351404690994354
160657000000,186,160657000000,BL_wheel_link,-22.0581437999706,19.76786113833015,6.147885282182175,-0.004150762480708345,0.0010768261502559354,-0.4232761555376643
160658000000,187,160658000000,BL_wheel_link,22.654146484222597,-22.123272117499788,10.070265271533744,-0.01141181714519241,-0.0030672198398134713,0.4235625690367166
160659000000,188,160659000000,BL_wheel_link,-22.099057731288777,19.617543413739444,6.270959994915917,-0.00018746282915556216,0.0019137412976332946,-0.4233704159864006
160660000000,189,160660000000,BL_wheel_link,22.413778246728544,-22.27269895270393,10.316860903537117,-0.007833924517792397,-0.002813930149701849,0.42360231325429837
160661000000,190,160661000000,BL_wheel_link,-22.06294642960223,19.460861298707133,6.381415682986912,0.002986067536219392,0.0009439819353522105,-0.4235866012377568
160662000000,191,160662000000,BL_wheel_link,22.47176085835408,-22.43987976998302,10.501938107643959,-0.005859574255940583,-0.003283709508740155,0.4236964878938949
160663000000,192,160663000000,BL_wheel_link,-21.93951964007602,19.333476442895858,6.39577544911597,0.00663630672662111,0.004887285178490593,-0.4234678392309784
160664000000,193,160664000000,BL_wheel_link,21.81673618404648,-22.546974406824805,10.558870290487233,-0.0029457266736027787,-0.004008909545208593,0.4237535773156698
160665000000,194,160665000000,BL_wheel_link,-21.99898598624498,19.1935841350789,6.227580359745367,0.00862848627520096,0.008602062445511774,-0.4237479052780811
160666000000,195,160666000000,BL_wheel_link,21.14853709011331,-22.646305681680385,10.412593476576841,-0.0018474667742600062,-0.0048972563936383415,0.4237057644732875
160667000000,196,160667000000,BL_wheel_link,-22.04770399471321,19.090076697784742,5.668972851701691,0.008814094441730003,0.012088294402912697,-0.4239456620748763
160668000000,197,160668000000,BL_wheel_link,20.57001992706379,-22.660507061421804,9.76106537673329,-0.0024239215470255593,-0.007653513200829099,0.42335306007637635
160669000000,198,160669000000,BL_wheel_link,-21.767560546235686,19.002499398868633,4.834379735819586,0.006250245802553883,0.014540069866038145,-0.4238905272363886
160670000000,199,160670000000,BL_wheel_link,20.4214493261207,-21.790918354774988,7.961242675278237,-0.00513310632165533,-0.01269295564939739,0.4236663804841218
160671000000,200,160671000000,BL_wheel_link,-21.13921850744443,19.497155474982563,3.8530146763881103,0.002245873311044152,0.013564246833680165,-0.42523886868425353
160672000000,201,160672000000,BL_wheel_link,20.894096594245685,-21.908390278477683,7.436286517030834,-0.005333006396113347,-0.014494957890088485,0.42429567232983434
160673000000,202,160673000000,BL_wheel_link,-20.572622536533146,19.420025892705475,3.3044008302738224,0.002781260399647797,0.011321433658181949,-0.4240523590524546
160674000000,203,160674000000,BL_wheel_link,21.147809841598857,-22.009971408407633,7.18809732523168,-0.004027665623359488,-0.011785101181040664,0.4243223406128789
160675000000,204,160675000000,BL_wheel_link,-20.757906488232884,19.671199607619787,2.1330013666348138,0.00541766268262747,0.0069309517849887635,-0.42439351106370654
160676000000,205,160676000000,BL_wheel_link,21.587479253144785,-22.02713861943446,7.103183574164442,-0.0027673226322735382,-0.006845068417138599,0.4249327368465686
160677000000,206,160677000000,BL_wheel_link,-21.206806482214507,19.618426125731723,2.372969239898987,0.005227382555920452,0.0031020088406523995,-0.42450831718556875
160678000000,207,160678000000,BL_wheel_link,25.664751344708097,30.36418638987855,0.4146571491766428,-0.08839025885057064,-0.013253726009199862,0.25450465538416533
160679000000,208,160679000000,BL_wheel_link,0.8014309534913461,24.073717307441537,1.124717804126141,-0.004925951019049072,0.01776990427516233,-0.19501163041873892
160680000000,209,160680000000,BL_wheel_link,13.857680986709674,-23.470619696007706,6.449762893483341,0.007550480380718422,-0.0013609289578129184,0.35460284088961097
160681000000,210,160681000000,BL_wheel_link,-21.08994176467227,20.18021275108969,1.6280301887117585,0.023613586316667032,-0.0013255284613731928,-0.4127740813853331
160682000000,211,160682000000,BL_wheel_link,21.92968264328534,-21.81027198827491,6.649600950804525,0.014513907684676738,0.0006063957961945221,0.4222669611869914
160683000000,212,160683000000,BL_wheel_link,-21.745308755162384,19.842002258893658,1.9740918233466531,0.02555981086625438,-0.00345408940355588,-0.42369949194516116
160684000000,213,160684000000,BL_wheel_link,22.27187354985874,-21.897756165021814,7.0023617747437985,0.014318261130673735,0.0026915358283529497,0.42417648360710286
160685000000,214,160685000000,BL_wheel_link,-21.859270687782647,19.803268342705646,2.0101716870853186,0.02603386371925425,-0.003927463936168074,-0.4239298256700239
160686000000,215,160686000000,BL_wheel_link,22.17283758680819,-21.93986397446751,7.153157153755852,0.013813109345887423,0.0014130683384174117,0.42424493201395047
160687000000,216,160687000000,BL_wheel_link,-21.572751188243664,19.70736281800851,2.0209087013294833,0.023384871053476704,-0.0018262861726703473,-0.42408044337026407
160688000000,217,160688000000,BL_wheel_link,25.689717122697274,30.232281199386556,0.5839175651592542,-0.08036236554565286,-0.014632708123410682,0.25430611212841786
160689000000,218,160689000000,BL_wheel_link,-1.9012965063239553,23.350474075281152,-0.25881565636900233,-0.0761894179841952,0.02431728540581955,-0.044253634003570845
160690000000,219,160690000000,BL_wheel_link,-2.1052069252889813,-26.867690703125074,10.228811620391243,0.10580498039817474,-0.022209581155645874,-0.0016596366985548673
160691000000,220,160691000000,BL_wheel_link,2.732296510750775,24.61046925453609,-0.398878842662787,-0.07081359720996086,0.016898129199709334,0.009910914421132486
160692000000,221,160692000000,BL_wheel_link,-2.114722462493373,-27.284192237871046,10.527014511582294,0.10581339439609136,-0.013657286214809933,-0.011342758766306516
160693000000,222,160693000000,BL_wheel_link,1.990209818178094,24.626630284511243,0.03501094684899514,-0.07432670946804044,0.01158092533044928,0.012060981916172681
160694000000,223,160694000000,BL_wheel_link,-1.7693095876104163,-27.345562832373318,11.13824492777922,0.10290445563735785,-0.007795220567364898,-0.012534571259484399
160695000000,224,160695000000,BL_wheel_link,1.379836939042162,24.421307704940833,1.0523156236251525,-0.08197718417939998,0.0070823399800826956,0.012919766029115173
160696000000,225,160696000000,BL_wheel_link,-1.6641077749563558,24.119717132719778,1.5135076956699327,-0.07837480524951684,-0.0038205389072323587,-0.0019750902854046657
160697000000,226,160697000000,BL_wheel_link,-0.22868567446635865,-27.257616933349464,10.991791785265994,0.10430454450931106,0.003399123301715966,-0.011367179433180764
160698000000,227,160698000000,BL_wheel_link,0.27620994635248913,24.47886344918417,0.9794905618271863,-0.07280687499941585,-0.0011792723046620329,0.013275310159012059
160699000000,228,160699000000,BL_wheel_link,-0.6480073723917283,-27.445942448456165,11.146428472399109,0.10501216474157764,0.0023128850831782974,-0.013630688128993016
160700000000,229,160700000000,BL_wheel_link,0.3679895049487915,24.49655034225616,0.9148572622024086,-0.07703395440549755,-0.0006437206148466285,0.013318786715878283
160701000000,230,160701000000,BL_wheel_link,-0.5541600022093585,-27.47411097960944,11.668299421332854,0.09895653148787543,-0.0035597977905420628,-0.013476132173454732
160702000000,231,160702000000,BL_wheel_link,1.2293742354023367,24.262511627415726,1.3622245624988754,-0.0850619484876646,0.0022163510698652356,0.013507228555751469
160703000000,232,160703000000,BL_wheel_link,-0.7570159334854336,-27.61979822617097,12.507465318507462,0.09375166660542844,-0.002669352091612215,-0.013219836098231305
160704000000,233,160704000000,BL_wheel_link,1.0082679755699595,24.01007655680517,2.204938521528295,-0.09191122189999815,0.003663872043695765,0.013293607673129941
160705000000,234,160705000000,BL_wheel_link,0.8151902672438913,-2.9604714186430803,9.340516892533302,0.04761621829069363,-0.008963828317389386,-0.09477857968873091
160706000000,235,160706000000,BL_wheel_link,11.997180267530071,26.132138064921723,2.262514339265853,-0.08996016197981062,0.009794742348911471,0.10783723030606981
160707000000,236,160707000000,BL_wheel_link,-2.493091493207041,-28.215895106321273,13.227215137114577,0.09015712493132108,-0.00016504490255195498,-0.029354742628981637
160708000000,237,160708000000,BL_wheel_link,0.8590130577263174,23.928533552953848,2.4896710227943366,-0.08773229659165194,0.00021187391139779036,0.016128933819231937
160709000000,238,160709000000,BL_wheel_link,-0.725749798300267,-27.984876921971814,13.63580446193124,0.09032304157303465,0.0023513757620890214,-0.01419400424958027
160710000000,239,160710000000,BL_wheel_link,0.38083528737949074,23.705019716604866,2.873520602088991,-0.08792395553831962,-0.00011299879366299179,0.013531933437611318
160711000000,240,160711000000,BL_wheel_link,-0.7102018153540737,-28.02347593914381,13.447616939010057,0.09166758611795087,0.0025305984661593076,-0.01400661771344194
160712000000,241,160712000000,BL_wheel_link,0.358395156062387,23.597647795867307,2.680052016537259,-0.0875181334057892,-0.0007135412785013587,0.01348982891946542
160713000000,242,160713000000,BL_wheel_link,-0.798328076076202,23.3471376780489,1.8309584220081765,-0.08410977152911131,0.0011697564592423623,-0.00288259476069287
160714000000,243,160714000000,BL_wheel_link,-0.4541404410643814,-27.024678203216645,10.195791616017173,0.10326123880645727,-0.0028591379830373116,-0.009731783647845342
160715000000,244,160715000000,BL_wheel_link,1.010033091512177,24.65731031142378,-1.3345504081795183,-0.07242842804852428,0.0012167668402647252,0.012532655097736742
160716000000,245,160716000000,BL_wheel_link,-0.6244789840076613,-26.850319614908866,9.28172626464635,0.1044925589026804,-0.0015727732622286112,-0.012683170020099797
160717000000,246,160717000000,BL_wheel_link,0.9851632096695916,24.531205639390734,-1.7233740498495662,-0.07466914881829465,-0.0034921074747661994,0.012587858267174824
160718000000,247,160718000000,BL_wheel_link,-0.012071838059860156,-27.07670976524605,10.530721484782488,0.10079725649470443,0.004390132034951698,-0.012585843061447546
160719000000,248,160719000000,BL_wheel_link,0.19029629564140044,24.233880122756297,-0.07825858639880161,-0.07609755047320692,-0.0006121078646302551,0.014005913345543252
160720000000,249,160720000000,BL_wheel_link,-0.7693847887296873,-27.648357899703356,11.533155556757169,0.09960935210200741,0.0014247195033360285,-0.01382855541317368
160721000000,250,160721000000,BL_wheel_link,0.3554293072601611,24.06111678734213,-0.19466828166661015,-0.07708577870712588,0.0008843986229982481,0.013505466409530459
160722000000,251,160722000000,BL_wheel_link,0.8659765081374862,24.032446657784845,0.8482919765868375,-0.030702130747421036,-0.004702108803962226,-0.09435441482790047
160723000000,252,160723000000,BL_wheel_link,7.224164350040343,-25.93988456548509,8.387384527744516,0.007288178942120863,0.025920296942350506,0.27764969864540384
160724000000,253,160724000000,BL_wheel_link,-22.369381066403538,19.403164269006243,2.5959647013103746,0.012732428675256733,-0.029814024791132532,-0.3968809019930258
160725000000,254,160725000000,BL_wheel_link,22.68568123389074,-22.642374722404323,8.00784878813327,0.007359239739656359,0.03223642738038107,0.4155592753778496
160726000000,255,160726000000,BL_wheel_link,-24.08290950706448,18.938325728668836,2.261145819459889,0.012677292576611569,-0.02679570910773835,-0.4201808660114141
160727000000,256,160727000000,BL_wheel_link,22.666135528268107,-22.55307434200253,8.2814648744768,0.006044004406449144,0.02667731292419591,0.4205898665698664
160728000000,257,160728000000,BL_wheel_link,-23.424092386543894,18.83150960586427,2.512349848002318,0.009491284401743573,-0.024714055522823783,-0.42095621262047755
160729000000,258,160729000000,BL_wheel_link,22.500043242918416,-22.613303478453354,9.310516034505666,0.0016975382854630813,0.023736410666523818,0.42108906607237284
160730000000,259,160730000000,BL_wheel_link,-22.997367445065052,18.73513336809906,3.7775651693114054,0.0045418866514495525,-0.024015470522700408,-0.4211427832890066
160731000000,260,160731000000,BL_wheel_link,22.43122136532413,-22.645722521592006,10.754713605326067,-0.0018336130152502364,0.024769189897389406,0.4209255885608161
160732000000,261,160732000000,BL_wheel_link,-23.148941803207986,18.681852172370753,5.180572182233958,0.0026484187409192422,-0.021790843238616263,-0.4215470898337344
160733000000,262,160733000000,BL_wheel_link,21.986758443792354,-22.751585640600478,12.283401094714458,-0.003438436425528963,0.026279781677921103,0.42079996382311713
160734000000,263,160734000000,BL_wheel_link,-23.43896396964521,18.5308729717359,6.068535645144853,0.001846565114860605,-0.021845142086465846,-0.42173544519265344
160735000000,264,160735000000,BL_wheel_link,21.8458595055429,-22.88336670641325,12.719844529017168,-0.003511264279285128,0.026576054524735136,0.42069476830935537
160736000000,265,160736000000,BL_wheel_link,-23.453203954963392,18.39648861909626,6.148373036694427,0.002199843672043299,-0.02280113888565818,-0.42170687530254536
160737000000,266,160737000000,BL_wheel_link,21.907381323147156,-23.187577303627243,11.85082695975056,-0.0014297464232130624,0.023789875003746155,0.421357716604903
160738000000,267,160738000000,BL_wheel_link,-23.093064936109716,17.85230208211378,7.012324885768722,0.001707529686544696,-0.018149332268428815,-0.42170127674451185
160739000000,268,160739000000,BL_wheel_link,21.287867235001794,-23.217270184954558,11.881265521610255,-0.0010347190161258866,0.0185642383860722,0.4210202172876436
160740000000,269,160740000000,BL_wheel_link,-22.29978565286159,18.00845850857181,5.019792330609879,0.004779455344259072,-0.019693983465170303,-0.42164933181424874
160741000000,270,160741000000,BL_wheel_link,21.651888192299378,-23.25108985875035,11.964990639835145,-0.0008145983056813462,0.01981922305467644,0.4215058097634811
160742000000,271,160742000000,BL_wheel_link,-22.27832051826675,17.94905307723681,5.107189535907552,0.0049412743760641,-0.02183383848517631,-0.4213567405012258
160743000000,272,160743000000,BL_wheel_link,21.89465693631565,-23.300065536292006,12.062495063398512,-0.0006680462584909818,0.020631627628789888,0.42139926163332353
160744000000,273,160744000000,BL_wheel_link,-22.208477178359246,17.888143690357214,5.173339244198068,0.004923459559627673,-0.023342174280154324,-0.42109187287357364
160745000000,274,160745000000,BL_wheel_link,25.88358484426479,28.53866617995581,1.7973344951004306,-0.08539779799274014,0.0043038275508256755,0.2522376523785597
160746000000,275,160746000000,BL_wheel_link,-3.1454034099680825,21.713016037839232,1.3009113731897568,-0.08219085288636611,0.012960320915548123,-0.043507237039718434
160747000000,276,160747000000,BL_wheel_link,-1.2466213834916255,-27.07033445547856,12.367898092994617,0.09985542839231787,-0.02174083055928754,-0.0014747753750862446
160748000000,277,160748000000,BL_wheel_link,2.9458889668747905,23.70441907858845,-1.0967455183981725,-0.07581645198897043,0.00893126786902129,0.010640970182240823
160749000000,278,160749000000,BL_wheel_link,-0.9715237905214472,-26.92756283185053,11.152835982050188,0.101315812092301,-0.015264358799127846,-0.00918338512487789
160750000000,279,160750000000,BL_wheel_link,2.266109194029984,23.836128047443122,-1.986561556329341,-0.0781733910301553,0.007527277242769382,0.01229626043433461
160751000000,280,160751000000,BL_wheel_link,-1.2414977637725042,-27.283344537900703,11.55149110786991,0.09793359810671469,-0.009730879934156503,-0.011956278120421234
160752000000,281,160752000000,BL_wheel_link,1.5597395390214468,23.58038624683752,-1.1046122958420088,-0.07841748479436736,0.0049199615519762725,0.013874804657088954
160753000000,282,160753000000,BL_wheel_link,2.5804088563308074,24.065302151307584,1.9292080021890698,0.01245658194023094,-0.023791010724824757,-0.18150231213740017
160754000000,283,160754000000,BL_wheel_link,20.17643504473833,-23.747442356327728,9.450909724359292,0.007273791888289984,0.04367830707146606,0.37855248114575796
160755000000,284,160755000000,BL_wheel_link,-24.097009504400607,18.550626162027335,3.232707231120002,0.01279417541709301,-0.04294387750307665,-0.4112449428994702
160756000000,285,160756000000,BL_wheel_link,23.41541693129778,-22.989450710890242,10.108149739878142,0.00797412042427209,0.04227683675622277,0.417147629590792
160757000000,286,160757000000,BL_wheel_link,-24.28470928896123,18.361898066328145,3.2627610756170844,0.013819961915228931,-0.041094861782521364,-0.4182909431543853
160758000000,287,160758000000,BL_wheel_link,23.308123650406344,-22.90938548440307,10.335654232238992,0.009541365094037243,0.03821656825291405,0.4190329757006328
160759000000,288,160759000000,BL_wheel_link,-23.669788626568916,18.366384292801303,3.246966277570982,0.014920494482668087,-0.04214868922832305,-0.4181195284565781
160760000000,289,160760000000,BL_wheel_link,23.517754986617753,-23.116166706076026,11.024051129179377,0.008989339416455652,0.03557406231730907,0.4201706695050937
160761000000,290,160761000000,BL_wheel_link,-23.139868250730224,18.32023251609607,3.2509506612834476,0.013812570407300745,-0.04398457477867296,-0.4180890597629741
160762000000,291,160762000000,BL_wheel_link,23.909675043406466,-22.95628053455851,10.9142909693725,0.006503424266513382,0.03312087762529309,0.42031018826072003
160763000000,292,160763000000,BL_wheel_link,-22.584887184507135,18.31028448436071,3.8646765180625433,0.009582085135507956,-0.040205138863025604,-0.418461389503031
160764000000,293,160764000000,BL_wheel_link,26.470350243471426,30.439563803267568,0.7961609817143993,-0.06598357843991023,0.0195728985098537,0.2854617012409228
160765000000,294,160765000000,BL_wheel_link,-4.516244373907091,22.682754636178153,2.087873461081002,0.010562144097180908,-0.026749257710801663,-0.26337003694626104
160766000000,295,160766000000,BL_wheel_link,21.703673789145185,-22.13794638239067,9.036955658854131,0.0069528961564837705,0.03186311402722932,0.3933452058638687
160767000000,296,160767000000,BL_wheel_link,-21.938068467049572,19.788613578357594,1.6631008348317953,0.012213478873671932,-0.043082700830874135,-0.4137957508764256
160768000000,297,160768000000,BL_wheel_link,24.36701601217144,-21.569536325389997,9.425169569753924,0.00607828761777929,0.03806612353184628,0.4192485991396072
160769000000,298,160769000000,BL_wheel_link,-22.908947362168206,19.633815160662557,1.8448200656298648,0.012082539648815996,-0.04289920357151764,-0.4180068095797217
160770000000,299,160770000000,BL_wheel_link,24.02142848688794,-21.681218553817097,9.3823604409025,0.003892373457681307,0.043227792692617305,0.4190063545332062
160771000000,300,160771000000,BL_wheel_link,-23.77409167406112,19.449729072940272,1.7599069838771297,0.007936928358972452,-0.04092324038576145,-0.41877628593981514
160772000000,301,160772000000,BL_wheel_link,23.400061491053073,-21.717312534622913,9.17992196412525,0.0009544922430917574,0.043757613563544226,0.4185835995701613
160773000000,302,160773000000,BL_wheel_link,-24.01725457608226,19.28328625151678,1.6539350576471226,0.004407747784676436,-0.038672784197663596,-0.4190843721880611
160774000000,303,160774000000,BL_wheel_link,26.642965392660553,30.12696367570768,-2.708816798354042,-0.08782556639359144,0.022408637820759962,0.2508077938103054
160775000000,304,160775000000,BL_wheel_link,-0.9014264345002271,24.12853947868229,0.5804081372183592,0.0038760734352556742,-0.016100005471999003,-0.22509757171304814
160776000000,305,160776000000,BL_wheel_link,19.689185475288937,-22.213866586039376,9.400447898471,0.0006756131201060794,0.04233278975108939,0.38579051224750643
160777000000,306,160777000000,BL_wheel_link,-23.502421626995886,19.81416150323499,1.5344520175581935,0.008414232156089059,-0.04285565827456257,-0.41342419585524376
160778000000,307,160778000000,BL_wheel_link,23.437609523095656,-21.445331285197426,9.495948875529525,0.004922537609028726,0.04557233015995339,0.4172900693608574
160779000000,308,160779000000,BL_wheel_link,-23.919408961713795,19.73246850255267,1.6250254406169926,0.013499577456762248,-0.04318729378453147,-0.4186019148462101
160780000000,309,160780000000,BL_wheel_link,23.501928282642325,-21.32130157160163,9.732003346448273,0.01140297362685034,0.04462389659223522,0.4179698898772011
160781000000,310,160781000000,BL_wheel_link,-23.725699566002888,19.864484250357435,1.6801641924432547,0.021029209644016528,-0.04235920928368436,-0.41862681811971425
160782000000,311,160782000000,BL_wheel_link,23.323253085677766,-21.209594787660826,9.835148725756515,0.017119341993301732,0.04604853535601663,0.4181438293160161
160783000000,312,160783000000,BL_wheel_link,-23.960490357592665,19.839418354034994,1.6758336205173854,0.022197447429913076,-0.04283770429144326,-0.41863325804907436
160784000000,313,160784000000,BL_wheel_link,27.033951892381555,30.11059223993888,-2.51321580593231,-0.07157579869574413,0.024248619881297367,0.25024505700717736
160785000000,314,160785000000,BL_wheel_link,-4.87507552619518,23.358501357206624,-1.8575282391222594,-0.0679678375779259,0.005359070440120508,-0.044259773831461166
160786000000,315,160786000000,BL_wheel_link,-1.0335672993953722,-25.54589394857874,12.877214251974967,0.1187543944630106,-0.005541144196431218,-0.0020734723644405917
160787000000,316,160787000000,BL_wheel_link,0.6708500799824696,24.875448831202263,-2.369219546538331,-0.058506223447658,0.010765265269631197,0.009478744318628394
160788000000,317,160788000000,BL_wheel_link,-1.9846582719502908,-25.948794702442793,13.398385120334291,0.11382687099213144,-0.01113599292855164,-0.011495373054962198
160789000000,318,160789000000,BL_wheel_link,1.633634445285386,24.463202659299494,-2.487741942830145,-0.07351311344039292,0.009474933801379364,0.011576724082967312
160790000000,319,160790000000,BL_wheel_link,-1.9567325989431539,24.156244016335908,-2.0379213386540016,-0.07356213714152242,-0.004758850623470081,-0.0004908683591910697
160791000000,320,160791000000,BL_wheel_link,-0.4311477620566853,-26.11197069228461,12.913464366547402,0.10889595445506249,0.006081626217941976,-0.012477562294146228
160792000000,321,160792000000,BL_wheel_link,-0.4113236517883034,24.44305017072799,-1.9661372853523198,-0.07228266455467719,-0.00023836707994979924,0.013486169355343396
160793000000,322,160793000000,BL_wheel_link,-1.152138303751633,-26.301124039681614,13.113123854413155,0.10619215122467401,0.006541962173500651,-0.014960791375500632
160794000000,323,160794000000,BL_wheel_link,-0.6704946415721068,24.16791354374909,-1.9244072543134436,-0.07958886145051833,-0.0002154394813889607,0.01315960694077474
160795000000,324,160795000000,BL_wheel_link,0.6974898297312588,-2.2239052307979645,7.258877976808106,0.05601722006596259,-0.00644186988963168,-0.09489644305359134
160796000000,325,160796000000,BL_wheel_link,10.80103175340155,26.806122335300014,-2.5316652008749756,-0.08551443768567715,0.01056373356253997,0.10652291149276889
160797000000,326,160797000000,BL_wheel_link,-2.1703219132281193,-26.322312394025538,13.351076991195894,0.09686950955425477,-0.002659102818354485,-0.03097092262806134
160798000000,327,160798000000,BL_wheel_link,1.2561850617260035,24.816178328860786,-2.1006766958092107,-0.0827950349951145,-0.0024320300596988075,0.017263501162976345
160799000000,328,160799000000,BL_wheel_link,-0.0028384876759097732,-25.921332473583558,13.505196647700226,0.0953974002866795,-0.0014301611614519175,-0.013919141935787383
160800000000,329,160800000000,BL_wheel_link,1.1432564503643616,24.70566031914801,-2.148254824044107,-0.08382769425692081,-0.0014838882535888418,0.014332535823001345
160801000000,330,160801000000,BL_wheel_link,1.8054320114006244,24.912492118834315,-0.7514365634513414,-0.033532937532002725,-0.01374994591407924,-0.0950598102734026
160802000000,331,160802000000,BL_wheel_link,8.583288843060286,-24.09480925985085,10.365286832308675,0.010098393655982644,0.04136862610651715,0.27746742596237345
160803000000,332,160803000000,BL_wheel_link,-22.2402377757581,20.672765463913958,1.3219807958572598,0.016969283278206727,-0.05444663485598745,-0.3921897181468814
160804000000,333,160804000000,BL_wheel_link,23.689356512245222,-20.933110011448594,9.88957766067126,0.011397787517450061,0.057460180887093856,0.4116792160068991
160805000000,334,160805000000,BL_wheel_link,-24.495665137672077,20.140115492016772,1.4315200426568764,0.016583841567596264,-0.054719773595512694,-0.41590601863907356
160806000000,335,160806000000,BL_wheel_link,23.814818971960914,-20.77713879375195,10.195228590531805,0.011437463429706534,0.05499101837667248,0.41611853013789835
160807000000,336,160807000000,BL_wheel_link,-24.13821703170754,20.134685771638495,1.4240886873473473,0.017263495260058735,-0.05362772242416144,-0.41723221984105274
160808000000,337,160808000000,BL_wheel_link,23.80909952516609,-20.76115760704076,10.33639666570476,0.010769777506357709,0.05280712138587992,0.4171556084414259
160809000000,338,160809000000,BL_wheel_link,-23.75697750318267,20.02427279520233,1.342662448781883,0.014158179898149808,-0.05226275534699943,-0.41760000394991664
160810000000,339,160810000000,BL_wheel_link,23.702186477645803,-20.932621463815977,10.41426398631411,0.004517537608073599,0.05100751675406554,0.4175721770444578
160811000000,340,160811000000,BL_wheel_link,-23.435942673518507,19.759889148844838,1.2462340935602783,0.005661728897279342,-0.0514883639415559,-0.41754058101275043
160812000000,341,160812000000,BL_wheel_link,23.63949199562046,-21.20626302097299,10.447150654956763,-0.004650844839891657,0.05022897074667692,0.41743352451531823
160813000000,342,160813000000,BL_wheel_link,-23.2442006146549,19.517836060832842,1.1942685158739677,-0.00252000229470356,-0.0516722112613031,-0.4167558596480775
160814000000,343,160814000000,BL_wheel_link,23.632457259238016,-21.386537721006125,10.492858988354971,-0.010395617404114101,0.0505217032905963,0.4170392220113902
160815000000,344,160815000000,BL_wheel_link,-23.188516410235927,19.435178129679414,1.2348863707025375,-0.005005077520818144,-0.053181338193804356,-0.41709326516689005
160816000000,345,160816000000,BL_wheel_link,24.01522468769432,-21.349627899096888,10.649074117580147,-0.010351677977630935,0.04710057815329431,0.41690331795557867
160817000000,346,160817000000,BL_wheel_link,-22.25858134150444,19.12614409156504,2.153944532870414,-0.0038204352506959827,-0.054523541822757975,-0.41602124843732424
160818000000,347,160818000000,BL_wheel_link,24.40104009431816,-21.90092155306143,12.664669707259726,-0.007714565713168205,0.05011583043751032,0.41867153896080256
160819000000,348,160819000000,BL_wheel_link,-24.66972463313256,18.35058491273935,2.36160652101874,-0.042814477389907214,-0.03998836336574607,-0.33073910069844326
160820000000,349,160820000000,BL_wheel_link,15.759323116978125,26.989813279775483,-0.0974735140044716,-0.08362196392783812,0.009695456851568625,0.15090692025104607
160821000000,350,160821000000,BL_wheel_link,-1.6782194174007037,-26.984590411419262,16.783171540419563,0.09821645817730129,0.002401901846247819,-0.038619438939521106
160822000000,351,160822000000,BL_wheel_link,0.9527177508846586,24.054681255790538,0.7568318732925357,-0.07710725268242194,-0.006614661117065569,0.02017781906530435
160823000000,352,160823000000,BL_wheel_link,0.1524804546934676,23.43217209589333,0.4191319024792944,-0.07604202337851004,0.004747745836990054,-0.004119296866256213
160824000000,353,160824000000,BL_wheel_link,-0.627857265908762,-26.147510980497117,15.88705785860219,0.10079372757485337,-0.010286279326466011,-0.009354790325179073
160825000000,354,160825000000,BL_wheel_link,2.1452103579669353,23.792500583386747,-0.48878539285351336,-0.07165479258902717,0.00952712235482278,0.011496817650269183
160826000000,355,160826000000,BL_wheel_link,-1.2963000531737472,-26.127428901151042,15.442598027024436,0.11132752168626943,-0.004540569427491342,-0.012877240415320559
160827000000,356,160827000000,BL_wheel_link,1.2274651188831083,23.86421691761704,-0.6371463588471681,-0.06436368798572922,0.008853078993085987,0.011172681864695107
160828000000,357,160828000000,BL_wheel_link,1.7306084217886657,24.441404761967505,1.396545860020286,0.013951359378111077,-0.023589309494934978,-0.14983733089788417
160829000000,358,160829000000,BL_wheel_link,15.975902375843969,-23.379556913326333,12.148221294458438,0.023917068338543433,0.05987003035114958,0.3372655954471344
160830000000,359,160830000000,BL_wheel_link,-23.741458538846913,19.387065447325458,2.4702118558380013,0.030056127254237404,-0.061016024283989403,-0.4009065342852798
160831000000,360,160831000000,BL_wheel_link,23.918907466739817,-21.894457247397035,12.092135310944018,0.022410792964493092,0.0652821599887508,0.4100227161916324
160832000000,361,160832000000,BL_wheel_link,-24.38139737965681,18.76390234073665,2.7823171232373562,0.02356537828768946,-0.05920896059857127,-0.41340584193583263
160833000000,362,160833000000,BL_wheel_link,23.799672266637604,-22.170063812237075,12.983807793682542,0.013335002292072986,0.05980066579668323,0.4138463042918774
160834000000,363,160834000000,BL_wheel_link,-23.753325398460174,18.175103029376363,3.6577344721323324,0.007865424249823574,-0.05618544409969637,-0.41404761420759373
160835000000,364,160835000000,BL_wheel_link,27.141061452543266,28.027113518861725,-0.5111317062749327,-0.09092355723080071,0.03223255847981056,0.24821351638652245
160836000000,365,160836000000,BL_wheel_link,-4.650158829812855,21.395378438734504,0.1489141207500631,-0.08575848294395833,0.0010340383626902014,-0.043769803285460616
