%time,field.header.seq,field.header.stamp,field.header.frame_id,field.wrench.force.x,field.wrench.force.y,field.wrench.force.z,field.wrench.torque.x,field.wrench.torque.y,field.wrench.torque.z
160471000000,0,160471000000,FR_wheel_link,-28.13690794715687,9.062400850389961,5.722522519371291,-0.00395198745204259,-0.034429020797237184,0.4228120907815399
160472000000,1,160472000000,FR_wheel_link,28.851218085192297,-9.257008110174352,8.022000053560813,0.005764538007775129,0.027309595389323933,-0.42273010248870874
160473000000,2,160473000000,FR_wheel_link,-27.73141922860287,9.140077734147312,7.31529949515183,0.001064635878034737,-0.03322009195701286,0.42272170399442094
160474000000,3,160474000000,FR_wheel_link,28.795043910182372,-9.226999417568962,8.193303876736563,0.007056198518974429,0.03127428017804835,-0.4227120358492727
160475000000,4,160475000000,FR_wheel_link,-28.237018124899627,9.139266994472187,7.0731656642442475,0.0007562742303850729,-0.03120836222622881,0.4229261558160528
160476000000,5,160476000000,FR_wheel_link,28.26172557072193,-9.275966425741936,6.945368833764114,0.003096436307174709,0.035497120781403206,-0.42281707758064585
160477000000,6,160477000000,FR_wheel_link,-28.8839582787269,9.079284355840995,5.614047570052593,-0.003954724936258072,-0.029687294893467504,0.4227007871135445
160478000000,7,160478000000,FR_wheel_link,27.95738592877545,-9.342081036817799,5.875017870677074,-0.0009599264783759153,0.03556029983040468,-0.4226151779905477
160479000000,8,160479000000,FR_wheel_link,-28.97414031657729,9.047287426924841,4.929950721839407,-0.005989098360283972,-0.03156622385133542,0.42254549191582796
160480000000,9,160480000000,FR_wheel_link,28.204394918341887,-9.337283754845553,6.068305189411636,-0.00038138108621463696,0.03223428983499377,-0.4227788953018964
160481000000,10,160481000000,FR_wheel_link,-28.40892712768322,9.039094039027319,5.020867178252817,-0.0057174086788632054,-0.03342024992345308,0.42278555494712966
160482000000,11,160482000000,FR_wheel_link,28.65399387856732,-9.284144964798305,7.3687286261421185,0.003872041916390766,0.027741804957210306,-0.42272150588966534
160483000000,12,160483000000,FR_wheel_link,-27.815161924649967,9.096353480351855,6.376993978354775,-0.0017772812336732551,-0.0332158901284918,0.4226537266888169
160484000000,13,160484000000,FR_wheel_link,28.825080792918722,-9.23715751173842,8.461495720929715,0.007247272959921892,0.028417962427938388,-0.4227001532343262
160485000000,14,160485000000,FR_wheel_link,-27.86115425962077,9.157139711666654,7.852218723606521,0.002202000166835547,-0.03208959413315343,0.4229181454905378
160486000000,15,160486000000,FR_wheel_link,28.499315753733697,-9.246661432193351,7.929442405617275,0.005338113039335326,0.033315143229855876,-0.4228323392208147
160487000000,16,160487000000,FR_wheel_link,-28.571682334859098,9.106061419228402,6.554353461984136,-0.0020005958803263777,-0.029629416219542112,0.42273212961855505
160488000000,17,160488000000,FR_wheel_link,28.015597340661557,-9.32488539038592,6.422730260810436,0.00016552396293420473,0.03599459323799146,-0.42261203279241005
160489000000,18,160489000000,FR_wheel_link,-29.032848102060736,9.051230872085393,5.249573973382014,-0.005850557947135257,-0.031054173468122514,0.4225778072096167
160490000000,19,160490000000,FR_wheel_link,28.167826710605205,-9.359029946368864,5.8389485118622195,-0.0015605852834430344,0.03488680631840826,-0.42254286380783623
160491000000,20,160491000000,FR_wheel_link,-28.748482582770208,9.020665916322043,4.493872771403193,-0.007184838879480733,-0.03403245683135125,0.42269090265995923
160492000000,21,160492000000,FR_wheel_link,28.595559224631426,-9.301877377498123,6.621569399396475,0.001991216793274173,0.03013177840379788,-0.42287377521949576
160493000000,22,160493000000,FR_wheel_link,-28.07099274741593,9.083028018726075,5.675237631658699,-0.0029506592057635624,-0.03409328173229074,0.4226572051662876
160494000000,23,160494000000,FR_wheel_link,28.847653529236045,-9.24305783949073,8.007499326152884,0.006703819958839894,0.027839936418901957,-0.42271275854097845
160495000000,24,160495000000,FR_wheel_link,-27.84143013434951,9.160764186586356,7.515347019436946,0.0022152403454662687,-0.03340762548273466,0.42276861995577864
160496000000,25,160496000000,FR_wheel_link,28.80810865296239,-9.221548384514369,8.144932725440698,0.006979932925184853,0.03305470438464859,-0.42275491546021027
160497000000,26,160497000000,FR_wheel_link,-28.46506058603566,9.12744504053673,6.961971942077419,0.00015552180317172945,-0.03181523496289512,0.4229781214826567
160498000000,27,160498000000,FR_wheel_link,28.269167320626003,-9.294381132389178,6.890699953559034,0.0020002468638570903,0.0368343068845667,-0.4228538539730531
160499000000,28,160499000000,FR_wheel_link,-29.02967303411569,9.058891300666682,5.606154485687666,-0.005010833041162915,-0.030677475819661945,0.4226879539592711
160500000000,29,160500000000,FR_wheel_link,28.046293266624346,-9.361364865768044,5.9944667555372275,-0.0018361296955783475,0.03571627996161489,-0.4226035189396244
160501000000,30,160501000000,FR_wheel_link,-28.94607231766578,9.0240388725218,4.973817270594677,-0.007057864893850441,-0.03325613284806475,0.42250878747851417
160502000000,31,160502000000,FR_wheel_link,28.416966418098447,-9.337000427094456,6.392519652654768,-0.00011601588521453968,0.03239122062672685,-0.42275858478644207
160503000000,32,160503000000,FR_wheel_link,-28.357241091157892,9.048453471425162,5.349511592525769,-0.004950618244092551,-0.03471771992763706,0.4227798681165668
160504000000,33,160504000000,FR_wheel_link,28.82271380913717,-9.269631698581703,7.706515556921046,0.004921442989420201,0.027992442596774855,-0.42272833461778614
160505000000,34,160505000000,FR_wheel_link,-27.80586920170245,9.132772338467523,7.0572829730684195,0.0006572404614952156,-0.03391230104328809,0.4227009030930997
160506000000,35,160506000000,FR_wheel_link,28.88135980392677,-9.22586182968853,8.252282931137461,0.007360997050841148,0.03039853925446906,-0.4227240776744528
160507000000,36,160507000000,FR_wheel_link,-28.09630195708347,9.151521814895016,7.294665600226107,0.001557650813084449,-0.031995963651134114,0.4229340778819366
160508000000,37,160508000000,FR_wheel_link,28.404482540903516,-9.259278019912953,7.2346330031331085,0.0041636508084533,0.034828053408580445,-0.4228278495961886
160509000000,38,160509000000,FR_wheel_link,-28.77153444300679,9.092725158331426,5.871801198496524,-0.0031185179105586085,-0.02976538123981886,0.42272064660483183
160510000000,39,160510000000,FR_wheel_link,27.98474063863485,-9.334468019292082,6.007449264937478,-0.0005608924735553298,0.03599598845132663,-0.4226159847074274
160511000000,40,160511000000,FR_wheel_link,-29.02382541845013,9.048461795474408,5.0897658715789165,-0.005924975329407955,-0.031551799302303805,0.4225546413696004
160512000000,41,160512000000,FR_wheel_link,28.163851867407853,-9.34932019922689,5.956450889448565,-0.0011034209817893112,0.03367563577854746,-0.42277473208975785
160513000000,42,160513000000,FR_wheel_link,-28.59433564413993,9.025082874653416,4.818443403272147,-0.006574994167317957,-0.033467544726113796,0.42279069647671885
160514000000,43,160514000000,FR_wheel_link,28.60178333451128,-9.2984749771428,7.164641892224361,0.0029744891969855475,0.028628601294660806,-0.42271805555088493
160515000000,44,160515000000,FR_wheel_link,-27.92591434841247,9.086262750958161,6.187695928763637,-0.00236669622601777,-0.03364193324365249,0.4226331846429036
160516000000,45,160516000000,FR_wheel_link,28.859972237034803,-9.24203870988408,8.465156052120449,0.00717912199763274,0.028062245679572884,-0.4227036369971805
160517000000,46,160517000000,FR_wheel_link,-27.913622652120488,9.165378986347637,7.948517522630501,0.0026209302638069074,-0.03333900156965012,0.422799249226358
160518000000,47,160518000000,FR_wheel_link,28.667484967526473,-9.233682512224604,8.108516218623455,0.006053391278836645,0.03399506875838396,-0.4229561783899928
160519000000,48,160519000000,FR_wheel_link,-28.607222064830893,9.109838765765685,6.6935748770383245,-0.00115443993584684,-0.0309054224066533,0.4230150015323021
160520000000,49,160520000000,FR_wheel_link,28.133881699722462,-9.31531512540418,6.503702591316504,0.0007436663769727615,0.03655255350954825,-0.42266834070171877
160521000000,50,160521000000,FR_wheel_link,-29.047566980522866,9.05375251606066,5.223252481160852,-0.005663913863907169,-0.030927929139448983,0.42261990330688076
160522000000,51,160522000000,FR_wheel_link,28.113322062191298,-9.359466766683912,5.729748174921753,-0.001773600561388821,0.035200293398356425,-0.42256964537396885
160523000000,52,160523000000,FR_wheel_link,-28.893342459542446,9.027186654052915,4.370444943191893,-0.007135542684681783,-0.033056665629336665,0.42246662084698233
160524000000,53,160524000000,FR_wheel_link,28.44931772422926,-9.312162120399147,6.41061962567004,0.0012118420923639451,0.030432858094714386,-0.4227629992574361
160525000000,54,160525000000,FR_wheel_link,-28.125779714625008,9.071121833914118,5.524447579900463,-0.003641878213261128,-0.034132065938638614,0.42280784425142903
160526000000,55,160526000000,FR_wheel_link,28.819519238205405,-9.24884079950708,7.919125310144758,0.00611182634543996,0.02713827486125081,-0.4227357358879745
160527000000,56,160527000000,FR_wheel_link,-27.720294852415517,9.146450164194349,7.349235684232199,0.0013930105326493704,-0.0330558228739179,0.4227293774324097
160528000000,57,160528000000,FR_wheel_link,28.779194554310205,-9.221874793915703,8.337353726627972,0.007353488401938709,0.03126700698955263,-0.42271940010208664
160529000000,58,160529000000,FR_wheel_link,-28.24321598649127,9.13894906612177,7.293693300963088,0.0008842884502894851,-0.03108446321651891,0.4229295868580486
160530000000,59,160530000000,FR_wheel_link,28.243236744927835,-9.281776513382237,7.195460926785713,0.0029392967770692636,0.03564095194522695,-0.4228126096969731
160531000000,60,160531000000,FR_wheel_link,-28.904841424242214,9.069137742171778,5.85162052598209,-0.004375864856165533,-0.029777629813800787,0.4226917139254718
160532000000,61,160532000000,FR_wheel_link,27.962334365600015,-9.35435117892652,6.058996545326532,-0.0014853820844843366,0.03571024213284789,-0.4226016549127068
160533000000,62,160533000000,FR_wheel_link,-28.988661521278363,9.028902885655906,4.9086198706101465,-0.006958428441843669,-0.03192132531082106,0.4225268070301436
160534000000,63,160534000000,FR_wheel_link,28.249743635237234,-9.342717370442571,6.186964012491053,-0.0005609506003344308,0.032064105626008386,-0.42276930335147006
160535000000,64,160535000000,FR_wheel_link,-28.36986961610733,9.040358166305895,5.0991544464355805,-0.005575222815425814,-0.033828382594178995,0.42277720044502615
160536000000,65,160536000000,FR_wheel_link,28.715798150476477,-9.278434776607273,7.397173939113217,0.004248107373522078,0.02758160810388852,-0.4227238062589918
160537000000,66,160537000000,FR_wheel_link,-27.78082103098126,9.105289572912037,6.320537612813859,-0.001283984215098263,-0.03330565311666712,0.4226665818218823
160538000000,67,160538000000,FR_wheel_link,28.84093639913749,-9.226624221262881,8.30620148527237,0.00767260468798595,0.028519661736851748,-0.4227133233027694
160539000000,68,160539000000,FR_wheel_link,-27.876222345523367,9.16582954281449,7.620914373070546,0.002503099072130332,-0.03179622707254299,0.42293399936193893
160540000000,69,160540000000,FR_wheel_link,28.45490455671235,-9.23915285948547,7.658937308653637,0.0055215290610017625,0.033541862931930226,-0.42283475133800424
160541000000,70,160541000000,FR_wheel_link,-28.61778463475989,9.109192110664655,6.270928231494774,-0.0020557525899749934,-0.029102898367258885,0.422739331799788
160542000000,71,160542000000,FR_wheel_link,27.939614479386357,-9.32342691262418,6.262593553201059,8.871812577806372e-05,0.03596739854788306,-0.42261859772822913
160543000000,72,160543000000,FR_wheel_link,-29.05095504338421,9.048418625312786,5.174570710540779,-0.006064583094900058,-0.03064873898847684,0.42257276861456233
160544000000,73,160544000000,FR_wheel_link,28.119043364489418,-9.362883858252726,5.906021585693108,-0.001733214581435121,0.03456738098112028,-0.4225360331259431
160545000000,74,160545000000,FR_wheel_link,-28.72378128775895,9.013896281903632,4.613821679995733,-0.007464313765992075,-0.03381293566251913,0.42268416965449146
160546000000,75,160546000000,FR_wheel_link,28.59023890302968,-9.306386164268384,6.9316254654778096,0.0019997082423636064,0.029353776972959485,-0.4228767883058526
160547000000,76,160547000000,FR_wheel_link,-27.98153978621065,9.07803477877795,5.954831418887191,-0.0030215875609382603,-0.033930962702037666,0.4226519654112597
160548000000,77,160548000000,FR_wheel_link,28.86307234444764,-9.245274550300644,8.339180766310374,0.006877912846695678,0.027161749890447597,-0.4227075022632118
160549000000,78,160549000000,FR_wheel_link,-27.76344861646578,9.157671050614947,7.712714999477748,0.0021715677451364427,-0.033105045253292185,0.42276689724319017
160550000000,79,160550000000,FR_wheel_link,28.796186802505144,-9.22365180785301,8.258082888162892,0.006974666822495874,0.032714301543678125,-0.4227466766212653
160551000000,80,160551000000,FR_wheel_link,-28.431961553154988,9.126279247718665,6.954782501618531,7.950799972239244e-05,-0.031507156683004245,0.42297372245807846
160552000000,81,160552000000,FR_wheel_link,28.237127633860773,-9.295511208453643,6.719670370826444,0.001843742834964736,0.036828075105407615,-0.42284739017254463
160553000000,82,160553000000,FR_wheel_link,-29.053613604399764,9.055864063298147,5.137574836566898,-0.005460042282966219,-0.02969359592129123,0.42269504724192974
160554000000,83,160554000000,FR_wheel_link,27.939608976105298,-9.35549200730877,5.757956699336101,-0.0016356538114279038,0.03463164265666327,-0.42261622923342645
160555000000,84,160555000000,FR_wheel_link,-28.856760346187563,9.027940200258321,4.611257427241044,-0.007050732893414711,-0.03187249075136764,0.4225162373467571
160556000000,85,160556000000,FR_wheel_link,28.296536668016937,-9.324988259784867,6.287175858726848,0.0004561355181115882,0.0306921641316752,-0.4227642967251749
160557000000,86,160557000000,FR_wheel_link,-28.21399610691541,9.051787271924749,5.065224407424045,-0.0050173350403488375,-0.03266373442254056,0.42278489005651804
160558000000,87,160558000000,FR_wheel_link,28.649537565945305,-9.259566119437695,7.840456057699903,0.00557707544282966,0.025529510166437515,-0.4227429484168425
160559000000,88,160559000000,FR_wheel_link,-27.60374916389005,9.127874755855744,6.765531367231423,0.00010738958499988263,-0.030636168846050114,0.42271947521723624
160560000000,89,160560000000,FR_wheel_link,28.596773509946377,-9.219199628413008,8.582167690464031,0.008004535562141021,0.026685396092570028,-0.4227418415679551
160561000000,90,160561000000,FR_wheel_link,-27.778450451998154,9.145362601241198,7.321625176154512,0.0011711576649890408,-0.028139548532176456,0.4229389094066128
160562000000,91,160562000000,FR_wheel_link,28.08099543046393,-9.256448541700054,7.687164123369054,0.0046846811111557396,0.030675108121525765,-0.4228239835303177
160563000000,92,160563000000,FR_wheel_link,-28.401703058089875,9.083053725252636,6.0603554240365884,-0.003646967071417341,-0.026106731009348114,0.4227128084091656
160564000000,93,160564000000,FR_wheel_link,27.67628711460807,-9.34156814932015,6.1318394216973875,-0.0007831124724182269,0.03278143237712386,-0.4225980715118015
160565000000,94,160565000000,FR_wheel_link,-28.744296341609168,9.039954668680156,5.159838258840226,-0.006454645620710333,-0.029053095488834838,0.42254298212624863
160566000000,95,160566000000,FR_wheel_link,27.964725646276673,-9.35413924995956,5.917469405947881,-0.0013130230849699822,0.03125244176705635,-0.4227620832647014
160567000000,96,160567000000,FR_wheel_link,-28.379391409182904,9.021163661820127,4.612323694179211,-0.006973277802720358,-0.03130407420633365,0.4227752437411793
160568000000,97,160568000000,FR_wheel_link,28.41641967143132,-9.297505171999186,6.8653071205870475,0.002919383523683135,0.02674402302164551,-0.4227130083959211
160569000000,98,160569000000,FR_wheel_link,-27.7719456978673,9.088280930356774,5.755843630856981,-0.002519949337506281,-0.03158645024763381,0.42264039573078116
160570000000,99,160570000000,FR_wheel_link,28.672504090701526,-9.233700433153434,8.097361769946266,0.007512351482697225,0.026280890047909206,-0.4227232275039661
160571000000,100,160571000000,FR_wheel_link,-27.76935316718189,9.166200179086735,7.421007390018529,0.0023787992445891723,-0.03149058701965089,0.42282888844455774
160572000000,101,160572000000,FR_wheel_link,28.51394103015438,-9.209307721785631,8.076641119262069,0.007298617513988604,0.0318459135741435,-0.42297703460192676
160573000000,102,160573000000,FR_wheel_link,-28.40844078569903,9.130290569376195,6.800735261874096,-9.753051153186226e-05,-0.029309344085573955,0.4230165137870919
160574000000,103,160574000000,FR_wheel_link,28.017138857908108,-9.24582354684047,6.738248332685525,-0.05770343168689717,0.03485721237595689,-0.42268564904880274
160575000000,104,160575000000,FR_wheel_link,-28.857217064836536,9.076736877404455,5.4623643287127805,-0.06557323066969534,-0.028407986500299166,0.4228195331395443
160576000000,105,160576000000,FR_wheel_link,27.818275713929662,-9.409256384908652,5.997504506160158,-0.06414558894017348,0.033214841906309085,-0.4228024252073307
160577000000,106,160577000000,FR_wheel_link,-28.709923993681965,8.862246661749584,4.751549021137946,-0.07229069514004652,-0.02982626169786121,0.4224744575354384
160578000000,107,160578000000,FR_wheel_link,28.19146274393642,-9.635434724554843,7.600749401256293,-0.041756647025497744,0.02737659858518994,-0.42258547102124144
160579000000,108,160579000000,FR_wheel_link,-28.001700692693426,8.549141916195325,6.972865945237577,-0.00829402245351562,-0.03211684903532847,0.4221996770646229
160580000000,109,160580000000,FR_wheel_link,28.87001484013984,-10.048603222678961,9.842888578745805,0.00343283027649629,0.021730372264856808,-0.42267831711432674
160581000000,110,160581000000,FR_wheel_link,-27.42831068736175,8.190938460252886,8.846762736806015,0.0012373471439017744,-0.031330646947544394,0.42235277259640447
160582000000,111,160582000000,FR_wheel_link,28.967588287367246,-10.239416649268582,9.787912040045763,0.010471127605620438,0.027117953896029477,-0.4222811836904963
160583000000,112,160583000000,FR_wheel_link,-28.276498645319087,8.047502312155158,7.787405996321687,0.004892666931471925,-0.02893530185285675,0.4229614990937286
160584000000,113,160584000000,FR_wheel_link,28.572402908266405,-10.193838161581231,7.446650844113995,0.009412089503837696,0.03324411803385896,-0.4223230253279803
160585000000,114,160585000000,FR_wheel_link,-29.14173501172856,8.176830544863552,4.786407314107231,0.0005570607910908495,-0.029501787966968215,0.42266587221947644
160586000000,115,160586000000,FR_wheel_link,28.47570226350209,-9.99939126092216,4.612574535731478,0.0029404604712430253,0.03481111657746463,-0.42194940123158625
160587000000,116,160587000000,FR_wheel_link,-29.26171819412239,8.417029771383232,2.171389195407518,-0.006211277316455841,-0.0289370986729165,0.4220648423560773
160588000000,117,160588000000,FR_wheel_link,28.40416256013404,-9.818792644394986,2.868755733916525,-0.002544091867059345,0.03335829757239628,-0.421716613843287
160589000000,118,160589000000,FR_wheel_link,-29.05872694108244,8.527266796986634,1.3518945249235195,-0.008835167618781012,-0.02898720017997088,0.42128849413295694
160590000000,119,160590000000,FR_wheel_link,28.50559884597942,-9.874369694636874,3.1515952824265,-0.002702264328406702,0.030413325480768187,-0.42239678967036765
160591000000,120,160591000000,FR_wheel_link,-28.911550448895667,8.355976835095884,2.2486667139124963,-0.006530224944104713,-0.028065316732273603,0.422288742778478
160592000000,121,160592000000,FR_wheel_link,28.56732635287597,-10.047212322200407,4.018425084024054,0.0012932419367886379,0.029678875748938863,-0.4227893125409526
160593000000,122,160593000000,FR_wheel_link,-29.00212704748133,8.289728360546945,2.659128536742728,-0.0032056351693555327,-0.02650577971999134,0.4230335177178929
160594000000,123,160594000000,FR_wheel_link,28.588981872493694,-10.169205577075214,4.678782398579375,0.0033558698401144962,0.02623287372892786,-0.42319271851437246
160595000000,124,160595000000,FR_wheel_link,-28.67045284874921,8.280659204536777,3.6202929796466368,-0.0016616816810184315,-0.026831626799443287,0.4234680686251527
160596000000,125,160596000000,FR_wheel_link,28.87655704680877,-10.312023692153346,5.302579003194064,0.003919368122965999,0.02551578649132464,-0.423890060468741
160597000000,126,160597000000,FR_wheel_link,-28.680222898247802,7.9689903453357,5.070239839936468,1.7085810719445173e-05,-0.031105325805298487,0.4235688498638413
160598000000,127,160598000000,FR_wheel_link,29.465800547224124,-10.488028291478404,6.413749371401318,0.004530142187083652,0.027991323782043925,-0.4235755522504167
160599000000,128,160599000000,FR_wheel_link,-28.982393541847074,7.8515500825376145,4.383308300143955,-0.002332443684188581,-0.03026265484217105,0.4236981182494968
160600000000,129,160600000000,FR_wheel_link,29.444570159686428,-10.695904299845873,7.441865359347291,0.006256144086865653,0.02798326312860266,-0.42333028747261814
160601000000,130,160601000000,FR_wheel_link,-29.067316689591973,7.6127884119398095,5.182752869003408,-0.0018578428069105262,-0.03140380496911192,0.4232000957238655
160602000000,131,160602000000,FR_wheel_link,29.6516399009562,-10.909326644497813,8.165038178123567,0.006971114512554318,0.029576816687933175,-0.4230983324958824
160603000000,132,160603000000,FR_wheel_link,-29.321974094525487,7.4245505035892565,5.445326464711075,-0.0022460831053949673,-0.03301877904324724,0.4231916652415179
160604000000,133,160604000000,FR_wheel_link,29.88598969447138,-11.0719230476425,8.300753403127267,0.006132202404496535,0.032174883294844484,-0.4230412799781296
160605000000,134,160605000000,FR_wheel_link,-29.73525887351154,7.240354874466768,5.464862132637554,-0.0015918118138369415,-0.03184757279083782,0.42401788581949956
160606000000,135,160606000000,FR_wheel_link,29.897890977791306,-11.127080002174756,7.861683248019671,0.00518741593859124,0.031049730636008598,-0.42406031268877653
160607000000,136,160607000000,FR_wheel_link,-29.753469740005315,7.204217022408822,4.899322132311609,-0.002711045473887157,-0.030820098325482898,0.42396069059318026
160608000000,137,160608000000,FR_wheel_link,31.839926667492374,3.2707759753310466,7.872838895539187,-0.041142368805775945,0.032710244897982,-0.3356205767968814
160609000000,138,160609000000,FR_wheel_link,-21.285061291922215,9.211164088595298,7.759871063057081,-0.08358664498641058,-0.03328920125716961,0.15017908532538146
160610000000,139,160610000000,FR_wheel_link,7.072937118338869,-16.220871639065486,6.0819932872332485,0.10294749429140718,0.02694952198790186,-0.03783353708680677
160611000000,140,160611000000,FR_wheel_link,-3.8120380141429355,11.92667666858788,9.583556940950777,-0.07145152309248468,-0.02244003660003081,0.01854564534350824
160612000000,141,160612000000,FR_wheel_link,-0.35542539787260075,0.10736261647512278,8.044677387577753,0.009142701810899658,0.020185290634845757,-0.1520591407529594
160613000000,142,160613000000,FR_wheel_link,-18.49336080094447,9.110335760233145,5.6744187463353155,0.01967314671062845,-0.012994335757368242,0.34623811682893085
160614000000,143,160614000000,FR_wheel_link,26.293531238222172,-10.094082861920041,8.100103997789308,0.026384114864117677,0.01281122529928444,-0.4113531854647953
160615000000,144,160615000000,FR_wheel_link,-27.694367768349572,8.658068385564304,5.304776836252703,0.01584088673899526,-0.010690512420501194,0.4221064022540647
160616000000,145,160616000000,FR_wheel_link,27.874215485879596,-9.853188546398775,8.23978270723434,0.024797917913160314,0.013823540190290896,-0.42359818723225
160617000000,146,160617000000,FR_wheel_link,-28.16167884670526,8.561833156853718,5.285338468181734,0.012084691133212104,-0.012467439309329661,0.42366862422661633
160618000000,147,160618000000,FR_wheel_link,28.21692922336264,-9.939371888110545,7.869010663159049,0.01984663516799041,0.014555659794175467,-0.4237452917094817
160619000000,148,160619000000,FR_wheel_link,-28.32187697781534,8.468383324295798,4.453626965430329,0.0065683035217503575,-0.01533244548527024,0.4227976956986629
160620000000,149,160620000000,FR_wheel_link,28.395981232829012,-10.043974411644268,6.481321579021242,0.01016310245341438,0.020886958700591925,-0.42273842479362045
160621000000,150,160621000000,FR_wheel_link,-28.91625873776318,8.393632522763737,2.7849815070618296,-0.006866611749798609,-0.02078240491635345,0.42223899984320473
160622000000,151,160622000000,FR_wheel_link,28.80293093382927,-10.20742388875647,4.849240206659869,-0.005618126473814092,0.021755469226816482,-0.4221693782827348
160623000000,152,160623000000,FR_wheel_link,-28.84961846210215,8.164665971074584,1.8323550407570608,-0.018464365408451887,-0.023102493835647955,0.4217101882828034
160624000000,153,160624000000,FR_wheel_link,29.150835392456933,-10.489660741663165,4.582091842046376,-0.011065007499654346,0.019091530990440718,-0.4217955026151467
160625000000,154,160625000000,FR_wheel_link,-28.59340972884554,7.988389409847423,2.3446656375475627,-0.017572207527865983,-0.020658985720658773,0.42252321007613014
160626000000,155,160626000000,FR_wheel_link,29.088100404370216,-10.576837725274197,5.529408994370894,-0.0070637057356023126,0.01855146202360202,-0.4224389143046637
160627000000,156,160627000000,FR_wheel_link,-28.64758409310488,7.965135821482075,3.005935766402515,-0.013729830633073207,-0.0190354101332915,0.42314697952327596
160628000000,157,160628000000,FR_wheel_link,29.067916361497332,-10.611898050410455,6.680539564415844,-0.00256113963133218,0.01721934220890612,-0.423200955286731
160629000000,158,160629000000,FR_wheel_link,-28.6261508800692,7.88325650940435,4.098351747076068,-0.00907575405501866,-0.018544822343884285,0.42324517749779494
160630000000,159,160630000000,FR_wheel_link,29.084981100847646,-10.725725422322544,8.110953328961118,0.0035621767495751166,0.01839473028709916,-0.42323749587137227
160631000000,160,160631000000,FR_wheel_link,-28.868496473026315,7.755568855170151,5.070121441584239,-0.0035931510509100524,-0.019141814796854797,0.4233328007296625
160632000000,161,160632000000,FR_wheel_link,29.207746127317222,-10.886781891643999,9.198024827220998,0.009910502541100897,0.01980479102709594,-0.42340816229670314
160633000000,162,160633000000,FR_wheel_link,-29.146572516220335,7.626344869357239,5.317703883106919,0.0010311965333644527,-0.01937343452049128,0.4235182153862794
160634000000,163,160634000000,FR_wheel_link,29.288106096974346,-11.009126864141555,9.211563922908597,0.013574043628793287,0.02158158390801529,-0.42356918112995645
160635000000,164,160635000000,FR_wheel_link,-33.43343168744102,7.370986325753494,7.793565478503138,-0.0813292536000154,-0.02524218946247978,0.25287162745857206
160636000000,165,160636000000,FR_wheel_link,9.319151860652761,13.876456146522898,11.188760087368092,-0.06629821494622569,0.03193787618770876,-0.042979760631360504
160637000000,166,160637000000,FR_wheel_link,-3.271426436904964,-16.743955900205453,4.971622251915741,0.11769030180236438,-0.0267458924244939,-0.0033205220680360384
160638000000,167,160638000000,FR_wheel_link,1.7138102576894307,13.898442472155137,10.541089825228964,-0.05964038047119554,0.018771025651354356,0.010462524349465978
160639000000,168,160639000000,FR_wheel_link,-0.7438394318895176,-15.267501697994671,5.248323967412076,0.11564787552567868,-0.014120639643549907,-0.012203624021835464
160640000000,169,160640000000,FR_wheel_link,0.34624125042823917,15.171276636829013,8.962699527869505,-0.06712043098383161,0.010104101610249636,0.012662684646228436
160641000000,170,160641000000,FR_wheel_link,-1.9528231032374517,-0.6797508638709987,8.573687478197883,-0.01679964782780272,-0.010515311202660508,-0.09774346321888636
160642000000,171,160642000000,FR_wheel_link,-8.203552236599384,12.952193345566897,5.650860201786707,0.01581616087420845,0.013100834842330142,0.2825877590574688
160643000000,172,160643000000,FR_wheel_link,22.830861111455775,-9.049564869433674,7.927515351333809,0.025910196717053177,-0.015033716968817886,-0.3990076464386529
160644000000,173,160644000000,FR_wheel_link,-25.4240049999406,9.772328508854136,5.665455895176777,0.014568484634176074,0.012040683171623089,0.41862209724828137
160645000000,174,160645000000,FR_wheel_link,26.236213521116685,-8.653470288138676,8.280694590523117,0.022568383896000917,-0.009407432760802938,-0.42201200497313673
160646000000,175,160646000000,FR_wheel_link,-26.565697682703497,9.501281542839108,5.645636400472164,0.009813691137564345,0.008186025620576848,0.4226461901142405
160647000000,176,160647000000,FR_wheel_link,26.69216520652874,-8.810325705961837,8.444756290369561,0.018389458274855285,-0.0060497460713979,-0.4229387437326481
160648000000,177,160648000000,FR_wheel_link,-26.974656650605453,9.355538832969533,5.267284473948164,0.007199687184930617,0.005567120971336507,0.42301893927822565
160649000000,178,160649000000,FR_wheel_link,27.00434761220559,-8.975893523098481,7.7130643495360305,0.01577864468874403,-0.003816349912475751,-0.4231310481208068
160650000000,179,160650000000,FR_wheel_link,-27.236424035153387,9.153452933911476,4.14621488094555,0.001906043531314829,0.0030527208454232003,0.4231442454948926
160651000000,180,160651000000,FR_wheel_link,27.30320737706459,-9.374533727807956,6.216888969068861,0.0029419238372500327,-0.0013102318308652616,-0.42319787905712525
160652000000,181,160652000000,FR_wheel_link,-27.507082950172435,8.710426066499164,2.8175318631613844,-0.014100801595394938,-5.1797552957876474e-05,0.42314709169898296
160653000000,182,160653000000,FR_wheel_link,27.661643857181,-9.755754234460936,5.0722231597184235,-0.010153085267324622,0.00019381407210614795,-0.4230540701947239
160654000000,183,160654000000,FR_wheel_link,-27.590282718797702,8.550615236453613,2.138333479354821,-0.016519404052412714,-0.004951423705140255,0.4232415663727398
160655000000,184,160655000000,FR_wheel_link,28.28688757307851,-9.85574738143089,5.160542018862077,-0.007118132554328071,0.0011285071801696122,-0.4230893694806631
160656000000,185,160656000000,FR_wheel_link,-27.71387515818451,8.443522625239872,2.5013952568424167,-0.014053889874002275,-0.0038217546404079885,0.42351404690994554
160657000000,186,160657000000,FR_wheel_link,28.24731908707754,-9.964884117924825,5.740168842649337,-0.0041507624807082515,0.0010768261502559354,-0.4232761555376663
160658000000,187,160658000000,FR_wheel_link,-27.84142114613754,8.352435142307954,2.9151484086221364,-0.01141181714519254,-0.0030672198398135927,0.42356256903671885
160659000000,188,160659000000,FR_wheel_link,28.21400014064274,-10.079235602307815,6.472173523425558,-0.0001874628291553822,0.0019137412976333048,-0.42337041598640257
160660000000,189,160660000000,FR_wheel_link,-28.054281993506432,8.238003977637197,3.485279134458107,-0.007833924517792518,-0.0028139301497018716,0.42360231325430064
160661000000,190,160661000000,FR_wheel_link,28.26806959900089,-10.237972944011956,7.179976259013321,0.0029860675362196,0.0009439819353522034,-0.4235866012377592
160662000000,191,160662000000,FR_wheel_link,-28.057695605426765,8.088977619423066,3.8781790912335468,-0.005859574255940591,-0.003283709508740148,0.42369648789389686
160663000000,192,160663000000,FR_wheel_link,28.346434162758793,-10.374224433909482,7.614100216832363,0.006636306726621344,0.004887285178490664,-0.4234678392309808
160664000000,193,160664000000,FR_wheel_link,-28.567662355016243,7.998431939858385,3.810000959067454,-0.0029457266736028676,-0.004008909545208578,0.42375357731567215
160665000000,194,160665000000,FR_wheel_link,28.394490727575352,-10.442192301904452,7.435827672754901,0.008628486275201217,0.008602062445511835,-0.42374790527808315
160666000000,195,160666000000,FR_wheel_link,-29.037996501472087,7.975507346970531,3.2352018774135862,-0.0018474667742601682,-0.0048972563936384075,0.42370576447329
160667000000,196,160667000000,FR_wheel_link,28.455242977633624,-10.39984476191421,6.583659622555647,0.008814094441730274,0.01208829440291281,-0.42394566207487866
160668000000,197,160668000000,FR_wheel_link,-29.4070641953749,8.03748478692142,2.2199500960618606,-0.002423921547025747,-0.007653513200829128,0.42335306007637846
160669000000,198,160669000000,FR_wheel_link,28.702461704632277,-10.275113683735206,5.318063289934748,0.006250245802554076,0.014540069866038166,-0.4238905272363909
160670000000,199,160670000000,FR_wheel_link,-29.528539184546787,8.243046402867936,0.9935656050034294,-0.0051331063216554515,-0.012692955649397432,0.42366638048412425
160671000000,200,160671000000,FR_wheel_link,29.292731118097965,-10.144784341771617,5.029290667598989,0.002245873311044292,0.01356424683368027,-0.4252388686842556
160672000000,201,160672000000,FR_wheel_link,-29.499531809809287,8.149700142889422,1.1059220626806991,-0.005333006396113501,-0.01449495789008844,0.4242956723298362
160673000000,202,160673000000,FR_wheel_link,29.55622231367617,-10.270658211317759,5.352010184074782,0.0027812603996480467,0.01132143365818191,-0.424052359052457
160674000000,203,160674000000,FR_wheel_link,-29.253154708999293,8.124370539191892,1.1880479853877377,-0.004027665623359622,-0.011785101181040664,0.42432234061288115
160675000000,204,160675000000,FR_wheel_link,29.448998831639685,-10.276141567902656,5.256058431929217,0.005417662682627703,0.006930951784988795,-0.42439351106370876
160676000000,205,160676000000,FR_wheel_link,-28.974234288652696,8.087646962318281,1.2991308796187628,-0.0027673226322736722,-0.006845068417138571,0.4249327368465708
160677000000,206,160677000000,FR_wheel_link,29.142193902274077,-10.325312180325902,5.209556905040023,0.005227382555920699,0.0031020088406524134,-0.4245083171855715
160678000000,207,160678000000,FR_wheel_link,-32.71023351535067,7.962823255381617,4.209395655248401,-0.0883902588505704,-0.013253726009199895,0.2545046553841679
160679000000,208,160679000000,FR_wheel_link,5.232920370998162,1.3876036387120485,4.741173181321884,-0.004925951019048837,0.017769904275162306,-0.19501163041873917
160680000000,209,160680000000,FR_wheel_link,-20.150504559348818,9.840698212905409,2.7925766575691626,0.007550480380718406,-0.0013609289578128854,0.35460284088961264
160681000000,210,160681000000,FR_wheel_link,26.62810837611203,-10.174051414451512,8.588658618044192,0.023613586316667462,-0.0013255284613732346,-0.4127740813853353
160682000000,211,160682000000,FR_wheel_link,-28.216398169382554,8.584674990043712,5.551670771642343,0.014513907684676764,0.0006063957961944527,0.4222669611869935
160683000000,212,160683000000,FR_wheel_link,28.545866206788403,-9.798788831948086,10.227739810559072,0.025559810866254903,-0.003454089403555832,-0.4236994919451627
160684000000,213,160684000000,FR_wheel_link,-28.3452426446687,8.510352826044368,5.662426566852405,0.014318261130673833,0.0026915358283528526,0.42417648360710464
160685000000,214,160685000000,FR_wheel_link,28.534027556775754,-9.80951697243369,10.312302371139342,0.026033863719254768,-0.003927463936168036,-0.4239298256700254
160686000000,215,160686000000,FR_wheel_link,-28.40589179902992,8.482709314782117,5.636151837048425,0.013813109345887541,0.0014130683384172451,0.42424493201395236
160687000000,216,160687000000,FR_wheel_link,28.79061308401683,-9.878564438939273,9.664930692983765,0.02338487105347716,-0.001826286172670403,-0.4240804433702668
160688000000,217,160688000000,FR_wheel_link,-32.6429281002787,8.202565734985953,6.9263306795448045,-0.08036236554565256,-0.014632708123410635,0.2543061121284207
160689000000,218,160689000000,FR_wheel_link,9.21624927648683,14.998351043470063,8.626821724676361,-0.07618941798419467,0.02431728540581954,-0.044253634003571435
160690000000,219,160690000000,FR_wheel_link,-2.7010035194381996,-15.776333067164076,5.19528572259456,0.10580498039817487,-0.022209581155645867,-0.001659636698554754
160691000000,220,160691000000,FR_wheel_link,1.2860213543937844,13.653572627360687,9.172493650274495,-0.07081359720996028,0.016898129199709313,0.009910914421132485
160692000000,221,160692000000,FR_wheel_link,-0.6362851548359145,-15.760275779829929,5.591827138161221,0.10581339439609133,-0.013657286214809954,-0.01134275876630651
160693000000,222,160693000000,FR_wheel_link,0.27167830599643567,13.8989206111823,8.221690947359782,-0.07432670946803986,0.011580925330449283,0.012060981916172678
160694000000,223,160694000000,FR_wheel_link,-0.1727736608812592,-15.378455126108925,5.400831969651518,0.10290445563735787,-0.007795220567364907,-0.012534571259484447
160695000000,224,160695000000,FR_wheel_link,-0.30732116358965966,13.866636741147488,6.668924363419866,-0.08197718417939963,0.007082339980082711,0.012919766029115253
160696000000,225,160696000000,FR_wheel_link,0.5272855483277256,13.937856867625753,7.306446205030997,-0.0783748052495166,-0.003820538907232363,-0.00197509028540475
160697000000,226,160697000000,FR_wheel_link,0.7428965308280229,-15.619053083440233,6.01535344710163,0.1043045445093111,0.003399123301715949,-0.011367179433180826
160698000000,227,160698000000,FR_wheel_link,-1.2187203591496993,13.525984138352783,8.314148719559869,-0.07280687499941536,-0.0011792723046619962,0.013275310159012177
160699000000,228,160699000000,FR_wheel_link,0.9553247673551369,-15.744095995262539,6.067329605498706,0.10501216474157744,0.0023128850831782726,-0.013630688128993106
160700000000,229,160700000000,FR_wheel_link,-1.1738344160797063,13.90925230826379,7.473378945003062,-0.07703395440549714,-0.0006437206148466284,0.013318786715878377
160701000000,230,160701000000,FR_wheel_link,0.9969037695483333,-15.450023086390829,5.524764896823345,0.09895653148787543,-0.0035597977905420723,-0.013476132173454817
160702000000,231,160702000000,FR_wheel_link,-0.5808019860673895,13.818610373748893,6.126034182500307,-0.08506194848766438,0.0022163510698652127,0.013507228555751552
160703000000,232,160703000000,FR_wheel_link,0.7416529362626576,-15.682048906739121,4.310215658424614,0.09375166660542818,-0.0026693520916122155,-0.01321983609823139
160704000000,233,160704000000,FR_wheel_link,-0.7464255629270585,13.716871583803616,4.51909734781385,-0.09191122189999794,0.003663872043695777,0.013293607673130052
160705000000,234,160705000000,FR_wheel_link,-1.372097048545448,-15.961512135122456,4.408320295307791,0.04761621829069365,-0.008963828317389363,-0.09477857968873069
160706000000,235,160706000000,FR_wheel_link,-12.413171605464159,11.084966673620647,5.193860701798113,-0.0899601619798102,0.009794742348911431,0.10783723030607076
160707000000,236,160707000000,FR_wheel_link,2.699860335275815,-15.786737231769553,3.2794854685204586,0.09015712493132096,-0.0001650449025519419,-0.029354742628981818
160708000000,237,160708000000,FR_wheel_link,-1.5139578067484665,13.030527777331104,5.237493428093336,-0.08773229659165167,0.00021187391139778145,0.01612893381923212
160709000000,238,160709000000,FR_wheel_link,0.8401630441475043,-16.185198833456585,3.4661411258935146,0.09032304157303449,0.002351375762089027,-0.014194004249580337
160710000000,239,160710000000,FR_wheel_link,-1.3183956867319924,13.063449666890328,5.241895962129528,-0.08792395553831947,-0.00011299879366297288,0.013531933437611434
160711000000,240,160711000000,FR_wheel_link,0.7848782996230093,-16.218506153428134,3.505288728387425,0.09166758611795064,0.0025305984661592932,-0.014006617713442063
160712000000,241,160712000000,FR_wheel_link,-1.3450419388055528,13.056876969935102,5.150508447337818,-0.08751813340578893,-0.0007135412785013316,0.013489828919465529
160713000000,242,160713000000,FR_wheel_link,1.1363795643170282,13.344485921733709,5.7946187005453185,-0.08410977152911103,0.001169756459242366,-0.002882594760692945
160714000000,243,160714000000,FR_wheel_link,0.251611960531465,-16.33238238287177,4.915628146497951,0.10326123880645717,-0.002859137983037336,-0.009731783647845332
160715000000,244,160715000000,FR_wheel_link,-0.5943170952600852,13.505286397871414,7.383207854508601,-0.07242842804852385,0.0012167668402647293,0.012532655097736779
160716000000,245,160716000000,FR_wheel_link,0.7882195225990496,-15.50329295881818,4.875273881700205,0.10449255890268032,-0.0015727732622286077,-0.012683170020099832
160717000000,246,160717000000,FR_wheel_link,-0.7189948447867477,13.726710135559209,7.024242686368846,-0.07466914881829424,-0.003492107474766194,0.012587858267174906
160718000000,247,160718000000,FR_wheel_link,1.1167294965641836,-15.59622122519489,5.293656897074028,0.1007972564947045,0.0043901320349516776,-0.012585843061447648
160719000000,248,160719000000,FR_wheel_link,-1.3597204513790297,13.638377653046305,6.981264086383851,-0.07609755047320657,-0.0006121078646302465,0.014005913345543406
160720000000,249,160720000000,FR_wheel_link,0.9778294638216141,-15.579734842369545,5.210352068349866,0.09960935210200747,0.0014247195033360127,-0.013828555413173703
160721000000,250,160721000000,FR_wheel_link,-1.0848719249019936,13.66009881645062,6.703583971649805,-0.07708577870712544,0.0008843986229982418,0.013505466409530481
160722000000,251,160722000000,FR_wheel_link,-1.0506133611309678,-1.0013047064222782,6.84415533313827,-0.030702130747420682,-0.004702108803962231,-0.09435441482790038
160723000000,252,160723000000,FR_wheel_link,-8.676027725867925,12.026472850985533,3.270472992166296,0.007288178942120823,0.02592029694235047,0.2776496986454042
160724000000,253,160724000000,FR_wheel_link,23.091378599501407,-10.038148328986273,6.2001312979710645,0.012732428675256985,-0.029814024791132505,-0.39688090199302783
160725000000,254,160725000000,FR_wheel_link,-26.07623876176924,8.82858852860105,3.579120987278844,0.007359239739656333,0.032236427380381065,0.4155592753778518
160726000000,255,160726000000,FR_wheel_link,26.6204220561472,-9.505352462816655,6.393575814770428,0.01267729257661188,-0.026795709107738354,-0.420180866011416
160727000000,256,160727000000,FR_wheel_link,-27.023991492785715,8.650914261100747,3.4361446646932023,0.006044004406449116,0.026677312924195902,0.420589866569868
160728000000,257,160728000000,FR_wheel_link,27.378583907522934,-9.501252218156123,6.359566676860436,0.009491284401743861,-0.024714055522823814,-0.4209562126204796
160729000000,258,160729000000,FR_wheel_link,-27.123974133400328,8.584305057644793,3.1844776321018733,0.0016975382854629625,0.023736410666523846,0.42108906607237523
160730000000,259,160730000000,FR_wheel_link,27.766609498846318,-9.62223817537511,6.427096685641391,0.004541886651449793,-0.024015470522700283,-0.42114278328900806
160731000000,260,160731000000,FR_wheel_link,-27.19780005718735,8.481184394018396,3.1701720846874974,-0.0018336130152503453,0.024769189897389344,0.4209255885608178
160732000000,261,160732000000,FR_wheel_link,27.62317935514032,-9.725957240048334,6.607390741063096,0.0026484187409194734,-0.02179084323861618,-0.4215470898337366
160733000000,262,160733000000,FR_wheel_link,-27.58776075317149,8.373791216957612,3.2543156642419824,-0.003438436425529051,0.026279781677921013,0.4207999638231197
160734000000,263,160734000000,FR_wheel_link,27.43337599310856,-9.809942023673933,6.6972316771439635,0.001846565114860839,-0.021845142086465916,-0.42173544519265554
160735000000,264,160735000000,FR_wheel_link,-27.67477039092787,8.297601554658879,3.2917482616629514,-0.003511264279285325,0.02657605452473513,0.420694768309358
160736000000,265,160736000000,FR_wheel_link,27.44924274904856,-9.869720415186098,6.79614099555881,0.0021998436720435015,-0.02280113888565816,-0.42170687530254786
160737000000,266,160737000000,FR_wheel_link,-27.552669597578287,8.258530707818933,3.2817906686376896,-0.0014297464232131984,0.023789875003746092,0.421357716604905
160738000000,267,160738000000,FR_wheel_link,27.837789561697143,-9.920109585077535,7.116522181773171,0.0017075296865448775,-0.0181493322684288,-0.42170127674451424
160739000000,268,160739000000,FR_wheel_link,-27.88797184831399,8.213621605449084,3.220244645084732,-0.0010347190161260392,0.0185642383860722,0.4210202172876456
160740000000,269,160740000000,FR_wheel_link,28.399309383428893,-9.933180414909165,7.197413940106744,0.004779455344259273,-0.01969398346517034,-0.4216493318142504
160741000000,270,160741000000,FR_wheel_link,-27.741102797992596,8.162523820805342,3.479321253199101,-0.000814598305681476,0.019819223054676365,0.42150580976348306
160742000000,271,160742000000,FR_wheel_link,28.39262918722127,-9.961158469113357,7.443073393046131,0.004941274376064336,-0.021833838485176296,-0.4213567405012278
160743000000,272,160743000000,FR_wheel_link,-27.564136401012252,8.13261298618753,3.7152428437655134,-0.0006680462584910903,0.020631627628789943,0.42139926163332564
160744000000,273,160744000000,FR_wheel_link,28.39171341428112,-10.00311538499457,7.602778547348675,0.004923459559628003,-0.023342174280154372,-0.42109187287357613
160745000000,274,160745000000,FR_wheel_link,-31.456328231271524,8.188294351828638,6.609253488783698,-0.08539779799273986,0.00430382755082571,0.2522376523785621
160746000000,275,160746000000,FR_wheel_link,8.479610970233384,15.092637372918952,7.3436636209935635,-0.0821908528863658,0.012960320915548143,-0.04350723703971902
160747000000,276,160747000000,FR_wheel_link,-1.3201935183447513,-15.636933096616026,5.860659939309895,0.09985542839231798,-0.02174083055928753,-0.0014747753750862418
160748000000,277,160748000000,FR_wheel_link,1.6461226676679648,13.991061117488673,8.192919779638368,-0.07581645198896979,0.008931267869021264,0.010640970182240897
160749000000,278,160749000000,FR_wheel_link,0.6967187501395664,-15.541553331488,6.263104318116887,0.10131581209230091,-0.015264358799127804,-0.009183385124877857
160750000000,279,160750000000,FR_wheel_link,1.0272062197202938,14.524560989449201,6.936436970738828,-0.07817339103015475,0.0075272772427693695,0.01229626043433459
160751000000,280,160751000000,FR_wheel_link,0.8339360692364368,-14.834471664413881,5.25777449096858,0.09793359810671455,-0.00973087993415652,-0.011956278120421368
160752000000,281,160752000000,FR_wheel_link,0.306002364274547,14.49920081820608,6.871360710579267,-0.0784174847943671,0.00491996155197626,0.013874804657088985
160753000000,282,160753000000,FR_wheel_link,-2.915381522543316,-14.686619234020139,8.305078909810389,0.012456581940231307,-0.023791010724824754,-0.18150231213739992
160754000000,283,160754000000,FR_wheel_link,-20.225944565419354,9.860085695079496,4.774428121721163,0.007273791888289978,0.04367830707146605,0.37855248114576
160755000000,284,160755000000,FR_wheel_link,25.536546805436394,-9.372002709440203,7.7464728043004545,0.012794175417093392,-0.042943877503076745,-0.4112449428994725
160756000000,285,160756000000,FR_wheel_link,-25.79567204833464,9.003699139646857,4.890567511006786,0.007974120424272079,0.04227683675622282,0.4171476295907941
160757000000,286,160757000000,FR_wheel_link,26.904168099658328,-9.095580722766302,8.46829899577787,0.013819961915229297,-0.04109486178252139,-0.41829094315438725
160758000000,287,160758000000,FR_wheel_link,-26.115154504956465,9.125904108521912,5.703331050729216,0.009541365094037281,0.03821656825291411,0.4190329757006354
160759000000,288,160759000000,FR_wheel_link,27.500333972975085,-8.897424549225514,9.646620152152883,0.014920494482668504,-0.04214868922832308,-0.41811952845658024
160760000000,289,160760000000,FR_wheel_link,-25.855516372944827,9.261936278060475,6.669093409407209,0.008989339416455761,0.035574062317309044,0.4201706695050959
160761000000,290,160761000000,FR_wheel_link,28.08474633176049,-8.808740118335283,10.219470648232582,0.013812570407301196,-0.0439845747786731,-0.41808905976297667
160762000000,291,160762000000,FR_wheel_link,-25.547920246711993,9.222691061913688,6.625018360853409,0.00650342426651347,0.03312087762529317,0.42031018826072275
160763000000,292,160763000000,FR_wheel_link,28.381816760397726,-9.06718084100505,9.639577726464859,0.009582085135508366,-0.04020513886302562,-0.4184613895030331
160764000000,293,160764000000,FR_wheel_link,-29.235743784481283,8.86765908541875,7.375327956121935,-0.06598357843990983,0.0195728985098536,0.2854617012409252
160765000000,294,160765000000,FR_wheel_link,8.769861935344458,-12.903867457816329,9.650312815755909,0.0105621440971814,-0.026749257710801527,-0.2633700369462613
160766000000,295,160766000000,FR_wheel_link,-22.4978248319717,9.25523332668062,5.541635397063222,0.006952896156483849,0.03186311402722922,0.39334520586387
160767000000,296,160767000000,FR_wheel_link,27.206121309136773,-9.636972470722222,8.92463185410933,0.012213478873672431,-0.043082700830874066,-0.41379575087642706
160768000000,297,160768000000,FR_wheel_link,-26.193720629087974,8.374204830439144,4.795613163741587,0.006078287617779303,0.03806612353184621,0.4192485991396096
160769000000,298,160769000000,FR_wheel_link,27.353487325968104,-9.634501515280718,8.323062732596897,0.012082539648816384,-0.042899203571517684,-0.4180068095797236
160770000000,299,160770000000,FR_wheel_link,-26.56766156685977,8.19601429260241,3.1015579400610336,0.0038923734576812434,0.04322779269261744,0.4190063545332086
160771000000,300,160771000000,FR_wheel_link,26.736232242543263,-9.832933574459028,5.773610616787222,0.007936928358972707,-0.04092324038576143,-0.4187762859398169
160772000000,301,160772000000,FR_wheel_link,-27.01862852133507,8.164639381515535,1.3041433039540469,0.0009544922430915767,0.04375761356354425,0.41858359957016383
160773000000,302,160773000000,FR_wheel_link,26.592464954654773,-9.809057986870299,4.08649096245985,0.004407747784676599,-0.038672784197663526,-0.41908437218806327
160774000000,303,160774000000,FR_wheel_link,-31.310787226759807,8.403200058931146,2.6961895358556407,-0.08782556639359125,0.02240863782075993,0.2508077938103079
160775000000,304,160775000000,FR_wheel_link,2.6555256401389578,-14.351131996606258,5.252665782875889,0.003876073435255974,-0.01610000547199912,-0.22509757171304887
160776000000,305,160776000000,FR_wheel_link,-23.066926419055424,8.96876011890176,1.4243995284174809,0.0006756131201058923,0.04233278975108947,0.38579051224750843
160777000000,306,160777000000,FR_wheel_link,25.762830374902602,-9.821223325424898,5.911700688778228,0.008414232156089352,-0.0428556582745626,-0.41342419585524587
160778000000,307,160778000000,FR_wheel_link,-26.878324173288323,8.391385312447369,2.946897129560696,0.0049225376090286065,0.04557233015995345,0.41729006936085944
160779000000,308,160779000000,FR_wheel_link,26.58215081376471,-9.59644881440947,7.457880315516349,0.013499577456762602,-0.04318729378453159,-0.4186019148462127
160780000000,309,160780000000,FR_wheel_link,-26.974872469765337,8.1929933218595,4.866329216824288,0.011402973626850364,0.04462389659223537,0.4179698898772034
160781000000,310,160781000000,FR_wheel_link,26.736989112205386,-9.904489304835163,9.352250242401196,0.02102920964401702,-0.04235920928368442,-0.4186268181197164
160782000000,311,160782000000,FR_wheel_link,-27.11576073636012,7.952775498159173,5.795092526296417,0.017119341993301788,0.04604853535601672,0.4181438293160185
160783000000,312,160783000000,FR_wheel_link,26.648631521082628,-10.118562363860363,9.142126463653883,0.022197447429913506,-0.042837704291443256,-0.4186332580490764
160784000000,313,160784000000,FR_wheel_link,-31.118164143094106,7.994275938756526,7.0435614706492995,-0.07157579869574361,0.02424861988129732,0.2502450570071801
160785000000,314,160785000000,FR_wheel_link,6.838880708845477,14.663132753422527,7.2517102220022585,-0.06796783757792547,0.005359070440120501,-0.044259773831461624
160786000000,315,160786000000,FR_wheel_link,-1.4421538847448683,-16.371221066953943,9.144894892885052,0.11875439446301092,-0.0055411441964312745,-0.00207347236444058
160787000000,316,160787000000,FR_wheel_link,-0.14856610269069237,13.262798311113599,8.827322160541218,-0.05850622344765745,0.010765265269631206,0.009478744318628444
160788000000,317,160788000000,FR_wheel_link,-0.03491215350839717,-16.35383797487118,8.807716311679266,0.1138268709921316,-0.011135992928551663,-0.011495373054962314
160789000000,318,160789000000,FR_wheel_link,0.14389188087902494,13.386623882529419,5.929974210239589,-0.0735131134403926,0.009474933801379325,0.011576724082967374
160790000000,319,160790000000,FR_wheel_link,0.4231312272929257,13.659399357500199,5.134363189945207,-0.07356213714152199,-0.00475885062347005,-0.0004908683591911429
160791000000,320,160791000000,FR_wheel_link,0.9795109863540572,-16.312937132996034,6.959725560302634,0.10889595445506256,0.0060816262179419454,-0.012477562294146243
160792000000,321,160792000000,FR_wheel_link,-1.4321309055638234,13.22371681223969,5.1942195303540775,-0.0722826645546768,-0.00023836707994976194,0.013486169355343448
160793000000,322,160793000000,FR_wheel_link,0.9910702074251437,-16.139474348526377,5.767640057745728,0.10619215122467399,0.00654196217350063,-0.014960791375500687
160794000000,323,160794000000,FR_wheel_link,-1.593719153915607,13.447334384701918,3.1975354753849317,-0.07958886145051819,-0.00021543948138894286,0.013159606940774829
160795000000,324,160795000000,FR_wheel_link,-0.918193949328615,-15.810682868737032,4.994390167986762,0.056017220065962575,-0.006441869889631696,-0.09489644305359138
160796000000,325,160796000000,FR_wheel_link,-12.882435895512758,11.393494820801276,3.186599263983183,-0.08551443768567694,0.010563733562539951,0.10652291149276973
160797000000,326,160797000000,FR_wheel_link,3.2684144774072807,-16.245470775301786,5.51391275240002,0.0968695095542547,-0.0026591028183544723,-0.030970922628061493
160798000000,327,160798000000,FR_wheel_link,-1.423624732793745,12.798327211487734,4.614677261298168,-0.0827950349951141,-0.002432030059698812,0.01726350116297633
160799000000,328,160799000000,FR_wheel_link,1.3125697641528347,-16.673324286642856,5.70383485503908,0.09539740028667967,-0.0014301611614519147,-0.013919141935787405
160800000000,329,160800000000,FR_wheel_link,-0.917842975337252,12.925078246990557,4.426737011394738,-0.08382769425692038,-0.0014838882535888414,0.01433253582300137
160801000000,330,160801000000,FR_wheel_link,-0.8189195049105266,-2.2155814450157547,6.783388389528538,-0.03353293753200232,-0.01374994591407925,-0.09505981027340246
160802000000,331,160802000000,FR_wheel_link,-8.688604054877858,10.166477687342935,3.39472668264151,0.010098393655982535,0.041368626106517155,0.2774674259623744
160803000000,332,160803000000,FR_wheel_link,22.954290676078926,-11.542306511858577,7.662982828023348,0.01696928327820713,-0.054446634855987476,-0.3921897181468837
160804000000,333,160804000000,FR_wheel_link,-25.715921795571447,7.068668112431199,3.8602991274517158,0.011397787517449976,0.057460180887093856,0.4116792160069012
160805000000,334,160805000000,FR_wheel_link,26.222484633673893,-10.993302465976905,7.72637272411585,0.01658384156759663,-0.05471977359551264,-0.4159060186390758
160806000000,335,160806000000,FR_wheel_link,-26.569437012929395,6.790977900405832,4.019834191107797,0.011437463429706479,0.05499101837667247,0.41611853013790084
160807000000,336,160807000000,FR_wheel_link,26.65701938865528,-11.153442205080141,8.24757676731347,0.017263495260059127,-0.053627722424161466,-0.4172322198410551
160808000000,337,160808000000,FR_wheel_link,-26.812743833032098,6.740436668797906,4.112721545168693,0.010769777506357662,0.05280712138587979,0.41715560844142735
160809000000,338,160809000000,FR_wheel_link,26.940936970193075,-10.972785189177642,7.7571407540668496,0.014158179898150176,-0.05226275534699934,-0.41760000394991886
160810000000,339,160810000000,FR_wheel_link,-26.986837570076723,7.074315622733226,2.7687945152928233,0.004517537608073486,0.05100751675406535,0.4175721770444596
160811000000,340,160811000000,FR_wheel_link,27.106520597076933,-10.47693158255291,5.953901658179838,0.00566172889727966,-0.05148836394155587,-0.4175405810127524
160812000000,341,160812000000,FR_wheel_link,-27.029844558524978,7.607934467529561,0.6999979166550625,-0.004650844839891904,0.050228970746676836,0.4174335245153205
160813000000,342,160813000000,FR_wheel_link,27.107935420061768,-9.908886736338637,4.181951922681433,-0.0025200022947033623,-0.05167221126130297,-0.41675585964807915
160814000000,343,160814000000,FR_wheel_link,-26.934035551497637,8.051330188795552,-0.5669983510871566,-0.01039561740411437,0.05052170329059618,0.41703922201139215
160815000000,344,160815000000,FR_wheel_link,27.115848077234844,-9.839750215566669,3.6633613259868745,-0.0050050775208179904,-0.053181338193804266,-0.41709326516689166
160816000000,345,160816000000,FR_wheel_link,-26.955731096902316,7.882208339629502,-0.3425600138527328,-0.010351677977631197,0.047100578153294284,0.4169033179555812
160817000000,346,160817000000,FR_wheel_link,27.41469330449196,-10.108149036895995,4.701694730903456,-0.0038204352506957754,-0.05452354182275801,-0.4160212484373268
160818000000,347,160818000000,FR_wheel_link,-27.01808595832908,7.510637685642875,1.0251836176921973,-0.007714565713168553,0.0501158304375101,0.4186715389608043
160819000000,348,160819000000,FR_wheel_link,29.446151448074893,3.305870791946755,4.628114791283406,-0.04281447738990698,-0.03998836336574591,-0.33073910069844564
160820000000,349,160820000000,FR_wheel_link,-18.762977526046882,9.631807394433245,5.224805480924511,-0.08362196392783779,0.009695456851568595,0.15090692025104724
160821000000,350,160821000000,FR_wheel_link,4.9653352384638465,-16.457869036541567,7.647408378150359,0.09821645817730125,0.0024019018462477894,-0.03861943893952146
160822000000,351,160822000000,FR_wheel_link,-2.132614897190968,12.13599526613721,6.6331690072193945,-0.07710725268242155,-0.006614661117065558,0.020177819065304504
160823000000,352,160823000000,FR_wheel_link,1.9615217782016334,12.713629318828351,7.011125704426399,-0.07604202337850967,0.004747745836990059,-0.004119296866256313
160824000000,353,160824000000,FR_wheel_link,-0.08596471777033352,-17.26403719094156,7.619584709759382,0.10079372757485329,-0.010286279326466027,-0.009354790325179088
160825000000,354,160825000000,FR_wheel_link,-0.17444241790449808,12.138271290494892,7.73008587211672,-0.07165479258902674,0.009527122354822797,0.011496817650269288
160826000000,355,160826000000,FR_wheel_link,-0.19340918126992726,-17.451005683887804,8.917333192956896,0.11132752168626965,-0.004540569427491362,-0.012877240415320651
160827000000,356,160827000000,FR_wheel_link,-1.0158235689647528,11.913876138342374,8.54457192613315,-0.0643636879857287,0.008853078993085933,0.01117268186469517
160828000000,357,160828000000,FR_wheel_link,-3.6865190451532,-1.4568115378383406,9.057343417552763,0.013951359378111546,-0.023589309494934957,-0.14983733089788376
160829000000,358,160829000000,FR_wheel_link,-17.241086699120462,7.833587654399626,6.798505921015311,0.023917068338543467,0.059870030351149586,0.33726559544713597
160830000000,359,160830000000,FR_wheel_link,23.30394474283802,-12.1190548999806,11.20904068402719,0.030056127254237924,-0.06101602428398947,-0.400906534285282
160831000000,360,160831000000,FR_wheel_link,-26.620958819130077,6.118643678727421,7.074366196834279,0.022410792964493092,0.06528215998875084,0.4100227161916345
160832000000,361,160832000000,FR_wheel_link,25.558622453964073,-11.4673320101498,10.233908662247186,0.02356537828768997,-0.05920896059857119,-0.4134058419358348
160833000000,362,160833000000,FR_wheel_link,-27.16293406529856,6.367359289278301,5.57374880698458,0.013335002292072922,0.059800665796683125,0.4138463042918794
160834000000,363,160834000000,FR_wheel_link,26.39993911570919,-10.716107809121544,7.40505449456571,0.007865424249823868,-0.056185444099696426,-0.4140476142075959
160835000000,364,160835000000,FR_wheel_link,-31.196820023748582,7.8099222074379915,3.8537175001936936,-0.09092355723080038,0.03223255847981053,0.2482135163865246
160836000000,365,160836000000,FR_wheel_link,6.842612951160517,14.306349943945994,4.303483272994544,-0.08575848294395819,0.0010340383626902022,-0.04376980328546119
160837000000,366,160837000000,FR_wheel_link,-1.1527082968275149,-16.675714376770888,6.2507113133671925,0.09823880392354452,-0.006168980180898927,-0.0015448900463839203
160838000000,367,160838000000,FR_wheel_link,-0.10965351501723503,12.932438159107434,5.680858363366582,-0.07614154543192313,0.006328109294091519,0.009847944265984655
