%time,field.header.seq,field.header.stamp,field.header.frame_id,field.wrench.force.x,field.wrench.force.y,field.wrench.force.z,field.wrench.torque.x,field.wrench.torque.y,field.wrench.torque.z
415903000000,0,415898000000,FR_wheel_link,0.010968138177645248,0.004680510863343725,0.004083878276780844,-7.63726182001371e-05,-0.000264061821636829,2.0867358011576008e-05
415903000000,1,415899000000,FR_wheel_link,0.3259239204630571,-0.3064766285521682,-0.7265246714378362,-0.023349341941868107,-0.015178160013412557,-0.00659272339818088
415903000000,2,415900000000,FR_wheel_link,-0.2749029680458517,0.7681778180073313,-1.0646603559220653,0.026379259209014502,0.01309077943329344,0.005387241138994623
415903000000,3,415901000000,FR_wheel_link,0.004232283338823665,-0.006501713773660573,-0.02019727092064267,-0.00014596866598649643,0.00047687862983181227,0.0002997333076742552
415903000000,4,415902000000,FR_wheel_link,0.2917142174211399,-0.32217232702824616,-0.8243117006976727,-0.02576327061959209,-0.015526240155383014,-0.005620212319218639
415903000000,5,415903000000,FR_wheel_link,-1.7316525738635224,0.3053055789445519,1.943582524445923,0.07119915900197835,0.17316047582930671,0.0431278668317001
415904000000,6,415904000000,FR_wheel_link,-0.014383176612636377,0.034345669864130145,-0.060036055678702474,0.0013713046166821323,0.0017348925953180113,0.0007944454865052785
415905000000,7,415905000000,FR_wheel_link,1.0330703714985308,-4.917936801913154,3.083672984123739,-0.4199778706670903,-0.11197814473971826,-0.02419746279535651
415906000000,8,415906000000,FR_wheel_link,-0.08909280698922628,0.34072886571617367,-1.0313490574949082,0.0007280162378223789,0.004407697659180422,0.0005174627562466674
415907000000,9,415907000000,FR_wheel_link,0.007296666768887754,0.0008937492894538716,-0.0012459820707933196,-0.00019379710755352322,4.8399214174865975e-05,5.598564793323653e-05
415908000000,10,415908000000,FR_wheel_link,0.3126004060441762,-0.3022842178732191,-0.7234455459298625,-0.023205091264081965,-0.014713663008221323,-0.006242437620420105
415909000000,11,415909000000,FR_wheel_link,-0.30543653109260793,0.6836840023412394,-1.3128732396152663,0.02384066810693578,0.015840752678676222,0.004704159905599316
415910000000,12,415910000000,FR_wheel_link,0.008714059614873816,-0.005937159658014316,0.0007296478437647373,-0.000536014508676885,-0.00032555270207118103,0.00012945397891140254
415911000000,13,415911000000,FR_wheel_link,0.29687044278901836,-0.29074106560104523,-0.6978999082121404,-0.02228750680460805,-0.014180777180426686,-0.005961166709626085
415912000000,14,415912000000,FR_wheel_link,-0.29796143865793284,0.6838798226637749,-1.2741766788626345,0.022834224815589887,0.014410766525270634,0.005210498555976869
415913000000,15,415913000000,FR_wheel_link,0.007934485241506303,-0.0005330116965870861,0.009219038066182473,-0.00020467524210320776,-0.0003027040385772792,0.0001830135937550886
415914000000,16,415914000000,FR_wheel_link,0.2947832128841463,-0.29045420250639126,-0.7076772686964627,-0.022457220365907617,-0.014310601490927713,-0.005980986808811893
415915000000,17,415915000000,FR_wheel_link,-0.3089314648175301,0.7025151430781553,-1.2624573170787987,0.023130738212916516,0.014298935205008356,0.005574991290886387
415916000000,18,415916000000,FR_wheel_link,0.007433383181679747,-9.839719015991609e-05,0.010763148854706146,-0.00015889880646233686,-0.00033667400394568137,0.0002012155199541247
415917000000,19,415917000000,FR_wheel_link,0.29306659494804504,-0.28931450669456954,-0.710069710011741,-0.022462999432097053,-0.014334117970554812,-0.0059820314389326095
415918000000,20,415918000000,FR_wheel_link,-0.31180161392390376,0.7083507546853858,-1.2548296256527616,0.023162761436473493,0.014166029436961918,0.005699414384323065
415919000000,21,415919000000,FR_wheel_link,0.007024993515839474,0.0003648354601102394,0.011623716352395431,-0.00012372370302843086,-0.000347075440721345,0.00021039556669939086
415920000000,22,415920000000,FR_wheel_link,0.2924595883044691,-0.28873229727027894,-0.7117066536018333,-0.022475416783776656,-0.01435827667238285,-0.005993160518504629
415921000000,23,415921000000,FR_wheel_link,-0.3132864920984881,0.7108135609991689,-1.2518072904799673,0.023179359472445978,0.014123922720033535,0.00574187255286622
415922000000,24,415922000000,FR_wheel_link,0.006797519104085064,0.0004449459931718841,0.012005183087463527,-0.00010402099362064919,-0.0003512391467040709,0.00021101405728964626
415923000000,25,415923000000,FR_wheel_link,0.2923363081996129,-0.28835873676902185,-0.7120405650260028,-0.022469031117056164,-0.014369436974587209,-0.006004462666096465
415924000000,26,415924000000,FR_wheel_link,-0.3134736802664459,0.7113433278457099,-1.2505160999980727,0.02318324891260948,0.01410484477821804,0.005743468257581785
415925000000,27,415925000000,FR_wheel_link,0.006737528523587258,0.000383739982411143,0.012104905501494356,-9.733259398682652e-05,-0.0003537579751601923,0.00020997169355244604
415926000000,28,415926000000,FR_wheel_link,0.2924215103587937,-0.28822090792694127,-0.7120016286846647,-0.022462315137473217,-0.014375857778186483,-0.006012893569553163
415927000000,29,415927000000,FR_wheel_link,-0.3132635571465405,0.7111770804897568,-1.250110461639006,0.02318537195945982,0.0140995539016767,0.005734930007748161
415928000000,30,415928000000,FR_wheel_link,0.0067663127942906515,0.0002775843895661792,0.012095334277046175,-9.691305356172863e-05,-0.00035582563768538485,0.00020859762556656403
415929000000,31,415929000000,FR_wheel_link,0.2925954306575622,-0.28821944427449087,-0.7117941253975115,-0.022456266444714965,-0.01437958236933601,-0.006019003466860345
415930000000,32,415930000000,FR_wheel_link,-0.3129241768719583,0.7108085054077102,-1.2500571371465412,0.023187424048344576,0.014099192196489866,0.005725475832126827
415931000000,33,415931000000,FR_wheel_link,0.0068281199670138775,0.00016846843143999198,0.012045961271818428,-9.912882327063117e-05,-0.00035760133900690955,0.0002073976641766629
415932000000,34,415932000000,FR_wheel_link,0.2927866510072253,-0.28828599223346324,-0.7115619090756546,-0.02245188718056584,-0.014382038858173678,-0.006023309959323632
415933000000,35,415933000000,FR_wheel_link,-0.312602470601738,0.7104603194230599,-1.2501080876524067,0.023190024604810976,0.014100393868313067,0.005718360969737487
415934000000,36,415934000000,FR_wheel_link,0.006892937565477887,7.463876559018643e-05,0.011988095428076204,-0.00010207188950348165,-0.0003590407938143453,0.00020649622215393562
415935000000,37,415935000000,FR_wheel_link,0.2929614970597566,-0.28837515052997303,-0.7113658388112161,-0.022449184613371195,-0.01438394103972696,-0.006026349882630929
415936000000,38,415936000000,FR_wheel_link,-2.1241165504386035,-0.8051404556048115,5.3340116147454655,0.044624861810194566,0.21659476612577783,0.054789520901815686
415937000000,39,415937000000,FR_wheel_link,-0.04354737033420991,0.0018490902414266819,-0.0005892013516172866,-0.002046316301765859,0.004712521789307067,0.0016463178902904351
415938000000,40,415938000000,FR_wheel_link,0.18276259932048822,-6.759827160684255,6.33364565927017,-0.5207684695932291,-0.02167187749369856,-0.002353162710051152
415939000000,41,415939000000,FR_wheel_link,-0.07697609464192375,0.30185239908464434,-0.7848003129388134,-0.0026530875104001277,0.0075540231376822545,0.0020982599718272618
415940000000,42,415940000000,FR_wheel_link,0.011057044783076163,0.0059258897352299725,0.007638370014727986,-3.987090352352616e-05,-0.00039815036293751853,5.536832983512921e-05
415941000000,43,415941000000,FR_wheel_link,0.3216275507790737,-0.3031648677560701,-0.7229445806793167,-0.023193707631386565,-0.015134093889606867,-0.006528616125581082
415942000000,44,415942000000,FR_wheel_link,-0.31075233608045083,0.7151192535994924,-1.275079336082742,0.02427453576638924,0.015078934376240843,0.0053967053021619325
415943000000,45,415943000000,FR_wheel_link,0.009689564004116668,-0.003337260084126033,0.004949238168545754,-0.00042093784443978977,-0.0005047309233865063,0.00014042753108857732
415944000000,46,415944000000,FR_wheel_link,0.2960512837025864,-0.28943654871290503,-0.6992672057020383,-0.022271431519956756,-0.014294648590215264,-0.005979298397033234
415945000000,47,415945000000,FR_wheel_link,-0.3011410787528189,0.6972320606833571,-1.2608355835242235,0.023000712739113208,0.014091187927379092,0.005539999130021358
415946000000,48,415946000000,FR_wheel_link,0.008438911394800611,0.00022579344108336966,0.010460454527703363,-0.000178782666312098,-0.00040196129256714244,0.00018601117389075353
415947000000,49,415947000000,FR_wheel_link,0.29473131900386795,-0.290195306399016,-0.7088023412689476,-0.0224668739665424,-0.014381359920573385,-0.005995157468860527
415948000000,50,415948000000,FR_wheel_link,-0.30985639677564736,0.7073325358053177,-1.2568584607536664,0.02320892994741864,0.014172713359545385,0.005699076487360448
415949000000,51,415949000000,FR_wheel_link,0.007838891124143692,-2.3275228578464e-05,0.011110979340855401,-0.00015454533950989976,-0.000387522805301695,0.00019768880337052745
415950000000,52,415950000000,FR_wheel_link,0.29343487356685755,-0.28936374055239705,-0.7103173017839055,-0.022464864280838773,-0.014375837224039144,-0.005996329209064073
415951000000,53,415951000000,FR_wheel_link,-0.31161335190390516,0.7094995585210682,-1.25284873939591,0.023200436215774486,0.014122808258111925,0.005731411617518985
415952000000,54,415952000000,FR_wheel_link,0.0073487200776214436,0.00016967121642792043,0.011599973315087393,-0.00012852254053228682,-0.0003736788051547597,0.00020519816712988602
415953000000,55,415953000000,FR_wheel_link,0.29297150340002487,-0.2889351569820184,-0.7116497999784557,-0.022476643481152494,-0.014385460313371415,-0.00600562681947601
415954000000,56,415954000000,FR_wheel_link,-0.31286070469524957,0.7106556771361097,-1.2512216788083361,0.02320172162422024,0.014116511126854353,0.005742204363212175
415955000000,57,415955000000,FR_wheel_link,0.007064190297384833,0.00021441428017231505,0.011868135055197845,-0.00011208004547571309,-0.0003656953846903955,0.0002066154026701234
415956000000,58,415956000000,FR_wheel_link,0.29287236005293016,-0.2886265695487099,-0.7119647294087517,-0.022472782991878555,-0.014389911273708766,-0.006015149719276159
415957000000,59,415957000000,FR_wheel_link,-0.31310288769683436,0.7108976338963942,-1.2503302839991672,0.02320033164093013,0.014111480841595827,0.005735716509837919
415958000000,60,415958000000,FR_wheel_link,0.006931333969957705,0.00017506231509877013,0.0119493344724017,-0.000104992910830414,-0.0003615895778179628,0.00020657384306605877
415959000000,61,415959000000,FR_wheel_link,0.2929107290589781,-0.2884933478858668,-0.7120085963132923,-0.022468814263260757,-0.014392870689111537,-0.006021730112795673
415960000000,62,415960000000,FR_wheel_link,-0.31305501346681613,0.7108248180933159,-1.2499403868697208,0.023201232633257823,0.014110802835401805,0.005728435049534748
415961000000,63,415961000000,FR_wheel_link,0.006900613155036706,0.00011098649204503491,0.011956577049117074,-0.00010321699129295614,-0.0003600546058017452,0.00020613463189426756
415962000000,64,415962000000,FR_wheel_link,0.29303114731681174,-0.2884743113762315,-0.7118984602725551,-0.022464974005870584,-0.014394960077531153,-0.00602659081558987
415963000000,65,415963000000,FR_wheel_link,-1.939579531235869,-0.38688835004734445,4.062572388458468,0.05302525166255499,0.1963956884711901,0.04988473324787362
415964000000,66,415964000000,FR_wheel_link,-0.014865407362080254,0.018812602547447044,-0.025547600609477826,-0.0011715398530495929,0.0015572665416913256,0.0008754559928515996
415965000000,67,415965000000,FR_wheel_link,0.4205052780497929,-6.808960897368745,6.60770098966084,-0.517597954018133,-0.0476804674456314,-0.008948825926358529
415966000000,68,415966000000,FR_wheel_link,-0.049448548799875064,0.29509143433413465,-0.7706624241804755,-0.0023451462404804726,0.006211126789550733,0.0013362655743702333
415967000000,69,415967000000,FR_wheel_link,0.008078066616123347,0.005010570663282846,0.008911230259634731,-3.438647208111682e-05,-2.9487469090443658e-05,0.00013202154247259003
415968000000,70,415968000000,FR_wheel_link,0.31973497616540686,-0.30337297430453014,-0.7184961100466258,-0.023103942878540368,-0.014814426930030954,-0.006474097911171968
415969000000,71,415969000000,FR_wheel_link,-0.31156818849371326,0.712914856252924,-1.2749895291553797,0.02424443054774348,0.015307450207073293,0.005421759627509843
415970000000,72,415970000000,FR_wheel_link,0.008004875929837464,-0.0038156849189727262,0.0052909434440881874,-0.0004233721132646369,-0.0003142104613178338,0.0001842826960382011
415971000000,73,415971000000,FR_wheel_link,0.2945721613458072,-0.289910114549312,-0.6990746512585037,-0.022279558800658017,-0.01414382309961959,-0.005934841349579392
415972000000,74,415972000000,FR_wheel_link,-0.3028227649731118,0.6971328406732307,-1.2610098329759165,0.02301197073269684,0.01423526011754219,0.005580138465173511
415973000000,75,415973000000,FR_wheel_link,0.007575628083947135,-4.380999635739732e-05,0.010617419226888171,-0.00018182561205261404,-0.0003050216815335656,0.00020895605656595016
415974000000,76,415974000000,FR_wheel_link,0.2939252313582589,-0.290466553486022,-0.7088937717695443,-0.022476203714332177,-0.014306460296786096,-0.005970392050389034
415975000000,77,415975000000,FR_wheel_link,-0.31093213215018967,0.7075485876567517,-1.256603218403058,0.02321930065768204,0.014246834791863366,0.005728149235163455
415976000000,78,415976000000,FR_wheel_link,0.007388978265029061,-0.00014521960095738263,0.011208613970376199,-0.00015561473291035973,-0.0003378758667394747,0.0002097047284680944
415976000000,79,415977000000,FR_wheel_link,0.29310409695653283,-0.28956747467419514,-0.7105776521332583,-0.02247627684308264,-0.014343089450498496,-0.005985176711221832
415976000000,80,415978000000,FR_wheel_link,-0.31235296100884313,0.7098551079193003,-1.2524033187391184,0.023213672074529325,0.01416411539445234,0.005751300524456304
415976000000,81,415979000000,FR_wheel_link,0.007115922583343218,0.000108153422650394,0.011653083527239538,-0.00012906132852485294,-0.00034826102473566875,0.00021138337873881228
415980000000,82,415980000000,FR_wheel_link,0.292877366967338,-0.2890901782445476,-0.7119601885886567,-0.022487992707975295,-0.014373763097502964,-0.0060013893719915905
415981000000,83,415981000000,FR_wheel_link,-0.31339780487270485,0.7110113416047692,-1.2507199710141337,0.02321536974159121,0.014141256594106033,0.005755878687437946
415982000000,84,415982000000,FR_wheel_link,0.006949647244532349,0.00018105497954858975,0.01189336368354299,-0.00011263510046684103,-0.0003527074592285269,0.0002097721217560765
415983000000,85,415983000000,FR_wheel_link,0.29290794188922376,-0.28875908896064906,-0.7122921487474103,-0.022483968872458498,-0.01438907836445279,-0.006014636306246873
415984000000,86,415984000000,FR_wheel_link,-0.31351851834197775,0.711216842660463,-1.2498370305863862,0.023213699520599228,0.014128292463534997,0.005745364078624442
415985000000,87,415985000000,FR_wheel_link,0.00687691540759499,0.00014970941926447387,0.011957540283120863,-0.00010553431685945062,-0.0003549487980847142,0.0002080489176499595
415986000000,88,415986000000,FR_wheel_link,0.2930185115050779,-0.28861573777510174,-0.7123302657338627,-0.022479628532864653,-0.014397548789131385,-0.006023216403054604
415987000000,89,415987000000,FR_wheel_link,-0.31339243045293286,0.7111022099497721,-1.2494680025559775,0.023214350505126737,0.014123725212153753,0.005735511343791022
415988000000,90,415988000000,FR_wheel_link,0.006879615648485665,8.65229148196184e-05,0.01195345145810741,-0.00010389167483657104,-0.00035670400090479746,0.0002067183955526057
415989000000,91,415989000000,FR_wheel_link,0.2931788857082826,-0.28859409256043966,-0.7122108769181306,-0.022475513919213607,-0.014402434880156918,-0.006029112576047761
415990000000,92,415990000000,FR_wheel_link,-0.3131639665585476,0.710888321947204,-1.2493220511400036,0.023216491909313634,0.014122291444104991,0.005728117332814076
415991000000,93,415991000000,FR_wheel_link,0.006915943738101616,1.5655393354449543e-05,0.011920716208983845,-0.00010483938732780332,-0.0003581895258282733,0.00020574875586418467
415992000000,94,415992000000,FR_wheel_link,0.2935282439596354,-7.7140438050943025,5.738209601990105,-0.6497012055389979,-0.03759964512155134,-0.0037881694840558727
415993000000,95,415993000000,FR_wheel_link,-0.045168219143584626,0.30806660849118916,-0.7771090960273208,0.0053577648941504265,0.009284005198185953,0.00042945757333278615
415994000000,96,415994000000,FR_wheel_link,0.013493742922951394,-0.0071998083244676336,-0.011868609512600081,-0.00031422688871940294,-0.00020709149067120382,-0.00016920696107826328
415995000000,97,415995000000,FR_wheel_link,-0.4311980654947093,-2.04507653601715,2.599118676462799,-0.13243603907420776,0.05222809619664679,0.014735232174801861
415996000000,98,415996000000,FR_wheel_link,-0.7890609981784673,-0.7109973210138056,1.9525383319375544,-0.02075355237654032,0.08878247604626166,0.020174649396748005
415997000000,99,415997000000,FR_wheel_link,0.10766829957446829,-0.09687359751481141,-0.24379521240536056,-0.00822366118116628,-0.004747928122584342,-0.0024685589763652578
415998000000,100,415998000000,FR_wheel_link,-1.7746647531959128,-0.44659169382217045,3.280477133120243,0.04858187532067608,0.18987362933597135,0.045996040017601325
415999000000,101,415999000000,FR_wheel_link,-0.02482248560358602,0.09550802075748398,0.12471125863341434,-0.05639008107301173,0.0030207976989330802,0.0009697523147953035
416000000000,102,416000000000,FR_wheel_link,1.4700684817547707,-10.659566892232627,7.969880876835792,-0.9983680404719767,-0.14733099709535763,-0.03688473365177437
416001000000,103,416001000000,FR_wheel_link,-5.340950053022963,-26.31599096481179,29.51767282172562,-2.9776057489243537,0.5270444600830897,0.018584996835035672
416002000000,104,416002000000,FR_wheel_link,-0.21277448134335544,-0.6289912647170606,0.48955082939322503,-0.11901117882543924,0.02395902059742963,-0.0005878044538458124
416002000000,105,416003000000,FR_wheel_link,-5.790139341821568,-32.61115079584063,35.278571014680715,-3.6447280620238143,0.6387114618880758,0.004223326184136372
416004000000,106,416004000000,FR_wheel_link,0.4502759797187455,-0.8112842463072859,0.7604991412028421,-0.06692165620474842,0.010265269633258557,-0.01992351518107867
416005000000,107,416005000000,FR_wheel_link,-5.4456578827102815,-17.036096378295603,23.80773804504906,-1.8654410821486662,0.5585300014104453,0.014526883275991331
416006000000,108,416006000000,FR_wheel_link,-0.2580711162032991,-0.6615399852417513,-0.08732458959624478,-0.0658870521995283,0.020015545981495426,0.0031312571661088326
416007000000,109,416007000000,FR_wheel_link,0.6126350377964114,0.035222839633382574,-0.16670143669398546,-0.005044923440993854,-0.01842921137666586,-0.019525477076684637
416008000000,110,416008000000,FR_wheel_link,-2.7293179428534895,-12.773967963051739,21.084413701258377,-1.3944489761179435,0.2622785188221999,0.0072498657333615185
416009000000,111,416009000000,FR_wheel_link,-0.22506223843327045,-0.7084046332004896,-0.6407499203972267,-0.077806656113865,0.020352678071968024,0.005617943102243056
416010000000,112,416010000000,FR_wheel_link,0.669139599193366,0.09258570675481109,0.0669744967410855,0.0006210533786958298,-0.017638984898013656,-0.021844052825085378
416010000000,113,416011000000,FR_wheel_link,-3.227057257663062,-19.163751467052606,19.39834106043393,-2.1475012833355303,0.2937321085257939,0.019541747886044777
416012000000,114,416012000000,FR_wheel_link,0.12994155468454183,-0.4608820568545069,0.06966948073155377,-0.04724048067283772,0.005934144512553547,-0.009107820180445373
416012000000,115,416013000000,FR_wheel_link,2.4275575400954463,-2.613545920413924,0.49642289687214125,-0.2923031144835792,-0.2488453047061918,-0.007113849306210795
416014000000,116,416014000000,FR_wheel_link,0.2710398566167598,-9.925390425731852,8.304144958940622,-1.1411675742117473,-0.09876999043569812,0.020445032442540437
416015000000,117,416015000000,FR_wheel_link,0.35318640616545544,-0.2176375404365323,-0.5592120674453566,-0.024001029628890495,-0.014423112681828724,-0.01068588939605443
416016000000,118,416016000000,FR_wheel_link,-2.5545557374715147,-13.486286664181879,13.589199239605893,-1.5238712416400464,0.2035427007294246,0.023762978325150563
416017000000,119,416017000000,FR_wheel_link,0.3070988950109123,-0.5280956733227897,-0.2672555220114688,-0.04807895419779861,-0.00025751724353301544,-0.012848876092032464
416018000000,120,416018000000,FR_wheel_link,-4.141609866868659,-12.879023184078521,14.862451579968937,-1.4386348217249627,0.3912437414913119,0.02010099701348937
416019000000,121,416019000000,FR_wheel_link,0.2727652989439842,-0.2513079221371431,0.08509178240840663,-0.03084848223365205,0.0062832629604412365,-0.01650065704151471
416020000000,122,416020000000,FR_wheel_link,-3.250634721415768,-8.255094957398292,13.867046851525956,-0.9050995817285603,0.313989065335808,0.01221053275427051
416021000000,123,416021000000,FR_wheel_link,0.17701249572373418,-0.3628603377681415,0.06562598015384435,-0.038546754439731754,0.010253489564058877,-0.012286484968122131
416022000000,124,416022000000,FR_wheel_link,-5.700859749921285,-12.126026628288248,15.41187661347989,-1.3398712734945621,0.5760738267903491,0.01657193463655146
416023000000,125,416023000000,FR_wheel_link,0.2439366469911461,-0.4903857954971914,-0.24306512474917308,-0.042503044806224854,0.00678664013403241,-0.011886233332674856
416023000000,126,416024000000,FR_wheel_link,-2.740423937737527,-8.508401632680371,10.401844081807226,-0.9505841166058832,0.25833195066758696,0.013222631435261277
416025000000,127,416025000000,FR_wheel_link,-0.03243336145109474,0.3583713474376448,1.603563653815406,0.023852233835522714,-0.020889726744388572,-0.007034076398000931
416026000000,128,416026000000,FR_wheel_link,-4.303640040977956,-7.74498159154225,22.8209709101908,-0.8074322737438296,0.4212935949475033,0.01148327516382001
416027000000,129,416027000000,FR_wheel_link,0.10963646843891656,0.2563471890756139,1.7547565762648962,0.020188863826276406,0.0075256563032201984,-0.007022245107183545
416028000000,130,416028000000,FR_wheel_link,-4.989065024304235,-7.132738468902465,20.347198564550933,-0.7381031534345704,0.5126003697913513,0.007487053865542147
416029000000,131,416029000000,FR_wheel_link,0.03767765605393361,0.21879345255645963,1.5722983800254968,0.016182396144383004,0.011956151006898444,-0.006006012212783624
416030000000,132,416030000000,FR_wheel_link,-5.287718029893021,-7.157841738357778,19.64453587880368,-0.7421908964757823,0.5480203291974771,0.007224230265655378
416031000000,133,416031000000,FR_wheel_link,0.01001918936920504,0.19092019359303075,1.492643403044255,0.012579874432444,0.013204072942635035,-0.005126299776341973
416031000000,134,416032000000,FR_wheel_link,-7.205146621438898,-1.778632830949375,18.003104118418683,-0.1751423691140579,0.7740361152571145,0.0045833671363984425
416031000000,135,416033000000,FR_wheel_link,-0.23200026132365656,0.18771188254273205,0.6763870050233669,0.013217275007877127,0.02621608866996654,0.0025023171025611154
416031000000,136,416034000000,FR_wheel_link,-5.418716736990816,-4.874933316237967,13.453313552786518,-0.4958304017409543,0.5841938507462352,0.002866023209370376
416035000000,137,416035000000,FR_wheel_link,-0.09000755691093949,0.1439177922981864,0.787416966632305,0.01440219474357725,0.02034875280233204,-0.0013757012705553212
416036000000,138,416036000000,FR_wheel_link,-5.2883666614236855,-6.128475961134631,16.128605435809444,-0.630468414125602,0.5597613913988079,0.0051731619799140205
416037000000,139,416037000000,FR_wheel_link,0.04208311556320271,0.08444068665574522,1.1974994818952203,0.006184074754249693,0.011733390937928002,-0.003152986555890701
416038000000,140,416038000000,FR_wheel_link,-6.681281616784276,-1.2278813386983058,18.534743349240408,-0.12915563296452742,0.716769903071838,0.009927397311834025
416039000000,141,416039000000,FR_wheel_link,-0.2988161589158368,0.024473562737486354,0.09760541722449873,0.0026779239615794363,0.03502468787881952,-9.097623409797212e-05
416040000000,142,416040000000,FR_wheel_link,-1.2948654285691277,2.1990285721075202,21.411477291642257,0.2755186716789051,0.18158678946172002,-0.008198732521210651
416040000000,143,416041000000,FR_wheel_link,-0.02657813393808403,-0.8432467066702953,4.769794742169809,-0.07376833326267015,-0.019064321364014845,0.003669754664009039
416042000000,144,416042000000,FR_wheel_link,-0.005733337283682817,0.01848670141738576,0.14758632035569494,0.003882746813729844,-0.005332455864200073,0.0005920631764571718
416043000000,145,416043000000,FR_wheel_link,-1.4008391813157288,-4.1060140658006725,25.82189034516702,-0.4256754177274183,0.13539964433718774,0.003556061253907958
416044000000,146,416044000000,FR_wheel_link,-0.0809064947100292,-0.11275485498010648,0.016315020828332392,-0.010512879267998852,0.008704050672781124,3.807427122540382e-05
416045000000,147,416045000000,FR_wheel_link,0.16233765765885716,0.32387174901325644,0.851486010932297,0.023797141354411223,-0.016265796210115854,0.000608840755635395
416046000000,148,416046000000,FR_wheel_link,-2.0919220738030804,-5.014966012434046,30.513182840194958,-0.5137849627992965,0.20844250941758843,0.0036797959591200347
416047000000,149,416047000000,FR_wheel_link,-0.1239204719051591,-0.13386946418438603,0.03706002189861223,-0.011681518206984324,0.013923428003625487,-3.276026238219757e-05
416048000000,150,416048000000,FR_wheel_link,0.17701729665631755,0.33356245532224593,0.8338831269959415,0.022498081246138658,-0.015287774640508673,0.0005338521995265954
416049000000,151,416049000000,FR_wheel_link,0.3933770244438173,-7.173756473276075,23.27511706093881,-0.7499280886465904,-0.038290921953385015,-0.006648653726660347
416049000000,152,416050000000,FR_wheel_link,0.011062570049136064,-0.25471300121773477,0.010660867421762442,-0.024802009267438092,-0.0010966494109119675,-0.00017318743082897535
416051000000,153,416051000000,FR_wheel_link,0.020183071673682468,0.27407638832186376,0.20772336972311292,0.010333053178335636,-0.015631490656672818,0.00024504651975987957
416052000000,154,416052000000,FR_wheel_link,-3.1334428140204884,-8.15738469967318,16.96911765717813,-0.8782240442077818,0.2939052026027988,0.012368622977326067
416053000000,155,416053000000,FR_wheel_link,0.0945446533794917,0.1020368392663906,1.1179646624935653,-0.005285163541725966,-0.0023447319134515324,-0.003032073377517934
416054000000,156,416054000000,FR_wheel_link,-3.944929667973802,-7.455599431160897,17.61614678300353,-0.789034406059545,0.3909936561743044,0.00982134521872106
416055000000,157,416055000000,FR_wheel_link,0.05273112042766115,0.2062024327758561,1.5130281609471588,0.007726561080575403,0.010139370148793056,-0.003717655858718948
416056000000,158,416056000000,FR_wheel_link,-2.6292914978356325,-5.668812955710288,29.1088433017632,-0.5779443793387566,0.29034451413738394,-0.003655494544459483
416057000000,159,416057000000,FR_wheel_link,-0.17827645314870283,-0.16290419213736285,0.09268875839168998,-0.015306353138556618,0.02049673678313322,-7.714466980396768e-05
416058000000,160,416058000000,FR_wheel_link,0.20007753788978583,0.37418602569495096,0.8587978047532132,0.022775371194673273,-0.01681410651557958,0.0010161893377834716
416059000000,161,416059000000,FR_wheel_link,-1.1447182495791186,-6.6660716228858945,27.933804053177035,-0.6932572413711502,0.1269009219919251,-0.0035078194604075616
416060000000,162,416060000000,FR_wheel_link,-0.0801112178124724,-0.21537416491093136,0.07977476007486692,-0.021149864576638915,0.009448712340162094,-0.00014764317067864915
416061000000,163,416061000000,FR_wheel_link,0.12442488303479005,0.2876183100567494,0.4266409224901611,0.013417090565488381,-0.018509844263346557,0.0011267603726206996
416062000000,164,416062000000,FR_wheel_link,-3.944453639630654,-8.195091830536748,18.672611137918835,-0.8714864583531745,0.3847315275795904,0.011499415857321164
416063000000,165,416063000000,FR_wheel_link,0.0939520911095246,0.2486786361596672,1.6803554436022985,0.0066909869264679105,0.006074864887990319,-0.0019100639902208745
416064000000,166,416064000000,FR_wheel_link,-2.9656965073374995,-5.397816305445978,30.934568960116508,-0.5525169910444975,0.30767555849223927,0.0020385612747195955
416065000000,167,416065000000,FR_wheel_link,-0.2048984475702866,-0.1452688341751981,0.09771593159485906,-0.012833060760334062,0.02338852261147869,-0.00016824671071395062
416066000000,168,416066000000,FR_wheel_link,0.2058960995018983,0.3791586125832962,0.8496256578770854,0.02269916171169607,-0.016195997249419915,0.000600579006454198
416067000000,169,416067000000,FR_wheel_link,-1.8191097055077459,-5.9302453185261275,30.303902870887143,-0.6073997464860529,0.20508758304499583,-0.004035232239217781
416068000000,170,416068000000,FR_wheel_link,-0.1331593867235946,-0.1736993058480028,0.10989837376802444,-0.01703282274851577,0.015789658181163593,-0.0001786438871758821
416069000000,171,416069000000,FR_wheel_link,-0.7291665751136204,-2.248561986875241,16.837582311164525,-0.25100710399912174,0.07680056863764044,0.0026090373639261408
416069000000,172,416070000000,FR_wheel_link,0.004137977789850866,-0.10398803060425439,-0.1450552086257818,-0.00931068160569327,0.0026277477593550456,-0.0016726770843177644
416071000000,173,416071000000,FR_wheel_link,-3.586700647269143,-6.644703934439093,13.980975748243324,-0.7092416238276105,0.35986259170512125,0.008671070456877154
416072000000,174,416072000000,FR_wheel_link,-0.03931687986296034,0.21592015457726776,0.9856462550698823,-0.0027439559774983754,-0.0026785869226213788,0.0018326537870518617
416073000000,175,416073000000,FR_wheel_link,-2.7199762530841114,-4.709821309138582,26.534099098551923,-0.48229423528292614,0.2872711040101734,-0.0012459485187275784
416074000000,176,416074000000,FR_wheel_link,-0.15947242620072324,-0.15695903776520806,0.09064509680540701,-0.014554075661684115,0.01823478041733436,-0.00017687161210635903
416075000000,177,416075000000,FR_wheel_link,0.2063204359132273,0.3772743358303298,0.8454710829839691,0.02311730979300751,-0.015301708125429357,-7.88238493108925e-05
416076000000,178,416076000000,FR_wheel_link,-2.851670802742318,-4.877353234528264,32.60202884404475,-0.4945006278421917,0.2981055383892416,0.0025010556982245306
416077000000,179,416077000000,FR_wheel_link,-0.16380732066592213,-0.1505584727702473,0.06541669905880113,-0.014049920772334929,0.018928868812127235,-8.155268932383467e-05
416078000000,180,416078000000,FR_wheel_link,0.2152509830140266,0.3965831882236594,0.8793776733409207,0.023407373387450584,-0.01611562393656077,0.0006798878344062786
416079000000,181,416079000000,FR_wheel_link,-2.836707277513502,-4.7510525571097695,32.66571425636844,-0.480049919639307,0.2969852843169461,0.0025640749899821062
416080000000,182,416080000000,FR_wheel_link,-0.16207235324731897,-0.14702421150957135,0.06947793177570234,-0.013596671916845651,0.01876611863719736,-8.206314137332418e-05
416081000000,183,416081000000,FR_wheel_link,0.21786239199366456,0.4007295939796789,0.882866663157682,0.02342547413148141,-0.01600041773761529,0.0006940739741711505
416082000000,184,416082000000,FR_wheel_link,-0.9211821083175813,-5.887691340328863,28.342571477068095,-0.6031478927810746,0.1063728325575449,-0.004862729592831105
416083000000,185,416083000000,FR_wheel_link,0.029513652011494473,-0.1787401815515736,0.14396398066218533,-0.017895326522659617,0.006003830942665986,-0.003085757301079143
416084000000,186,416084000000,FR_wheel_link,-0.3653852184265794,-2.4982095387938337,17.11390786031989,-0.2814056972346466,0.032017406544566404,0.005030678446388636
416085000000,187,416085000000,FR_wheel_link,0.0018917906038641574,-0.0015749198975116164,0.17417091999981277,-0.002351840216188512,-0.0008037476538357152,0.0004572990082959507
416086000000,188,416086000000,FR_wheel_link,-1.655302597980731,-7.33373504798301,16.75345396396208,-0.7726804294855065,0.17630667407540634,-1.83065509286387e-05
416087000000,189,416087000000,FR_wheel_link,0.21295647063234555,0.25551901635273844,1.4824529459062554,0.005675322334534174,-0.010886976392759377,0.0001839508814813275
416088000000,190,416088000000,FR_wheel_link,-1.272570224882629,-4.265115842396595,27.986072610013828,-0.4350932589437547,0.11408546752436735,0.003581259779487953
416089000000,191,416089000000,FR_wheel_link,-0.10060911099588374,-0.11978409083681292,0.08085433021860407,-0.011145272940717663,0.011173981441349515,5.3287041228631735e-05
416090000000,192,416090000000,FR_wheel_link,0.20013315180065644,0.40771670242817815,0.8946992728023488,0.024624586313500764,-0.016501400867393108,0.001091637873492721
416091000000,193,416091000000,FR_wheel_link,-0.6257899164367411,-5.0739118016442095,28.071323220354145,-0.5122671183926558,0.06633149975628094,-0.003917435920643815
416092000000,194,416092000000,FR_wheel_link,-0.0037657847827893692,-0.1513090462440979,0.09258185386448017,-0.015579007205941424,0.0061679370996409535,-0.0019212811418485225
416093000000,195,416093000000,FR_wheel_link,-0.0956455365812306,-1.4893124401858036,16.640104404858,-0.16569583041813118,0.006454747436615171,0.0027019240489260694
416094000000,196,416094000000,FR_wheel_link,0.005369968435184202,0.009785450184966168,0.0845763992809081,-0.0015328973282061067,-0.0017214608486639381,0.0007313949658510833
416095000000,197,416095000000,FR_wheel_link,-1.802130697348467,-6.9199925999503815,16.73799893085831,-0.7254301737719496,0.19132334644957139,-0.00018050800468804098
416096000000,198,416096000000,FR_wheel_link,0.205329734404101,0.28503691152346367,1.4988158705188173,0.007272250450979363,-0.010591049512776212,0.0008965409456466685
416097000000,199,416097000000,FR_wheel_link,-1.2372924758024668,-4.060525256862494,27.83918767279944,-0.4094895338764214,0.11003987033671184,0.003182351261741009
416098000000,200,416098000000,FR_wheel_link,-0.11271079399324767,-0.11611290359485532,0.07551577180316296,-0.010854661800362141,0.012024867747240752,0.00018247843989024158
416099000000,201,416099000000,FR_wheel_link,0.20533407343863574,0.42494439173606247,0.9184255899675695,0.02533774831982635,-0.017165622708834264,0.0014068716707962502
416100000000,202,416100000000,FR_wheel_link,-0.7123517897042186,-4.890789915973684,28.070249510851426,-0.4889433973430941,0.07593141996084224,-0.004224142458097038
416101000000,203,416101000000,FR_wheel_link,-0.07179053928736462,-0.15856320121270842,0.08099676059487411,-0.015946007828247843,0.00860202168278527,-0.00012847941389530863
416102000000,204,416102000000,FR_wheel_link,-0.08256427980087822,-1.2517117069078105,17.5597835621723,-0.13990024376474886,0.007809572454916605,0.0018890324351590031
416103000000,205,416103000000,FR_wheel_link,-0.025383537183217657,-0.016286764016992316,0.006180933889228598,-0.0025042026626049107,0.0025992470717983284,0.00011255981624250146
416104000000,206,416104000000,FR_wheel_link,-0.7346934868445262,-3.458906480589999,26.692745192810825,-0.36039180737130916,0.0815631936872522,-0.0004071957367264116
416105000000,207,416105000000,FR_wheel_link,0.02522811145351072,-0.14791250039540593,0.02991694808051944,-0.011930175907248056,0.003826346460265035,-0.001458531856129291
416106000000,208,416106000000,FR_wheel_link,0.14660952401352959,0.29679566051977885,0.6258998988641573,0.017186282058582122,-0.011675329687494254,0.0009421528902969433
416107000000,209,416107000000,FR_wheel_link,-0.2541733592013149,-4.491013622057555,27.708843682223236,-0.4607025712172047,0.01795180068133506,-0.000795426462165523
416108000000,210,416108000000,FR_wheel_link,-0.0066672154303151,-0.13090778690987537,0.07164643870284731,-0.014676584470545446,0.003308558910216807,-0.0014172884464412959
416109000000,211,416109000000,FR_wheel_link,0.17622070972948872,0.36785261131160446,0.7708244633082126,0.020813629843568642,-0.01482747477152967,0.001963465917827277
416110000000,212,416110000000,FR_wheel_link,-1.3087260935520806,-2.9790740979131893,22.31394904025037,-0.3203096865234446,0.12189711326772493,0.005742928012475628
416111000000,213,416111000000,FR_wheel_link,-0.0648508458556358,-0.10917120112786002,0.16845667703881112,-0.008934111841357978,0.0071772006856005155,-6.093734412604445e-06
416112000000,214,416112000000,FR_wheel_link,-0.09480253506768088,0.036487485139338194,18.605174807800502,0.009016328994979955,0.01636002687540096,6.904635510564304e-05
416113000000,215,416113000000,FR_wheel_link,0.021560058290983758,-0.008157895952201417,0.03397616342480038,-0.0013026917806817089,-0.002764118723504517,-6.693760706139407e-05
416114000000,216,416114000000,FR_wheel_link,-1.8911686573669257,-1.4187347652540137,24.644957094926447,-0.1446028299625414,0.199562668541517,0.003980012040556197
416115000000,217,416115000000,FR_wheel_link,-0.09780049951877262,0.0583471537058132,0.16865077711960352,-0.0014391631796360697,0.007734663626417667,0.0010682220957259258
416116000000,218,416116000000,FR_wheel_link,-0.9434284356718763,-0.2877343794762607,18.876557670067104,-0.014798165341991631,0.11092263821243639,-0.00183399177953105
416116000000,219,416117000000,FR_wheel_link,-0.0219872662048587,-0.003965370877856788,0.04466807626876529,-0.0003269773214128627,0.002375756956489467,-5.863088292129279e-05
416116000000,220,416118000000,FR_wheel_link,1.0168508736613164,-3.053577057116562,17.164034884698303,-0.3157661281532808,-0.10180313392367546,-0.005664112953538259
416119000000,221,416119000000,FR_wheel_link,0.04206433463125328,-0.10825789583836425,-0.004427887389420481,-0.011536476206976225,-0.00543963226321574,0.00010228538205236574
416120000000,222,416120000000,FR_wheel_link,0.7646794634647561,-2.202972179031674,19.9306517951291,-0.24571681842204274,-0.09779939181142257,0.002446210759678583
416121000000,223,416121000000,FR_wheel_link,0.05654411359502634,-0.11122400315196579,-0.09601497307489874,-0.0071468711873507226,-0.0017428565753847417,-0.0009528222105296907
416122000000,224,416122000000,FR_wheel_link,-0.16667313772948505,-1.7421504703586799,17.288049288531628,-0.18783251433529968,0.011485693678066913,0.0015335572730449465
416123000000,225,416123000000,FR_wheel_link,-0.018550696237326154,-0.037421109495927606,0.0555705244714548,-0.0035014403193393204,0.0019165034830602233,1.1064698101837786e-05
416124000000,226,416124000000,FR_wheel_link,-0.15171307735697045,-1.193471337676565,19.331927562763656,-0.1241866462012917,0.018633654856535432,0.0002657470229695462
416125000000,227,416125000000,FR_wheel_link,-0.0239720977696524,0.046579187698370425,-0.014194005574675561,-0.0020411114240766006,-0.0004541004122152214,0.0004340192649974845
416126000000,228,416126000000,FR_wheel_link,-2.7146975235394026,-3.9366023472239386,8.023047275810413,-0.41754794827851616,0.2810245589476015,0.0044489911224196085
416127000000,229,416127000000,FR_wheel_link,-0.0011062522642022727,0.039544342588418234,-0.6586621379961703,0.0012121728810327876,0.0005210749219431187,-0.00075859389104253
416128000000,230,416128000000,FR_wheel_link,0.04900184065764075,-0.013850619705197052,0.013131338565684065,0.00012748062092892163,-0.0008051288043425505,-0.0012377130122181858
416129000000,231,416129000000,FR_wheel_link,-1.3526467417634673,-1.945232899024663,9.615188638291333,-0.20346496015776094,0.15346190154254064,-0.0013646681447173968
416130000000,232,416130000000,FR_wheel_link,-0.05569656300115343,-0.08678153925595042,-0.03126790025967505,-0.010101531988501281,0.002990731285255668,0.0012539180154780085
416131000000,233,416131000000,FR_wheel_link,0.18844075708787109,-0.5186540666128986,10.62627410054425,-0.061907136492461434,-0.021352243399162557,0.0007858308226920538
416132000000,234,416132000000,FR_wheel_link,-0.017031967017643826,0.01660204921077626,-0.2618797761612459,-0.0025539369054406232,-0.0014821150742111212,3.535656405853358e-05
416133000000,235,416133000000,FR_wheel_link,-2.8596632008099467,-4.355277140781867,8.79726605475446,-0.463341450342212,0.2938504636515523,0.005109719903153345
416133000000,236,416134000000,FR_wheel_link,0.0282377117866818,0.0014421179501577092,-0.7045513289009071,-0.0018396086552727466,0.0014854842192775271,-0.0021737902955605752
416135000000,237,416135000000,FR_wheel_link,0.02629424712069765,-0.006832143939474948,-0.11560291743930884,-0.0020626335570701052,-0.002209976955149224,-0.001307195336326191
416136000000,238,416136000000,FR_wheel_link,-4.360775548006222,-1.4342685470465493,11.226933170327854,-0.15249897386952152,0.4581912653069856,0.004530846578549146
416137000000,239,416137000000,FR_wheel_link,0.12398651501899569,-0.05710095347301781,-0.5785201862973355,-0.008060889253910545,-0.0005208458978553754,-0.0028213095109932765
416138000000,240,416138000000,FR_wheel_link,-0.005811429416328836,0.021609232611331637,-0.0031142833866384017,0.00033319958871029477,-0.0006323375791376487,-5.609639521810139e-06
416139000000,241,416139000000,FR_wheel_link,-1.3069859269470347,-0.4210988807826579,8.861159953191045,-0.050909721369476094,0.13555578023205933,0.0020710593725080987
416140000000,242,416140000000,FR_wheel_link,-0.9377082487734582,-0.7612622231089201,6.536304899101786,-0.0805780008537701,0.10572225198232582,0.0008366070260837518
416141000000,243,416141000000,FR_wheel_link,0.134315564381821,-0.2661438488726596,-0.4184840321741591,-0.017715919428881732,-0.0058669956211987685,-0.001696101885330952
416143000000,244,416142000000,FR_wheel_link,-1.8481141367965297,0.8651731508596896,17.477667437376283,0.08909076108986447,0.1920820004230928,0.0024738364538527645
416143000000,245,416143000000,FR_wheel_link,0.021144312910846536,-0.1093031298586318,-0.2827868929098444,-0.010415005543342402,-0.002799662228661103,-0.0005788804056135749
416144000000,246,416144000000,FR_wheel_link,-0.093653773703336,0.3022141553731872,0.11288571832703018,0.01814212562194282,0.0033814570120431426,0.001612865283263705
416145000000,247,416145000000,FR_wheel_link,-0.721974343101004,-9.558917375942666,15.351900040612382,-1.02853187763749,0.06652016702291003,0.004890038391730963
416146000000,248,416146000000,FR_wheel_link,-0.02143258484723279,0.2506491340030511,0.6479963233937673,0.013950286185932793,0.004598445158253859,-0.0019095342798312854
416147000000,249,416147000000,FR_wheel_link,-0.15959473391882684,-4.478764351578315,9.415278694577069,-0.4756046170405219,0.020078253444956534,-0.000873507089968275
416148000000,250,416148000000,FR_wheel_link,-0.01733178491324426,0.17984137630448088,0.41361698445930417,0.0074465387898722995,0.0015088069689758368,-0.000861256886769282
416148000000,251,416149000000,FR_wheel_link,-0.3177825157382639,-4.997387063918223,10.723846816756126,-0.5379446313426824,0.0348377396104767,-0.0008696382902543716
416150000000,252,416150000000,FR_wheel_link,0.032299640840820654,0.20685256158250837,0.5797458819131753,0.0104763918029308,-0.0007239724357836486,-0.000845693033171972
416151000000,253,416151000000,FR_wheel_link,-0.5110967177609376,-5.23116160762156,12.574169068186151,-0.5607668045346124,0.05298967434302726,-0.0011534026506894307
416152000000,254,416152000000,FR_wheel_link,0.07681465657512845,0.16961808293868727,0.673787821781977,0.006174759637915027,-0.0027502413307463978,-0.0008168233684582703
416153000000,255,416153000000,FR_wheel_link,-0.22477115804611847,-5.162491477999589,12.306256522700632,-0.5548871699033169,0.016626083806444536,0.0002099421385363294
416154000000,256,416154000000,FR_wheel_link,0.02078942030232489,0.7825936575143713,8.052661156485843,0.05894941394885678,0.0007159412556772687,0.000531414903574599
416155000000,257,416155000000,FR_wheel_link,0.018969162636285706,0.01379872812442432,-0.029619429033026733,-0.00023312673671803863,-0.0021658586190789137,4.855014103840688e-06
416156000000,258,416156000000,FR_wheel_link,-0.22363390062568134,-2.000760133798188,14.95024126946381,-0.23955806035073984,0.02568607967343846,-0.0008633632409146149
416157000000,259,416157000000,FR_wheel_link,-0.055564879459889194,0.09461854191206398,0.1742564049590663,-0.00333740290196592,0.001822447960703312,0.0016485912936318378
416158000000,260,416158000000,FR_wheel_link,1.8543590366324572,-2.7268394245303194,12.31163551781533,-0.31737704976661435,-0.20447545575788395,0.0026960811479095365
416159000000,261,416159000000,FR_wheel_link,0.01181412998009883,-0.03576516285846575,-0.010118372211517292,-0.004359130381637604,-0.00198806665524759,0.00018714511539439887
416160000000,262,416160000000,FR_wheel_link,-0.7062525373513907,0.09764403915264197,9.194109638266168,-0.004498018942561258,0.07643525634374299,-0.0008494922479105418
416161000000,263,416161000000,FR_wheel_link,-0.5381487494104119,-0.3222920387488522,4.927894080397321,-0.04262113238300091,0.062088332263499336,-0.000893494397699318
416162000000,264,416162000000,FR_wheel_link,0.12994194976385534,-0.15296210303967778,-0.29639181040407764,-0.01150987890015702,-0.006027776207412563,-0.0024792755009926492
416163000000,265,416163000000,FR_wheel_link,-1.623023455590856,1.198408793760512,18.46887283691148,0.09531272165998453,0.16568551176432073,0.0005272808956663516
416164000000,266,416164000000,FR_wheel_link,0.023617544960906275,0.006088932206118124,-0.19591278402896622,-0.004051630064173024,0.0004113181441374825,0.000745700817956216
416165000000,267,416165000000,FR_wheel_link,0.0004407108308864937,0.012705069248560585,0.003825594284842487,0.00018301567697021455,-0.0003365123266627599,-6.872498080049593e-06
416166000000,268,416166000000,FR_wheel_link,-0.0872435018254076,-0.6499538619618329,8.076050487839597,-0.08575665768922586,0.007286893478491888,-0.00036051678464241177
416166000000,269,416167000000,FR_wheel_link,-0.3321528783561285,-0.9579500454405951,2.012017153764145,-0.11239801389891331,0.03410256286981761,-0.00015244183756382614
416168000000,270,416168000000,FR_wheel_link,0.11031089610093676,-0.1463868997159294,-0.33897328283929584,-0.012368465427115116,-0.006585646656918298,-0.002374292120510952
416169000000,271,416169000000,FR_wheel_link,-2.367872793681527,1.7700563734819417,16.38658617821206,0.16528642743635702,0.25312018158272687,-0.002692512218415429
416170000000,272,416170000000,FR_wheel_link,0.046786534230631394,-0.12149904647169253,-0.3359204825067146,-0.010473566589378862,-0.003483129738291022,-0.0008287714491828353
416171000000,273,416171000000,FR_wheel_link,-0.11607892133004231,0.3368533878590567,0.08417034966682993,0.01976601326404454,0.0042614611058307,0.0026034227452009645
416171000000,274,416172000000,FR_wheel_link,0.205693094914285,-6.032185274434456,11.133649689166933,-0.6471837388735588,-0.023778547986788134,0.0020490579415834605
416172000000,275,416173000000,FR_wheel_link,-0.06171582611796672,0.3278373113445077,0.5109855214709506,0.012625062379624942,0.0017245507491748507,0.0007204666835103549
416174000000,276,416174000000,FR_wheel_link,0.5753333561329483,-4.384498271901683,7.365872997271376,-0.46455920589252786,-0.06181665790169846,0.0024139130892766106
416175000000,277,416175000000,FR_wheel_link,-0.1875386354821694,0.2619937690112729,0.037458140753445,0.009076959790093906,0.007831652915722196,0.0014336679448818312
416176000000,278,416176000000,FR_wheel_link,0.9205047144604586,-4.17420968644503,4.493325521099421,-0.44422655155511775,-0.0889972442677979,0.002199752808588134
416177000000,279,416177000000,FR_wheel_link,-0.1379900266646283,0.1973316151448036,-0.039461327373731786,0.013265989708054707,0.007570114427419908,-0.0016573022131897413
416178000000,280,416178000000,FR_wheel_link,1.0868019583988582,-4.079581760379621,4.2704992763120755,-0.43337320736260987,-0.10826124193761225,0.00279880604773445
416179000000,281,416179000000,FR_wheel_link,-0.22418628683647723,0.29168618207464136,-0.10486228951892304,0.013578515721096083,0.009781777935651386,0.0004333671279053709
416180000000,282,416180000000,FR_wheel_link,0.8844013590104767,-4.211740231982105,4.897919063094514,-0.4429803379136672,-0.07956884733029082,0.000955186509907298
416181000000,283,416181000000,FR_wheel_link,-0.15135394711703803,0.27529296646668217,0.03774442819645282,0.015373658214007213,0.006699878915195477,-0.0007599454617517048
416182000000,284,416182000000,FR_wheel_link,1.1627027931354073,-3.846143765872342,4.26774105761948,-0.4046094022148857,-0.1145839119562522,0.0022689541255067995
416183000000,285,416183000000,FR_wheel_link,-0.1879472108216534,0.2935471336046697,-0.10760625945021131,0.014316333274729177,0.007819602256819163,-0.0002941568527142762
416184000000,286,416184000000,FR_wheel_link,1.2107819908106554,-3.8695591792961364,4.029975909214995,-0.40625537221648444,-0.11662655014297202,0.0018311728537780273
416185000000,287,416185000000,FR_wheel_link,-0.14771742345577207,0.2960568851849267,-0.04631000282118612,0.015826437723298743,0.0057658138896223106,-0.0010861242144348429
416186000000,288,416186000000,FR_wheel_link,1.3249166975887732,-3.7337924806605125,4.0760418219334005,-0.39096799645877445,-0.1311364033450728,0.0022211444323884093
416187000000,289,416187000000,FR_wheel_link,-0.1667512099606411,0.30447829636273394,-0.09510069993594925,0.015460115565531,0.006593852284922783,-0.0005076414203670546
416188000000,290,416188000000,FR_wheel_link,1.3345049450377349,-3.7418277423052158,3.932536871821581,-0.3913044094567948,-0.1306488640157443,0.0020124270838190765
416189000000,291,416189000000,FR_wheel_link,-0.18236822458302088,0.30238158200810217,-0.07847031979624786,0.01601638246983203,0.008762222553563539,-0.0007427229110710748
416190000000,292,416190000000,FR_wheel_link,1.1283363415490553,-3.7087319773361163,3.9104242608904007,-0.38698766650494054,-0.1082016219468632,0.0016573329514001306
416191000000,293,416191000000,FR_wheel_link,-0.20146008440703495,0.30539194054263774,-0.09671789185139648,0.015962080968690444,0.010276880478151583,-0.000622662803730927
416192000000,294,416192000000,FR_wheel_link,0.951982837245565,-3.7248325508014326,3.967020246116433,-0.3883877614978397,-0.08913126202335683,0.0014061727993117746
416193000000,295,416193000000,FR_wheel_link,-0.21685380558051903,0.310424449139186,-0.10718785353854923,0.01579885184788413,0.011601289370036768,-0.00044864684912381415
416194000000,296,416194000000,FR_wheel_link,0.8636467323105801,-3.6852293370544453,3.702947005846161,-0.3840629282159995,-0.07961741173784798,0.0014125339030504822
416195000000,297,416195000000,FR_wheel_link,-0.23335892008797648,0.313039050768803,-0.13347216578097174,0.015938371971694846,0.012850147063274328,-0.0004488711983153533
416196000000,298,416196000000,FR_wheel_link,0.7926670323391902,-3.6560398202405886,3.4524935238776857,-0.3806991027621165,-0.07178055946712084,0.001416893793337897
416197000000,299,416197000000,FR_wheel_link,-0.23094249210459133,0.3160197662103621,-0.13614937320286202,0.016471365227994982,0.013889285633743375,-0.001164397022024478
416198000000,300,416198000000,FR_wheel_link,0.780346953765686,-3.6373333982550626,3.1192203650024273,-0.3785604000549985,-0.07139879067747948,0.001892767365417773
416199000000,301,416199000000,FR_wheel_link,-0.22863750252812698,0.33049823588730914,-0.12972133065448305,0.01790277412161106,0.014558678861673995,-0.001898254371667725
416200000000,302,416200000000,FR_wheel_link,0.871207208250536,-3.5177875630854656,2.330657034817616,-0.3649019708351741,-0.08248953292530051,0.002768461110801313
416201000000,303,416201000000,FR_wheel_link,-0.23925447063375926,0.4136213751551316,-0.19048675753066596,0.02814307804429044,0.014247083389885225,-0.001342055298658238
416202000000,304,416202000000,FR_wheel_link,1.0120992913119784,-2.7081430106609004,1.4371649705910685,-0.2732588065464876,-0.09488680406718662,0.0017472457569009617
416203000000,305,416203000000,FR_wheel_link,-0.17449595037315058,0.3211320748143841,-0.965206220835563,0.0207086064989659,0.007950278436493404,-0.0023539181212669236
416204000000,306,416204000000,FR_wheel_link,0.00647308212975339,-0.007582946581025686,0.00040815073197865155,-0.00013616221991645386,-7.119835295768857e-05,-4.782701016237578e-05
416205000000,307,416205000000,FR_wheel_link,0.328746219025128,-0.4226662794759904,-0.6956402931945032,-0.023665719422627837,-0.01720375036304582,-0.002819452165276794
416206000000,308,416206000000,FR_wheel_link,-0.3041005423585091,0.4219396875176294,-1.2308286145840075,0.02519857368873369,0.015560633710390796,-0.0006255137508279185
416207000000,309,416207000000,FR_wheel_link,0.0037351598721561234,-0.007010323255568027,0.0013137480065095318,-0.0002133509339331718,-9.135564734781329e-05,0.00010042113890800308
416208000000,310,416208000000,FR_wheel_link,0.3035691996696009,-0.42597991419241077,-0.6866303432485397,-0.023494905022387123,-0.016305618857004628,-0.002092508864702104
416209000000,311,416209000000,FR_wheel_link,-0.30735571587559385,0.4255995404200465,-1.2469470809066174,0.024820507290124055,0.015222873991298718,0.00023734234514187459
416210000000,312,416210000000,FR_wheel_link,0.004009003262341343,-0.005855069531089194,0.0024613531073618667,-0.00020598995997137345,-0.0001336667075175872,0.00016090351707498575
416211000000,313,416211000000,FR_wheel_link,0.30481808035839963,-0.43676080782058213,-0.6846126224193986,-0.02369010409367255,-0.016239955955329465,-0.0019018058419607645
416212000000,314,416212000000,FR_wheel_link,-1.6747364751604503,1.0754105149923268,2.0773187075012913,0.0924678670898626,0.17268485884638013,-0.0035560808446159745
416213000000,315,416213000000,FR_wheel_link,-0.03583134355530844,0.033205121522507666,-0.05122109477505264,0.003862333206796366,0.004567047430635747,0.00014017291605339437
416214000000,316,416214000000,FR_wheel_link,0.06517377214729558,-5.105115834361266,8.84821463142589,-0.5477153596835287,-0.007913360470755526,0.002103467675762227
416215000000,317,416215000000,FR_wheel_link,-0.09177893965623818,0.16979423468855545,-0.7022427404877001,-0.00022528762872024884,0.008547259350273674,-0.000319076265456195
416216000000,318,416216000000,FR_wheel_link,0.010648699680419767,0.004239644720183898,0.0028334624658220503,-0.00013026355340733638,-0.00025602696765888376,0.00010518791384770578
416217000000,319,416217000000,FR_wheel_link,0.3473927103895167,-0.46145645060182006,-0.6755884429387863,-0.02429401846197193,-0.017087094034899268,-0.0022720901367181017
416218000000,320,416218000000,FR_wheel_link,-0.31384420450765316,0.46361748678661924,-1.264066816178304,0.026156400261169617,0.015521427807783853,0.0008709461094707468
416219000000,321,416219000000,FR_wheel_link,0.005615284519166545,-0.0005298158299055847,0.003031089844145578,-0.0002462121497614648,-0.000217133432562697,0.0002309725417647894
416220000000,322,416220000000,FR_wheel_link,0.30443704400585225,-0.44656935152334587,-0.6706761314966241,-0.023663123792833918,-0.015923482736101367,-0.0015621648271772833
416221000000,323,416221000000,FR_wheel_link,-0.31736656954380493,0.4478657735084105,-1.274375790305967,0.025028846191037357,0.015042854000660692,0.0012779561456350847
416222000000,324,416222000000,FR_wheel_link,0.0041523724546904915,-0.0006572079075151315,0.00419816588851947,-0.00018146368940091088,-0.00018818707452906386,0.00025689728389640586
416223000000,325,416223000000,FR_wheel_link,0.30176336477486243,-0.4504361532014701,-0.6760672870194333,-0.02378717061598623,-0.015942868454474336,-0.001476993671308722
416225000000,326,416224000000,FR_wheel_link,-1.9326183934687133,0.6433395274278072,3.9887121823474794,0.04207620505796436,0.19966396152352933,-0.0032649849770516426
416225000000,327,416225000000,FR_wheel_link,-0.9157993112409176,-0.8765856108841606,2.8966675175476766,-0.09444713692974918,0.09574368787692814,-0.000543158747612702
416226000000,328,416226000000,FR_wheel_link,0.9624537059650462,-1.1441916996802268,0.2620142947569551,-0.10636713177957763,-0.0909235761937393,0.0003509214398979615
416227000000,329,416227000000,FR_wheel_link,-0.23369438737150683,0.4509592173328319,-1.141190324607162,0.02298865440491614,0.010807445592877102,0.001833559466899874
416228000000,330,416228000000,FR_wheel_link,0.003905249455677504,0.004420698662380359,0.012040715672198183,1.4686449073132712e-05,-0.00016061599305934916,0.0002998275464091506
416229000000,331,416229000000,FR_wheel_link,0.3139214924565973,-0.4590734937437615,-0.6754119872155714,-0.02393729636289996,-0.016258861053414595,-0.001650146160294809
416230000000,332,416230000000,FR_wheel_link,-0.3336905521864091,0.47878982366453415,-1.2553926654548055,0.025535889477022056,0.014985157594286995,0.0017201240448542327
416231000000,333,416231000000,FR_wheel_link,0.0026137583434935256,0.0011036826969457244,0.007738619191007309,-9.740990600107297e-05,-0.00015795136583117965,0.0003048970758116774
416232000000,334,416232000000,FR_wheel_link,0.2987248157669508,-0.45395152822573936,-0.6738239557735288,-0.023718531194737533,-0.0158559579910044,-0.0013615007000164635
416233000000,335,416233000000,FR_wheel_link,-0.33115092793056955,0.457402337691378,-1.2743504464687079,0.0249874252746761,0.01497081396058757,0.0014814524230670504
416234000000,336,416234000000,FR_wheel_link,0.002985944258364781,0.0002867615277361438,0.006721990984753432,-0.00011344047893267951,-0.00017269119903895902,0.0002888577200530711
416235000000,337,416235000000,FR_wheel_link,0.2991927532756108,-0.4555259697991524,-0.6721034276027371,-0.02369743025514623,-0.01585723547275358,-0.0013224767678069512
416236000000,338,416236000000,FR_wheel_link,-2.0007122641713533,0.5676197615428107,4.551219591728523,0.033322171173607126,0.20621595542643523,-0.0033790125943898085
416237000000,339,416237000000,FR_wheel_link,-0.04377892583274033,0.019805337752484588,-0.010414646641540671,1.0614886151374871e-05,0.004957865186918522,0.00033080023227768685
416238000000,340,416238000000,FR_wheel_link,0.3630479161026008,-4.990036617425036,7.15090830117099,-0.5365905105585833,-0.04130950849494919,0.004181136635508758
416239000000,341,416239000000,FR_wheel_link,-0.09475121022248055,0.14462308606561036,-0.7998653131906955,-0.0004510620692668439,0.007264484469564772,-0.000499053398363923
416240000000,342,416240000000,FR_wheel_link,0.009988572815587168,0.0030517636550831447,0.004323690491522061,-9.729452514671593e-05,-0.00027184576818568276,0.00010692331976098934
416241000000,343,416241000000,FR_wheel_link,0.33647633324820414,-0.4706427895966251,-0.6576723413093566,-0.023952923965534136,-0.016620641205199717,-0.0017309119347867744
416242000000,344,416242000000,FR_wheel_link,-0.31454053471859156,0.4243791428286871,-1.3130121918630815,0.025299505319435745,0.015550468077689561,0.00039685870362913926
416243000000,345,416243000000,FR_wheel_link,0.006128966424036126,-0.0003285170601395968,0.004759296465287081,-0.0002254512240698775,-0.0002587897688711946,0.00023700870056927922
416244000000,346,416244000000,FR_wheel_link,0.30233535564071645,-0.4546674910226371,-0.6476177752220906,-0.023235295147338294,-0.015612121087526437,-0.0012295508842683506
416245000000,347,416245000000,FR_wheel_link,-0.31520920020732524,0.4136734427815842,-1.3155480155460828,0.024290282582353977,0.014995130485548732,0.0008603312356889395
416246000000,348,416246000000,FR_wheel_link,0.004990253938177793,0.00040161106527370925,0.0061731078676856566,-0.00015207374730015163,-0.00023076503004631796,0.00026158568866742685
416247000000,349,416247000000,FR_wheel_link,0.3008660305675779,-0.4582859190919266,-0.6525690525872738,-0.023353519255787776,-0.015648104357897714,-0.0011672909914703963
416248000000,350,416248000000,FR_wheel_link,-0.3228490542589127,0.4185755985006844,-1.3180158557823578,0.024316294522351824,0.015044460313547649,0.0010070900689000827
416249000000,351,416249000000,FR_wheel_link,0.004845191598939643,0.0007535066141276026,0.0073473792708314955,-0.00012025702813535388,-0.00023118415524737247,0.00026905005251860227
416250000000,352,416250000000,FR_wheel_link,0.30095289064516345,-0.45890790168519563,-0.650446522565248,-0.023291221247406093,-0.015636885638068584,-0.0011548570096257982
416251000000,353,416251000000,FR_wheel_link,-0.3253985396289388,0.4174537158288025,-1.3215183217736732,0.024215540717810315,0.015020741278468934,0.001049833256892862
416252000000,354,416252000000,FR_wheel_link,0.004885638853684737,0.001181483992513562,0.008281579750516493,-9.29339078888116e-05,-0.00023178108562779012,0.0002697304325406885
