%time,field.header.seq,field.header.stamp,field.header.frame_id,field.wrench.force.x,field.wrench.force.y,field.wrench.force.z,field.wrench.torque.x,field.wrench.torque.y,field.wrench.torque.z
415902000000,0,415897000000,BL_wheel_link,-0.055508350251311414,0.2966253061042409,-1.7951584098553441,0.02261016833705813,0.008662614826186282,-0.0009589573217435442
415903000000,1,415898000000,BL_wheel_link,0.010509744198888078,-0.007723471060803757,-0.0024684080489974117,-0.0001319563812070006,-0.00021905683936650149,0.00010272127423843408
415903000000,2,415899000000,BL_wheel_link,0.1485395809291135,-0.24029587673964917,-0.1650319436314747,-0.023268365813504138,-0.015884188199063152,-0.0017635073267174611
415903000000,3,415900000000,BL_wheel_link,-0.1313640855323755,0.2813285652128444,-2.00654700694956,0.026744060743222633,0.014363781190564069,0.00127797642397951
415903000000,4,415901000000,BL_wheel_link,0.010550130158446976,-0.014946934590555353,0.009336699753493563,-0.000592705359112569,-0.0002632129797740055,0.00010110997092890878
415903000000,5,415902000000,BL_wheel_link,0.16169429371740052,-0.3084979341977188,-0.11275811642646852,-0.025691859792569573,-0.016041511096209937,-0.0006922081747932267
415903000000,6,415903000000,BL_wheel_link,-0.20863041220153217,0.34266742707830156,-1.8375432200904844,0.024095754928048933,0.017159195812395753,-0.002417911203542982
415904000000,7,415904000000,BL_wheel_link,0.011887260713440963,-0.011141818395541408,-0.002223435578203906,-0.00017022488790800996,-0.00025316576551882516,0.00017993517962018487
415905000000,8,415905000000,BL_wheel_link,0.2186260382577374,-0.2967228599469307,-0.13311860122002006,-0.02428613273362269,-0.010068985209312958,0.0051646632300566125
415906000000,9,415906000000,BL_wheel_link,-0.14338306135416296,0.26770908898279694,-1.8188581510494373,0.022580185312625893,0.012000737965994678,-0.0011769440333391835
415907000000,10,415907000000,BL_wheel_link,0.008313561052131145,-0.008359155918267391,0.0014611555551029979,-0.00020233528538675326,-0.00017940369721748334,5.354949372646405e-05
415908000000,11,415908000000,BL_wheel_link,0.1484879014082891,-0.24677165832453038,-0.15142771322302073,-0.0231275154425062,-0.015553318209411054,-0.001553976285006468
415909000000,12,415909000000,BL_wheel_link,-0.21391684417602583,0.22460691029978486,-1.9142397620423908,0.023389174494941715,0.015879941473548917,-0.0001807309508265794
415910000000,13,415910000000,BL_wheel_link,0.012727515108677225,-0.007825777874173292,-0.0011260755734333317,-0.0001621345675651564,-0.0002665764017973992,0.00013428925819125549
415911000000,14,415911000000,BL_wheel_link,0.14069326337810972,-0.23658093843944375,-0.14594862293733246,-0.0222120515842233,-0.014888458171737848,-0.0014475259496877354
415912000000,15,415912000000,BL_wheel_link,-0.17048526256964117,0.20489113919300633,-1.9002811293777169,0.022646934785721953,0.014678148895036705,0.000715813410065854
415913000000,16,415913000000,BL_wheel_link,0.012555332629119578,-0.007605456088041531,-0.0018693895763737616,-9.288125911289188e-05,-0.00020447593468152556,0.00020773721333538524
415914000000,17,415914000000,BL_wheel_link,0.1384373091608571,-0.2362462270244812,-0.15017000256984203,-0.022380635642027132,-0.014965964839106892,-0.0014271362097881277
415915000000,18,415915000000,BL_wheel_link,-0.16387397732667086,0.20759975991832835,-1.9137615681765423,0.022964091909949032,0.0146689497652174,0.0011144638421087638
415916000000,19,415916000000,BL_wheel_link,0.012913216317232017,-0.007291694473512113,-0.0027650738952117206,-6.887930084861272e-05,-0.00020521394957304068,0.00022277334757782828
415917000000,20,415917000000,BL_wheel_link,0.1367028415016162,-0.2348170875238501,-0.15243662036417632,-0.02238581089333493,-0.014962476823306724,-0.0014209276113395556
415918000000,21,415918000000,BL_wheel_link,-0.16002360611430508,0.20841229795785698,-1.9162985061566213,0.023019936807748928,0.0145861671876371,0.0012860206912952649
415919000000,22,415919000000,BL_wheel_link,0.012948682268414856,-0.00708818012785436,-0.003170228011513968,-5.81282321668718e-05,-0.0002040328606525488,0.00022426527277108856
415920000000,23,415920000000,BL_wheel_link,0.13569885709235244,-0.23380549486769775,-0.15427365128743703,-0.022397763909667735,-0.01497420129123191,-0.0014242225502530152
415921000000,24,415921000000,BL_wheel_link,-0.1594591576288729,0.20943727732796186,-1.9170087969664156,0.023050701891863697,0.014567232797718592,0.0013425824806753903
415922000000,25,415922000000,BL_wheel_link,0.012958236696379157,-0.006952406687749099,-0.003392943597676637,-5.305519695312606e-05,-0.00020450125087738085,0.00022360025137475173
415923000000,26,415923000000,BL_wheel_link,0.13510563085386085,-0.2329065762222483,-0.1555482181312968,-0.0223910740759736,-0.014979995504842525,-0.0014317862216002974
415924000000,27,415924000000,BL_wheel_link,-0.15953474300230078,0.21014458226934593,-1.9171373146926034,0.023059528943361097,0.01455641198821841,0.0013507750080086853
415925000000,28,415925000000,BL_wheel_link,0.012950760425783964,-0.006906624367930426,-0.003467061844844597,-5.160646929553141e-05,-0.00020488318896703467,0.0002226641296237512
415926000000,29,415926000000,BL_wheel_link,0.13483604037142327,-0.23236534289843633,-0.15627924558678857,-0.022384193433044333,-0.014984116777093706,-0.0014380511082002917
415927000000,30,415927000000,BL_wheel_link,-0.15971256381648233,0.21049711112518446,-1.9171193873183627,0.023062248972018383,0.014553030286549829,0.0013440920757587776
415928000000,31,415928000000,BL_wheel_link,0.012948077591542264,-0.006907664018589185,-0.0034690158220976033,-5.194598970297759e-05,-0.00020520056206646195,0.00022207662592949864
415929000000,32,415929000000,BL_wheel_link,0.134751323320861,-0.23205878721040846,-0.15666929859393752,-0.02237806576770867,-0.014986976862605061,-0.0014429100249209043
415930000000,33,415930000000,BL_wheel_link,-0.1598042634525252,0.21061401936863677,-1.9171167502077715,0.023062998333875626,0.014552153774053209,0.0013347230929268584
415931000000,34,415931000000,BL_wheel_link,0.01295124503592636,-0.006929365703646467,-0.003443128171057512,-5.2934836240291184e-05,-0.00020547192290053446,0.00022183073531590626
415932000000,35,415932000000,BL_wheel_link,0.1347622392191769,-0.23190648215387716,-0.15685977308497473,-0.02237365654922934,-0.014989190970146652,-0.0014464062287833522
415933000000,36,415933000000,BL_wheel_link,-0.15980385718725285,0.21060702414128574,-1.9171562352966025,0.023063718190502815,0.014552224600520709,0.001327096226104585
415934000000,37,415934000000,BL_wheel_link,0.012956701884811819,-0.006956660871649783,-0.003410203027559711,-5.402334486312496e-05,-0.00020567515214940944,0.00022179450721831177
415935000000,38,415935000000,BL_wheel_link,0.13481314203077055,-0.23184426929882998,-0.15694767172174295,-0.02237094877985956,-0.014991101437893208,-0.001448830825636855
415936000000,39,415936000000,BL_wheel_link,-0.16172285661578184,0.34191639991040595,-1.6586095173139013,0.02005357287678302,0.017794489230514358,-0.002054457903137891
415937000000,40,415937000000,BL_wheel_link,0.017735329804403947,-0.006723306407475795,-0.013737236638458682,6.278331393906551e-05,-0.0003352473098342956,0.00027977892144605813
415938000000,41,415938000000,BL_wheel_link,0.15766916494737188,-0.22384289676904456,-0.06759039040364945,-0.02562609307547151,-0.006458804924205612,0.003407670269941046
415939000000,42,415939000000,BL_wheel_link,-0.040921069369442856,0.2872875336895228,-1.8412985133173625,0.023136099628952224,0.00893952952312154,-0.0001352060366880502
415940000000,43,415940000000,BL_wheel_link,0.011782342244699656,-0.007876003764855172,-0.003491354503964787,-0.00010752982056487085,-0.00022731889271093025,0.0001428874289727632
415941000000,44,415941000000,BL_wheel_link,0.1462924735899807,-0.2388064130514327,-0.16392114888371467,-0.023113152232746265,-0.01573871886531347,-0.0017169643638373546
415942000000,45,415942000000,BL_wheel_link,-0.1818537002961395,0.22117424040151254,-1.9417975786967552,0.023889750537188028,0.015466552179445148,0.0007147337250193878
415943000000,46,415943000000,BL_wheel_link,0.014030424948780113,-0.007983307686963273,-0.0026824217505743175,-0.00011675111657358872,-0.0002666435008340251,0.0001929317491849811
415944000000,47,415944000000,BL_wheel_link,0.13923329340182058,-0.23567128381901623,-0.1471567531771886,-0.02219566002105759,-0.014863328787520672,-0.0014345823048621616
415945000000,48,415945000000,BL_wheel_link,-0.15630326480724416,0.20117813016849714,-1.9112821830767646,0.0228272997535648,0.014528198220732955,0.001139654683723589
415946000000,49,415946000000,BL_wheel_link,0.013207781537773756,-0.007726762928450774,-0.0025081405325956636,-8.117828890637846e-05,-0.0002109825825497341,0.00022499489108083413
415947000000,50,415947000000,BL_wheel_link,0.13797998703494047,-0.23618046928331154,-0.1507797707351064,-0.022390148421581702,-0.014966118323241458,-0.0014204296012294401
415948000000,51,415948000000,BL_wheel_link,-0.1583024919907616,0.2059967935021438,-1.917644852202816,0.023044533060104178,0.014620520827522783,0.00127402444505012
415949000000,52,415949000000,BL_wheel_link,0.01318192506025201,-0.007399556188072153,-0.0029417841163638845,-6.691251361778468e-05,-0.00020840046373619422,0.00022915440471382573
415950000000,53,415950000000,BL_wheel_link,0.1366228400766049,-0.23472070179704274,-0.1529952520294582,-0.022387572550273946,-0.014969160922462787,-0.0014219786099448437
415951000000,54,415951000000,BL_wheel_link,-0.15816114257045502,0.2077956460613326,-1.9175482967680857,0.02305427951103909,0.014576237650829936,0.0013282063036121061
415952000000,55,415952000000,BL_wheel_link,0.01305276065690434,-0.007181598111917392,-0.003161970292606243,-5.969532265422058e-05,-0.0002056570607323877,0.00022637066434631455
415953000000,56,415953000000,BL_wheel_link,0.13582741465152912,-0.2337918994703952,-0.15473266135801134,-0.022398921574535827,-0.014984212893970481,-0.0014273643583607915
415954000000,57,415954000000,BL_wheel_link,-0.15901260525552788,0.20918474727387815,-1.9172335634666935,0.0230678526356118,0.014572627689391,0.0013427760157447423
415955000000,58,415955000000,BL_wheel_link,0.012987045590005903,-0.0070334390033974185,-0.0033027135930457554,-5.596919015848753e-05,-0.00020501425603638095,0.00022403775254181652
415956000000,59,415956000000,BL_wheel_link,0.13533453116107738,-0.23298330026500982,-0.1559463548459017,-0.0223947744785988,-0.014992263690473538,-0.0014349687335429703
415957000000,60,415957000000,BL_wheel_link,-0.15961259671034286,0.21007876248264593,-1.9170060598575862,0.02307167015245173,0.014567397014414707,0.0013387796013402038
415958000000,61,415958000000,BL_wheel_link,0.012951315596678168,-0.006969512236488971,-0.0033685577994944193,-5.4373802689775477e-05,-0.0002049920461683643,0.00022252850243771285
415959000000,62,415959000000,BL_wheel_link,0.13509896648282177,-0.23251406850485037,-0.1566374991389206,-0.022390651209647415,-0.014997342275123313,-0.0014403386993821522
415960000000,63,415960000000,BL_wheel_link,-0.15993238169923182,0.21052003469079938,-1.9169003665488251,0.023074042973425822,0.014565480774328595,0.0013320809459108115
415961000000,64,415961000000,BL_wheel_link,0.01293763115661204,-0.006954312492733823,-0.0033820442420534245,-5.422116192444776e-05,-0.0002051144625945609,0.0002217691650201902
415962000000,65,415962000000,BL_wheel_link,0.13501643652353965,-0.23224769977305007,-0.15701913077378138,-0.02238673398478156,-0.015000764571421958,-0.0014443932587641746
415963000000,66,415963000000,BL_wheel_link,-0.15305203680028254,0.3331859802454948,-1.7258643650857077,0.021179290650240216,0.016741714353152186,-0.001665317709381961
415964000000,67,415964000000,BL_wheel_link,0.01577266586010864,-0.008474755966725436,-0.010111705087163768,7.112974469287986e-06,-0.00028767836001096443,0.0002838214683418521
415965000000,68,415965000000,BL_wheel_link,0.14276786051665394,-0.23755706425183837,-0.030048017503319188,-0.02643937102288264,-0.0057512589824763125,0.003500141930670879
415966000000,69,415966000000,BL_wheel_link,-0.04508973000322636,0.299474090031151,-1.8447781893819748,0.023269978958788712,0.008776001675400427,-0.0005336704070007172
415967000000,70,415967000000,BL_wheel_link,0.011762038389994444,-0.007658685226735292,-0.0036712052379195125,-0.00010574930431981297,-0.00023258933172828317,0.00013379197541510727
415968000000,71,415968000000,BL_wheel_link,0.14626494677354154,-0.23709670712087214,-0.16498149367396636,-0.02302327672907651,-0.015723597719908045,-0.0017430946119484621
415969000000,72,415969000000,BL_wheel_link,-0.18187830255639298,0.22082818992175027,-1.9408982480361008,0.023858129337789916,0.015449885625083608,0.0006828432173741746
415970000000,73,415970000000,BL_wheel_link,0.01404014465675468,-0.007950370524764067,-0.0027090915062758228,-0.00011778279579841392,-0.0002685792897543733,0.00019003317367630577
415971000000,74,415971000000,BL_wheel_link,0.13960042128402594,-0.23627250747972856,-0.14677520077440886,-0.022203928859553412,-0.014865234412423527,-0.0014270136842410666
415972000000,75,415972000000,BL_wheel_link,-0.15657098856372256,0.2009170260691025,-1.910955490079984,0.022836019560939686,0.014549563575922412,0.0011401455180784447
415973000000,76,415973000000,BL_wheel_link,0.013233050941362488,-0.007720144978993013,-0.002520105438857594,-8.154849769851265e-05,-0.00021204448186368967,0.00022457189303094424
415974000000,77,415974000000,BL_wheel_link,0.13825838267952448,-0.23669957897047345,-0.15054252984203526,-0.022399567729988627,-0.014969023292887884,-0.0014132404026738427
415975000000,78,415975000000,BL_wheel_link,-0.15829204641278485,0.20578263993321122,-1.917408401300152,0.02305392455373976,0.014633235731800497,0.0012819892838757919
415976000000,79,415976000000,BL_wheel_link,0.013198555242692795,-0.007393756917508637,-0.00295457169172915,-6.691708140771534e-05,-0.0002089623816170255,0.00022903578966894313
415976000000,80,415977000000,BL_wheel_link,0.1368511397363824,-0.2351138014849768,-0.15299855221888908,-0.02239900901554722,-0.01497635948561954,-0.001417438701936201
415976000000,81,415978000000,BL_wheel_link,-0.15816925617208888,0.20775255719501248,-1.9174283427654064,0.023066933442596776,0.014586826151109455,0.0013355378667345803
415976000000,82,415979000000,BL_wheel_link,0.013061445809064699,-0.007176759198811307,-0.003169352966430692,-5.963040962516755e-05,-0.0002059321055954604,0.00022634519429670487
415980000000,83,415980000000,BL_wheel_link,0.13602146720683678,-0.2341000383670293,-0.15486571587230624,-0.022410260000473643,-0.01499308812428015,-0.0014242942466322782
415981000000,84,415981000000,BL_wheel_link,-0.1590624417166254,0.20923063361592129,-1.9171243465906551,0.023080965796522298,0.01458200968463898,0.001348273095735833
415982000000,85,415982000000,BL_wheel_link,0.012988219990373431,-0.0070312537488915975,-0.00330065742615085,-5.6001385056535805e-05,-0.00020506235992339406,0.00022399389047131772
415983000000,86,415983000000,BL_wheel_link,0.1355118900574231,-0.2332418644263967,-0.15615292294320204,-0.022405930188490013,-0.015002114643911739,-0.0014328077803043293
415984000000,87,415984000000,BL_wheel_link,-0.1597166939945561,0.21017414164472004,-1.916875171961049,0.023084568025759693,0.014576614567796966,0.001342247603696928
415985000000,88,415985000000,BL_wheel_link,0.012949406470785007,-0.006968248640649165,-0.0033624845638748416,-5.44763679631477e-05,-0.00020498230129201015,0.00022244393222656608
415986000000,89,415986000000,BL_wheel_link,0.13526891151353543,-0.23274208215673042,-0.15688365080797045,-0.022401425083707144,-0.015007660667528398,-0.0014387540532059613
415987000000,90,415987000000,BL_wheel_link,-0.16007175487836087,0.21063982280939145,-1.9167539036023136,0.023086625289590792,0.01457466625743209,0.0013339437803710922
415988000000,91,415988000000,BL_wheel_link,0.012934322714065243,-0.006954592585828111,-0.0033724801838840007,-5.4401635777385785e-05,-0.0002050812225955488,0.0002216647152319055
415989000000,92,415989000000,BL_wheel_link,0.1351849028852141,-0.23246078236059228,-0.1572827829592206,-0.022397228931807144,-0.015011301736879427,-0.0014431251437389794
415990000000,93,415990000000,BL_wheel_link,-0.16018995182729526,0.21081859961169033,-1.9167481940186741,0.023088299359423463,0.014573708009003226,0.0013269498483710045
415991000000,94,415991000000,BL_wheel_link,0.012932632580397528,-0.006964911057699613,-0.0033591498779003944,-5.4959811756826715e-05,-0.00020524959501083527,0.00022136624446489716
415992000000,95,415992000000,BL_wheel_link,0.24881876878507742,-0.19615189118171109,-0.2271297418622298,-0.02144459054575496,-0.007553099125304426,0.006165220465316608
415993000000,96,415993000000,BL_wheel_link,-0.09160291508840189,0.28685349614311056,-1.7123232776806645,0.020890245489735112,0.008673465606167576,-0.0022709131749169185
415994000000,97,415994000000,BL_wheel_link,0.005744859914148992,-0.008286006918096979,0.002441123199200262,-0.00026733901440123564,-0.00017751214493125176,-3.345666825745822e-05
415995000000,98,415995000000,BL_wheel_link,0.16886682335565484,-0.14050095659675377,-1.0453398787051764,-0.011505578837741698,-0.005109607591844938,0.0014602335337864799
415996000000,99,415996000000,BL_wheel_link,-0.06928373084017214,0.1608244209995554,-0.45410418383549583,0.0043008495617199854,0.0032488572348877386,-0.0029198390883471243
415997000000,100,415997000000,BL_wheel_link,0.038396791225440347,-0.058417996624915355,-0.09361943126162967,-0.007896272646123612,-0.005769831958844289,-0.0008775318959272276
415998000000,101,415998000000,BL_wheel_link,-0.12999527593945243,0.1788785018873256,-1.5109830803717723,0.011302508376650828,0.012070292800585905,-0.003660501855273286
415999000000,102,415999000000,BL_wheel_link,0.00981814292050388,0.06288437475620343,-0.14979878792267323,-0.05788066131753043,-0.00022758881793234764,9.935109250880863e-05
416000000000,103,416000000000,BL_wheel_link,0.1422065169952797,0.49053225454871174,-1.234703090956761,-0.06819575196546426,-0.011934092746759908,0.0014380232721874736
416001000000,104,416001000000,BL_wheel_link,0.10246059918690686,0.8002729668690447,-1.0010690922949408,-0.0505259165704008,0.023778246525777536,0.010839971842942286
416002000000,105,416002000000,BL_wheel_link,0.025472495397217146,0.10157757637499151,-0.21720475496457042,-0.05640255297139958,-0.00043564110759887475,0.0003138467850448641
416002000000,106,416003000000,BL_wheel_link,0.1798801612127766,1.4830716439571927,-2.275034575823165,-0.03446294249977479,0.0035132177200728164,-0.0020348217607975305
416004000000,107,416004000000,BL_wheel_link,-0.13482939819788115,0.8382347690596036,-1.1598052223613124,0.010704897914116912,-0.014151941020573931,-0.015040647658978919
416005000000,108,416005000000,BL_wheel_link,-0.01875386525905688,0.07080442571177338,0.23325567030827882,-0.014628534492819482,0.021625406766227456,0.004367314038856342
416006000000,109,416006000000,BL_wheel_link,0.051063765458418536,0.01652511800946584,-0.0676627490150871,0.002165028521081057,0.0003143315978854285,0.0020484903774387686
416007000000,110,416007000000,BL_wheel_link,-0.15883233240438027,0.5839005231232062,-1.0675956594126506,-0.005663636668834819,-0.019406925321885416,-0.01332953095431557
416008000000,111,416008000000,BL_wheel_link,-0.27913778712050574,0.017226405612067924,0.4856794996497673,-0.01849110936915513,0.02351577308203655,0.0011226032189725823
416009000000,112,416009000000,BL_wheel_link,0.09760510399462292,0.10305640080565487,-0.2129267218888508,0.0045568292080159205,-0.001793479750507952,0.001391471058410703
416010000000,113,416010000000,BL_wheel_link,-0.21467429083974815,0.7687154635371289,-1.229560508854187,4.083188137541001e-05,-0.019135033094345034,-0.015931774952029416
416010000000,114,416011000000,BL_wheel_link,0.14453591878276528,0.412284231292637,-0.7276261757689941,0.0023825822287248024,0.014267853014971053,0.012797749512137916
416012000000,115,416012000000,BL_wheel_link,-0.062352451876206305,0.27788533023742606,-0.5517800200565445,-0.003065405297379032,-0.009795952936445945,-0.005632640875860156
416012000000,116,416013000000,BL_wheel_link,0.2651976636753444,-0.4119649043789471,-0.621235646086321,-0.036834873744597554,-0.02621968726999943,0.002981767050288935
416014000000,117,416014000000,BL_wheel_link,0.0626424821822612,0.09754437665626713,-0.16162852266940153,0.011794385379595752,0.017827250493267784,0.016132792803957918
416015000000,118,416015000000,BL_wheel_link,0.0378538794988777,0.05129755753530316,-0.7201807822906915,-0.01702531691010879,-0.019767642172129427,-0.00461360993869303
416016000000,119,416016000000,BL_wheel_link,0.09992142982222835,0.1063806193251388,-0.11441656086853927,0.008048533938443219,0.021220250088786714,0.016138769989763324
416017000000,120,416017000000,BL_wheel_link,0.044291164045015693,0.17976134222074816,-0.8633206758930605,-0.012956694672586368,-0.020706581542567812,-0.006516664025069565
416018000000,121,416018000000,BL_wheel_link,0.08078602404771201,0.05807047005855753,0.022738613192758772,0.0008507906336148313,0.019187564399330767,0.011670835124835521
416019000000,122,416019000000,BL_wheel_link,-0.15736352801411335,0.5999577594016735,-1.2194441759617962,-0.00012930061920971535,-0.017965814685385717,-0.011112877121734033
416020000000,123,416020000000,BL_wheel_link,-0.10643525761354317,-0.17479727263149558,0.5758812781521915,-0.014656142701724523,0.018299369086534116,0.004266828711527589
416021000000,124,416021000000,BL_wheel_link,-0.08826783546349465,0.4482939557551705,-0.9272960352202565,0.0003734022557759162,-0.013952060416350442,-0.008236262391236815
416022000000,125,416022000000,BL_wheel_link,0.08924467794457855,0.03174685817170081,0.0884827463240114,-0.004412645274227211,0.01604371565119783,0.0075247781116841005
416023000000,126,416023000000,BL_wheel_link,0.06869432171872324,0.12950030398157444,-0.763004558990622,-0.012950040937764662,-0.0196535333125034,-0.005893868149155884
416024000000,127,416024000000,BL_wheel_link,0.02924570548698991,0.022130607189508246,0.07433955464647318,-0.0008785503354278362,0.013653950204132823,0.007301325958166741
416025000000,128,416025000000,BL_wheel_link,15.128770528005184,10.970870963513773,40.13246421228452,1.1345106811755266,-1.6189725706243179,0.02102052895896015
416026000000,129,416026000000,BL_wheel_link,-0.034205614141475715,-0.37619804678404145,2.090526432712827,-0.024647932953858444,-0.015021489278009812,-0.0028899439037592513
416027000000,130,416027000000,BL_wheel_link,5.583353001401749,6.350000686165659,20.72720394050582,0.6356101234921566,-0.5866871682543497,0.006217880542635393
416028000000,131,416028000000,BL_wheel_link,0.007068081962405812,-0.22878421694725876,1.6162273222087147,-0.02061456779476013,-0.015091515289252523,-0.004037053739193688
416029000000,132,416029000000,BL_wheel_link,5.37497733552127,6.342596388632462,19.26825938358911,0.6428677574348036,-0.5646010836403694,0.006432997851304344
416030000000,133,416030000000,BL_wheel_link,0.01691493065769023,-0.18649244400095494,1.4876081871734153,-0.01640599665340496,-0.013332010912223026,-0.004044318026480176
416031000000,134,416031000000,BL_wheel_link,5.120933210468327,6.40361156628726,18.576483566623466,0.6547378017612547,-0.5357476878815292,0.0068680460588238365
416031000000,135,416032000000,BL_wheel_link,-0.1582300440258711,0.23033543913944127,0.2776585921699506,0.014909356365394547,-8.818340055135113e-05,-0.011806958708924908
416031000000,136,416033000000,BL_wheel_link,2.071136042561574,5.607758480839788,10.365470004103926,0.6102803760909938,-0.1943256468600197,0.008835014749271428
416031000000,137,416034000000,BL_wheel_link,-0.03739818716942226,-0.027110197617093754,0.8752108140577046,-0.004086582343918454,-0.0006507145346233876,-0.005467551890828492
416035000000,138,416035000000,BL_wheel_link,1.894306707791976,7.310464745533305,15.41166874643445,0.7792865582995624,-0.18774700011258616,0.004110110807126688
416036000000,139,416036000000,BL_wheel_link,-0.09904040166738616,-0.0716145126122787,1.1279366969737916,-0.0059707236108870465,0.004808103315414877,-0.004451852868219669
416037000000,140,416037000000,BL_wheel_link,2.561492086692298,6.256342733058391,16.478948998716135,0.6567264346704731,-0.25533637016027927,0.005812427469943876
416038000000,141,416038000000,BL_wheel_link,0.004876513862090495,0.08985408471456602,-0.1593704267821609,0.02153678040522244,0.013327613666672112,-0.005357701998549269
416039000000,142,416039000000,BL_wheel_link,0.0025802822061552974,-0.03564596728123296,-0.028005744569586988,-0.00030885269504678865,0.0016079442680491146,-0.0002244701862431678
416040000000,143,416040000000,BL_wheel_link,2.266190026543126,12.111521524362042,37.46236417499596,0.19737199851609394,-0.22593767724240532,0.048909602228963525
416040000000,144,416041000000,BL_wheel_link,2.428644835779616,5.139013367369989,5.034284462663109,0.4302792968540974,-0.24824591512874308,0.07016981001249176
416042000000,145,416042000000,BL_wheel_link,2.5042233580777924,4.104658353679197,5.459319977804719,0.27352952847720086,-0.25574440464449194,0.06758831731302575
416043000000,146,416043000000,BL_wheel_link,0.4401487475518062,3.20764775585588,18.87159350941347,-0.1731568875708792,-0.05105248485666898,0.015374658562667051
416044000000,147,416044000000,BL_wheel_link,0.008276870555081323,-0.0008593672210703372,-0.028001467074655607,0.0026772860026595775,-0.0004967623760491191,0.00036291688256440233
416045000000,148,416045000000,BL_wheel_link,2.9738838905495077,6.280589638884072,11.607978547422466,0.31065632615360567,-0.29085628370461947,0.07724873714536118
416046000000,149,416046000000,BL_wheel_link,-0.4788858942166924,1.6588040341460362,18.18395344439815,-0.30640406956835625,0.037056654834691866,-0.008530767273872836
416047000000,150,416047000000,BL_wheel_link,-0.040512280597913355,-0.07245308979042589,-0.06676364917859036,-0.0023329097505243182,0.0047822018108642835,-0.0011602143458619655
416048000000,151,416048000000,BL_wheel_link,2.0758569030085487,4.985994488297015,10.065761459180703,0.21771675379911104,-0.19789526168712357,0.05289131166951731
416049000000,152,416049000000,BL_wheel_link,1.4812271061137507,-2.783271061285491,10.853061241054073,-0.6028464709047391,-0.18133412318469438,0.040139500198029025
416049000000,153,416050000000,BL_wheel_link,-0.013966433277863233,-0.1475684229401665,-0.1377940653162083,-0.009640765138089548,0.0010203421534348122,-6.562866398942375e-05
416051000000,154,416051000000,BL_wheel_link,2.6368752146668415,1.4257076393569414,9.452099104321015,-0.1288011828413584,-0.27304568017636793,0.07215420746327908
416052000000,155,416052000000,BL_wheel_link,-0.09615851635807796,-0.3260414440434754,1.0520476088831097,-0.02704366992579489,0.011226151590448206,0.0058548717213986285
416053000000,156,416053000000,BL_wheel_link,3.5580547229672765,3.221016252142312,15.35361585636598,-0.13862460875267246,-0.3566065688362415,0.0911280088033804
416054000000,157,416054000000,BL_wheel_link,-0.05786208423978764,-0.30172795884041737,1.1982969775220358,-0.028612093817320126,0.002853031557531263,0.004700081148827435
416055000000,158,416055000000,BL_wheel_link,3.10394953725538,4.889203611731997,13.846038697720747,0.06545312059343718,-0.3098962362882044,0.07778875805531132
416056000000,159,416056000000,BL_wheel_link,-0.5546035028229506,-0.1638964770073522,13.13899112016486,-0.3892479105401297,0.031456764299144124,-0.015240376831127504
416057000000,160,416057000000,BL_wheel_link,-0.06729291128096133,-0.08421112332950825,-0.0613713736624249,-0.0042449498954601475,0.008181904905636585,-0.002205077204403403
416058000000,161,416058000000,BL_wheel_link,1.7370441971017065,4.885717287382482,9.964753303624457,0.2101883832939613,-0.16065085335033671,0.043706598871479006
416059000000,162,416059000000,BL_wheel_link,-0.18400151953327004,-1.2476860525369817,13.112680754454825,-0.500750359415502,-0.002470507156156848,-0.004761375062850725
416060000000,163,416060000000,BL_wheel_link,-0.070715010836684,-0.10661280466928844,-0.11235029320388173,-0.00702975536983891,0.007812154815430238,-0.001989154239337828
416061000000,164,416061000000,BL_wheel_link,2.2991884188850653,2.474956614022143,10.202019077703447,-0.036564691410342715,-0.2262084244944907,0.06099064740827032
416062000000,165,416062000000,BL_wheel_link,-0.12737936462723168,-0.3125729001720765,1.2195487243172765,-0.027728398812811524,0.012557019275400972,0.0038066145795772463
416063000000,166,416063000000,BL_wheel_link,2.7414157636995142,5.777983691314759,15.30655922312449,0.11919726416624919,-0.2628484436381494,0.0676607447307319
416064000000,167,416064000000,BL_wheel_link,-0.67992926559923,0.39164429804794365,16.269479598192586,-0.39622444983440563,0.05333029055010974,-0.015516311134186268
416065000000,168,416065000000,BL_wheel_link,-0.07171430120543275,-0.1157535026320074,-0.06646564566381177,-0.007169398475941481,0.008314249081597372,-0.0023009196240010715
416066000000,169,416066000000,BL_wheel_link,1.614421086772026,4.439666294908879,9.489855264503618,0.17581181765975326,-0.1499612884823393,0.04045827243223549
416067000000,170,416067000000,BL_wheel_link,-0.8892030878180761,-0.2717682704041478,14.433058059288989,-0.4373171172459209,0.07002651700362,-0.024870521519952695
416068000000,171,416068000000,BL_wheel_link,-0.09861135911773913,-0.09992925263427521,-0.09349668638574758,-0.005613176860271952,0.011116534882253786,-0.0029660617752698287
416069000000,172,416069000000,BL_wheel_link,-0.023670982784302685,3.074122906517852,17.056837677043973,-0.16342422813021787,0.013867679822363699,-0.0013023109498443972
416069000000,173,416070000000,BL_wheel_link,0.5678438516250085,-0.6380623702770873,1.1155632944680702,-0.09981086847463606,-0.06092827538665106,0.01436640371481418
416071000000,174,416071000000,BL_wheel_link,-0.11714320186163539,-0.2431163924812053,0.737623463294026,-0.023470995364629373,0.01559426317377339,0.0008786421746181797
416072000000,175,416072000000,BL_wheel_link,3.553695897664258,3.7403994452053446,16.90167482494409,-0.10713280532872264,-0.348851544831519,0.09416680396090897
416073000000,176,416073000000,BL_wheel_link,-0.42960050857959897,-1.3556620822667456,12.94812547875561,-0.5019657789402825,0.019553056913368727,-0.00986781862357146
416074000000,177,416074000000,BL_wheel_link,-0.05285300538011167,-0.13690617248132692,-0.07461225187080009,-0.010373721706577365,0.006025984922476144,-0.0016780371302059735
416075000000,178,416075000000,BL_wheel_link,1.7878070854538204,4.238576875522115,9.349462519721232,0.15603963290720832,-0.17116588666688376,0.04520645580751533
416076000000,179,416076000000,BL_wheel_link,-1.4121457422986992,0.8514478087260647,18.449166500812233,-0.4047721823007141,0.1358394757601947,-0.03624568428421316
416077000000,180,416077000000,BL_wheel_link,-0.0893136019392494,-0.1417335571678909,-0.09393079088205167,-0.009791475196843006,0.010112260848005148,-0.0026716607326234014
416078000000,181,416078000000,BL_wheel_link,1.494196377330624,4.368190341519977,9.513983322258103,0.16670882932534084,-0.13715206348458883,0.0372240917617671
416079000000,182,416079000000,BL_wheel_link,-1.648603320573271,0.7160469224778583,18.279009198711663,-0.4129537127759251,0.16105979111911714,-0.04272378047987387
416080000000,183,416080000000,BL_wheel_link,-0.09783592701573103,-0.1511951344754106,-0.0950663648940315,-0.010589268069935551,0.011022836020529359,-0.002900296592211914
416081000000,184,416081000000,BL_wheel_link,1.3987572190585251,4.251795329911124,9.396263456713374,0.15782830151262794,-0.12718868483602574,0.03465369643965236
416082000000,185,416082000000,BL_wheel_link,-0.5904309786164628,-1.3328458449999023,13.166906584904815,-0.5135680865176431,0.03729187654210514,-0.016347267923822982
416083000000,186,416083000000,BL_wheel_link,-0.1221541480931072,-0.011038206977538025,-0.3163301408946344,-0.008430945193013992,0.007282125685193914,-0.004738330986693755
416084000000,187,416084000000,BL_wheel_link,-0.4173370395792446,2.8507382598269326,15.367764570652923,-0.12945083826766365,0.054964903333404765,-0.010633202076610322
416085000000,188,416085000000,BL_wheel_link,-0.052726023087310114,1.2721691846279453,1.969763240043875,0.07433910072221067,0.014236905423648801,-0.0014758417609992097
416086000000,189,416086000000,BL_wheel_link,-0.19217995219001976,-0.02807883827704849,0.4682542997859688,-0.025612445744463908,0.009556637902835586,-0.004919237041093014
416087000000,190,416087000000,BL_wheel_link,2.536605317222184,6.632066260287994,14.26816946249443,0.2542488878887422,-0.23879982473963637,0.06380021801102012
416088000000,191,416088000000,BL_wheel_link,-0.5404285088079619,1.2509188391725803,15.700858946036401,-0.28208213599514975,0.04227141256855595,-0.009542018154514212
416089000000,192,416089000000,BL_wheel_link,-0.055226792144849685,-0.08134300400728614,-0.03426713970184046,-0.005059348665318799,0.006515604956362605,-0.0016338714116122127
416090000000,193,416090000000,BL_wheel_link,2.2732239790766458,5.68996322009778,10.901273969242386,0.2689332332156099,-0.21730461412150345,0.05852995429721376
416091000000,194,416091000000,BL_wheel_link,-0.04358951641564862,-0.04550111340473706,14.242167392815064,-0.4008769439358379,-0.02100569321314466,-4.480647961652151e-05
416092000000,195,416092000000,BL_wheel_link,-0.08197273980554508,-0.030155284657989993,-0.2064003785557348,-0.005528257481380417,0.0051899785713958,-0.0031168542352079907
416093000000,196,416093000000,BL_wheel_link,-0.020189179359137555,3.863182782652894,17.025829905805995,-0.07227528900596758,0.012309620703959613,-0.0003468415554886903
416094000000,197,416094000000,BL_wheel_link,0.6017870734778968,1.4391161909291301,1.966969606566092,0.0949693763148395,-0.05855837029616093,0.016103840510173575
416095000000,198,416095000000,BL_wheel_link,-0.20455406162436968,0.006961516230280171,0.5272386135912999,-0.02294892465492041,0.009502016293223434,-0.005216445546734883
416096000000,199,416096000000,BL_wheel_link,2.635068525199624,7.237724648314712,14.806531876308476,0.30614240184017716,-0.24665193865333465,0.0666664556682213
416097000000,200,416097000000,BL_wheel_link,-0.36209830956470146,1.5662380352313938,15.710093327174617,-0.24833746273155088,0.02320676700261319,-0.00484007006243566
416098000000,201,416098000000,BL_wheel_link,-0.05248823052230318,-0.06958379983402858,-0.013020540459023129,-0.004395303803742911,0.006392466024477717,-0.0015699092183931664
416099000000,202,416099000000,BL_wheel_link,2.4002818737237956,6.106920019922153,11.36937917937647,0.30084259688753784,-0.22939833834237958,0.06207075065323824
416100000000,203,416100000000,BL_wheel_link,0.025479409449741974,0.12380048812036326,14.156786836819737,-0.3804674915131343,-0.028745183542807612,0.0015668204860457384
416101000000,204,416101000000,BL_wheel_link,-0.06249892580237253,-0.09620586688150637,-0.07548650100729973,-0.005508908439490713,0.006940953094170537,-0.0017994581443594748
416102000000,205,416102000000,BL_wheel_link,0.2677491565058754,4.379608302749587,18.89237874080509,-0.07312288151316954,-0.018544331025614962,0.006894450170683816
416103000000,206,416103000000,BL_wheel_link,-0.0036808928596065334,0.04032848524033175,0.002287103513963531,0.0038738479116527834,0.000734739254575893,-0.00011924841123353879
416104000000,207,416104000000,BL_wheel_link,-1.509875281684773,1.4645763915318848,17.532971533788896,-0.33873796166283204,0.15077528577263877,-0.04068785274518203
416105000000,208,416105000000,BL_wheel_link,-0.05665219501323771,-0.030532057300171375,-0.10992723358174017,-0.004327510838187217,0.005871734657815907,-0.002822313788811123
416106000000,209,416106000000,BL_wheel_link,1.4221316270552609,3.915997148835898,7.419085400649742,0.18825608016651857,-0.13432923075655345,0.03659771994811676
416107000000,210,416107000000,BL_wheel_link,-0.6683414050703953,0.7043111418490863,15.53824472827213,-0.35550274953446237,0.05234123523837331,-0.015421815764957105
416108000000,211,416108000000,BL_wheel_link,-0.11222381346337384,-0.01886254636131074,-0.1998522960637867,-0.004950451885005227,0.007488757714417822,-0.0032963997112746843
416109000000,212,416109000000,BL_wheel_link,1.6788673745813028,5.174159809566008,9.364149753185094,0.26513431724631914,-0.1550564449697141,0.043251275865069994
416110000000,213,416110000000,BL_wheel_link,-0.8410130859133893,-0.6809162323310157,6.562546191237683,-0.24481060101079308,0.09057992727977698,-0.01962851685631569
416111000000,214,416111000000,BL_wheel_link,-0.030689645858576173,-0.08824350903516451,-0.02390784801648237,-0.006815371144602043,0.0037915038578832322,-0.0009487737275237027
416112000000,215,416112000000,BL_wheel_link,0.2975005608889172,5.35840456342219,21.254112756742657,-0.031952719659655994,-0.02375718460686989,0.006444625831116687
416113000000,216,416113000000,BL_wheel_link,0.05103165902426389,0.017970898183395468,0.03818807054120705,2.9954755002256465e-05,-0.005568862773656201,0.0014070254744063832
416114000000,217,416114000000,BL_wheel_link,-1.5354213240223793,1.566115324312801,15.680565770383371,-0.259660751899987,0.1664762144837366,-0.04137747485610796
416115000000,218,416115000000,BL_wheel_link,0.009328491579311829,-0.03478037382164166,-0.15614602930559243,-0.0036850106931851584,0.0019983339895188,0.000538398348007467
416116000000,219,416116000000,BL_wheel_link,0.20633535790883673,3.901390821705439,18.561373917699576,-0.11027533183601973,-0.02287596976350712,0.003295368605535209
416116000000,220,416117000000,BL_wheel_link,0.009939408847552584,0.010242605771426517,0.03216081789476115,-0.0006087870194274445,-0.0009199352380796113,0.00018292297389959906
416116000000,221,416118000000,BL_wheel_link,1.3786028548465232,-0.4445700499694407,14.038161832419929,-0.4522460233578666,-0.15909073204331464,0.03647838129342777
416119000000,222,416119000000,BL_wheel_link,0.00178943664272483,-0.060920482920032784,-0.04116556690084857,-0.005016128475516841,-0.00035309245611503653,0.00032099412443373584
416120000000,223,416120000000,BL_wheel_link,0.2256124002805837,3.1175715372056625,18.09366915929491,-0.17893873938237473,-0.024158749606609714,0.009415051976756203
416121000000,224,416121000000,BL_wheel_link,0.013711915368250008,-0.049015494714372804,-0.017209084854550884,-0.005565620421996492,-0.0009718609551127274,-0.0004803741330650265
416122000000,225,416122000000,BL_wheel_link,-0.32229617548351647,2.162525923461637,14.423639348992827,-0.1754164911782044,0.033780588581169835,-0.0075023722355197255
416123000000,226,416123000000,BL_wheel_link,-0.016982129020972375,-0.02281692351306227,0.007885098531004147,-0.002632677711273229,0.002053262860759471,-0.0004901654577446808
416124000000,227,416124000000,BL_wheel_link,-0.1077265922672912,2.7749202406207343,16.043941611008584,-0.15843509428639313,0.01322431916074164,-0.0032828932989076636
416125000000,228,416125000000,BL_wheel_link,0.004234967457831729,-0.008283641775443558,-0.2869786397033234,-0.0020579130013861787,-0.00010641001986872931,0.0005160852962402656
416126000000,229,416126000000,BL_wheel_link,-0.02291695801349948,-0.05683399067284299,0.30492125031036216,-0.009658794490706604,0.007773383418598715,-0.0001788798606528105
416127000000,230,416127000000,BL_wheel_link,1.2138790521975433,2.4738913640083497,7.267364762969599,0.040318023200252726,-0.1261196978909171,0.031606054876591023
416128000000,231,416128000000,BL_wheel_link,0.03661414993196994,-0.02158931492182473,-0.02619316029241223,-0.0006193234317038512,-0.005439031493662057,0.0017076946976894017
416129000000,232,416129000000,BL_wheel_link,-0.07777737343264213,-0.12021951038609474,-0.6413901288855212,-0.00957927080702279,0.007596180993597955,-0.004130621067066194
416130000000,233,416130000000,BL_wheel_link,0.005693127838694821,0.047880487584935794,-0.07656015082499773,0.0017669582664143302,-3.0156813332589795e-05,-1.4371266516247123e-05
416131000000,234,416131000000,BL_wheel_link,0.37580856515569705,2.726103034888806,12.00493206914878,-0.05568665118762524,-0.0352390559207027,0.010323936287860092
416132000000,235,416132000000,BL_wheel_link,0.008205886789914985,-0.04339122820125124,-0.29147911514591585,-0.0021996013456291926,-0.00332992901628434,0.0009687918816612473
416133000000,236,416133000000,BL_wheel_link,-0.0270683661170436,-0.05940501012362494,0.33360736020976767,-0.010165698789042197,0.009073958182072746,-2.495357924525517e-06
416133000000,237,416134000000,BL_wheel_link,1.2063956936966989,1.8496863741467804,5.842396934895313,0.007503013816941254,-0.12850511062135977,0.030175516738322056
416135000000,238,416135000000,BL_wheel_link,0.004518609105208446,-0.05912312825869269,-0.11477651331398253,-0.0038980342273544494,-0.006634232746759903,0.0024574232426658035
416136000000,239,416136000000,BL_wheel_link,-0.15052824860604713,0.03823833568368131,-0.1024391092705281,0.0008713039005039027,0.018927437136582462,-0.004927614839365501
416137000000,240,416137000000,BL_wheel_link,1.7653004447729082,0.3381091869457137,5.150058126361694,-0.12319552955258745,-0.18185763750262407,0.04527973721355291
416138000000,241,416138000000,BL_wheel_link,0.05041024790052638,-0.04886334875487473,-0.0044523191274371075,-0.0052540916632500155,-0.006328666763120884,0.0015399931472932756
416139000000,242,416139000000,BL_wheel_link,-0.8953553768621605,0.419037974754519,2.238838069977467,-0.031307964802909254,0.09497156529359045,-0.024219453471128263
416140000000,243,416140000000,BL_wheel_link,-0.5473675836285177,0.6782312218670457,4.890359981880213,-0.06533402133658871,0.061531344141029606,-0.015973796458892943
416141000000,244,416141000000,BL_wheel_link,0.07588234073071846,-0.19578418010317392,-0.11449680205384871,-0.01591786352332464,-0.008024773234650145,0.0009708478967358624
416143000000,245,416142000000,BL_wheel_link,-1.0485781944521009,4.587683417889613,14.292558153248438,0.07392176304198723,0.11002039365310573,-0.02816411212267578
416143000000,246,416143000000,BL_wheel_link,-0.0075111818857341445,-0.07431214301081467,-0.1153467151113101,-0.007904152690904302,-0.002878671451624421,0.00045567803018027803
416144000000,247,416144000000,BL_wheel_link,-0.30558117200759116,2.600133453246888,2.4589003075373133,0.19283218977481814,0.03303438738324008,-0.007184020665632756
416145000000,248,416145000000,BL_wheel_link,0.12264882162923851,-0.22012488576745035,0.13753898591987923,-0.028267818325842665,0.0013248177962790417,0.00445862445606581
416146000000,249,416146000000,BL_wheel_link,0.12348397832730917,5.628970380210581,8.313130304031535,0.32475071333306693,-0.01857700841016205,0.0031298528497028383
416147000000,250,416147000000,BL_wheel_link,0.027520622541551645,-0.11632909886472192,0.3091865594023067,-0.01798319805933758,-0.0032054073793593863,0.00017503727233550534
416148000000,251,416148000000,BL_wheel_link,0.08894835979879234,3.982806044086858,5.639498452174604,0.23726684567258005,-0.013027970209146048,0.002588908956964236
416148000000,252,416149000000,BL_wheel_link,-0.013451336104824498,-0.0911664987780239,0.2845976442490049,-0.0192020370383605,-0.0004659089910246314,-0.0006363412924951264
416150000000,253,416150000000,BL_wheel_link,0.28812340235731915,5.898150198173747,8.604763797465955,0.35396765878772085,-0.030443903762087915,0.0073943739951263035
416151000000,254,416151000000,BL_wheel_link,-0.05963236756594181,-0.044521208893844554,0.47492463872174884,-0.017036005030145115,0.0016021725048765076,-0.0015542450772941317
416152000000,255,416152000000,BL_wheel_link,0.49015523905063496,5.544945582300217,8.822839643031372,0.3127243175774741,-0.04843970564607766,0.012342424429997457
416153000000,256,416153000000,BL_wheel_link,-0.04285597800493232,-0.1238274164601021,0.5319729725298497,-0.019674492874016847,0.0010296976587027534,0.00027607318793485187
416154000000,257,416154000000,BL_wheel_link,0.012391615399290679,5.362036023392481,13.17657739586738,0.17657017916430048,0.0022252972440052615,-0.00041706037538679925
416155000000,258,416155000000,BL_wheel_link,0.017470049632947283,0.06624974188312015,0.025249399176432666,0.006510242023091643,-0.0019173703169769333,0.00048782752904089055
416156000000,259,416156000000,BL_wheel_link,-0.39019611483292765,-0.6208817821860124,6.859051744683012,-0.25969163123057515,0.03849608383923084,-0.010882422666147553
416157000000,260,416157000000,BL_wheel_link,0.008921171280742211,-0.016319937152459045,-0.31240586595778885,0.0026387273826402762,0.003921211584105662,0.0005850158030448123
416158000000,261,416158000000,BL_wheel_link,1.8711457344149431,1.1744284181204587,12.324470706994099,-0.21988986908822475,-0.1957281556422898,0.0523709725047616
416159000000,262,416159000000,BL_wheel_link,0.019378647180734586,-0.02620192643783767,-0.0014826777312922678,-0.002024956141564937,-0.0028847170641070467,0.0005574268868877919
416160000000,263,416160000000,BL_wheel_link,-0.6167122982537678,1.7568077788021927,5.807246042412784,0.017461594910513863,0.0654922324490604,-0.01754906912808263
416161000000,264,416161000000,BL_wheel_link,-0.27178905335017034,0.7515316892353727,4.035372638874601,-0.03274996774496497,0.03025712666874245,-0.008094817638054135
416162000000,265,416162000000,BL_wheel_link,0.01960921829021009,-0.0755469333018258,-0.21597022538271654,-0.010646223647917919,-0.007529572537948994,1.492287460147458e-05
416163000000,266,416163000000,BL_wheel_link,-1.3765086095027406,4.941331906572225,14.562094796115138,0.11649746135953068,0.14608946801769385,-0.03687361640298413
416164000000,267,416164000000,BL_wheel_link,0.05949528415192091,-0.08654216441540434,-0.32379466604430623,-0.0033435654924042863,-5.934049683395393e-06,0.0013141265393041234
416165000000,268,416165000000,BL_wheel_link,-0.0008065979293123339,0.0033909498839531406,-0.004283046064428634,0.00014539952572143307,-0.000174613676111762,2.8504480968571757e-05
416166000000,269,416166000000,BL_wheel_link,0.07673938041251356,0.5826539245869857,5.367556646078587,-0.09838346055150243,-0.01030968482074772,0.002319589326630875
416167000000,270,416167000000,BL_wheel_link,-0.005560811137354127,-0.42706187777022747,0.5787435239021343,-0.06402506878569364,-0.0003125513216276632,0.00016467480219377372
416168000000,271,416168000000,BL_wheel_link,0.0009634457050808273,-0.08568202230739103,-0.2507371757284893,-0.012692657162872236,-0.008061680067287363,0.000275396225920854
416169000000,272,416169000000,BL_wheel_link,-1.509092974575734,4.6056691713376665,12.554920059140748,0.13057585746155423,0.15755192276623006,-0.042070300967860914
416170000000,273,416170000000,BL_wheel_link,-0.032594880680054,-0.07436813137649181,-0.16734663716346565,-0.007353314255841644,-0.0006529948440945903,-0.0002449342023877858
416171000000,274,416171000000,BL_wheel_link,-0.610988323094005,3.1586129309638906,2.5745404660865603,0.2526417618267745,0.06836036433964676,-0.015384418250347726
416172000000,275,416172000000,BL_wheel_link,0.058899099128734145,-0.22816781391987812,0.20561415652032852,-0.026608038651257784,-0.000526183271983581,0.0020815210626022023
416173000000,276,416173000000,BL_wheel_link,-0.37829905968655764,5.760674451564764,7.027505735001231,0.38174142735239214,0.03883304128866222,-0.009405966294381181
416174000000,277,416174000000,BL_wheel_link,0.10719810870837003,-0.196949931456051,0.1894796228707808,-0.01785345854949035,-0.004454040652566638,0.0033983642999445476
416175000000,278,416175000000,BL_wheel_link,-1.143890627204064,2.600085599221395,1.1151731694927232,0.22567443984603378,0.11490784233183325,-0.029070729619479378
416176000000,279,416176000000,BL_wheel_link,0.18462790587118516,-0.2779697444984051,-0.17163807686920746,-0.021481593932538734,-0.007204789240010808,0.004168163416537661
416177000000,280,416177000000,BL_wheel_link,-0.9667948375497961,3.392440992966125,2.4165987691091138,0.26922293954302734,0.08671591929708361,-0.02506798872656766
416178000000,281,416178000000,BL_wheel_link,0.1850444420919264,-0.27987292011314424,-0.14181131514385126,-0.020576064958750216,-0.006873362764112739,0.004582138256875226
416179000000,282,416179000000,BL_wheel_link,-1.511432079873156,2.3984735861940916,0.20108822673877277,0.2277430155463345,0.14673647516882388,-0.0387733034881474
416180000000,283,416180000000,BL_wheel_link,0.16892439442461132,-0.38319143123930166,-0.15499168521568424,-0.03205795966292882,-0.006284751630657542,0.0029333260306037864
416181000000,284,416181000000,BL_wheel_link,-1.0457311078793488,3.7224658231866687,2.708140626680828,0.28524540475595395,0.09685815568760632,-0.028299652825306727
416182000000,285,416182000000,BL_wheel_link,0.17391559313569258,-0.2708452198842748,-0.104561987323846,-0.02076461497792404,-0.007460079789033953,0.003963017244585218
416183000000,286,416183000000,BL_wheel_link,-1.3525723637897258,2.7988451460264288,0.9000040240304226,0.24619298342590912,0.1283713571224428,-0.03676541603100301
416184000000,287,416184000000,BL_wheel_link,0.1891964644389404,-0.3008153574189415,-0.17260864631256004,-0.022518940722744237,-0.008880048078085656,0.00395538719718872
416185000000,288,416185000000,BL_wheel_link,-1.0039591354921023,3.2221670130817683,1.9109572656350844,0.25793879358079763,0.09101565292039357,-0.02709534245926784
416186000000,289,416186000000,BL_wheel_link,0.1692124817867801,-0.3011975367825789,-0.12680395967346253,-0.02221585558326801,-0.007923470636307665,0.003929236744092655
416187000000,290,416187000000,BL_wheel_link,-1.2755907922690963,2.6819590038797134,0.9544102248381787,0.23162185402889815,0.1207724210616473,-0.03486082237682884
416188000000,291,416188000000,BL_wheel_link,0.18325844716591308,-0.3069029752555894,-0.16478305250496283,-0.023581206713026,-0.009250689178840556,0.004121914945689997
416189000000,292,416189000000,BL_wheel_link,-1.1008304377202116,2.705044680325971,1.0732260578705781,0.22986193384851905,0.1026321339517138,-0.030029446883351817
416190000000,293,416190000000,BL_wheel_link,0.19183257617581045,-0.30592978425512035,-0.1676431451302131,-0.023752073262368605,-0.010310580823894296,0.004299534955323068
416191000000,294,416191000000,BL_wheel_link,-1.02132006127778,2.574258959569293,0.804630274421544,0.2247537257122409,0.09504993070013473,-0.027811707008312123
416192000000,295,416192000000,BL_wheel_link,0.1955283102055268,-0.3066415000193942,-0.17350588122390104,-0.024188019848906166,-0.01079787449918511,0.004377959553910328
416193000000,296,416193000000,BL_wheel_link,-0.9960677124859798,2.41035622468799,0.5286816375426215,0.21644573974322176,0.09342164711002682,-0.0271876190809302
416194000000,297,416194000000,BL_wheel_link,0.20567656440056276,-0.31440468047521974,-0.19555344888444984,-0.02449687887310019,-0.011514813070861128,0.00471657536095752
416195000000,298,416195000000,BL_wheel_link,-0.9815502868971753,2.221485969115735,0.18816688804314305,0.20719310781465183,0.09193107832218855,-0.026807573167859356
416196000000,299,416196000000,BL_wheel_link,0.21512124783972789,-0.3236263278874459,-0.21732575668078372,-0.024915444334111032,-0.01213138420744254,0.005013181139022074
416197000000,300,416197000000,BL_wheel_link,-1.0089998419777664,1.742471343224088,-0.11508207148648004,0.1644004749367014,0.09293145013084458,-0.02783269033234126
416198000000,301,416198000000,BL_wheel_link,0.2269051102118339,-0.33778801005719,-0.22477988889654532,-0.024577762873946606,-0.012307804814461663,0.0055892398728577
416199000000,302,416199000000,BL_wheel_link,-0.9709771014522963,1.4974055221203004,-0.12365086085775481,0.1369343635884858,0.08652186375867099,-0.026906130195458847
416200000000,303,416200000000,BL_wheel_link,0.2490274953611798,-0.3600290887010015,-0.24335462477733255,-0.023228036719758184,-0.012569654182212099,0.006605043717152369
416201000000,304,416201000000,BL_wheel_link,-0.9866041087903858,1.8594630161098815,-0.14852271534011383,0.17848287990845652,0.08996702258724151,-0.02726292326679312
416202000000,305,416202000000,BL_wheel_link,0.22849310508088505,-0.4043269170749608,-0.20398166612801807,-0.02913165194382865,-0.014255722108189109,0.005884913280217991
416203000000,306,416203000000,BL_wheel_link,-0.2860488501074242,0.0045500244767029685,-1.5377413931244384,0.021285598490462306,0.012432834382510177,-0.006490895271778655
416204000000,307,416204000000,BL_wheel_link,0.004565002954945866,-0.004420517718181498,0.0023315823109440067,-0.0001363654300909895,-0.00012999886418197548,1.0980424667930863e-05
416205000000,308,416205000000,BL_wheel_link,0.1338001486470814,-0.26028939445517285,-0.2348608672119739,-0.02355989813938712,-0.017268489692040336,0.0027135170496237282
416206000000,309,416206000000,BL_wheel_link,-0.2723980448770655,-0.08081192342353324,-1.8767316428153202,0.025080587481384774,0.01503229919548707,-0.005504470228184834
416207000000,310,416207000000,BL_wheel_link,0.007267590532245346,-0.007056287002674664,0.005934537600760783,-0.0002012343637496244,-0.00011700610342108486,0.00010479124637484212
416208000000,311,416208000000,BL_wheel_link,0.1426735196526672,-0.28028819876279604,-0.17033650540413944,-0.023403876082298717,-0.01624693955273175,0.003138056932165962
416209000000,312,416209000000,BL_wheel_link,-0.23390821019761554,-0.1215954967561042,-1.8812158530085892,0.024723942645942618,0.01485289104542631,-0.004548319582047166
416210000000,313,416210000000,BL_wheel_link,0.008995513541579892,-0.008131715761628683,0.005429090122977362,-0.0002004895997120433,-0.00012828719107694614,0.00015359090252026466
416211000000,314,416211000000,BL_wheel_link,0.15013160092424585,-0.29030993795054166,-0.14779983922747572,-0.02360370444335883,-0.01613991215568262,0.0033031490621210093
416212000000,315,416212000000,BL_wheel_link,-0.21191026081863673,-0.024871634613058413,-1.8135028854808546,0.024228962314220136,0.015574695997480598,-0.007073849406336604
416213000000,316,416213000000,BL_wheel_link,0.010737518792739091,-0.012217402912000892,0.0045102622030441675,-0.00029623651553957063,-0.00024841031626504634,0.0001665952043930245
416214000000,317,416214000000,BL_wheel_link,0.10910216576068157,-0.24483111289522824,0.05283853216114153,-0.028521213993166934,-0.004900290539666827,0.0035678232925538092
416215000000,318,416215000000,BL_wheel_link,-0.0647101134607233,-0.06439746083120139,-1.8352248132607167,0.02487241315639184,0.00895159579587457,-0.0030432515997158406
416216000000,319,416216000000,BL_wheel_link,0.011145892048350193,-0.008807265353495157,0.0010698222070787018,-0.00018108035935090916,-0.0002167727198478197,0.0001556226980294222
416217000000,320,416217000000,BL_wheel_link,0.16654183417855054,-0.2957268564516163,-0.15257645065555325,-0.024204919125910423,-0.017045104600986502,0.003209591978143368
416218000000,321,416218000000,BL_wheel_link,-0.20025066926534335,-0.15759821677424235,-1.9560039589564924,0.026020694887643126,0.015221862692082967,-0.003993205949487823
416219000000,322,416219000000,BL_wheel_link,0.01162509806488688,-0.009473397164676564,0.004615092992601267,-0.00019964962386748186,-0.00015730108906996773,0.00021452908135725484
416220000000,323,416220000000,BL_wheel_link,0.15859399458009413,-0.29966035609481123,-0.1111448182581577,-0.023584229835996298,-0.0157771959200265,0.003536380053920621
416221000000,324,416221000000,BL_wheel_link,-0.18449797353605685,-0.1802045400741712,-1.9196731079427893,0.02493210968672972,0.014842351847249361,-0.0034478379488036225
416222000000,325,416222000000,BL_wheel_link,0.011401359253255944,-0.008979282911826524,0.003609219149337764,-0.00016365543652680403,-0.00014056656752434749,0.00022393269744390304
416223000000,326,416223000000,BL_wheel_link,0.15683199712796853,-0.3004861039568133,-0.11011960286279877,-0.023707997631477573,-0.01577529678115649,0.0036265112480804765
416225000000,327,416224000000,BL_wheel_link,-0.18435409591936092,-0.040533054012046654,-1.749201504547104,0.02269911197901025,0.016927413853196353,-0.006914202295158865
416225000000,328,416225000000,BL_wheel_link,-0.009428502243717517,-0.032070508037536714,0.16736173729996234,-0.005039068160997238,0.002582030800558322,-0.0006435337945181413
416226000000,329,416226000000,BL_wheel_link,0.1410680108274891,-0.24062750438618108,-0.1642169373176639,-0.01994188294096755,-0.013149080414001936,0.0038350940853472846
416227000000,330,416227000000,BL_wheel_link,-0.09308766767969884,-0.1963426142283735,-1.931654209582446,0.023755217893089507,0.011737978728957772,-0.0018044685581959609
416228000000,331,416228000000,BL_wheel_link,0.012795707935438607,-0.008007111685287746,-0.0017848739197067194,-5.265190582861987e-05,-0.00016205350774891187,0.00026343971913892806
416229000000,332,416229000000,BL_wheel_link,0.15404919840378423,-0.293776935552269,-0.12869711351288377,-0.02385310406158095,-0.01617079113063026,0.0035773175502299007
416230000000,333,416230000000,BL_wheel_link,-0.17159884221069768,-0.1881189976575015,-1.939838316867308,0.02544584891297867,0.014819740362927656,-0.0029571380209676636
416231000000,334,416231000000,BL_wheel_link,0.011850888919315452,-0.008087968414009163,0.0007273421990758171,-9.160522828939553e-05,-0.00013645371242046757,0.0002498479840096076
416232000000,335,416232000000,BL_wheel_link,0.15117601364089744,-0.2951790885809419,-0.11197901740055285,-0.02363813644097111,-0.015697711763859257,0.003722981709722238
416233000000,336,416233000000,BL_wheel_link,-0.1778713754909147,-0.19536890860477463,-1.9197461192926446,0.02489300895044445,0.01478797581716794,-0.003200641463159165
416234000000,337,416234000000,BL_wheel_link,0.011408342535532991,-0.00792179268985571,0.0010683258357245913,-9.945233499742876e-05,-0.00013418512232887282,0.0002387522910004464
416235000000,338,416235000000,BL_wheel_link,0.15045528088377125,-0.2940862865272022,-0.11101659716710154,-0.023617018935603078,-0.01567700062293695,0.003756412281651184
416236000000,339,416236000000,BL_wheel_link,-0.18115271193915436,-0.04754670568222111,-1.7197396024171883,0.02205475364477127,0.0172496976605198,-0.007071668474299174
416237000000,340,416237000000,BL_wheel_link,0.01489512351973274,-0.009982936894875748,-0.0055046655160625145,-6.847062523980908e-05,-0.0002659810419115813,0.00028666263649709963
416238000000,341,416238000000,BL_wheel_link,0.17425970917786687,-0.26913013024640714,-0.04803598033963305,-0.02604459570313728,-0.0068769986451671875,0.006066326043774773
416239000000,342,416239000000,BL_wheel_link,-0.07787799692323542,-0.11659968258193805,-1.8340218758058255,0.024117204836668123,0.00943279103078773,-0.00341256124369554
416240000000,343,416240000000,BL_wheel_link,0.010087270728722354,-0.007917364536445575,0.0007885000494196834,-0.0001478762663654157,-0.00018161351706260355,0.00015169470350154035
416241000000,344,416241000000,BL_wheel_link,0.15893404193096453,-0.2898971717931357,-0.12864737399128973,-0.023867674920946404,-0.016461853543334046,0.0035828674322075024
416242000000,345,416242000000,BL_wheel_link,-0.1998313495098648,-0.20239115351304277,-1.9331059437263907,0.025140922937826618,0.015188609976456983,-0.00445840431732601
416243000000,346,416243000000,BL_wheel_link,0.011294410472319364,-0.008191142056280663,0.002625004639348019,-0.00015216278388190756,-0.00015597573691784503,0.0002117672383890563
416244000000,347,416244000000,BL_wheel_link,0.1509927903980383,-0.2880968308483918,-0.10014328409397683,-0.023157338107732975,-0.015400954961604981,0.00375790830961405
416245000000,348,416245000000,BL_wheel_link,-0.17984206439921863,-0.22332705070272563,-1.9030100795794505,0.02417996343111614,0.014725700479997656,-0.0038336197087136684
416246000000,349,416246000000,BL_wheel_link,0.011475829006439085,-0.008019786296250143,0.0015548363795126199,-0.00011974967096710178,-0.00014679429696948238,0.0002287040163141038
416247000000,350,416247000000,BL_wheel_link,0.14932392129157923,-0.2883263919069416,-0.1007245949071304,-0.023274948837634965,-0.015429482437688356,0.0038328450631740754
416248000000,351,416248000000,BL_wheel_link,-0.1776715503735985,-0.22844740953486287,-1.90326147319366,0.024217237551570243,0.01479110940793837,-0.0037028094140218503
416249000000,352,416249000000,BL_wheel_link,0.011555775797178355,-0.00775279674065619,0.0007673388226415654,-9.980495331355418e-05,-0.00014654442855169852,0.0002350987080660538
416250000000,353,416250000000,BL_wheel_link,0.1472037671501435,-0.285433273499036,-0.103375134417571,-0.023211909645962734,-0.015419087448099209,0.0038426193878885345
