%time,field.header.seq,field.header.stamp,field.header.frame_id,field.wrench.force.x,field.wrench.force.y,field.wrench.force.z,field.wrench.torque.x,field.wrench.torque.y,field.wrench.torque.z
415903000000,0,415898000000,FL_wheel_link,-0.044954721248823284,0.042409852389357225,-0.02868426940575866,0.0017260000971979202,0.005262673062910677,0.001406280895658148
415903000000,1,415899000000,FL_wheel_link,2.6302871395204384,-6.562808863512098,11.732141215457851,-0.34089478853348226,-0.2504265740897905,-0.06777033757451222
415903000000,2,415900000000,FL_wheel_link,-0.5545977212829057,-2.3998401322475758,18.665223782340398,0.23050141052214934,0.04095667808088359,0.013097552913931068
415903000000,3,415901000000,FL_wheel_link,-0.007249630335241945,0.04824020378629468,0.042989903853583394,0.006307640254835246,0.0020690323042482,0.0005526437666435874
415903000000,4,415902000000,FL_wheel_link,3.1026101952875815,-6.697908794001808,12.447620401273458,-0.3291626121244325,-0.3025257222942667,-0.08018424740648596
415903000000,5,415903000000,FL_wheel_link,-0.642601621604093,-2.4784196458879935,16.447786349561923,0.15821363816530654,0.061813580565817074,0.014826953958253758
415904000000,6,415904000000,FL_wheel_link,0.01603960632185302,0.06330601416028407,0.020834393186772292,0.005365113007154495,-0.0012986859859873581,-0.00013162862838863828
415905000000,7,415905000000,FL_wheel_link,1.4522877402554606,-6.906124027379565,12.761519782986525,-0.34321997571651947,-0.15515083149194092,-0.03561035119587476
415906000000,8,415906000000,FL_wheel_link,-1.1288165252233116,-2.2786216835743405,17.200488499606088,0.20738168283128636,0.11078374487449422,0.028396656677627752
415907000000,9,415907000000,FL_wheel_link,-0.041003349772881795,0.05573683450423842,-0.0416471004470231,0.0024778890517599627,0.00483457344581172,0.0012208907243068114
415908000000,10,415908000000,FL_wheel_link,2.6102645986053403,-6.392129504485202,11.537183666629433,-0.32774724847126435,-0.24928337826913483,-0.06723486087885934
415909000000,11,415909000000,FL_wheel_link,-0.4311704841532378,-2.2837825042954654,19.712978980650448,0.2767284904279681,0.028246211081954298,0.008394682792431593
415910000000,12,415910000000,FL_wheel_link,-0.03296418393351612,0.05291431327617088,-0.06151114585112474,0.002162097574326227,0.004086579022887154,0.0011574137985276307
415911000000,13,415911000000,FL_wheel_link,2.572808674625267,-6.1976615776783,11.136061475358598,-0.31935290307571923,-0.24652637058059143,-0.06636897135498131
415912000000,14,415912000000,FL_wheel_link,-0.30363328474487417,-2.3855585591909745,19.604337795335894,0.2658331336820498,0.014914522437828814,0.0057504095896522885
415913000000,15,415913000000,FL_wheel_link,-0.027473431274522852,0.047962512680059896,-0.05855962430839827,0.001461127349587589,0.0031382184571757087,0.0010178297869536295
415914000000,16,415914000000,FL_wheel_link,2.701252119952253,-6.363968229631617,11.331779649319461,-0.33126983764366175,-0.25998456754659144,-0.06984412829283108
415915000000,17,415915000000,FL_wheel_link,-0.17224615530416,-2.494225689687745,19.710215102699358,0.2575089964097441,0.00025205126149080437,0.0023517993430759634
415916000000,18,415916000000,FL_wheel_link,-0.023391264636260248,0.043719235138453286,-0.05611213199818523,0.0010693018944183115,0.002659122167948252,0.0009267938487013746
415917000000,19,415917000000,FL_wheel_link,2.7585743719261986,-6.433831741012142,11.397975651059289,-0.3368577184555376,-0.26603892849931776,-0.071410104496099
415918000000,20,415918000000,FL_wheel_link,-0.10234652096201102,-2.561705533517487,19.73260341341851,0.25121170192436504,-0.007326734927394135,0.0005499315792041378
415919000000,21,415919000000,FL_wheel_link,-0.02089860942435121,0.04092260583438345,-0.05466510056682021,0.0008027288772103419,0.002368511779052599,0.0008666085537646337
415920000000,22,415920000000,FL_wheel_link,2.7941134764252995,-6.482639014915661,11.446040965817161,-0.34073192805424113,-0.2697571465582993,-0.07238135761821798
415921000000,23,415921000000,FL_wheel_link,-0.0610365046565948,-2.603991809876335,19.74241814695742,0.24709020132985657,-0.011759999341286423,-0.0005431356563193497
415922000000,24,415922000000,FL_wheel_link,-0.019575134012277746,0.03940057608381776,-0.05410970657947137,0.0006302363197511765,0.0022243640007786917,0.0008332291402368344
415923000000,25,415923000000,FL_wheel_link,2.810298407099419,-6.507997681601411,11.467668462948357,-0.3428855387771414,-0.2714366646071008,-0.07282803652226268
415924000000,26,415924000000,FL_wheel_link,-0.04179991382010792,-2.6276149490632057,19.743899743353776,0.2446503273636212,-0.01377521690750412,-0.0010572112434848163
415925000000,27,415925000000,FL_wheel_link,-0.01896778969389263,0.038655357334738884,-0.053924001098330454,0.0005413815085670666,0.0021615796194824365,0.0008177782972861472
415926000000,28,415926000000,FL_wheel_link,2.816341439082445,-6.51970149391922,11.476473992655563,-0.3439356622690316,-0.2720543480994857,-0.0729978575136899
415927000000,29,415927000000,FL_wheel_link,-0.0348256434559277,-2.6382298180852013,19.741412744587805,0.24345750057914395,-0.014478355120517178,-0.001245241842259619
415928000000,30,415928000000,FL_wheel_link,-0.01877806422071201,0.03838020746135919,-0.0539402714750957,0.0005029915114101302,0.002144748416426306,0.0008130819783500822
415929000000,31,415929000000,FL_wheel_link,2.8169188725516316,-6.523676763584957,11.478216796183446,-0.3443494277239791,-0.2721019332668936,-0.07301821551041374
415930000000,32,415930000000,FL_wheel_link,-0.034207351210462617,-2.64163516152761,19.73767678914961,0.24298910045316216,-0.014511675545701389,-0.0012619643101797837
415931000000,33,415931000000,FL_wheel_link,-0.018793789427868607,0.038351472703520496,-0.05403651626612858,0.0004929870225745959,0.002149734884135776,0.0008137432888478202
415932000000,34,415932000000,FL_wheel_link,2.8151491590268396,-6.523970929741781,11.476911316275451,-0.3444450313631731,-0.27190662646418123,-0.0729740469277309
415933000000,35,415933000000,FL_wheel_link,-0.036273880627989724,-2.6415969481057964,19.73397590561231,0.24288749196495996,-0.014270107647506303,-0.0012054883303505484
415934000000,36,415934000000,FL_wheel_link,-0.01888711648733173,0.03843116056252626,-0.05414848871424721,0.0004968324295762424,0.002162359773396221,0.0008164047800355086
415935000000,37,415935000000,FL_wheel_link,2.812757768884382,-6.522943395368209,11.474760882097533,-0.3444142493737252,-0.27164884260122285,-0.07291247758250452
415936000000,38,415936000000,FL_wheel_link,-1.1108700018184994,-3.123373678511187,14.53433176136176,0.04105081558586486,0.11295555455659326,0.028399509654923764
415937000000,39,415937000000,FL_wheel_link,0.010018334340620584,0.037362469250996594,0.019226162405408892,0.0020422892776344992,-0.0006634486829664135,0.00020828864442648317
415938000000,40,415938000000,FL_wheel_link,0.9437133685962138,-7.395917342166063,11.953185961815954,-0.4226193425108875,-0.09962879876590292,-0.02278911875358307
415939000000,41,415939000000,FL_wheel_link,-1.357033806514514,-2.4028764625609673,16.092479867404503,0.1635334516750144,0.13835472765699858,0.036309916816491886
415940000000,42,415940000000,FL_wheel_link,-0.040600990973288544,0.04118706720595223,-0.03083768300798436,0.0015449602078763747,0.004719586514545609,0.0013304455462301054
415941000000,43,415941000000,FL_wheel_link,2.6554197183924315,-6.558649007321815,11.682826332318466,-0.3420325336022631,-0.2533817491518059,-0.06849697140004433
415942000000,44,415942000000,FL_wheel_link,-0.3273449340950504,-2.3656142181614808,19.741710296979434,0.26976985421320565,0.016402709290920872,0.006215514210970798
415943000000,45,415943000000,FL_wheel_link,-0.03015069184018236,0.05148967332823065,-0.06056162668360841,0.0017983267621579455,0.003658334764620299,0.0011156387128154113
415944000000,46,415944000000,FL_wheel_link,2.613103298498643,-6.244174077512175,11.170233344121304,-0.3235337421360351,-0.25083677586890546,-0.06748912778513091
415945000000,47,415945000000,FL_wheel_link,-0.24511089941562755,-2.425773778454423,19.62723526957906,0.262703603859194,0.00828152562392076,0.0044545729036507935
415946000000,48,415946000000,FL_wheel_link,-0.025892373066493626,0.04716538528404204,-0.058201277259715675,0.0013288504489806958,0.0029434163566064257,0.0009957493523274164
415947000000,49,415947000000,FL_wheel_link,2.7196853817422877,-6.389683727881387,11.352563950729923,-0.333539227808358,-0.261943175750501,-0.07036190608983417
415948000000,50,415948000000,FL_wheel_link,-0.14782148238986378,-2.5149303621988865,19.70191552212937,0.255299747423016,-0.0024697778738669296,0.0018143953975290218
415949000000,51,415949000000,FL_wheel_link,-0.022809123402261617,0.04347286860520834,-0.056277737445635065,0.0010117353745420948,0.0025942815636241182,0.0009192355670185435
415950000000,52,415950000000,FL_wheel_link,2.7632910421115726,-6.446915419708192,11.40496859138759,-0.33816626196861793,-0.2665253020536704,-0.07155387423916901
415951000000,53,415951000000,FL_wheel_link,-0.09629287793346802,-2.5733538879351885,19.71815980399191,0.24965542735304502,-0.007973046471318135,0.0004368134444426141
415952000000,54,415952000000,FL_wheel_link,-0.020830611957272788,0.04099342450467915,-0.05500607168347639,0.0007894882817988014,0.002366851052369717,0.0008674114690137285
415953000000,55,415953000000,FL_wheel_link,2.7927672125706433,-6.489661836069223,11.44714767004701,-0.3415462563279861,-0.26959513334592056,-0.07235886401930816
415954000000,56,415954000000,FL_wheel_link,-0.06334263753206265,-2.610128968658239,19.72671480085073,0.2460281771158536,-0.01148865974434704,-0.00045915429787217465
415955000000,57,415955000000,FL_wheel_link,-0.019734460323110256,0.03959892183533816,-0.05444970964865775,0.0006393146804961924,0.0022475784855478776,0.0008379644501909459
415956000000,58,415956000000,FL_wheel_link,2.8071498683161042,-6.513190711879755,11.46762708334694,-0.34352150159998557,-0.2710812899242068,-0.07275523953961044
415957000000,59,415957000000,FL_wheel_link,-0.04673208024933856,-2.632004397267883,19.729132323125384,0.24377940285231006,-0.01322758040245374,-0.0009131308873814078
415958000000,60,415958000000,FL_wheel_link,-0.019177898475861634,0.038898364099536065,-0.05421243189430371,0.0005594345581189956,0.0021893545663785327,0.0008229428351716277
415959000000,61,415959000000,FL_wheel_link,2.8134111303454645,-6.524950488623974,11.477116515728,-0.3445451759173618,-0.2717224819048645,-0.07293007037765392
415960000000,62,415960000000,FL_wheel_link,-0.03978254400790762,-2.642548772649698,19.728168810131244,0.24263191485327962,-0.013941094909250079,-0.0011035907733327778
415961000000,63,415961000000,FL_wheel_link,-0.018967154341147867,0.03861581331602701,-0.05416578261156735,0.0005226668590135261,0.002168947669971048,0.000817330701033897
415962000000,64,415962000000,FL_wheel_link,2.8148877049774095,-6.5297984494301105,11.480185726468836,-0.34500557918339214,-0.271865673981545,-0.07297429531685659
415963000000,65,415963000000,FL_wheel_link,-0.8737654458568437,-3.0107495583900907,15.280432596848843,0.07336843890368328,0.0873444409450028,0.02212352682692076
415964000000,66,415964000000,FL_wheel_link,0.014145045876780568,0.03874805858870939,0.030682738609159925,0.0027834415872150927,-0.0012179372021991807,5.468451545396375e-05
415965000000,67,415965000000,FL_wheel_link,0.8385158835188613,-7.523226679328566,11.999644803909517,-0.43327061561114477,-0.09065374992735098,-0.02032341310984358
415965000000,68,415966000000,FL_wheel_link,-1.4725487358854163,-2.429095264280152,15.975621849287919,0.15663505569514738,0.15162175261739264,0.03933026305119708
415967000000,69,415967000000,FL_wheel_link,-0.042216926497956185,0.04161096279653231,-0.032797224805019405,0.0014940169641739075,0.004922151020336213,0.001369543808010991
415968000000,70,415968000000,FL_wheel_link,2.6310282996045693,-6.539767977505562,11.638715194034132,-0.3415203583321139,-0.2507673934370683,-0.06785515918705584
415969000000,71,415969000000,FL_wheel_link,-0.3468095357470772,-2.358530912869353,19.731224294100368,0.27019502638345194,0.01853160100770547,0.006745559478779502
415970000000,72,415970000000,FL_wheel_link,-0.030553192001224878,0.05242411221850402,-0.0610061779952487,0.0018605876100345957,0.0037112632612377643,0.0011241516301884352
415971000000,73,415971000000,FL_wheel_link,2.609532190522055,-6.2398321495008595,11.163679882601837,-0.3232852547226039,-0.2504728947610437,-0.06739692497909366
415972000000,74,415972000000,FL_wheel_link,-0.2514101741931688,-2.4217448725580684,19.621431653781737,0.2629552146358627,0.008897372843623796,0.004628064235398818
415973000000,75,415973000000,FL_wheel_link,-0.026080931973158472,0.047780462835734686,-0.05848054379394677,0.0013751566180295566,0.002967783905481414,0.000999936412948226
415974000000,76,415974000000,FL_wheel_link,2.718533760739847,-6.389421143069452,11.34997702553024,-0.3336087328903023,-0.26183206065457854,-0.07033603093463404
415975000000,77,415975000000,FL_wheel_link,-0.1508764095659966,-2.5152733509237875,19.695825174777667,0.25510188089187535,-0.0021928760633566774,0.0019063234320658602
415976000000,78,415976000000,FL_wheel_link,-0.022911999407261848,0.0438139321305053,-0.05641799916905564,0.0010388040933903453,0.0026067371876253237,0.0009214246551302915
415976000000,79,415977000000,FL_wheel_link,2.7637465436086766,-6.450892416391243,11.406768541056323,-0.3385659872313841,-0.2665711488733289,-0.07157187052787586
415976000000,80,415978000000,FL_wheel_link,-0.09761863964313172,-2.5767986294040144,19.71208771206238,0.24912864691581332,-0.007871028794255136,0.0004823118654790192
415976000000,81,415979000000,FL_wheel_link,-0.020880610013632832,0.041184758999955676,-0.055082417481093465,0.0008049480539118392,0.0023727177410247362,0.0008682664474628061
415980000000,82,415980000000,FL_wheel_link,2.793947606781387,-6.495661488415401,11.45078015614689,-0.3421138687349747,-0.26971151842359886,-0.0723968834239314
415981000000,83,415981000000,FL_wheel_link,-0.06384656222235591,-2.6152343291005398,19.72037968814741,0.2453167276201419,-0.011465670782620146,-0.0004362916391989907
415982000000,84,415982000000,FL_wheel_link,-0.019761837809178427,0.0397093472320091,-0.05449672513623381,0.0006483420555472819,0.00225051995172678,0.0008382164868616438
415983000000,85,415983000000,FL_wheel_link,2.808621099150434,-6.520215044747051,11.472158182725654,-0.34417614776061883,-0.27122481223277717,-0.07280136353137458
415984000000,86,415984000000,FL_wheel_link,-0.046868080266332074,-2.6379724796032944,19.722521960181545,0.2429675381686524,-0.013237712424167686,-0.0009009588113500968
415985000000,87,415985000000,FL_wheel_link,-0.019199226877251712,0.03897336419015087,-0.05425275596937107,0.0005649617757635732,0.0021917370700737203,0.0008230003216488945
415986000000,88,415986000000,FL_wheel_link,2.8148947383641256,-6.532374005317555,11.481923457214435,-0.34523718717684965,-0.27186531755950893,-0.07297668349981279
415987000000,89,415987000000,FL_wheel_link,-0.03988151226399911,-2.6488669828301257,19.721318983095404,0.24177492814747234,-0.013950824270099874,-0.001092959938080576
415988000000,90,415988000000,FL_wheel_link,-0.01899125366483768,0.03867743776989928,-0.054206759208978716,0.0005268004402799067,0.0021717573056629184,0.0008174479080783602
415989000000,91,415989000000,FL_wheel_link,2.81627704191812,-6.537306860399169,11.485004502776688,-0.3457079550270275,-0.2719975549403096,-0.07301843583201863
415990000000,92,415990000000,FL_wheel_link,-0.038459888046419255,-2.6529962475245243,19.718743521504287,0.24126196439156622,-0.014079526124124594,-0.0011319567164612965
415991000000,93,415991000000,FL_wheel_link,-0.01896965420760524,0.03861856392631336,-0.05425189362806484,0.0005147730701213762,0.0021717162469340606,0.0008169804662460225
415992000000,94,415992000000,FL_wheel_link,0.5824960910901464,-6.882087760107366,12.124599591200994,-0.36747256191375743,-0.06731016317979033,-0.011696446192849274
415993000000,95,415993000000,FL_wheel_link,-1.5366938251500744,-2.3235998532290587,15.199301782930574,0.146382340677623,0.16165834963646383,0.040240624731171744
415994000000,96,415994000000,FL_wheel_link,-0.051487206931294875,0.04417637345023719,-0.00743222276784385,0.002658884672903419,0.006282860211446034,0.0014431883604044792
415995000000,97,415995000000,FL_wheel_link,-0.23986040505023865,-5.608922279107133,19.067541681286592,-0.055795087813264366,0.03262249079573407,0.009520255361332091
415996000000,98,415996000000,FL_wheel_link,-0.38617948234443145,-1.6449757120306496,3.9532498959262394,-0.07738256409659923,0.047747671427844016,0.009635124506871692
415997000000,99,415997000000,FL_wheel_link,1.2965346472039139,-2.934644857078161,4.616106463949432,-0.173908693179917,-0.1261672266423175,-0.033965831355497376
415998000000,100,415998000000,FL_wheel_link,-1.3093345121478888,-2.739153260394616,16.17745301964045,0.1356739110518683,0.14230332239310142,0.033998610632789264
415999000000,101,415999000000,FL_wheel_link,-0.00343211688181444,0.11833942170703002,0.15857101285139838,-0.05350839969549546,0.0008336896807150558,0.0003154607581521227
416000000000,102,416000000000,FL_wheel_link,1.775106293527939,-15.579572126927433,18.97104267635685,-1.2038026541103117,-0.17887700543204887,-0.04570222659935446
416001000000,103,416001000000,FL_wheel_link,-3.2407606438790104,-8.738837519833025,6.767590478226213,-0.8424964853196277,0.29665992059046037,0.08949946428440551
416002000000,104,416002000000,FL_wheel_link,-0.19298321992778947,-0.03150634385095194,0.2718856834574743,-0.06738805730083634,0.02207468383633003,0.005811498246736343
416002000000,105,416003000000,FL_wheel_link,-3.120808977340065,-22.51492748310391,21.45582952937874,-1.9242070331554468,0.3473598195769949,0.08777512190699044
416004000000,106,416004000000,FL_wheel_link,0.8260623590566123,-10.806056455415584,7.854190000576264,-0.9676274192668214,-0.029191515626126097,-0.02375188796559302
416005000000,107,416005000000,FL_wheel_link,-2.8409964360579987,-2.9316867855673316,1.6364821815585773,-0.267942446174477,0.276146763121954,0.07722356031467631
416006000000,108,416006000000,FL_wheel_link,0.09124584854754755,0.46271384880057986,-0.14696802848735863,0.02839750001990414,-0.01691452677177108,-0.0022259218527485207
416007000000,109,416007000000,FL_wheel_link,5.424695780778775,-15.946068862233403,16.204134276187652,-1.2664598061971781,-0.510951265145961,-0.14713307642816928
416008000000,110,416008000000,FL_wheel_link,-1.2577180519209339,-5.4722832662431715,3.051400528756145,-0.4708656517065858,0.10157265596150977,0.029360560916689676
416009000000,111,416009000000,FL_wheel_link,-0.08081336164708108,0.5040781997631694,-0.17433397756155733,0.026179268953964697,0.010052743685978811,0.0038055390811406286
416010000000,112,416010000000,FL_wheel_link,5.013160340231361,-16.54983782265176,15.405448575776113,-1.3675313384623502,-0.462232769621279,-0.13729573544934867
416010000000,113,416011000000,FL_wheel_link,0.1809749673155321,-8.536742492451593,9.412462814243248,-0.6573109069451966,-0.06287437794928386,-0.0017886738964324883
416012000000,114,416012000000,FL_wheel_link,3.0346348033618415,-8.187856446440346,8.664242781456451,-0.6340459798679028,-0.29064917014015523,-0.08164416469053834
416012000000,115,416013000000,FL_wheel_link,5.716587611675223,-13.408261044768611,26.33544527788856,-1.427292298821722,-0.5961353482202586,-0.013512858145583326
416014000000,116,416014000000,FL_wheel_link,-0.33148453343545825,-0.6203280368300157,0.7083771647386553,-0.04667871929328058,-0.03440817079775606,0.0217485087507893
416015000000,117,416015000000,FL_wheel_link,5.846206847889499,-11.506175657727253,17.84350350033732,-1.2552003098823032,-0.5930411856942417,-0.015537848152575945
416016000000,118,416016000000,FL_wheel_link,-0.41107680547406433,-0.5519397141737011,0.33093055908506536,-0.051546467900229015,-0.023284973144096832,0.022918937976102297
416017000000,119,416017000000,FL_wheel_link,4.772510090324231,-11.500848691407292,16.891637299518415,-1.2668118960169479,-0.4704985343423413,-0.016796501738901015
416018000000,120,416018000000,FL_wheel_link,-0.2856075531527146,-0.5460408066493405,0.15863193266060566,-0.05449931764436518,-0.015476695566847009,0.017798015635298828
416019000000,121,416019000000,FL_wheel_link,6.217624408324415,-14.680236015042247,16.7325279915426,-1.632026706163273,-0.6207415305689146,-0.021902559565184165
416020000000,122,416020000000,FL_wheel_link,-0.17226059066487168,-0.5624706332211993,-0.2584711022736966,-0.05008220396415894,-0.01025881444822271,0.010422754929276645
416021000000,123,416021000000,FL_wheel_link,4.073558783719083,-10.473548148447557,12.047575384285636,-1.1678743391440785,-0.4006232441050799,-0.015921308966843406
416022000000,124,416022000000,FL_wheel_link,-0.17767599246694366,-0.3624675388497438,-0.08297064516039998,-0.04281463723726894,-0.006149275862248775,0.012752579854235956
416023000000,125,416023000000,FL_wheel_link,3.8365724717929033,-9.930643440697462,15.156606524199862,-1.0942536300771408,-0.3716455415262389,-0.01508382618959861
416023000000,126,416024000000,FL_wheel_link,-0.15925266408415553,-0.48671460318579307,0.09023840543286177,-0.04745868214746027,-0.014011304425651589,0.01164635761109022
416025000000,127,416025000000,FL_wheel_link,6.379517353365804,2.390327056874439,9.462120921816055,0.20211607861669084,-0.6973730733565702,-0.01239972789799991
416026000000,128,416026000000,FL_wheel_link,-0.30221780788649955,-0.48298185744141453,-1.5301116213438701,-0.030191119756556695,4.828919762063684e-05,0.008383265641046
416027000000,129,416027000000,FL_wheel_link,0.40122018711601,0.9526048558027215,0.10219573438124534,0.047820133681935995,-0.022825771991086284,-0.007427492013908231
416028000000,130,416028000000,FL_wheel_link,-0.3838013978620518,-0.5422239519333922,-1.3578228473396345,-0.04246471462813914,0.02680880258623893,0.003960284157935025
416029000000,131,416029000000,FL_wheel_link,0.3579455012879959,0.8301159990707029,0.04630766731290377,0.042824851491583,-0.021454259410247423,-0.0063864521438283944
416030000000,132,416030000000,FL_wheel_link,-0.32349268299253603,-0.494072469528242,-1.3012720271623763,-0.03986305066443147,0.024393509472924055,0.0033558458380221205
416031000000,133,416031000000,FL_wheel_link,0.3405332616307115,0.7584072440855355,0.0011432042097279035,0.04030578327956127,-0.02128397275458582,-0.005497259778649944
416034000000,134,416032000000,FL_wheel_link,-0.20153098660802476,-0.03484144684799606,-0.40275247990741925,-0.009476434225936104,0.03566316818735411,-0.0008808896131876328
416034000000,135,416033000000,FL_wheel_link,0.1594182962028317,0.10154875388499505,-0.39094578146240067,0.014500375549122185,-0.015043487673462738,0.0021875440335027505
416034000000,136,416034000000,FL_wheel_link,0.002280322694857423,-0.2647389431927334,-1.0210555475677734,-0.027489697000076467,0.012494739298684079,-0.0015605755033702173
416035000000,137,416035000000,FL_wheel_link,0.2169723475338108,0.4371663368400246,-0.04808257113540302,0.03534546620904205,-0.011794561850280452,-0.0016252411762389448
416036000000,138,416036000000,FL_wheel_link,-0.14502800869104363,-0.37712133989397423,-1.1337309752793314,-0.03244891602018655,0.01721507834199599,0.0010082806642376658
416037000000,139,416037000000,FL_wheel_link,0.3536616921326059,0.5228507800811593,-0.22627532173668183,0.0321182040625929,-0.020820574171958622,-0.0035058866236683446
416038000000,140,416038000000,FL_wheel_link,-0.18726967044877857,-0.10053413738426667,-0.3187969782251314,-0.0016326640262903404,0.032005479871998296,0.004808489476995413
416039000000,141,416039000000,FL_wheel_link,0.040748489258390155,0.006668247939730674,-0.03354237147908805,9.214697315637621e-05,-0.0008494924302939173,-0.00019613865012633422
416040000000,142,416040000000,FL_wheel_link,0.6044033129166264,0.4399379790858433,-1.8864508012845596,0.028740777670785186,-0.021616141551302856,-0.009598998401100726
416040000000,143,416041000000,FL_wheel_link,-0.213298979217379,-0.42641337646798727,-0.7133630083210266,-0.01474131891665955,0.003726656034388074,0.0033677456627099456
416042000000,144,416042000000,FL_wheel_link,-0.015006951398709794,0.016449087181140187,-0.1248907041832944,0.006823240034798108,-0.004547150611363607,0.0005440991497535495
416043000000,145,416043000000,FL_wheel_link,-0.2167667931468155,-0.04833502720476517,-1.4506149150956764,-0.009643534976722636,0.010433426418004745,0.0026300524585531264
416044000000,146,416044000000,FL_wheel_link,0.001423898505438951,0.004744828936946214,0.0038573432568648394,0.00014350291689739354,-1.6798121411998942e-06,1.0171697575361752e-05
416045000000,147,416045000000,FL_wheel_link,0.14879884090460044,0.2902616826778279,-0.09808226789792239,0.023836629418401287,-0.014731115147005213,0.0004120083478811339
416046000000,148,416046000000,FL_wheel_link,-0.28060131908212327,-0.16428152846280455,-1.7266119337828583,-0.020763561992244498,0.017358703229485208,0.0023171761256405936
416047000000,149,416047000000,FL_wheel_link,0.009347242494596826,0.012242501897015494,0.007678847063665915,0.00023850835177236345,-0.000124240595370392,-8.848585799586726e-05
416048000000,150,416048000000,FL_wheel_link,0.1641178146386193,0.2989276965784053,-0.057229870954618685,0.022529358111940557,-0.013858940388163018,0.0003571778595336012
416049000000,151,416049000000,FL_wheel_link,1.1108129825058677,-5.514398935382413,14.986696269559399,-0.6167688213848435,-0.1143627911715048,-0.007315453098951836
416049000000,152,416050000000,FL_wheel_link,0.05606060723142535,-0.1447746347574218,0.1690344207131383,-0.01313904027134216,-0.005420620457578188,-6.737797194544825e-05
416051000000,153,416051000000,FL_wheel_link,5.1100383168222,-1.4059093253588788,8.70890320746896,-0.15811484185694066,-0.553036729644004,-0.004140270022885254
416052000000,154,416052000000,FL_wheel_link,-0.3747312131639252,-0.4405081596994097,-0.6173888681613631,-0.028866450652065084,0.0036848762987038517,0.01024313567267416
416053000000,155,416053000000,FL_wheel_link,3.5004642020099537,-0.1792005859820498,7.645884580222659,-0.051346574172130344,-0.36165381703375654,-0.005976077729478554
416054000000,156,416054000000,FL_wheel_link,-0.30172028573103954,-0.4193061037316492,-0.861773418062191,-0.02986711799823978,0.007375048195038755,0.006897169348691055
416055000000,157,416055000000,FL_wheel_link,0.31837813650212826,0.7479186099932765,0.2317264288045341,0.039714173901757924,-0.017566627677413463,-0.004006416074662631
416056000000,158,416056000000,FL_wheel_link,-0.962501378535034,-2.244361894960291,0.3488738992598313,-0.26764307346848937,0.11447576301315117,-0.004826769154973057
416057000000,159,416057000000,FL_wheel_link,-0.04384363803172338,0.05405370135302347,-0.026432595010479832,0.003734723147805631,0.006434878007580718,-0.00018358425882954112
416058000000,160,416058000000,FL_wheel_link,0.1736769878311126,0.3014612067781246,-0.07110819807902666,0.022807088308441706,-0.014008292144006573,0.0008549605780369394
416059000000,161,416059000000,FL_wheel_link,0.24974759460952933,-4.1430100923344,7.821822274967245,-0.46667936341891864,-0.0204372695207031,-0.004674268927255705
416060000000,162,416060000000,FL_wheel_link,0.004999561310551577,-0.0926678459844898,0.0690272811782081,-0.00930668054352456,0.0006701388137162053,-5.9373171688208886e-05
416061000000,163,416061000000,FL_wheel_link,3.0549679900175164,0.03478420675267313,5.82522922218686,-0.001092324426526542,-0.3279100932803204,-0.0014423039552402712
416062000000,164,416062000000,FL_wheel_link,-0.3571937673128449,-0.44241852906071544,-0.8604962443623341,-0.028686549611645216,0.0067973727373295285,0.008641411733953042
416063000000,165,416063000000,FL_wheel_link,0.3601600322607088,0.7562944057096173,0.15892334620204762,0.042851584376062124,-0.021602069866997267,-0.002248052480321723
416064000000,166,416064000000,FL_wheel_link,-0.23761140769773959,-0.1080817981125837,-1.6493244852023066,-0.02221310356137758,0.019841615972514725,-6.96209854707149e-05
416065000000,167,416065000000,FL_wheel_link,0.01889716325725336,0.025372915650441183,0.006367320482513823,0.00046363592767605837,-1.5509851581863162e-05,-0.0002674953140466568
416066000000,168,416066000000,FL_wheel_link,0.18124936339135705,0.32580271180671194,-0.0369282762624415,0.022725482510356828,-0.013570971706378472,0.00044889315033672084
416067000000,169,416067000000,FL_wheel_link,-0.5811040174717634,-3.5719291799743473,3.7035428503899537,-0.40806121253182137,0.07452278520039665,-0.005033027680340035
416068000000,170,416068000000,FL_wheel_link,-0.019473505614115576,-0.05076872862217129,0.022351812283562734,-0.007715477031437353,0.0039041865532972674,-0.00014485603632963457
416069000000,171,416069000000,FL_wheel_link,0.7465843656263351,-0.1529242202302888,0.6760369869728828,-0.03176071306400252,-0.07881009716187752,0.0013120055530492529
416070000000,172,416070000000,FL_wheel_link,1.4689632109285307,-0.9841392532824035,4.704362771161263,-0.10703349736290946,-0.15200643923346804,-0.0029314185367052045
416071000000,173,416071000000,FL_wheel_link,-0.24415498226173654,-0.3197258726831717,-0.5849330891409559,-0.02386065359215572,0.007490226755027387,0.0059981079585700245
416072000000,174,416072000000,FL_wheel_link,5.033565832482535,0.35182146352234356,8.768936513331838,0.021489931623186465,-0.5379460719268805,-0.0024403818742533175
416073000000,175,416073000000,FL_wheel_link,-0.024116096953795664,0.10638383768998726,-1.1397780538436082,-0.014984287652536994,0.0032706887903657007,-0.003315586547131414
416074000000,176,416074000000,FL_wheel_link,0.008331922646753264,0.024059702163304053,0.01687451256116376,0.0006006884886082049,0.000843678794108037,-0.0002735148674920001
416075000000,177,416075000000,FL_wheel_link,0.17916688921322338,0.356932035848089,0.0004497306397114355,0.02313831024623588,-0.012367209262210984,-0.00022668403884224724
416076000000,178,416076000000,FL_wheel_link,-0.18795879441861443,-0.12494396885876768,-1.819642988945343,-0.02103673570261897,0.017297372773486086,0.00042372124384817847
416077000000,179,416077000000,FL_wheel_link,0.013913810863552997,0.02126535206171161,0.01288695450795387,0.000504011989505811,0.0002454039534405891,-0.00018638431002553226
416078000000,180,416078000000,FL_wheel_link,0.19361976302895928,0.3447296133995564,-0.030341415459366916,0.02343204081154383,-0.013784676898389529,0.0005232054481665485
416079000000,181,416079000000,FL_wheel_link,-0.18063428036395773,-0.14295015084489585,-1.8403924387869046,-0.02178313033585655,0.016934109676998023,0.0004940686058580634
416080000000,182,416080000000,FL_wheel_link,0.016809019477821107,0.022668076176288833,0.013285800681225772,0.0005147729448159757,-3.1171181788653714e-05,-0.00018777358792021324
416081000000,183,416081000000,FL_wheel_link,0.19911045452886716,0.34995222746249494,-0.026164711333935768,0.023449192684253793,-0.013987266544612683,0.0005412076960747706
416082000000,184,416082000000,FL_wheel_link,0.0657905132782044,-4.214736011118259,7.387446142165697,-0.47300128399874886,0.0020067382616947016,-0.005699710864011449
416083000000,185,416083000000,FL_wheel_link,0.5432805939442317,-2.081246942374754,2.128632370883435,-0.23650862310402349,-0.047873549779185995,-0.0035037719973488556
416084000000,186,416084000000,FL_wheel_link,-0.014098123150214891,0.07253008972347036,-0.8186783308948256,0.0017104455065189875,-0.0050983326240137536,0.004813132508422474
416085000000,187,416085000000,FL_wheel_link,0.022278985054755784,0.03786547000560127,-0.030613054047267926,0.0038209423731088233,-0.00268192439392383,0.0004148917158392677
416086000000,188,416086000000,FL_wheel_link,-1.0235873867040248,-5.7261623297628335,6.099350423327191,-0.6192082382205852,0.10952469918446284,-0.0006959030366788521
416087000000,189,416087000000,FL_wheel_link,0.25275128967975247,0.3272452560615011,0.05331836611702377,0.013778530156647857,-0.014859658880159858,0.00023395149748597793
416088000000,190,416088000000,FL_wheel_link,-0.3718863399468528,-0.22966819722272844,-1.4924231087256774,-0.020663152737402053,0.018744963416875544,0.0029941144734090333
416089000000,191,416089000000,FL_wheel_link,0.012675497992219776,0.02216566114960179,0.007072391879194949,0.00042732813583772755,-0.0004760403652374761,-1.760584332620728e-05
416090000000,192,416090000000,FL_wheel_link,0.1905088498322141,0.3431639360088578,-0.08151545356466636,0.024657195211325124,-0.015435824892753656,0.00092166160555534
416091000000,193,416091000000,FL_wheel_link,-0.11290864465366712,-3.5656366912555075,5.505810276899063,-0.39458134894399166,0.012084323982512912,-0.004285176413074245
416092000000,194,416092000000,FL_wheel_link,0.45072621926528983,-1.420395076120425,1.6291861697525762,-0.1607563592140608,-0.04149469509909341,-0.0023024821947441633
416093000000,195,416093000000,FL_wheel_link,0.02224312859163206,0.10403379479842972,-0.868278721620644,0.0028558090246032647,-0.005858154987411903,0.0026140394486138937
416094000000,196,416094000000,FL_wheel_link,0.009179056961575354,0.013689225222048296,-0.05214399224721608,0.0030706622648854058,-0.002314817755404789,0.0007153265361434243
416095000000,197,416095000000,FL_wheel_link,-1.1456328571249703,-5.18649698164889,4.841991237041041,-0.5612498527299943,0.12196432685450342,-0.0008519196688041297
416096000000,198,416096000000,FL_wheel_link,0.24692620170252844,0.3318114313278031,0.0005761717498728239,0.015586021270267012,-0.014781937714745461,0.0009277614749477554
416097000000,199,416097000000,FL_wheel_link,-0.4141578411106109,-0.2972512123249507,-1.48127705711974,-0.025359004033511785,0.0226786283779315,0.002758020561847905
416098000000,200,416098000000,FL_wheel_link,0.02771726050533828,0.04101802134052489,-0.009001450832706632,0.00236053138418518,-0.0022872236023020968,-2.4236025036014665e-06
416099000000,201,416099000000,FL_wheel_link,0.19530582304397243,0.34755479429667147,-0.10139652951651829,0.025372892530352593,-0.016048458629289088,0.0012341499351936924
416100000000,202,416100000000,FL_wheel_link,-0.1713857057752144,-3.529285467296986,5.342047251636298,-0.38880934436199366,0.01875694672195677,-0.004615547427023711
416101000000,203,416101000000,FL_wheel_link,-0.0021441601359617236,-0.056286176464786675,0.05105919312918809,-0.00824673574036192,0.001448612772311219,-0.00010535230197632141
416102000000,204,416102000000,FL_wheel_link,0.028757245800260484,0.23748877819109973,-0.9350517976284294,0.011638264837811177,-0.0039601379563046915,0.0017376106001376734
416103000000,205,416103000000,FL_wheel_link,0.00044491098758839536,-0.0020601669684026653,-0.0063811176904383475,-6.82154255183964e-05,-0.00013679369098461899,0.00010407368108799708
416104000000,206,416104000000,FL_wheel_link,-0.16727865928184937,-1.8982483630066225,1.021212335266013,-0.22144853802812492,0.021574393081482637,-0.0008853747737363662
416105000000,207,416105000000,FL_wheel_link,0.3145807418929264,-1.151065399947597,2.2561282894880463,-0.1250867000426537,-0.026509077511607956,-0.0016966456111834416
416106000000,208,416106000000,FL_wheel_link,0.1628471392540341,0.1744197031521278,-0.042752064823307366,0.011265917760933645,-0.013356091598947161,0.0008552935024912278
416107000000,209,416107000000,FL_wheel_link,0.17592648928205268,-3.0469273333411344,3.967784196927677,-0.3339947839686857,-0.027648095738721956,-0.0010945246262150394
416108000000,210,416108000000,FL_wheel_link,0.8841329139571772,-1.7030259114539783,2.0295911138190212,-0.19057543143900008,-0.09011731390824404,-0.002226255166402723
416109000000,211,416109000000,FL_wheel_link,0.2029370436463575,0.2042810349454009,-0.08674697492718246,0.015793220398814065,-0.017584667081967535,0.001863449333541344
416110000000,212,416110000000,FL_wheel_link,-0.586449111631459,-2.607604850052184,9.37412971930113,-0.268086473158509,0.045304781134131264,0.005211319791300956
416111000000,213,416111000000,FL_wheel_link,-0.00707169209215466,-0.05075915842730103,0.002515877055212075,-0.008415652296433995,0.001516042757452687,5.1870747217993565e-05
416112000000,214,416112000000,FL_wheel_link,0.11495007892349397,0.18500887848909156,-1.1946568166263685,0.009458067391909224,-0.005889907619607589,-0.00014977701352548542
416113000000,215,416113000000,FL_wheel_link,-0.003836842628459029,0.005829718161829207,0.0051448743455137155,0.00014540743514400577,0.00021138851679586713,-5.294358652652426e-05
416114000000,216,416114000000,FL_wheel_link,-0.09015642241479635,-0.017642883345980673,-1.2735293739377243,-0.005467852457206385,0.009167490026915347,0.00257072561862673
416115000000,217,416115000000,FL_wheel_link,-0.03195889831531884,0.0927270787601448,0.16942996768850932,0.005406264150511125,0.001284320737084307,0.0010333205926680241
416116000000,218,416116000000,FL_wheel_link,0.13066781976323963,0.15195448006995316,-1.1963297125678634,0.0029754068759833482,-0.00205485915866584,-0.002732946247412071
416116000000,219,416117000000,FL_wheel_link,0.002707573314997585,0.005552258876979759,-0.00038346228666432796,0.00014067402731542643,-3.48152243700386e-05,-6.786983328017496e-05
416116000000,220,416118000000,FL_wheel_link,1.2973897707614048,-2.5388405031539216,10.276287656845373,-0.29256682102035986,-0.13176399357085505,-0.005944372329711492
416119000000,221,416119000000,FL_wheel_link,0.06435572749819303,-0.0560671781799606,0.09551217103844939,-0.004799410270917216,-0.007405246141219884,9.016588246001025e-05
416120000000,222,416120000000,FL_wheel_link,0.4815631904339668,-0.6246415374972785,0.8413452527747407,-0.07756514003244913,-0.06777448541675811,0.0027540868703018733
416121000000,223,416121000000,FL_wheel_link,0.8939938756306322,-1.4815877701675597,3.732503400437873,-0.15521775152202455,-0.08984444477230809,-0.00171181368145739
416122000000,224,416122000000,FL_wheel_link,-0.03607242869212968,0.05641476835475401,-0.7851431384056765,-0.003491019616507025,-0.0020665854117281317,0.0015340608403966467
416123000000,225,416123000000,FL_wheel_link,0.0001599439434150163,0.01003883698128749,0.0019828968583803642,0.0001966963971360148,0.00021500807644150727,4.550977295907944e-06
416124000000,226,416124000000,FL_wheel_link,0.062025630452920755,-1.2718855680127785,6.883958455969327,-0.1406535503512134,-0.004398166280224949,4.242194284757861e-05
416125000000,227,416125000000,FL_wheel_link,0.3079355884379136,-0.6114351047090019,4.641628596485851,-0.0683561627792267,-0.034989780019511085,0.00017508847735102058
416126000000,228,416126000000,FL_wheel_link,-0.1087003279349786,-0.1344787269875874,-0.31303451112103886,-0.011562713990879282,0.00632715519940933,0.0023960400086131695
416127000000,229,416127000000,FL_wheel_link,1.3796801766042688,0.547824490710541,19.20900913529757,0.06390666950034524,-0.14165043485872902,-0.0025477965029919547
416128000000,230,416128000000,FL_wheel_link,0.03549303419669746,0.005100882287992638,-0.047471904742150794,-0.002188985515649172,-0.004322521218433739,-0.00025546798274124607
416129000000,231,416129000000,FL_wheel_link,-1.602906135197016,-2.7076237529939378,13.333448035919186,-0.29068170353677375,0.17784588233479737,-0.00011993175738559281
416130000000,232,416130000000,FL_wheel_link,-0.003204848789815383,-0.07452430465340748,0.0038411896824319548,-0.007153138264752917,0.0004224929366404024,-0.00013161948469508585
416131000000,233,416131000000,FL_wheel_link,0.43695866080826357,-0.3395190446486509,9.872667619247409,-0.03861349587948736,-0.047635417261525544,0.0005445894369709866
416132000000,234,416132000000,FL_wheel_link,0.49562569800081696,-0.6576541946507706,6.057790636313811,-0.06912491505160119,-0.05530000860332377,-0.00041646139422323253
416133000000,235,416133000000,FL_wheel_link,-0.1258143731295272,-0.1590632463842324,-0.3175893400861071,-0.0133400638770982,0.005790864946624704,0.002972393284480882
416133000000,236,416134000000,FL_wheel_link,1.0137970392838884,-0.058151667602611326,20.293295757880998,-0.004797071492941521,-0.09691598264412075,-0.004017201864691591
416135000000,237,416135000000,FL_wheel_link,1.8613585973656785,-1.773046634855005,2.9712638143877435,-0.19137198763941576,-0.2022103354885988,-0.001694024565793862
416136000000,238,416136000000,FL_wheel_link,-0.13926504553902194,-0.004760205808678572,0.019393327429271627,-0.004846883727152716,0.012574043999051595,0.0013374075529621777
416137000000,239,416137000000,FL_wheel_link,2.3211316937338253,-1.314514152294636,20.130504055378275,-0.1391750739216665,-0.2309628382951519,-0.004916824971784721
416138000000,240,416138000000,FL_wheel_link,0.0982154911443082,-0.054531149370201926,0.09943157020795672,-0.005634271484094527,-0.011134916013270952,-0.00011053942724301879
416139000000,241,416139000000,FL_wheel_link,-0.5123405786055275,-0.8902536456717716,11.426951543716644,-0.09602148951958564,0.05195624668027214,0.0014173510843666743
416140000000,242,416140000000,FL_wheel_link,0.06149924467439459,0.030245028587691784,-0.28302131464151026,-0.0011727795143615422,3.815699861467502e-05,3.6801712883540464e-05
416141000000,243,416141000000,FL_wheel_link,2.237552619489832,-3.243851538640133,8.657936826049305,-0.334319219457081,-0.2275661188654175,-0.0035921073813367996
416143000000,244,416142000000,FL_wheel_link,0.021932304974171986,0.0675174681034603,-0.43378543888822635,-0.0005607273379720202,-0.004638551753699184,0.0011024052232435375
416143000000,245,416143000000,FL_wheel_link,2.7095191565234003,-3.2130549665172468,6.8317492409991845,-0.3371432495511599,-0.28635818063016105,-0.0029115287880871546
416144000000,246,416144000000,FL_wheel_link,-0.0012034945739163444,0.11012393975316298,0.4348299128994222,0.008425977769302002,-0.006036362334616713,0.0016234602003352711
416145000000,247,416145000000,FL_wheel_link,0.4224591168665568,-7.133930092914232,15.929495897873917,-0.740179307643273,-0.05461252408468997,0.0042563993974528355
416146000000,248,416146000000,FL_wheel_link,0.034430962771909074,0.25114788359850854,0.6736606008291371,0.007952328596258747,-0.000717182536988643,-0.0015983825520421826
416147000000,249,416147000000,FL_wheel_link,0.5689178304913418,-5.2131098003606455,11.26636449126932,-0.5371490583848134,-0.05703319759449943,-0.0012862337385888198
416148000000,250,416148000000,FL_wheel_link,0.025701105111206254,0.1768250644273415,0.511141595697709,0.004373821570651401,-0.0027215269288704404,-0.0006877429278214795
416148000000,251,416149000000,FL_wheel_link,0.26428517452515354,-5.339326926585706,10.340918610088679,-0.5568420624434449,-0.02680370318393599,-0.0009489300295875362
416150000000,252,416150000000,FL_wheel_link,0.06716261387326655,0.2265698417081033,0.4326961059794384,0.009505039415326055,-0.004086526536179712,-0.0006621698233119404
416151000000,253,416151000000,FL_wheel_link,-0.04880715554482684,-5.2454583746696315,9.44830192632052,-0.5441047487439412,0.003966172555740277,-0.0008463352603377064
416152000000,254,416152000000,FL_wheel_link,0.10488810163209336,0.21327354087061787,0.2987279617650461,0.0074446661748222885,-0.00543171164038255,-0.0006323009897018753
416153000000,255,416153000000,FL_wheel_link,0.3698601357678828,-5.1994842688928795,10.107361642765078,-0.5544154304681901,-0.04717331864824248,0.0011362051360070246
416154000000,256,416154000000,FL_wheel_link,0.06494447337196843,0.1408850695055862,-0.19911120618198289,0.00024161142226819055,-0.0027460321462230235,-0.00029830359590107716
416155000000,257,416155000000,FL_wheel_link,-0.004534064097477739,0.011344351823169016,-0.016557154271146034,-0.0004182952758810317,0.00023842768256856074,-5.7134544851899365e-06
416156000000,258,416156000000,FL_wheel_link,-0.04744456983470846,-2.1282669087003994,12.18441897934148,-0.2542698390186085,0.006777959223074045,-0.0007197267797117279
416157000000,259,416157000000,FL_wheel_link,-0.04261343342537081,0.04487203465686962,0.26898204331982045,-0.001121106598024719,0.0007731630783129218,0.0017774584031005234
416158000000,260,416158000000,FL_wheel_link,1.0395558718841091,-1.5813321265739444,9.881750730664699,-0.1928890800258275,-0.11894531760326149,0.0018026189324449014
416159000000,261,416159000000,FL_wheel_link,0.02200783680022582,-0.05803024388916864,0.04468751781056343,-0.004928804906560313,-0.002798435166728757,0.00022103727801480466
416160000000,262,416160000000,FL_wheel_link,-0.7259070064632143,-0.13368413835168325,11.266973059939199,-0.03393476373554778,0.07905098910433049,-0.000803955327391891
416161000000,263,416161000000,FL_wheel_link,0.020107422908437457,0.01051488437639876,-0.21391736380287524,-0.0016650606673148432,0.0024459506527697,-0.00026541651319935474
416162000000,264,416162000000,FL_wheel_link,2.5412637637804494,-3.8065832606825927,8.190886108937857,-0.4199386380095398,-0.2602309289427411,-0.0001395441075976011
416163000000,265,416163000000,FL_wheel_link,-0.06325582809862967,-0.0002810750708493216,-0.5790705328114607,0.0016137497892998753,0.0015185549116857404,0.0020510619609798815
416164000000,266,416164000000,FL_wheel_link,0.830580521878751,-1.4164588692947553,7.138588017520725,-0.1600625602885441,-0.08468875082427554,0.0016054293387544071
416165000000,267,416165000000,FL_wheel_link,0.03690674103173282,-0.052336745133669385,0.040961350044812904,-0.005481952981511796,-0.004105859442713894,8.452596996110594e-05
416166000000,268,416166000000,FL_wheel_link,0.4095812951311937,-1.0145669535412494,22.252048443287606,-0.14494604971704617,-0.04485405044162439,0.00011596408186243488
416166000000,269,416167000000,FL_wheel_link,0.0018660199843134988,0.019309258893663927,0.2040327479027825,-0.003439287179539098,-0.0014615817787121347,0.00022704486588581753
416168000000,270,416168000000,FL_wheel_link,3.329192059732363,-4.516057386476589,9.313775255029508,-0.4975414309459872,-0.34602785719853363,0.0007561015337996212
416169000000,271,416169000000,FL_wheel_link,0.03758200509780309,0.04507145688520596,-0.4463548863544009,0.0020041791807040954,-0.00015945322189684372,-0.00013773537915447612
416170000000,272,416170000000,FL_wheel_link,2.950444844607561,-3.542140444888396,7.9071872718653715,-0.3860667345881844,-0.3095524076872802,0.001981261463325109
416171000000,273,416171000000,FL_wheel_link,-0.029764440313281813,0.10996175416927478,0.4481871972890348,0.010878154323530252,-0.004549361462184747,0.0027802691231098757
416171000000,274,416172000000,FL_wheel_link,0.8789146745562464,-6.368425136077042,15.319114616876915,-0.681893288526443,-0.09522357790544878,0.0024891231757630024
416172000000,275,416173000000,FL_wheel_link,-0.02115852015952646,0.25150638209748993,0.7985610152994657,0.010228094896664541,-0.0021114623384425506,0.0010412144654831697
416174000000,276,416174000000,FL_wheel_link,1.1070994227084565,-5.094214382173326,13.922862718387705,-0.540639391344129,-0.11832028337861195,0.002733408269362766
416175000000,277,416175000000,FL_wheel_link,-0.15500622801953165,0.11718986521074752,0.8727808789925543,0.003304625167998478,0.004760919718608105,0.0017538917265579716
416176000000,278,416176000000,FL_wheel_link,1.3012303107769316,-5.3876586773501005,16.021631303659454,-0.5811747314887649,-0.12955294033574888,0.002270397001899495
416177000000,279,416177000000,FL_wheel_link,-0.11129308186534981,0.15303972274610056,0.9018294687821108,0.003670905565091679,0.005149469802485141,-0.0013143877231294133
416178000000,280,416178000000,FL_wheel_link,1.3864600448265378,-5.333416936691482,16.233166052431844,-0.573174193036149,-0.14029961712974667,0.0027860951292883428
416179000000,281,416179000000,FL_wheel_link,-0.20248834036314417,0.14448340559998749,1.065514464738551,0.003583629997566356,0.007854818631596242,0.0008072550729571441
416180000000,282,416180000000,FL_wheel_link,1.2010824387433758,-5.65839113900331,16.936069690246388,-0.6111516833122791,-0.11330489337696067,0.0009087891666474269
416181000000,283,416181000000,FL_wheel_link,-0.1331556703158777,0.16999927567335252,0.9495094663748911,0.00417775868134504,0.00517122984057215,-0.0004114560428819046
416182000000,284,416182000000,FL_wheel_link,1.3458173993358213,-5.386263072525702,16.301957492635726,-0.5779399947199586,-0.13432208870273346,0.0021220453818738237
416183000000,285,416183000000,FL_wheel_link,-0.17333514821748483,0.12867593905795607,0.9948722923453507,0.002361849377699859,0.00665522757203347,5.690219028163815e-05
416184000000,286,416184000000,FL_wheel_link,1.3354076180000456,-5.600689095443743,16.86582575788392,-0.603677500762216,-0.13016808274820357,0.0015919280360610633
416185000000,287,416185000000,FL_wheel_link,-0.13620719654831126,0.14822293760939764,0.9692180052666264,0.0023175815014059324,0.0049169368430986415,-0.0007347860593656122
416186000000,288,416186000000,FL_wheel_link,1.422888997012898,-5.576451928898452,16.680162442992575,-0.5994697247098628,-0.14186611363228852,0.0019638077295102627
416187000000,289,416187000000,FL_wheel_link,-0.15234217424816726,0.1260610281588099,1.0003378139228427,0.0012648870495776134,0.005446021256405746,-0.0001474209747180404
416188000000,290,416188000000,FL_wheel_link,1.4641555842876808,-5.70722820224858,17.047610724934586,-0.6147759425956241,-0.14469114185289234,0.0017925699704058155
416189000000,291,416189000000,FL_wheel_link,-0.1378051016245356,0.13044024751004835,1.0059540441040793,0.000797738153087441,0.004450623242275709,-0.00036343036788028405
416190000000,292,416190000000,FL_wheel_link,1.65529328257111,-5.7076326301525615,17.070228128978155,-0.6149803093042687,-0.16413012634098725,0.00185145658788082
416191000000,293,416191000000,FL_wheel_link,-0.1302184152233249,0.12401780101291444,1.0192192936043383,0.0004884206073381082,0.003160429457194331,-0.0002196940186829222
416192000000,294,416192000000,FL_wheel_link,1.8349451637367777,-5.758024414134063,17.17860420055829,-0.6206349618312639,-0.18259630045785427,0.001968812605137595
416193000000,295,416193000000,FL_wheel_link,-0.12258643373462304,0.11616677818580776,1.0318132629767076,-8.239491363039612e-06,0.0020652096556970836,-2.3037166370318343e-05
416194000000,296,416194000000,FL_wheel_link,2.0545346782911107,-5.78269143982677,17.421150815921887,-0.6234080525647581,-0.2055559963942609,0.0022901137938732587
416195000000,297,416195000000,FL_wheel_link,-0.11850084539847644,0.11154193332391008,1.054565698959716,-0.0005406206120407238,0.001156239760139215,-2.5804337593933147e-06
416196000000,298,416196000000,FL_wheel_link,2.2572996970709807,-5.822305855578502,17.721652100770527,-0.6277262667289748,-0.22658815937893,0.0025719288710967132
416197000000,299,416197000000,FL_wheel_link,-0.09725331931084309,0.13914118302351863,1.0914267324983182,-0.0007610801123878385,0.00023183250108680146,-0.0007008429593949863
416198000000,300,416198000000,FL_wheel_link,2.4979289861466984,-5.796258430264458,18.11101699161103,-0.6234900777450212,-0.25290562411317985,0.0033057776703836073
416199000000,301,416199000000,FL_wheel_link,-0.08131345172810084,0.1820459287083968,1.1394739671950829,0.00024792846862733276,-0.0005720102102074776,-0.0014003068304625178
416200000000,302,416200000000,FL_wheel_link,2.799350418855343,-5.640413848322658,18.601577800840314,-0.6038997603719827,-0.28616936605400783,0.004371465701836859
416201000000,303,416201000000,FL_wheel_link,-0.08191659151115137,0.13957279165668662,1.113301411358452,-9.109637276500076e-05,-0.0018487694342272988,-0.0008657047440290375
416202000000,304,416202000000,FL_wheel_link,3.0042142041425604,-5.656049076732357,18.45559312813706,-0.6055612683626425,-0.3052931896157117,0.0034254059989805175
416203000000,305,416203000000,FL_wheel_link,1.2894537518491322,-0.745476786187747,15.111444818455912,-0.11246827995097337,-0.14608519023501731,-0.000632278967669926
416204000000,306,416204000000,FL_wheel_link,0.03400448121186451,-0.039083517623881514,-0.03991908542816753,-0.008114992617583484,-0.003027363462028641,3.5562923045118173e-06
416205000000,307,416205000000,FL_wheel_link,3.730768089417805,-5.337343878135965,15.145592651857507,-0.5796248910258452,-0.37611490919587554,0.0003196900703355387
416206000000,308,416206000000,FL_wheel_link,0.9242184825303128,0.36775183655896526,18.824070996878955,0.0016143450174304283,-0.11369540328082903,0.0009042817740649372
416207000000,309,416207000000,FL_wheel_link,0.019144750575407973,0.0035665502880372294,-0.07363059761406063,-0.003127779409389299,-0.0017628701183704076,9.546180365354706e-05
416208000000,310,416208000000,FL_wheel_link,3.4051846124813467,-4.6569794027634215,14.152848892486924,-0.5015371564029292,-0.343521210983497,0.0007688857154686483
416209000000,311,416209000000,FL_wheel_link,0.5922580512236663,0.8952454737128719,18.89996073512785,0.06057821472309649,-0.07938220172317369,0.0014261619108605337
416210000000,312,416210000000,FL_wheel_link,0.003578380864047508,0.02284114714850665,-0.07648367168057524,-0.0007406349357214129,-0.00015159823156500303,0.0001295686019016423
416211000000,313,416211000000,FL_wheel_link,3.2197491625637658,-4.384308380291108,13.854792312390106,-0.46980935785079136,-0.3237550578088382,0.0007762984340785985
416212000000,314,416212000000,FL_wheel_link,-0.033910164822582856,0.3734478287918799,15.849500683721025,-0.0005268542794736306,3.292007332012596e-05,-0.0015625120629850957
416213000000,315,416213000000,FL_wheel_link,0.029808246331630726,0.05161897120616131,-0.012253112187684524,0.0027473947464497907,-0.002513989190462211,0.00013010349489476288
416214000000,316,416214000000,FL_wheel_link,1.0179391018630475,-5.189722711520272,13.662067255394817,-0.5562834743501865,-0.10871234923533962,0.002831887636458379
416214000000,317,416215000000,FL_wheel_link,-1.0123048149948468,0.7812050147462164,15.233761567495712,0.047771202050507854,0.1060622435203042,-0.0009631963814640684
416216000000,318,416216000000,FL_wheel_link,-0.04136627500919679,0.033773630808790096,-0.05419820139385931,0.0013153774111347766,0.005042289891649815,5.936011246918952e-05
416217000000,319,416217000000,FL_wheel_link,2.8239061348294787,-4.18855242211759,13.824589918981328,-0.4475208786789992,-0.2783096544504744,-4.813478601895134e-05
416218000000,320,416218000000,FL_wheel_link,-0.021076176346960462,1.672944830882975,19.103180395129385,0.14405228498855596,-0.015097250266991241,0.0014557581642963043
416219000000,321,416219000000,FL_wheel_link,-0.022970805589759516,0.052434200062297175,-0.08571515462250504,0.002597464723040978,0.00269416413179359,0.00016595218642707514
416220000000,322,416220000000,FL_wheel_link,2.882708785116646,-3.8835790507935477,13.218813617784345,-0.41211311715237675,-0.2878878350341892,0.0007947108027294997
416221000000,323,416221000000,FL_wheel_link,0.06655603065388904,1.7245099231976826,19.147110766752622,0.15152969209414466,-0.02517709754954528,0.001948131002075573
416222000000,324,416222000000,FL_wheel_link,-0.018501701229450256,0.04793659738285647,-0.07980222986457679,0.0024568941762068233,0.002115215906616284,0.000190672615209623
416223000000,325,416223000000,FL_wheel_link,2.962568745678812,-3.9194953926823763,13.34489116900061,-0.4153890643310665,-0.2966165364964199,0.0009652469513279447
416225000000,326,416224000000,FL_wheel_link,-0.6469191256394861,0.5164633569846222,15.174466045990386,0.016294351317938334,0.06427611857743859,-0.001594508532619025
416225000000,327,416225000000,FL_wheel_link,-0.025621565209276664,-0.024364662101225395,-0.16873431027550528,-0.0015831367291637335,0.00201982592883735,0.0003039493403429967
416226000000,328,416226000000,FL_wheel_link,2.0271225457039552,-3.9320539093998583,12.478671238489586,-0.4203384304438057,-0.20335126082771438,0.0011716140509081601
416226000000,329,416227000000,FL_wheel_link,-0.13821220407026757,1.4247039258381695,18.96024780529019,0.12015640558690004,0.0010295611505029417,0.002191317336370052
416228000000,330,416228000000,FL_wheel_link,-0.019327740692097032,0.029864561674738704,-0.059210209980142675,0.0011634050336920367,0.0021877925210656546,0.00026076509547103054
416229000000,331,416229000000,FL_wheel_link,3.040062040378676,-4.078178223519661,13.69319196422314,-0.43280718351886466,-0.3038156857028911,0.0008553763036496975
416230000000,332,416230000000,FL_wheel_link,0.2114241923295359,1.6878989426035194,19.26251292255295,0.14716759411246444,-0.042240651237406925,0.002560075835455763
416231000000,333,416231000000,FL_wheel_link,-0.011909453308401367,0.03737880193269272,-0.06795155478059084,0.0015977516250651113,0.0013312565526969013,0.00024660674889276547
416232000000,334,416232000000,FL_wheel_link,3.054073991415411,-3.9440521687701198,13.463239970685413,-0.4173183142162288,-0.3065016225944566,0.0011821472774425222
416233000000,335,416233000000,FL_wheel_link,0.21652060726922517,1.7259416396323113,19.275494422014106,0.15149189806288624,-0.042522984727852306,0.0023183550856377497
416234000000,336,416234000000,FL_wheel_link,-0.011634173693790406,0.0360336662558996,-0.0665764093906634,0.001542684341727567,0.0013306555995165736,0.00023206001011807643
416235000000,337,416235000000,FL_wheel_link,3.049086475564244,-3.9196059739781304,13.456039642487847,-0.41437884968136607,-0.30593147845634416,0.0012139854766591495
416236000000,338,416236000000,FL_wheel_link,-0.6666361920356619,0.42202851080347237,14.984318986657426,0.006089425228761592,0.0657522928980867,-0.0016647775684760643
416237000000,339,416237000000,FL_wheel_link,0.014757598552803276,0.04715513827243205,-0.00797233569269851,0.002275943382019482,-0.0011379430616822051,0.00027878185162794446
416238000000,340,416238000000,FL_wheel_link,1.1926670546925189,-4.580264789411234,14.14952541880087,-0.48646038898457455,-0.12914775385513444,0.0047871555210745815
416239000000,341,416239000000,FL_wheel_link,-1.0738780481392174,1.2233656351261974,15.853624738539533,0.09535979959068128,0.1110337379149381,-0.0012132600836446633
416240000000,342,416240000000,FL_wheel_link,-0.03970914464141596,0.034132009124530724,-0.05020513341816543,0.0016856868167435576,0.004782275143422337,7.621234426777935e-05
416241000000,343,416241000000,FL_wheel_link,2.7799820202804004,-3.8678088074775228,13.526475075966491,-0.4091750786258024,-0.27434882772237745,0.0004803212684827388
416242000000,344,416242000000,FL_wheel_link,-0.15638801781134548,2.0649124144187883,19.198574124189125,0.18614426932284892,-0.0008547383194616315,0.0008349878126063003
416243000000,345,416243000000,FL_wheel_link,-0.024581619423287293,0.04480102348631009,-0.07660889399922319,0.0022595311303443264,0.002906472594009634,0.00017737180203770104
416244000000,346,416244000000,FL_wheel_link,2.8109338271960245,-3.637084044942123,12.988217308209919,-0.38286166781863384,-0.28021269506127566,0.001069557307035816
416245000000,347,416245000000,FL_wheel_link,-0.054664478472794986,2.0725841708998574,19.2260844115859,0.18882729109997798,-0.012192010871236947,0.00138771815140945
416246000000,348,416246000000,FL_wheel_link,-0.02050333635960297,0.04009027444590223,-0.07105445981497704,0.0019723143009619266,0.002387311150924981,0.0002066337409995823
416247000000,349,416247000000,FL_wheel_link,2.885516068150349,-3.6785718165464076,13.124366134296753,-0.38696101142926465,-0.2882737692487036,0.001208718936480906
416248000000,350,416248000000,FL_wheel_link,0.011317694814425572,2.0766898115742505,19.271855055023465,0.1894291644724916,-0.01989642816135541,0.0016050044517232904
416249000000,351,416249000000,FL_wheel_link,-0.01865846483756349,0.03564801598241609,-0.06803315269257108,0.0015592557668710387,0.0021778728645957127,0.00022156735096130878
416250000000,352,416250000000,FL_wheel_link,2.9096997052241966,-3.6940483486576996,13.162677360623697,-0.38854581980369607,-0.2908078534563284,0.0012442819013785621
416251000000,353,416251000000,FL_wheel_link,0.04228757348047729,2.0896559541633195,19.299660564814886,0.1909551938371673,-0.023447232568795107,0.0016764975710824078
416252000000,354,416252000000,FL_wheel_link,-0.01785642644446763,0.03219012338467052,-0.06604496873230217,0.0012109375635098454,0.0020903000410563083,0.00022916020624087492
416253000000,355,416253000000,FL_wheel_link,2.9174470205430616,-3.6952402861480436,13.174409349233496,-0.3885962016743657,-0.2915560990278869,0.0012590419085773722
416254000000,356,416254000000,FL_wheel_link,-0.5828536816835113,0.8234420011878355,15.571463757974605,0.048458551384776775,0.057132882641294035,-0.0018983359892057131
