%time,field.name0,field.name1,field.name2,field.pose0.position.x,field.pose0.position.y,field.pose0.position.z,field.pose0.orientation.x,field.pose0.orientation.y,field.pose0.orientation.z,field.pose0.orientation.w,field.pose1.position.x,field.pose1.position.y,field.pose1.position.z,field.pose1.orientation.x,field.pose1.orientation.y,field.pose1.orientation.z,field.pose1.orientation.w,field.pose2.position.x,field.pose2.position.y,field.pose2.position.z,field.pose2.orientation.x,field.pose2.orientation.y,field.pose2.orientation.z,field.pose2.orientation.w,field.twist0.linear.x,field.twist0.linear.y,field.twist0.linear.z,field.twist0.angular.x,field.twist0.angular.y,field.twist0.angular.z,field.twist1.linear.x,field.twist1.linear.y,field.twist1.linear.z,field.twist1.angular.x,field.twist1.angular.y,field.twist1.angular.z,field.twist2.linear.x,field.twist2.linear.y,field.twist2.linear.z,field.twist2.angular.x,field.twist2.angular.y,field.twist2.angular.z
415903000000,ground_plane,Floor,khm2,0.252724,-0.228037,0.0,0.0,0.0,0.0,1.0,-0.010923,0.300375,-0.916015,0.0,-0.04361937829633988,0.0,0.9990482219778186,-0.5225656113620863,0.00113368721041803,-0.2532038435445553,-0.03166199197669862,-0.031018376678267436,0.7116246571237322,0.7011602712260894,0.0,0.0,0.0,0.0,0.0,0.0,0.0,0.0,0.0,0.0,0.0,0.0,-0.0014980441533959641,0.0004971440869337867,-0.0040430285470846395,0.013834280380384941,-0.013965772438760654,0.0015137801102677638
415903000000,ground_plane,Floor,khm2,0.252724,-0.228037,0.0,0.0,0.0,0.0,1.0,-0.010923,0.300375,-0.916015,0.0,-0.04361937829633988,0.0,0.9990482219778186,-0.522564732968084,0.0011358607911930599,-0.25321121454456047,-0.031653912443054065,-0.03098364075725675,0.7116281990148662,0.7011585770703591,0.0,0.0,0.0,0.0,0.0,0.0,0.0,0.0,0.0,0.0,0.0,0.0,0.0008783537848025084,0.0021735577276113683,-0.00737104537985029,-0.038434625924433696,0.0603296410470135,0.005679453087081535
415903000000,ground_plane,Floor,khm2,0.252724,-0.228037,0.0,0.0,0.0,0.0,1.0,-0.010923,0.300375,-0.916015,0.0,-0.04361937829633988,0.0,0.9990482219778186,-0.5225684151835736,0.0011353516215430709,-0.253199872761394,-0.031658818520943134,-0.031006658555300583,0.7116284528866024,0.7011570803873508,0.0,0.0,0.0,0.0,0.0,0.0,0.0,0.0,0.0,0.0,0.0,0.0,-0.0018586843832561514,0.0005385208915558075,0.005287156762624867,0.009323252855457858,-0.025566978574896922,0.0027901095322343823
415903000000,ground_plane,Floor,khm2,0.252724,-0.228037,0.0,0.0,0.0,0.0,1.0,-0.010923,0.300375,-0.916015,0.0,-0.04361937829633988,0.0,0.9990482219778186,-0.5225703291804047,0.0011358468213271112,-0.25320435659559587,-0.03166419884123585,-0.03101780951185095,0.7116288126811213,0.7011559790566483,0.0,0.0,0.0,0.0,0.0,0.0,0.0,0.0,0.0,0.0,0.0,0.0,-0.0019139968311241496,0.0004951997840403242,-0.004483834201891586,0.008233730871670038,-0.023340238121790827,0.002444422187956848
415903000000,ground_plane,Floor,khm2,0.252724,-0.228037,0.0,0.0,0.0,0.0,1.0,-0.010923,0.300375,-0.916015,0.0,-0.04361937829633988,0.0,0.9990482219778186,-0.5225698220169438,0.001138252078137014,-0.25321179406986066,-0.03165889503347819,-0.030981381473459246,0.711631886340287,0.7011547095406406,0.0,0.0,0.0,0.0,0.0,0.0,0.0,0.0,0.0,0.0,0.0,0.0,0.0005071106588723029,0.0024052231938028854,-0.007437535091247962,-0.04467979291976212,0.058748505398583034,0.004138906774094068
415903000000,ground_plane,Floor,khm2,0.252724,-0.228037,0.0,0.0,0.0,0.0,1.0,-0.010923,0.300375,-0.916015,0.0,-0.04361937829633988,0.0,0.9990482219778186,-0.5225738344773017,0.0011380490095687164,-0.2532003989812926,-0.031667228957747484,-0.031005265699447202,0.7116314735849963,0.7011536963550083,0.0,0.0,0.0,0.0,0.0,0.0,0.0,0.0,0.0,0.0,0.0,0.0,-0.0018578209088166908,-0.00018125468553322505,0.0053859959514144466,0.011887516649613118,-0.01808177739388061,0.009663117755162882
415904000000,ground_plane,Floor,khm2,0.252724,-0.228037,0.0,0.0,0.0,0.0,1.0,-0.010923,0.300375,-0.916015,0.0,-0.04361937829633988,0.0,0.9990482219778186,-0.5225757569323417,0.00113781991736735,-0.2532048081677891,-0.03166949902418651,-0.03101548514563119,0.7116342388044207,0.7011503352876551,0.0,0.0,0.0,0.0,0.0,0.0,0.0,0.0,0.0,0.0,0.0,0.0,-0.0019224550400552935,-0.00022909220136637087,-0.004409186496514592,0.01097728404081894,-0.017594994284001367,0.009167845326543488
415905000000,ground_plane,Floor,khm2,0.252724,-0.228037,0.0,0.0,0.0,0.0,1.0,-0.010923,0.300375,-0.916015,0.0,-0.04361937829633988,0.0,0.9990482219778186,-0.5225735141659146,0.0011391329336151491,-0.25320980239891006,-0.03165605220675997,-0.03098624213403363,0.7116346179273328,0.7011518506889309,0.0,0.0,0.0,0.0,0.0,0.0,0.0,0.0,0.0,0.0,0.0,0.0,0.002242526595659828,0.0013129323618081294,-0.004994527164553975,-0.022692284579099345,0.060265412872549065,-0.002640623378566156
415906000000,ground_plane,Floor,khm2,0.252724,-0.228037,0.0,0.0,0.0,0.0,1.0,-0.010923,0.300375,-0.916015,0.0,-0.04361937829633988,0.0,0.9990482219778186,-0.5225749803189568,0.0011380289071651335,-0.2532005765590063,-0.03165516057609704,-0.031004296453720517,0.7116339937670125,0.7011517263228575,0.0,0.0,0.0,0.0,0.0,0.0,0.0,0.0,0.0,0.0,0.0,0.0,-0.0003775664029867557,-0.00035976029595215036,0.0059243819344763585,0.017086490662340637,-0.01201294422931246,-5.5309174479341804e-05
415907000000,ground_plane,Floor,khm2,0.252724,-0.228037,0.0,0.0,0.0,0.0,1.0,-0.010923,0.300375,-0.916015,0.0,-0.04361937829633988,0.0,0.9990482219778186,-0.5225754135786257,0.001137608089953309,-0.25320445684228154,-0.03165343239386938,-0.031014147745661094,0.7116334955460017,0.7011518743284338,0.0,0.0,0.0,0.0,0.0,0.0,0.0,0.0,0.0,0.0,0.0,0.0,-0.0004332596689330693,-0.0004208172118246071,-0.0038802832752606793,0.016484728624761188,-0.011377199175280446,-0.00017845803763122904
415908000000,ground_plane,Floor,khm2,0.252724,-0.228037,0.0,0.0,0.0,0.0,1.0,-0.010923,0.300375,-0.916015,0.0,-0.04361937829633988,0.0,0.9990482219778186,-0.5225735317243013,0.0011388456968066988,-0.2532117754206824,-0.031643319784289456,-0.03097994734099646,0.7116362507167072,0.7011510463813386,0.0,0.0,0.0,0.0,0.0,0.0,0.0,0.0,0.0,0.0,0.0,0.0,0.0018818033948637808,0.0012375822874597512,-0.007318634229067109,-0.03471840519728003,0.06247587065978941,0.003503781022059926
415909000000,ground_plane,Floor,khm2,0.252724,-0.228037,0.0,0.0,0.0,0.0,1.0,-0.010923,0.300375,-0.916015,0.0,-0.04361937829633988,0.0,0.9990482219778186,-0.5225764625992236,0.0011374964660775554,-0.2532004197816503,-0.031643175864984364,-0.03100266326704228,0.7116368181893089,0.7011494728579097,0.0,0.0,0.0,0.0,0.0,0.0,0.0,0.0,0.0,0.0,0.0,0.0,-0.0012548097625084329,-0.0001483592577220449,0.006393714003439832,0.017618995587245268,-0.012439443108242954,0.003944980772472131
415910000000,ground_plane,Floor,khm2,0.252724,-0.228037,0.0,0.0,0.0,0.0,1.0,-0.010923,0.300375,-0.916015,0.0,-0.04361937829633988,0.0,0.9990482219778186,-0.5225777507874921,0.0011372867895330836,-0.25320387296710356,-0.031641426813152414,-0.031012757849262947,0.7116376050931503,0.7011483066920268,0.0,0.0,0.0,0.0,0.0,0.0,0.0,0.0,0.0,0.0,0.0,0.0,-0.0012881882684658015,-0.00020967654447188482,-0.0034531854532308466,0.016697451671884772,-0.011688750868113166,0.00351054739532232
415911000000,ground_plane,Floor,khm2,0.252724,-0.228037,0.0,0.0,0.0,0.0,1.0,-0.010923,0.300375,-0.916015,0.0,-0.04361937829633988,0.0,0.9990482219778186,-0.5225767948042718,0.0011387000970069481,-0.25321098613395016,-0.031631570646843396,-0.03098059815037456,0.7116414775365751,0.7011462427526937,0.0,0.0,0.0,0.0,0.0,0.0,0.0,0.0,0.0,0.0,0.0,0.0,0.0009559360280688261,0.001413288344071209,-0.007113217241683536,-0.03232134427985872,0.059243018945705155,0.006943687249607305
415912000000,ground_plane,Floor,khm2,0.252724,-0.228037,0.0,0.0,0.0,0.0,1.0,-0.010923,0.300375,-0.916015,0.0,-0.04361937829633988,0.0,0.9990482219778186,-0.5225801385111999,0.0011377523198274281,-0.253200631615558,-0.031632220652250076,-0.031001442184635044,0.7116424689419878,0.7011442858622127,0.0,0.0,0.0,0.0,0.0,0.0,0.0,0.0,0.0,0.0,0.0,0.0,-0.001958595980161021,6.547559398111468e-05,0.006195948721497099,0.016157126876479883,-0.013159630752197955,0.005232681747594143
415913000000,ground_plane,Floor,khm2,0.252724,-0.228037,0.0,0.0,0.0,0.0,1.0,-0.010923,0.300375,-0.916015,0.0,-0.04361937829633988,0.0,0.9990482219778186,-0.5225821255770169,0.0011377558975877507,-0.25320426984151007,-0.03163131299138678,-0.031011479860766304,0.7116436845928406,0.7011426490625227,0.0,0.0,0.0,0.0,0.0,0.0,0.0,0.0,0.0,0.0,0.0,0.0,-0.001987065816981429,3.577760322610682e-06,-0.0036382259520665815,0.015380350628228913,-0.01280843732065728,0.004725631207266517
415914000000,ground_plane,Floor,khm2,0.252724,-0.228037,0.0,0.0,0.0,0.0,1.0,-0.010923,0.300375,-0.916015,0.0,-0.04361937829633988,0.0,0.9990482219778186,-0.5225818109098829,0.0011394445302676567,-0.2532114603619851,-0.031622197578398695,-0.030978981129571613,0.711647982116752,0.7011401349927427,0.0,0.0,0.0,0.0,0.0,0.0,0.0,0.0,0.0,0.0,0.0,0.0,0.0003146136862090877,0.0016886060692028447,-0.007190579271499509,-0.03389794991691809,0.058662814465216706,0.008113657571325822
415915000000,ground_plane,Floor,khm2,0.252724,-0.228037,0.0,0.0,0.0,0.0,1.0,-0.010923,0.300375,-0.916015,0.0,-0.04361937829633988,0.0,0.9990482219778186,-0.5225857561280632,0.0011387847077088075,-0.2532009822295467,-0.03162409630420533,-0.03100022896514116,0.7116490095254316,0.7011380674150586,0.0,0.0,0.0,0.0,0.0,0.0,0.0,0.0,0.0,0.0,0.0,0.0,-0.002516397041551795,0.00038999658057295374,0.00615145374851177,0.01455911262224584,-0.014753562353896674,0.005490738896199908
415916000000,ground_plane,Floor,khm2,0.252724,-0.228037,0.0,0.0,0.0,0.0,1.0,-0.010923,0.300375,-0.916015,0.0,-0.04361937829633988,0.0,0.9990482219778186,-0.5225882970127285,0.0011391136519155387,-0.25320466384465906,-0.0316243426050523,-0.031010292380971607,0.7116502993572218,0.7011363021168006,0.0,0.0,0.0,0.0,0.0,0.0,0.0,0.0,0.0,0.0,0.0,0.0,-0.0025408846652265407,0.00032894420673120476,-0.003681615112389283,0.013786235931522806,-0.014490117133130281,0.004942467948800283
415917000000,ground_plane,Floor,khm2,0.252724,-0.228037,0.0,0.0,0.0,0.0,1.0,-0.010923,0.300375,-0.916015,0.0,-0.04361937829633988,0.0,0.9990482219778186,-0.5225885124516348,0.0011411542570876423,-0.2532118611645285,-0.031616371795677785,-0.030977816937362294,0.7116546662043598,0.7011336648327721,0.0,0.0,0.0,0.0,0.0,0.0,0.0,0.0,0.0,0.0,0.0,0.0,-0.00021549396315493288,0.0020405768622818645,-0.007197380751689844,-0.035482447605929696,0.056997448924214884,0.008317131782086068
415918000000,ground_plane,Floor,khm2,0.252724,-0.228037,0.0,0.0,0.0,0.0,1.0,-0.010923,0.300375,-0.916015,0.0,-0.04361937829633988,0.0,0.9990482219778186,-0.5225929218719616,0.0011408830488966804,-0.2532014415477352,-0.03161959638355009,-0.03099900484613188,0.7116556207728197,0.7011316140679605,0.0,0.0,0.0,0.0,0.0,0.0,0.0,0.0,0.0,0.0,0.0,0.0,-0.002994350137186399,0.0007698496058862673,0.006114674351658542,0.012701933228865647,-0.01658646699067567,0.005307158296361372
415919000000,ground_plane,Floor,khm2,0.252724,-0.228037,0.0,0.0,0.0,0.0,1.0,-0.010923,0.300375,-0.916015,0.0,-0.04361937829633988,0.0,0.9990482219778186,-0.5225959389869101,0.0011415925175688204,-0.2532051586351291,-0.031621162722130745,-0.031009069443393582,0.711656841300998,0.7011298595195055,0.0,0.0,0.0,0.0,0.0,0.0,0.0,0.0,0.0,0.0,0.0,0.0,-0.0030171149485483276,0.000709468672139845,-0.003717087393888204,0.011942008884589524,-0.016374195252265304,0.004748137455434033
415920000000,ground_plane,Floor,khm2,0.252724,-0.228037,0.0,0.0,0.0,0.0,1.0,-0.010923,0.300375,-0.916015,0.0,-0.04361937829633988,0.0,0.9990482219778186,-0.522596614132085,0.0011440305034532364,-0.25321236469890607,-0.03161451200621292,-0.03097656817469076,0.7116611427216636,0.7011272301050814,0.0,0.0,0.0,0.0,0.0,0.0,0.0,0.0,0.0,0.0,0.0,0.0,-0.000675200492576749,0.0024379574025882567,-0.0072061249634634075,-0.03736626274196113,0.055150772397089376,0.008130846984117614
415921000000,ground_plane,Floor,khm2,0.252724,-0.228037,0.0,0.0,0.0,0.0,1.0,-0.010923,0.300375,-0.916015,0.0,-0.04361937829633988,0.0,0.9990482219778186,-0.5226014568181617,0.0011441741666608077,-0.2532019653073485,-0.03161912984763996,-0.030997749847922727,0.7116619858437832,0.7011252299246736,0.0,0.0,0.0,0.0,0.0,0.0,0.0,0.0,0.0,0.0,0.0,0.0,-0.0034293774147686413,0.0011841689759088015,0.006092015086665893,0.010750836923095903,-0.018527385121488237,0.004994888066486861
415922000000,ground_plane,Floor,khm2,0.252724,-0.228037,0.0,0.0,0.0,0.0,1.0,-0.010923,0.300375,-0.916015,0.0,-0.04361937829633988,0.0,0.9990482219778186,-0.5226049082914315,0.001145298301395395,-0.253205704490888,-0.03162208091266983,-0.03100780597103245,0.7116630952092023,0.7011235261242298,0.0,0.0,0.0,0.0,0.0,0.0,0.0,0.0,0.0,0.0,0.0,0.0,-0.0034514732696959627,0.0011241347345873492,-0.003739183539469489,0.009998467751239063,-0.018336998476410658,0.004433647157853598
415923000000,ground_plane,Floor,khm2,0.252724,-0.228037,0.0,0.0,0.0,0.0,1.0,-0.010923,0.300375,-0.916015,0.0,-0.04361937829633988,0.0,0.9990482219778186,-0.5226060093752033,0.0011481586501949008,-0.25321292041293547,-0.03161682908549112,-0.030975297518693202,0.7116672914100313,0.7011209406367186,0.0,0.0,0.0,0.0,0.0,0.0,0.0,0.0,0.0,0.0,0.0,0.0,-0.0011011394506141602,0.002860320061681763,-0.0072159836595297785,-0.03932925549992858,0.05316552924790216,0.007833473527171536
415924000000,ground_plane,Floor,khm2,0.252724,-0.228037,0.0,0.0,0.0,0.0,1.0,-0.010923,0.300375,-0.916015,0.0,-0.04361937829633988,0.0,0.9990482219778186,-0.5226112664641588,0.0011487327233975389,-0.253202540102072,-0.03162287076749033,-0.030996466077592037,0.7116680236264218,0.7011189893896657,0.0,0.0,0.0,0.0,0.0,0.0,0.0,0.0,0.0,0.0,0.0,0.0,-0.0038452181938581818,0.001613549710945429,0.006074527698321197,0.008750959971284751,-0.020539319509418667,0.0046811755114211095
415925000000,ground_plane,Floor,khm2,0.252724,-0.228037,0.0,0.0,0.0,0.0,1.0,-0.010923,0.300375,-0.916015,0.0,-0.04361937829633988,0.0,0.9990482219778186,-0.5226151336161329,0.00115028635727477,-0.2532062965406346,-0.031627245126905415,-0.031006514100904735,0.7116690222462349,0.701117334134652,0.0,0.0,0.0,0.0,0.0,0.0,0.0,0.0,0.0,0.0,0.0,0.0,-0.003867151974084737,0.0015536338772310751,-0.0037564385625770964,0.008001225679362846,-0.020355359002279246,0.004120602075468032
415926000000,ground_plane,Floor,khm2,0.252724,-0.228037,0.0,0.0,0.0,0.0,1.0,-0.010923,0.300375,-0.916015,0.0,-0.04361937829633988,0.0,0.9990482219778186,-0.5226166466802622,0.001153579199892099,-0.2532135245710577,-0.03162342912984114,-0.03097400092058641,0.7116731123812577,0.7011147916786632,0.0,0.0,0.0,0.0,0.0,0.0,0.0,0.0,0.0,0.0,0.0,0.0,-0.0015131199816916536,0.003292813785374417,-0.0072280922303151396,-0.041340521836695385,0.05112415813323973,0.007533784986587839
415927000000,ground_plane,Floor,khm2,0.252724,-0.228037,0.0,0.0,0.0,0.0,1.0,-0.010923,0.300375,-0.916015,0.0,-0.04361937829633988,0.0,0.9990482219778186,-0.5226223134570734,0.001154587589020489,-0.2532031605279477,-0.03163091243672536,-0.0309951615356685,0.7116737451252605,0.701112876674779,0.0,0.0,0.0,0.0,0.0,0.0,0.0,0.0,0.0,0.0,0.0,0.0,-0.004255415218808141,0.002047384695078983,0.006059233577914981,0.006729587785812303,-0.022588798004984433,0.004398655459858982
415928000000,ground_plane,Floor,khm2,0.252724,-0.228037,0.0,0.0,0.0,0.0,1.0,-0.010923,0.300375,-0.916015,0.0,-0.04361937829633988,0.0,0.9990482219778186,-0.5226265908728962,0.001156575027915578,-0.253206932213206,-0.031636728923670664,-0.03100520384509183,0.7116746439477726,0.7011112578466743,0.0,0.0,0.0,0.0,0.0,0.0,0.0,0.0,0.0,0.0,0.0,0.0,-0.004277415822789246,0.001987438895089158,-0.00377168525829261,0.005979539807727218,-0.022403957518573773,0.0038392359096081274
415929000000,ground_plane,Floor,khm2,0.252724,-0.228037,0.0,0.0,0.0,0.0,1.0,-0.010923,0.300375,-0.916015,0.0,-0.04361937829633988,0.0,0.9990482219778186,-0.5226285131895327,0.0011603021510495956,-0.25321417426125575,-0.031634365363560395,-0.030972688837157175,0.7116786376882409,0.7011087477220997,0.0,0.0,0.0,0.0,0.0,0.0,0.0,0.0,0.0,0.0,0.0,0.0,-0.0019223725732168343,0.00372709427137957,-0.0072421099471288684,-0.04337218861971292,0.04905503446096469,0.007261769080860647
415930000000,ground_plane,Floor,khm2,0.252724,-0.228037,0.0,0.0,0.0,0.0,1.0,-0.010923,0.300375,-0.916015,0.0,-0.04361937829633988,0.0,0.9990482219778186,-0.5226345911142221,0.0011617436411221341,-0.2532038257830038,-0.031643300900089336,-0.030993845483908048,0.7116791825797877,0.7011068564297681,0.0,0.0,0.0,0.0,0.0,0.0,0.0,0.0,0.0,0.0,0.0,0.0,-0.004666674536973289,0.0024802826645293295,0.006044413201744628,0.004697151141662198,-0.024660210808954676,0.004150100986757756
415931000000,ground_plane,Floor,khm2,0.252724,-0.228037,0.0,0.0,0.0,0.0,1.0,-0.010923,0.300375,-0.916015,0.0,-0.04361937829633988,0.0,0.9990482219778186,-0.522639279932232,0.0011641638819103004,-0.25320761232472005,-0.031650570146337195,-0.031003884918361,0.7116799932424973,0.7011052615319185,0.0,0.0,0.0,0.0,0.0,0.0,0.0,0.0,0.0,0.0,0.0,0.0,-0.0046888180099610875,0.0024202407881662607,-0.003786541716239609,0.0039454894648331814,-0.02447173506342784,0.0035915914647359874
415932000000,ground_plane,Floor,khm2,0.252724,-0.228037,0.0,0.0,0.0,0.0,1.0,-0.010923,0.300375,-0.916015,0.0,-0.04361937829633988,0.0,0.9990482219778186,-0.5226416139401533,0.0011683232250923256,-0.2532148697042345,-0.031649667035582724,-0.030971369624677694,0.7116839010686821,0.7011027726373434,0.0,0.0,0.0,0.0,0.0,0.0,0.0,0.0,0.0,0.0,0.0,0.0,-0.002334063885330246,0.004159314323167881,-0.007257441437227026,-0.04541421631439577,0.04697232096258087,0.007019576134350192
415933000000,ground_plane,Floor,khm2,0.252724,-0.228037,0.0,0.0,0.0,0.0,1.0,-0.010923,0.300375,-0.916015,0.0,-0.04361937829633988,0.0,0.9990482219778186,-0.5226481069949458,0.0011701947659894963,-0.2532045367209874,-0.03166006185368718,-0.030992525665372795,0.7116843669061595,0.7011008955476242,0.0,0.0,0.0,0.0,0.0,0.0,0.0,0.0,0.0,0.0,0.0,0.0,-0.005081679199607309,0.0029102982396745176,0.006029339376623533,0.002657801783788055,-0.02674529663241333,0.003927904042134259
415934000000,ground_plane,Floor,khm2,0.252724,-0.228037,0.0,0.0,0.0,0.0,1.0,-0.010923,0.300375,-0.916015,0.0,-0.04361937829633988,0.0,0.9990482219778186,-0.5226532109652154,0.0011730449156802214,-0.2532083384014334,-0.03166879064418313,-0.031002564679531348,0.7116850983493527,0.7010993149831902,0.0,0.0,0.0,0.0,0.0,0.0,0.0,0.0,0.0,0.0,0.0,0.0,-0.005103970269700708,0.00285014969072514,-0.0038016804460256053,0.0019042731248804917,-0.0265526674063732,0.0033699740443644405
415935000000,ground_plane,Floor,khm2,0.252724,-0.228037,0.0,0.0,0.0,0.0,1.0,-0.010923,0.300375,-0.916015,0.0,-0.04361937829633988,0.0,0.9990482219778186,-0.522655960907897,0.001177633333974783,-0.2532156118785646,-0.0316693525440062,-0.030970049895451553,0.7116889282985717,0.7010968388576198,0.0,0.0,0.0,0.0,0.0,0.0,0.0,0.0,0.0,0.0,0.0,0.0,-0.0027499986416378917,0.004588389453629811,-0.007273539045409828,-0.04746251212412892,0.04488198491019991,0.006800187683744106
415936000000,ground_plane,Floor,khm2,0.252724,-0.228037,0.0,0.0,0.0,0.0,1.0,-0.010923,0.300375,-0.916015,0.0,-0.04361937829633988,0.0,0.9990482219778186,-0.5226622381993139,0.001178559279961112,-0.2532058191751178,-0.031680971795042104,-0.030991538371945446,0.7116917848508864,0.7010924646230492,0.0,0.0,0.0,0.0,0.0,0.0,0.0,0.0,0.0,0.0,0.0,0.0,-0.0038793015788106846,0.0012986057449277436,0.0052595967612969535,0.010927335662264222,-0.01889460895455698,0.011457354252236637
415937000000,ground_plane,Floor,khm2,0.252724,-0.228037,0.0,0.0,0.0,0.0,1.0,-0.010923,0.300375,-0.916015,0.0,-0.04361937829633988,0.0,0.9990482219778186,-0.5226661386911954,0.0011797798305193958,-0.2532103327648533,-0.031684193457845684,-0.031001902850502753,0.7116950940233129,0.701088501580023,0.0,0.0,0.0,0.0,0.0,0.0,0.0,0.0,0.0,0.0,0.0,0.0,-0.0039004918814903324,0.0012205505582838002,-0.00451358973545446,0.009779042660269261,-0.019154543539080145,0.010738026967899857
415938000000,ground_plane,Floor,khm2,0.252724,-0.228037,0.0,0.0,0.0,0.0,1.0,-0.010923,0.300375,-0.916015,0.0,-0.04361937829633988,0.0,0.9990482219778186,-0.5226650257334613,0.0011818187528079313,-0.2532140331494547,-0.031665970483671806,-0.030975410773200977,0.7116972967581763,0.7010882597989093,0.0,0.0,0.0,0.0,0.0,0.0,0.0,0.0,0.0,0.0,0.0,0.0,0.0011128119989112352,0.0020388775777038714,-0.0037005637079106216,-0.012308694975090757,0.06321049407897937,0.0028845157063029227
415939000000,ground_plane,Floor,khm2,0.252724,-0.228037,0.0,0.0,0.0,0.0,1.0,-0.010923,0.300375,-0.916015,0.0,-0.04361937829633988,0.0,0.9990482219778186,-0.5226666956158692,0.0011814643115485076,-0.2532061492994927,-0.031664448441009393,-0.030990392626857564,0.7116977693630958,0.7010871866988824,0.0,0.0,0.0,0.0,0.0,0.0,0.0,0.0,0.0,0.0,0.0,0.0,-0.001032425305563015,0.0001086001498834148,0.005833647390171625,0.017659575167670097,-0.010985133443023144,0.0031649110434096212
415940000000,ground_plane,Floor,khm2,0.252724,-0.228037,0.0,0.0,0.0,0.0,1.0,-0.010923,0.300375,-0.916015,0.0,-0.04361937829633988,0.0,0.9990482219778186,-0.522667767003455,0.0011815038156377214,-0.2532101129627901,-0.03166229099092221,-0.031000190412790084,0.7116983285904637,0.7010862832812503,0.0,0.0,0.0,0.0,0.0,0.0,0.0,0.0,0.0,0.0,0.0,0.0,-0.0010713875857152905,3.9504089213905354e-05,-0.0039636632974038915,0.016879372217284288,-0.010687878803979775,0.002824258336680089
415941000000,ground_plane,Floor,khm2,0.252724,-0.228037,0.0,0.0,0.0,0.0,1.0,-0.010923,0.300375,-0.916015,0.0,-0.04361937829633988,0.0,0.9990482219778186,-0.5226664685916181,0.0011832289003556895,-0.2532174300485289,-0.03165197329540313,-0.030965749793279672,0.7117022807038501,0.7010842592493326,0.0,0.0,0.0,0.0,0.0,0.0,0.0,0.0,0.0,0.0,0.0,0.0,0.0012983632851658524,0.0017250648891407657,-0.007317137714129277,-0.03492837734562448,0.06310315473904844,0.006880942624206042
415942000000,ground_plane,Floor,khm2,0.252724,-0.228037,0.0,0.0,0.0,0.0,1.0,-0.010923,0.300375,-0.916015,0.0,-0.04361937829633988,0.0,0.9990482219778186,-0.5226698686380088,0.0011823195525191713,-0.2532060669668312,-0.03165296051927975,-0.030988492550779286,0.7117032016568985,0.7010822748944058,0.0,0.0,0.0,0.0,0.0,0.0,0.0,0.0,0.0,0.0,0.0,0.0,-0.0017263941307193225,0.00031571040198325796,0.006348026910784702,0.01612227057571254,-0.013406901332852984,0.005250475493908612
415943000000,ground_plane,Floor,khm2,0.252724,-0.228037,0.0,0.0,0.0,0.0,1.0,-0.010923,0.300375,-0.916015,0.0,-0.04361937829633988,0.0,0.9990482219778186,-0.5226716248866732,0.0011825706013059386,-0.2532095630764076,-0.03165213174250212,-0.030998471386634252,0.7117044116202454,0.7010806428707954,0.0,0.0,0.0,0.0,0.0,0.0,0.0,0.0,0.0,0.0,0.0,0.0,-0.0017562486643936074,0.0002510487867672794,-0.003496109576401145,0.015187713633507467,-0.012836833771355017,0.004702685050047846
415944000000,ground_plane,Floor,khm2,0.252724,-0.228037,0.0,0.0,0.0,0.0,1.0,-0.010923,0.300375,-0.916015,0.0,-0.04361937829633988,0.0,0.9990482219778186,-0.5226711252185204,0.0011844643387365857,-0.2532166989277105,-0.031643189418875214,-0.03096624226920765,0.7117086935226036,0.701078124011493,0.0,0.0,0.0,0.0,0.0,0.0,0.0,0.0,0.0,0.0,0.0,0.0,0.0004996195384143447,0.0018937166240674884,-0.007135903603712832,-0.03376126332603229,0.05803441311988814,0.00810308431431457
415945000000,ground_plane,Floor,khm2,0.252724,-0.228037,0.0,0.0,0.0,0.0,1.0,-0.010923,0.300375,-0.916015,0.0,-0.04361937829633988,0.0,0.9990482219778186,-0.5226748850994771,0.0011839779720255763,-0.25320635455875945,-0.03164523096746451,-0.030987078645357227,0.7117097149643684,0.7010760742882186,0.0,0.0,0.0,0.0,0.0,0.0,0.0,0.0,0.0,0.0,0.0,0.0,-0.0023775432831514157,0.0005342024223456247,0.006171907878746979,0.014252015021701214,-0.014942068758296751,0.0054292108996581165
415946000000,ground_plane,Floor,khm2,0.252724,-0.228037,0.0,0.0,0.0,0.0,1.0,-0.010923,0.300375,-0.916015,0.0,-0.04361937829633988,0.0,0.9990482219778186,-0.5226772900360405,0.0011844487632605022,-0.2532100163515825,-0.03164564673632375,-0.0309970752036831,0.7117109839806235,0.7010743253413221,0.0,0.0,0.0,0.0,0.0,0.0,0.0,0.0,0.0,0.0,0.0,0.0,-0.0024049365632897706,0.0004707912349258948,-0.003661792823053713,0.013456986284882755,-0.01463658209343843,0.0048757587329142605
415947000000,ground_plane,Floor,khm2,0.252724,-0.228037,0.0,0.0,0.0,0.0,1.0,-0.010923,0.300375,-0.916015,0.0,-0.04361937829633988,0.0,0.9990482219778186,-0.5226773881588624,0.001186614562655288,-0.25321721745458675,-0.03163784811899124,-0.030964523419556477,0.7117153288665419,0.701071704971888,0.0,0.0,0.0,0.0,0.0,0.0,0.0,0.0,0.0,0.0,0.0,0.0,-9.817618853493578e-05,0.0021657727663023873,-0.007201161742008944,-0.035835042939204295,0.05685623536569636,0.008244941657592776
415948000000,ground_plane,Floor,khm2,0.252724,-0.228037,0.0,0.0,0.0,0.0,1.0,-0.010923,0.300375,-0.916015,0.0,-0.04361937829633988,0.0,0.9990482219778186,-0.5226817365824935,0.0011864196333271698,-0.2532067549430544,-0.03164124550375059,-0.0309857558422664,0.7117162602374293,0.7010696680298631,0.0,0.0,0.0,0.0,0.0,0.0,0.0,0.0,0.0,0.0,0.0,0.0,-0.002921488815335395,0.0008576532383161369,0.00613419541923979,0.012483773669252648,-0.016812202018363625,0.005261962926811134
415949000000,ground_plane,Floor,khm2,0.252724,-0.228037,0.0,0.0,0.0,0.0,1.0,-0.010923,0.300375,-0.916015,0.0,-0.04361937829633988,0.0,0.9990482219778186,-0.5226846825796556,0.001187215408318426,-0.2532104537814435,-0.03164296315819871,-0.030995797507395416,0.7117174634816513,0.7010679250933491,0.0,0.0,0.0,0.0,0.0,0.0,0.0,0.0,0.0,0.0,0.0,0.0,-0.002945997162086637,0.0007957749912564149,-0.003698838389156866,0.01170037760988356,-0.016556646997109487,0.004697084510566851
415950000000,ground_plane,Floor,khm2,0.252724,-0.228037,0.0,0.0,0.0,0.0,1.0,-0.010923,0.300375,-0.916015,0.0,-0.04361937829633988,0.0,0.9990482219778186,-0.5226853021364124,0.0011897263745124062,-0.25321766277659397,-0.03163647312922224,-0.03096329006850212,0.7117217438086186,0.7010653091018675,0.0,0.0,0.0,0.0,0.0,0.0,0.0,0.0,0.0,0.0,0.0,0.0,-0.0006196115993672479,0.0025109380956602895,-0.0072090557710863335,-0.03760295851203561,0.0549272286838797,0.00807000584588251
415951000000,ground_plane,Floor,khm2,0.252724,-0.228037,0.0,0.0,0.0,0.0,1.0,-0.010923,0.300375,-0.916015,0.0,-0.04361937829633988,0.0,0.9990482219778186,-0.5226901198224309,0.0011899158337144065,-0.2532072581243021,-0.031641235626607686,-0.030984474780378114,0.7117225722321421,0.7010633171874484,0.0,0.0,0.0,0.0,0.0,0.0,0.0,0.0,0.0,0.0,0.0,0.0,-0.003402828187178503,0.0012319872525948256,0.006099340452563019,0.010567033393499046,-0.01876125234211941,0.004967931056490046
415952000000,ground_plane,Floor,khm2,0.252724,-0.228037,0.0,0.0,0.0,0.0,1.0,-0.010923,0.300375,-0.916015,0.0,-0.04361937829633988,0.0,0.9990482219778186,-0.5226935457869012,0.001191086949655921,-0.25321099071828723,-0.03164433057651686,-0.03099453151721018,0.7117236709221647,0.7010616175540285,0.0,0.0,0.0,0.0,0.0,0.0,0.0,0.0,0.0,0.0,0.0,0.0,-0.003425964470334664,0.0011711159415145863,-0.003732593985090735,0.009800059843977457,-0.018542106666677063,0.00440446184757189
415953000000,ground_plane,Floor,khm2,0.252724,-0.228037,0.0,0.0,0.0,0.0,1.0,-0.010923,0.300375,-0.916015,0.0,-0.04361937829633988,0.0,0.9990482219778186,-0.5226946307569691,0.0011939872831288765,-0.2532182099270709,-0.03163922238631135,-0.030962009082306882,0.7117278522600844,0.7010590402509794,0.0,0.0,0.0,0.0,0.0,0.0,0.0,0.0,0.0,0.0,0.0,0.0,-0.0010850250837131786,0.0029003053157901277,-0.007219269587625872,-0.039553708518028835,0.05297710437278165,0.007789403766625826
415954000000,ground_plane,Floor,khm2,0.252724,-0.228037,0.0,0.0,0.0,0.0,1.0,-0.010923,0.300375,-0.916015,0.0,-0.04361937829633988,0.0,0.9990482219778186,-0.5226998918099888,0.0011945858036416885,-0.2532078265773011,-0.03164539110088234,-0.030983195524261663,0.7117285742847766,0.7010570927989652,0.0,0.0,0.0,0.0,0.0,0.0,0.0,0.0,0.0,0.0,0.0,0.0,-0.0038475910167474715,0.0016396702509534474,0.006076230688298933,0.008599292419223078,-0.020749148108995585,0.00465751860405577
415955000000,ground_plane,Floor,khm2,0.252724,-0.228037,0.0,0.0,0.0,0.0,1.0,-0.010923,0.300375,-0.916015,0.0,-0.04361937829633988,0.0,0.9990482219778186,-0.5227037619195422,0.0011961651346290977,-0.25321158176562614,-0.031649891086355714,-0.03099325348992582,0.7117295636075479,0.7010554406887808,0.0,0.0,0.0,0.0,0.0,0.0,0.0,0.0,0.0,0.0,0.0,0.0,-0.0038701095533899372,0.0015793309874090823,-0.003755188325006288,0.00784172155042796,-0.020547713121492808,0.004096580198792892
415956000000,ground_plane,Floor,khm2,0.252724,-0.228037,0.0,0.0,0.0,0.0,1.0,-0.010923,0.300375,-0.916015,0.0,-0.04361937829633988,0.0,0.9990482219778186,-0.5227052832046623,0.0011994805650072994,-0.2532188119505272,-0.031646201844589314,-0.03096072805976452,0.7117336416675616,0.7010529042415072,0.0,0.0,0.0,0.0,0.0,0.0,0.0,0.0,0.0,0.0,0.0,0.0,-0.0015213404242505905,0.003315402039829619,-0.0072302460372690785,-0.04153897057430194,0.05095719808080291,0.007497897357974541
415957000000,ground_plane,Floor,khm2,0.252724,-0.228037,0.0,0.0,0.0,0.0,1.0,-0.010923,0.300375,-0.916015,0.0,-0.04361937829633988,0.0,0.9990482219778186,-0.5227109694270641,0.0012005043099635889,-0.25320844871896586,-0.03165379882433789,-0.030981907235346468,0.7117342657563742,0.7010509920057768,0.0,0.0,0.0,0.0,0.0,0.0,0.0,0.0,0.0,0.0,0.0,0.0,-0.004273945695319055,0.0020635998361003202,0.006057601169325283,0.006594461479787778,-0.022779283352178607,0.00437831858890556
415958000000,ground_plane,Floor,khm2,0.252724,-0.228037,0.0,0.0,0.0,0.0,1.0,-0.010923,0.300375,-0.916015,0.0,-0.04361937829633988,0.0,0.9990482219778186,-0.5227152656696805,0.001202507804968935,-0.25321222229521967,-0.03165972935316216,-0.03099196291641119,0.7117351565688533,0.7010493753479725,0.0,0.0,0.0,0.0,0.0,0.0,0.0,0.0,0.0,0.0,0.0,0.0,-0.004296242616442369,0.0020034950053462136,-0.003773576253826377,0.005841194467244575,-0.022584790615816162,0.0038193942784414845
415959000000,ground_plane,Floor,khm2,0.252724,-0.228037,0.0,0.0,0.0,0.0,1.0,-0.010923,0.300375,-0.916015,0.0,-0.04361937829633988,0.0,0.9990482219778186,-0.5227172093787662,0.0012062505181336593,-0.25321946535239676,-0.03165748122914228,-0.03095943425840401,0.7117391401408392,0.701046869834111,0.0,0.0,0.0,0.0,0.0,0.0,0.0,0.0,0.0,0.0,0.0,0.0,-0.0019437645216437635,0.0037426847629608833,-0.007243118459081648,-0.04355678651738685,0.04890600485037098,0.007231180945157293
415960000000,ground_plane,Floor,khm2,0.252724,-0.228037,0.0,0.0,0.0,0.0,1.0,-0.010923,0.300375,-0.916015,0.0,-0.04361937829633988,0.0,0.9990482219778186,-0.5227233146812817,0.0012077052222205184,-0.2532091192052761,-0.031666522585405095,-0.030980609548139346,0.7117396765622268,0.7010449814287744,0.0,0.0,0.0,0.0,0.0,0.0,0.0,0.0,0.0,0.0,0.0,0.0,-0.004693400657353632,0.0024939909889638984,0.006041123683621833,0.0045704728274893,-0.024837148159931797,0.004129748379851141
415961000000,ground_plane,Floor,khm2,0.252724,-0.228037,0.0,0.0,0.0,0.0,1.0,-0.010923,0.300375,-0.916015,0.0,-0.04361937829633988,0.0,0.9990482219778186,-0.522728030362882,0.001210139156374336,-0.25321290918183287,-0.03167389882350678,-0.03099066303754245,0.7117404792883794,0.7010433888713024,0.0,0.0,0.0,0.0,0.0,0.0,0.0,0.0,0.0,0.0,0.0,0.0,-0.00471568160026033,0.0024339341538176405,-0.0037899765567288414,0.0038181857811393476,-0.024643656937985398,0.0035721443550865394
415962000000,ground_plane,Floor,khm2,0.252724,-0.228037,0.0,0.0,0.0,0.0,1.0,-0.010923,0.300375,-0.916015,0.0,-0.04361937829633988,0.0,0.9990482219778186,-0.5227303922288425,0.001214313231504935,-0.2532201666878778,-0.03167310490663816,-0.03095813284504396,0.7117443775494796,0.7010409042723722,0.0,0.0,0.0,0.0,0.0,0.0,0.0,0.0,0.0,0.0,0.0,0.0,-0.002361921457169074,0.0041740467109293525,-0.0072575673908302045,-0.04559171619486895,0.0468337669020892,0.0069906154861044895
415963000000,ground_plane,Floor,khm2,0.252724,-0.228037,0.0,0.0,0.0,0.0,1.0,-0.010923,0.300375,-0.916015,0.0,-0.04361937829633988,0.0,0.9990482219778186,-0.5227365624332352,0.0012152099479798247,-0.25321043061159965,-0.031685472053238205,-0.030980073851114755,0.7117467375398141,0.701036980113299,0.0,0.0,0.0,0.0,0.0,0.0,0.0,0.0,0.0,0.0,0.0,0.0,-0.003802639791100638,0.00118344121044802,0.005197179057549897,0.009471168504598296,-0.02061269194119929,0.010779606128697659
415964000000,ground_plane,Floor,khm2,0.252724,-0.228037,0.0,0.0,0.0,0.0,1.0,-0.010923,0.300375,-0.916015,0.0,-0.04361937829633988,0.0,0.9990482219778186,-0.5227403985314081,0.001216334927602676,-0.25321501135405405,-0.03168970753023413,-0.030990504450008505,0.7117497943239058,0.7010332241416665,0.0,0.0,0.0,0.0,0.0,0.0,0.0,0.0,0.0,0.0,0.0,0.0,-0.0038360981728393665,0.0011249796228512022,-0.0045807424543890555,0.00848201919970931,-0.02069265423089404,0.010031004608633941
415965000000,ground_plane,Floor,khm2,0.252724,-0.228037,0.0,0.0,0.0,0.0,1.0,-0.010923,0.300375,-0.916015,0.0,-0.04361937829633988,0.0,0.9990482219778186,-0.5227391625712764,0.0012183317289752732,-0.2532185869696854,-0.03167077550551539,-0.030963938515337356,0.7117516729354477,0.7010333462568591,0.0,0.0,0.0,0.0,0.0,0.0,0.0,0.0,0.0,0.0,0.0,0.0,0.0012358130282398034,0.0019967573869570554,-0.0035757966915599426,-0.011381432253019696,0.06432448865806446,0.0019502969515905507
415965000000,ground_plane,Floor,khm2,0.252724,-0.228037,0.0,0.0,0.0,0.0,1.0,-0.010923,0.300375,-0.916015,0.0,-0.04361937829633988,0.0,0.9990482219778186,-0.5227406894191083,0.0012179093108037721,-0.25321071600515405,-0.03166885041599577,-0.030978751582934127,0.711752140963521,0.7010323036048598,0.0,0.0,0.0,0.0,0.0,0.0,0.0,0.0,0.0,0.0,0.0,0.0,-0.000902533863961792,3.1073257142049196e-05,0.005866671542189873,0.018081259669440783,-0.010303105797844332,0.003152892923697819
415967000000,ground_plane,Floor,khm2,0.252724,-0.228037,0.0,0.0,0.0,0.0,1.0,-0.010923,0.300375,-0.916015,0.0,-0.04361937829633988,0.0,0.9990482219778186,-0.5227416305854092,0.001217869367616566,-0.2532146471796715,-0.03166631306525286,-0.030988456286724555,0.7117527094594855,0.7010314121142507,0.0,0.0,0.0,0.0,0.0,0.0,0.0,0.0,0.0,0.0,0.0,0.0,-0.0009411663008856958,-3.9943187206132466e-05,-0.003931174517467352,0.01728052951807222,-0.010013919366146932,0.002837990312800416
415968000000,ground_plane,Floor,khm2,0.252724,-0.228037,0.0,0.0,0.0,0.0,1.0,-0.010923,0.300375,-0.916015,0.0,-0.04361937829633988,0.0,0.9990482219778186,-0.5227402107454552,0.0012195021628672834,-0.25322195374176787,-0.03165570232211587,-0.030954042741115313,0.7117566863042628,0.7010293740276867,0.0,0.0,0.0,0.0,0.0,0.0,0.0,0.0,0.0,0.0,0.0,0.0,0.0014197905495409386,0.001632774758909246,-0.007306615100456178,-0.03448618953829558,0.0634804742183152,0.006954765281711933
415969000000,ground_plane,Floor,khm2,0.252724,-0.228037,0.0,0.0,0.0,0.0,1.0,-0.010923,0.300375,-0.916015,0.0,-0.04361937829633988,0.0,0.9990482219778186,-0.5227434915939483,0.0012184968582900212,-0.2532105992695714,-0.03165636460483419,-0.03097672674448429,0.7117576654264736,0.701027348030631,0.0,0.0,0.0,0.0,0.0,0.0,0.0,0.0,0.0,0.0,0.0,0.0,-0.0016110337712617244,0.00021697810630216872,0.006353763872216669,0.016519968259320086,-0.012921542155246338,0.005400537791799713
415970000000,ground_plane,Floor,khm2,0.252724,-0.228037,0.0,0.0,0.0,0.0,1.0,-0.010923,0.300375,-0.916015,0.0,-0.04361937829633988,0.0,0.9990482219778186,-0.5227451326569624,0.0012186483775016412,-0.25321408956371066,-0.03165522317602396,-0.030986675556817125,0.7117589323994432,0.701025673519321,0.0,0.0,0.0,0.0,0.0,0.0,0.0,0.0,0.0,0.0,0.0,0.0,-0.0016410630141880358,0.0001515192116200447,-0.0034902941392423166,0.015578121271906996,-0.01234746388371991,0.00486065984144201
415971000000,ground_plane,Floor,khm2,0.252724,-0.228037,0.0,0.0,0.0,0.0,1.0,-0.010923,0.300375,-0.916015,0.0,-0.04361937829633988,0.0,0.9990482219778186,-0.5227445216711317,0.0012204408464902333,-0.2532212218123648,-0.03164596485003739,-0.030954403608004364,0.7117632652937983,0.7010231180098793,0.0,0.0,0.0,0.0,0.0,0.0,0.0,0.0,0.0,0.0,0.0,0.0,0.0006109379175396229,0.0017924487892772832,-0.00713230010173426,-0.03338907544427744,0.058542770372041184,0.008243017137295644
415972000000,ground_plane,Floor,khm2,0.252724,-0.228037,0.0,0.0,0.0,0.0,1.0,-0.010923,0.300375,-0.916015,0.0,-0.04361937829633988,0.0,0.9990482219778186,-0.5227481780866304,0.0012198492026653182,-0.25321086675845206,-0.03164767273299301,-0.030975247592490117,0.7117643355227069,0.7010210335825089,0.0,0.0,0.0,0.0,0.0,0.0,0.0,0.0,0.0,0.0,0.0,0.0,-0.0022714973637997975,0.0004311709057342513,0.006176656840590582,0.014704979094442506,-0.01445538760224917,0.005568941477023045
415973000000,ground_plane,Floor,khm2,0.252724,-0.228037,0.0,0.0,0.0,0.0,1.0,-0.010923,0.300375,-0.916015,0.0,-0.04361937829633988,0.0,0.9990482219778186,-0.5227504770154021,0.0012202165516847175,-0.2532145239125422,-0.03164775570794944,-0.030985234246602218,0.7117656549991098,0.7010192487949395,0.0,0.0,0.0,0.0,0.0,0.0,0.0,0.0,0.0,0.0,0.0,0.0,-0.0022989287716307528,0.00036734901939935197,-0.003657154090125313,0.013905243115332724,-0.014146878164562207,0.0050176260831240535
415974000000,ground_plane,Floor,khm2,0.252724,-0.228037,0.0,0.0,0.0,0.0,1.0,-0.010923,0.300375,-0.916015,0.0,-0.04361937829633988,0.0,0.9990482219778186,-0.5227504716973368,0.0012222786699019226,-0.2532217204776585,-0.031639620688170896,-0.030952657406395606,0.7117700446341325,0.7010165982084277,0.0,0.0,0.0,0.0,0.0,0.0,0.0,0.0,0.0,0.0,0.0,0.0,5.265146550603585e-06,0.0020620919398416106,-0.007196623324045026,-0.035408074460360886,0.05736854883343387,0.008369444848361949
415975000000,ground_plane,Floor,khm2,0.252724,-0.228037,0.0,0.0,0.0,0.0,1.0,-0.010923,0.300375,-0.916015,0.0,-0.04361937829633988,0.0,0.9990482219778186,-0.522754719640465,0.0012219784597484505,-0.25321125407969003,-0.03164267488081142,-0.03097389538589023,0.7117710129746915,0.7010145390931583,0.0,0.0,0.0,0.0,0.0,0.0,0.0,0.0,0.0,0.0,0.0,0.0,-0.0028204473405578578,0.0007532401807497295,0.006136746221852657,0.012963458882426985,-0.01632297891325383,0.0053692265917311315
415976000000,ground_plane,Floor,khm2,0.252724,-0.228037,0.0,0.0,0.0,0.0,1.0,-0.010923,0.300375,-0.916015,0.0,-0.04361937829633988,0.0,0.9990482219778186,-0.522757564583988,0.0012226696040892292,-0.2532149504270605,-0.03164405000206699,-0.030983936780086416,0.7117722543639297,0.7010127728356764,0.0,0.0,0.0,0.0,0.0,0.0,0.0,0.0,0.0,0.0,0.0,0.0,-0.0028449435229985346,0.0006911443407786068,-0.0036963473704561176,0.012177707108403118,-0.016066723544341705,0.0048050929835099935
415979000000,ground_plane,Floor,khm2,0.252724,-0.228037,0.0,0.0,0.0,0.0,1.0,-0.010923,0.300375,-0.916015,0.0,-0.04361937829633988,0.0,0.9990482219778186,-0.5227580842021629,0.0012250767221392872,-0.25322215461407,-0.031637216295717314,-0.030951406906353417,0.7117765695504121,0.7010101368700902,0.0,0.0,0.0,0.0,0.0,0.0,0.0,0.0,0.0,0.0,0.0,0.0,-0.0005196725688052158,0.002407090350525343,-0.007204247083084544,-0.03716065735858028,0.055446085808641674,0.008166781559448562
415979000000,ground_plane,Floor,khm2,0.252724,-0.228037,0.0,0.0,0.0,0.0,1.0,-0.010923,0.300375,-0.916015,0.0,-0.04361937829633988,0.0,0.9990482219778186,-0.5227628034688752,0.0012251614970662174,-0.25321174657337564,-0.031641634229821476,-0.03097260150358765,0.7117774254172926,0.7010081323392024,0.0,0.0,0.0,0.0,0.0,0.0,0.0,0.0,0.0,0.0,0.0,0.0,-0.0033039537822362446,0.0011280320371996068,0.006101211833302634,0.011055360668654158,-0.018275799335682862,0.005048806985288176
415979000000,ground_plane,Floor,khm2,0.252724,-0.228037,0.0,0.0,0.0,0.0,1.0,-0.010923,0.300375,-0.916015,0.0,-0.04361937829633988,0.0,0.9990482219778186,-0.5227661305342173,0.0012262285509667124,-0.25321547734649397,-0.03164438515933083,-0.030982662451432694,0.711778552629962,0.7010064190371619,0.0,0.0,0.0,0.0,0.0,0.0,0.0,0.0,0.0,0.0,0.0,0.0,-0.0033270653421063213,0.0010670539004950168,-0.0037307731183442603,0.010287214423669548,-0.018056508705937988,0.00448563270394739
415980000000,ground_plane,Floor,khm2,0.252724,-0.228037,0.0,0.0,0.0,0.0,1.0,-0.010923,0.300375,-0.916015,0.0,-0.04361937829633988,0.0,0.9990482219778186,-0.5227671170306556,0.0012290260630117976,-0.2532226914019174,-0.03163893374280264,-0.03095012036650429,0.7117827604644401,0.7010038301083233,0.0,0.0,0.0,0.0,0.0,0.0,0.0,0.0,0.0,0.0,0.0,0.0,-0.0009865510355258642,0.002797484279265911,-0.007214115710836012,-0.03910688563399681,0.05349124267627605,0.007862823707125339
415981000000,ground_plane,Floor,khm2,0.252724,-0.228037,0.0,0.0,0.0,0.0,1.0,-0.010923,0.300375,-0.916015,0.0,-0.04361937829633988,0.0,0.9990482219778186,-0.5227722803562219,0.0012295214224348238,-0.2532123053780417,-0.031644759428840735,-0.0309713175985065,0.711783503346163,0.7010018766388334,0.0,0.0,0.0,0.0,0.0,0.0,0.0,0.0,0.0,0.0,0.0,0.0,-0.00374963680128768,0.0015370080199972648,0.00607780657141331,0.009088576686319133,-0.020269643380840495,0.004719032210269305
415982000000,ground_plane,Floor,khm2,0.252724,-0.228037,0.0,0.0,0.0,0.0,1.0,-0.010923,0.300375,-0.916015,0.0,-0.04361937829633988,0.0,0.9990482219778186,-0.5227760524931768,0.0012309980423550436,-0.25321605903488065,-0.03164891726533952,-0.030981381988604693,0.7117845142963788,0.7010002176988791,0.0,0.0,0.0,0.0,0.0,0.0,0.0,0.0,0.0,0.0,0.0,0.0,-0.00377213695492626,0.0014766199202198836,-0.0037536568389823144,0.008330416878037053,-0.020068048111894082,0.004158391239446985
415983000000,ground_plane,Floor,khm2,0.252724,-0.228037,0.0,0.0,0.0,0.0,1.0,-0.010923,0.300375,-0.916015,0.0,-0.04361937829633988,0.0,0.9990482219778186,-0.5227774758756558,0.0012342121977821,-0.25322328385483717,-0.03164488793733678,-0.03094883828112077,0.711788612739942,0.7009976756382515,0.0,0.0,0.0,0.0,0.0,0.0,0.0,0.0,0.0,0.0,0.0,0.0,-0.001423437377466105,0.0032141274816269,-0.00722488058754632,-0.04109368652331501,0.05146476512650427,0.007554186274639297
415984000000,ground_plane,Floor,khm2,0.252724,-0.228037,0.0,0.0,0.0,0.0,1.0,-0.010923,0.300375,-0.916015,0.0,-0.04361937829633988,0.0,0.9990482219778186,-0.5227830647338889,0.0012351344808994344,-0.2532129182208872,-0.03165214467429238,-0.030970028747449,0.7117892534079586,0.7009957616061888,0.0,0.0,0.0,0.0,0.0,0.0,0.0,0.0,0.0,0.0,0.0,0.0,-0.0041764395344679,0.0019625632024606217,0.006059104414715722,0.007081667651301372,-0.02230563513526476,0.0044271737087540905
415985000000,ground_plane,Floor,khm2,0.252724,-0.228037,0.0,0.0,0.0,0.0,1.0,-0.010923,0.300375,-0.916015,0.0,-0.04361937829633988,0.0,0.9990482219778186,-0.5227872634641368,0.0012370369155749515,-0.2532166903396063,-0.03165773589085305,-0.03098009188171242,0.7117901613820595,0.7009941425040349,0.0,0.0,0.0,0.0,0.0,0.0,0.0,0.0,0.0,0.0,0.0,0.0,-0.004198730247983436,0.0019024346755171983,-0.0037721187190858413,0.006328087347286322,-0.022110773283784805,0.00386861030760777
415986000000,ground_plane,Floor,khm2,0.252724,-0.228037,0.0,0.0,0.0,0.0,1.0,-0.010923,0.300375,-0.916015,0.0,-0.04361937829633988,0.0,0.9990482219778186,-0.5227891095865284,0.0012406800355404363,-0.2532239279491037,-0.031655151450781474,-0.030947545918147704,0.7117941613567501,0.70099163521879,0.0,0.0,0.0,0.0,0.0,0.0,0.0,0.0,0.0,0.0,0.0,0.0,-0.001846177431702884,0.0036430919556163384,-0.00723767028377862,-0.04311476116431057,0.04940666464309378,0.007276353636061041
415987000000,ground_plane,Floor,khm2,0.252724,-0.228037,0.0,0.0,0.0,0.0,1.0,-0.010923,0.300375,-0.916015,0.0,-0.04361937829633988,0.0,0.9990482219778186,-0.5227951178606574,0.0012420349153753234,-0.25321357953423534,-0.031663855733225575,-0.03096873275681686,0.711794711788191,0.7009897475012803,0.0,0.0,0.0,0.0,0.0,0.0,0.0,0.0,0.0,0.0,0.0,0.0,-0.004596274386273006,0.0023945545557528484,0.006042627684002082,0.0050543695363887055,-0.02436940568589105,0.004170971379239732
415988000000,ground_plane,Floor,khm2,0.252724,-0.228037,0.0,0.0,0.0,0.0,1.0,-0.010923,0.300375,-0.916015,0.0,-0.04361937829633988,0.0,0.9990482219778186,-0.5227997364214342,0.001244369398269222,-0.2532173680562185,-0.03167089591876016,-0.030978794283879507,0.7117955289939234,0.7009881550787297,0.0,0.0,0.0,0.0,0.0,0.0,0.0,0.0,0.0,0.0,0.0,0.0,-0.004618560776859638,0.0023344828938985647,-0.003788521983119364,0.004301827623541109,-0.024175267147148904,0.0036137838152818314
415989000000,ground_plane,Floor,khm2,0.252724,-0.228037,0.0,0.0,0.0,0.0,1.0,-0.010923,0.300375,-0.916015,0.0,-0.04361937829633988,0.0,0.9990482219778186,-0.522802001054256,0.001248445453884093,-0.2532246201088404,-0.031669769493330974,-0.030946247462842528,0.7117994412474162,0.7009856709720064,0.0,0.0,0.0,0.0,0.0,0.0,0.0,0.0,0.0,0.0,0.0,0.0,-0.0022646879275122853,0.0040760275873234185,-0.007252113476638809,-0.045153616061081765,0.04732788052561,0.007029099515633525
415990000000,ground_plane,Floor,khm2,0.252724,-0.228037,0.0,0.0,0.0,0.0,1.0,-0.010923,0.300375,-0.916015,0.0,-0.04361937829633988,0.0,0.9990482219778186,-0.5228084285008436,0.001250233493689876,-0.2532142879889355,-0.031679933058723665,-0.030967433091952025,0.7117999105806045,0.7009837995464189,0.0,0.0,0.0,0.0,0.0,0.0,0.0,0.0,0.0,0.0,0.0,0.0,-0.005015519039733436,0.0028274599577332105,0.006026824723332938,0.0030138487511274497,-0.026453224472201237,0.003942542434258268
415991000000,ground_plane,Floor,khm2,0.252724,-0.228037,0.0,0.0,0.0,0.0,1.0,-0.010923,0.300375,-0.916015,0.0,-0.04361937829633988,0.0,0.9990482219778186,-0.5228134663867768,0.0012530008406090173,-0.25321809232224496,-0.03168843320205559,-0.030977494198886926,0.7118006464156955,0.7009822236095254,0.0,0.0,0.0,0.0,0.0,0.0,0.0,0.0,0.0,0.0,0.0,0.0,-0.005037885933224733,0.0027673469191413108,-0.0038043333094179028,0.002260639495939224,-0.02625713149098658,0.0033861355842924336
415992000000,ground_plane,Floor,khm2,0.252724,-0.228037,0.0,0.0,0.0,0.0,1.0,-0.010923,0.300375,-0.916015,0.0,-0.04361937829633988,0.0,0.9990482219778186,-0.5228133288553934,0.0012565566319826162,-0.2532213653901772,-0.03168158893177678,-0.030954149998683185,0.7117979008217632,0.7009863521541259,0.0,0.0,0.0,0.0,0.0,0.0,0.0,0.0,0.0,0.0,0.0,0.0,0.00013735377955575022,0.0035558704350962234,-0.0032732843208164745,-0.023205841297046455,0.04255410938581803,-0.010781691002420215
415993000000,ground_plane,Floor,khm2,0.252724,-0.228037,0.0,0.0,0.0,0.0,1.0,-0.010923,0.300375,-0.916015,0.0,-0.04361937829633988,0.0,0.9990482219778186,-0.5228157998612649,0.0012579938076655967,-0.2532148282117453,-0.031688381941760387,-0.030966910537937698,0.7117956501417576,0.7009877668981972,0.0,0.0,0.0,0.0,0.0,0.0,0.0,0.0,0.0,0.0,0.0,0.0,-0.0021089500265813388,0.0016683743363911977,0.005382672613901427,0.005826481862860652,-0.024445006378662232,-0.005625118429688205
415994000000,ground_plane,Floor,khm2,0.252724,-0.228037,0.0,0.0,0.0,0.0,1.0,-0.010923,0.300375,-0.916015,0.0,-0.04361937829633988,0.0,0.9990482219778186,-0.5228179706954061,0.001259606136737485,-0.25321922018976023,-0.03169503074509488,-0.03097694374413226,0.7117932617142433,0.7009894482519257,0.0,0.0,0.0,0.0,0.0,0.0,0.0,0.0,0.0,0.0,0.0,0.0,-0.0021708341411722804,0.0016123290718882308,-0.004391978014918496,0.005216208649525279,-0.023578726342042233,-0.005517991136470931
415995000000,ground_plane,Floor,khm2,0.252724,-0.228037,0.0,0.0,0.0,0.0,1.0,-0.010923,0.300375,-0.916015,0.0,-0.04361937829633988,0.0,0.9990482219778186,-0.5228184123966575,0.001260772870227739,-0.2532150165216765,-0.03169458592540136,-0.030967951957810866,0.7117905487916474,0.7009926203787323,0.0,0.0,0.0,0.0,0.0,0.0,0.0,0.0,0.0,0.0,0.0,0.0,-0.00044180015925126295,0.001166808298248432,0.004203420708302249,-0.011806667318191594,0.013265052699891314,-0.008863528728126603
415996000000,ground_plane,Floor,khm2,0.252724,-0.228037,0.0,0.0,0.0,0.0,1.0,-0.010923,0.300375,-0.916015,0.0,-0.04361937829633988,0.0,0.9990482219778186,-0.5228186456028467,0.0012610199524300295,-0.25321466371324525,-0.031695165560552165,-0.030967675503430662,0.7117897955047605,0.7009933712734342,0.0,0.0,0.0,0.0,0.0,0.0,0.0,0.0,0.0,0.0,0.0,0.0,-0.00023324424598055078,0.0002471051504085203,0.00035280857581455774,-0.001111916839620627,-0.0004388573583158194,-0.0021789907481416424
415997000000,ground_plane,Floor,khm2,0.252724,-0.228037,0.0,0.0,0.0,0.0,1.0,-0.010923,0.300375,-0.916015,0.0,-0.04361937829633988,0.0,0.9990482219778186,-0.5228178312678418,0.0012620180508159519,-0.25322154888796383,-0.031693401429265675,-0.030951849115032116,0.7117904611665012,0.7009934741027074,0.0,0.0,0.0,0.0,0.0,0.0,0.0,0.0,0.0,0.0,0.0,0.0,0.0008143357420242914,0.0009980986631956412,-0.006885173926198732,-0.020091549468991627,0.024748325571506996,-0.0001071088322153391
415998000000,ground_plane,Floor,khm2,0.252724,-0.228037,0.0,0.0,0.0,0.0,1.0,-0.010923,0.300375,-0.916015,0.0,-0.04361937829633988,0.0,0.9990482219778186,-0.5228194495498508,0.001260128885442298,-0.2532148184406056,-0.03169343642011788,-0.030966582649638495,0.7117927705696405,0.7009904768338029,0.0,0.0,0.0,0.0,0.0,0.0,0.0,0.0,0.0,0.0,0.0,0.0,-0.0007978855439900039,-0.0017449900255806486,0.005177996796697537,0.01943838250394881,-0.011073083816710403,0.008238668434931113
415999000000,ground_plane,Floor,khm2,0.252724,-0.228037,0.0,0.0,0.0,0.0,1.0,-0.010923,0.300375,-0.916015,0.0,-0.04361937829633988,0.0,0.9990482219778186,-0.5228204672197856,0.0012583274060494437,-0.25321944066675256,-0.03169543425680247,-0.030982024896920153,0.7117948939605319,0.7009875480436688,0.0,0.0,0.0,0.0,0.0,0.0,0.0,0.0,0.0,0.0,0.0,0.0,-0.001017669934774603,-0.0018014793928542842,-0.0046222261469478325,0.018865275808073654,-0.024540622126662925,0.008001440291020573
416000000000,ground_plane,Floor,khm2,0.252724,-0.228037,0.0,0.0,0.0,0.0,1.0,-0.010923,0.300375,-0.916015,0.0,-0.04361937829633988,0.0,0.9990482219778186,-0.5228122401603041,0.0012584592126254576,-0.2532186755426402,-0.03170417271540154,-0.030976806022539393,0.7117968140782914,0.7009854337923636,0.0,0.0,0.0,0.0,0.0,0.0,0.0,0.0,0.0,0.0,0.0,0.0,0.008224794770360212,0.0001317136676557122,0.0007623841938043505,-0.01993698394115227,-0.005117403339116346,0.004840985977221394
416001000000,ground_plane,Floor,khm2,0.252724,-0.228037,0.0,0.0,0.0,0.0,1.0,-0.010923,0.300375,-0.916015,0.0,-0.04361937829633988,0.0,0.9990482219778186,-0.5227918528419393,0.001254624075485249,-0.25320794100498695,-0.03169907970476939,-0.031011195114635938,0.7117881260107076,0.7009929655806809,0.0,0.0,0.0,0.0,0.0,0.0,0.0,0.0,0.0,0.0,0.0,0.0,0.02038580791144907,-0.0038357378131956593,0.010732591120863035,0.05711147097332263,-0.0410363277116458,-0.02041960609185326
416002000000,ground_plane,Floor,khm2,0.252724,-0.228037,0.0,0.0,0.0,0.0,1.0,-0.010923,0.300375,-0.916015,0.0,-0.04361937829633988,0.0,0.9990482219778186,-0.5227713305738496,0.0012506165345305498,-0.25320676459835845,-0.03170097317586178,-0.03105166910035247,0.7117788868449553,0.7010004696057927,0.0,0.0,0.0,0.0,0.0,0.0,0.0,0.0,0.0,0.0,0.0,0.0,0.020522268089735705,-0.004007540954699294,0.0011764066285107314,0.05601196163199648,-0.059559787616135104,-0.021187193767578518
416002000000,ground_plane,Floor,khm2,0.252724,-0.228037,0.0,0.0,0.0,0.0,1.0,-0.010923,0.300375,-0.916015,0.0,-0.04361937829633988,0.0,0.9990482219778186,-0.5227314764386587,0.001242676040128065,-0.25318406283967226,-0.03170572573515841,-0.031103234931646132,0.7117705581108954,0.7010064253192679,0.0,0.0,0.0,0.0,0.0,0.0,0.0,0.0,0.0,0.0,0.0,0.0,0.039852206998690014,-0.007941033241820947,0.022698871764105344,0.06764268467620871,-0.07921159948332981,-0.017184376919334148
416004000000,ground_plane,Floor,khm2,0.252724,-0.228037,0.0,0.0,0.0,0.0,1.0,-0.010923,0.300375,-0.916015,0.0,-0.04361937829633988,0.0,0.9990482219778186,-0.5226874199727636,0.0012353142040568295,-0.2531663713517612,-0.031737926737538634,-0.031151566809340253,0.7117748768308789,0.7009984369484095,0.0,0.0,0.0,0.0,0.0,0.0,0.0,0.0,0.0,0.0,0.0,0.0,0.04405532081062604,-0.0073623009887524675,0.017690272359319345,0.022887960431611086,-0.11381205010700064,0.018479684866715126
416005000000,ground_plane,Floor,khm2,0.252724,-0.228037,0.0,0.0,0.0,0.0,1.0,-0.010923,0.300375,-0.916015,0.0,-0.04361937829633988,0.0,0.9990482219778186,-0.5226364389271366,0.0012239191942999595,-0.25314436201054563,-0.03172954243779257,-0.03120783375734867,0.7117749600923323,0.7009962292583468,0.0,0.0,0.0,0.0,0.0,0.0,0.0,0.0,0.0,0.0,0.0,0.0,0.05098372204343425,-0.011395163917910065,0.022009613063918937,0.09170831126183598,-0.06717392462463156,0.007342252815482225
416006000000,ground_plane,Floor,khm2,0.252724,-0.228037,0.0,0.0,0.0,0.0,1.0,-0.010923,0.300375,-0.916015,0.0,-0.04361937829633988,0.0,0.9990482219778186,-0.5225854066545723,0.0012124907488655378,-0.25313233760512943,-0.03172280306614285,-0.03126637482248804,0.7117734011005594,0.7009955085853465,0.0,0.0,0.0,0.0,0.0,0.0,0.0,0.0,0.0,0.0,0.0,0.0,0.05103227256425736,-0.01142844543442182,0.012024405416206451,0.09283624925913343,-0.072624213468683,0.0029758240901479323
416007000000,ground_plane,Floor,khm2,0.252724,-0.228037,0.0,0.0,0.0,0.0,1.0,-0.010923,0.300375,-0.916015,0.0,-0.04361937829633988,0.0,0.9990482219778186,-0.5225287029040909,0.0012040222197240412,-0.25312097768315395,-0.03173148160209711,-0.031297171441731185,0.7117841062064574,0.7009828716074005,0.0,0.0,0.0,0.0,0.0,0.0,0.0,0.0,0.0,0.0,0.0,0.0,0.05670317203988043,-0.008468928832041991,0.011359053668255384,0.030205569435661092,-0.05564168032418243,0.03440667518265159
416008000000,ground_plane,Floor,khm2,0.252724,-0.228037,0.0,0.0,0.0,0.0,1.0,-0.010923,0.300375,-0.916015,0.0,-0.04361937829633988,0.0,0.9990482219778186,-0.5224656536740206,0.0011933998745647138,-0.2531059384281473,-0.03169364000512448,-0.0313330294404142,0.7117935489951939,0.7009733932597858,0.0,0.0,0.0,0.0,0.0,0.0,0.0,0.0,0.0,0.0,0.0,0.0,0.06305700278759821,-0.010628578947399079,0.015042917719846489,0.10279548265994648,0.003404814163471965,0.031424129540135876
416009000000,ground_plane,Floor,khm2,0.252724,-0.228037,0.0,0.0,0.0,0.0,1.0,-0.010923,0.300375,-0.916015,0.0,-0.04361937829633988,0.0,0.9990482219778186,-0.5224025580796956,0.0011827168599095029,-0.2531012516091677,-0.0316614153754482,-0.03137237025049257,0.7118013475068136,0.7009651709241865,0.0,0.0,0.0,0.0,0.0,0.0,0.0,0.0,0.0,0.0,0.0,0.0,0.06309559432507103,-0.010683014655210982,0.004686818979652779,0.10017239233215136,-0.009300090163488452,0.027151406701193044
416010000000,ground_plane,Floor,khm2,0.252724,-0.228037,0.0,0.0,0.0,0.0,1.0,-0.010923,0.300375,-0.916015,0.0,-0.04361937829633988,0.0,0.9990482219778186,-0.5223335616613558,0.0011747601150032191,-0.2530976312383299,-0.03165053729750689,-0.03139099836739068,0.7118232376424031,0.7009425989783791,0.0,0.0,0.0,0.0,0.0,0.0,0.0,0.0,0.0,0.0,0.0,0.0,0.06899566694686472,-0.007956955994972032,0.003619711154197635,0.038971046475123235,-0.010647466940792518,0.06467519560767486
416010000000,ground_plane,Floor,khm2,0.252724,-0.228037,0.0,0.0,0.0,0.0,1.0,-0.010923,0.300375,-0.916015,0.0,-0.04361937829633988,0.0,0.9990482219778186,-0.5222547719868617,0.0011655912713645663,-0.2530879897341207,-0.03162645946074875,-0.03142763787970124,0.7118337337593249,0.7009313847457102,0.0,0.0,0.0,0.0,0.0,0.0,0.0,0.0,0.0,0.0,0.0,0.0,0.07878932499648528,-0.009168690292018004,0.009641051481880875,0.08454752281277822,-0.017122920191340596,0.034512577973851766
416012000000,ground_plane,Floor,khm2,0.252724,-0.228037,0.0,0.0,0.0,0.0,1.0,-0.010923,0.300375,-0.916015,0.0,-0.04361937829633988,0.0,0.9990482219778186,-0.5221728739497582,0.0011579950560483313,-0.25308318510685135,-0.03160993154233683,-0.03145000937595826,0.7118495188585187,0.7009150958846847,0.0,0.0,0.0,0.0,0.0,0.0,0.0,0.0,0.0,0.0,0.0,0.0,0.08189791847265877,-0.007596303927590165,0.0048044838396374655,0.052997185223578686,-0.007856057458670362,0.04777194597626398
416012000000,ground_plane,Floor,khm2,0.252724,-0.228037,0.0,0.0,0.0,0.0,1.0,-0.010923,0.300375,-0.916015,0.0,-0.04361937829633988,0.0,0.9990482219778186,-0.5220855276632033,0.001155564927460567,-0.2530713206112946,-0.03158343663771309,-0.031378181286717356,0.7118715267444944,0.7008971577055739,0.0,0.0,0.0,0.0,0.0,0.0,0.0,0.0,0.0,0.0,0.0,0.0,0.08712078385529308,-0.0031670520031311243,0.010033865200363697,-0.03382924201836749,0.10980881815283822,0.04229096552386913
416014000000,ground_plane,Floor,khm2,0.252724,-0.228037,0.0,0.0,0.0,0.0,1.0,-0.010923,0.300375,-0.916015,0.0,-0.04361937829633988,0.0,0.9990482219778186,-0.5219946554874156,0.0011524922606170951,-0.2530663168662076,-0.03154929168448178,-0.03136136464800535,0.711873781803423,0.700897157778882,0.0,0.0,0.0,0.0,0.0,0.0,0.0,0.0,0.0,0.0,0.0,0.0,0.09087016759713074,-0.0030697436389953286,0.00500135424120118,0.02380177169645961,0.07235231674564693,0.0042386897037095025
416015000000,ground_plane,Floor,khm2,0.252724,-0.228037,0.0,0.0,0.0,0.0,1.0,-0.010923,0.300375,-0.916015,0.0,-0.04361937829633988,0.0,0.9990482219778186,-0.5218998961227792,0.0011526252195924833,-0.2530615125941043,-0.03151817255661429,-0.03130263537762649,0.7118819522932084,0.7008928846951701,0.0,0.0,0.0,0.0,0.0,0.0,0.0,0.0,0.0,0.0,0.0,0.0,0.09475894773089616,0.00013293255324142058,0.004805229618659291,-0.04078999752154002,0.12691831890086344,0.01577640483237656
416016000000,ground_plane,Floor,khm2,0.252724,-0.228037,0.0,0.0,0.0,0.0,1.0,-0.010923,0.300375,-0.916015,0.0,-0.04361937829633988,0.0,0.9990482219778186,-0.5218001570211248,0.0011514630898828667,-0.2530590497886362,-0.0314727873294253,-0.03127651256703123,0.7118752801488196,0.7009028669740199,0.0,0.0,0.0,0.0,0.0,0.0,0.0,0.0,0.0,0.0,0.0,0.0,0.09973892621920483,-0.0011620255796165482,0.00246258821794504,0.02747374781033894,0.10144263940963054,-0.02236958539031632
416017000000,ground_plane,Floor,khm2,0.252724,-0.228037,0.0,0.0,0.0,0.0,1.0,-0.010923,0.300375,-0.916015,0.0,-0.04361937829633988,0.0,0.9990482219778186,-0.5216963664454732,0.0011529539681125014,-0.25305718999216004,-0.03143610643819507,-0.03121249416619685,0.7118759353053755,0.7009067014610635,0.0,0.0,0.0,0.0,0.0,0.0,0.0,0.0,0.0,0.0,0.0,0.0,0.10379015778484059,0.001490774941309622,0.001859537836709226,-0.039525237230437354,0.14225731777906275,-0.006280604620127298
416018000000,ground_plane,Floor,khm2,0.252724,-0.228037,0.0,0.0,0.0,0.0,1.0,-0.010923,0.300375,-0.916015,0.0,-0.04361937829633988,0.0,0.9990482219778186,-0.5215878241677375,0.0011523951844170561,-0.2530570065545539,-0.03137910495506833,-0.031170492109029405,0.7118657955619788,0.7009214230588267,0.0,0.0,0.0,0.0,0.0,0.0,0.0,0.0,0.0,0.0,0.0,0.0,0.10854208796350377,-0.0005586509019767763,0.00018319288489424633,0.021662791712264835,0.14031827944236144,-0.03425541176990019
416019000000,ground_plane,Floor,khm2,0.252724,-0.228037,0.0,0.0,0.0,0.0,1.0,-0.010923,0.300375,-0.916015,0.0,-0.04361937829633988,0.0,0.9990482219778186,-0.521474143945501,0.0011550102344876016,-0.2530574727389414,-0.03134191260870231,-0.031108674938160965,0.711865905963201,0.7009257213034856,0.0,0.0,0.0,0.0,0.0,0.0,0.0,0.0,0.0,0.0,0.0,0.0,0.11368001625967444,0.002614878473550789,-0.00046646449342614276,-0.035609857049669374,0.1398866142908227,-0.007526640330343762
416020000000,ground_plane,Floor,khm2,0.252724,-0.228037,0.0,0.0,0.0,0.0,1.0,-0.010923,0.300375,-0.916015,0.0,-0.04361937829633988,0.0,0.9990482219778186,-0.5213573966822912,0.0011558637241645012,-0.2530602045703866,-0.031267467529617884,-0.03105042890315485,0.7118619756152423,0.7009356204476832,0.0,0.0,0.0,0.0,0.0,0.0,0.0,0.0,0.0,0.0,0.0,0.0,0.11674692147116418,0.0008536899388700709,-0.002732201056744066,0.022298182977965642,0.18801640882556117,-0.01862062978496598
416021000000,ground_plane,Floor,khm2,0.252724,-0.228037,0.0,0.0,0.0,0.0,1.0,-0.010923,0.300375,-0.916015,0.0,-0.04361937829633988,0.0,0.9990482219778186,-0.5212369032584723,0.0011588168583327799,-0.2530661623150466,-0.031208939616463916,-0.03097734165061752,0.7118656775545409,0.7009377030179582,0.0,0.0,0.0,0.0,0.0,0.0,0.0,0.0,0.0,0.0,0.0,0.0,0.1204933391776488,0.0029530249310711198,-0.005957868065914249,-0.02210748576767819,0.186147929250907,0.0012887236527479456
