%time,field.header.seq,field.header.stamp,field.header.frame_id,field.name0,field.name1,field.name2,field.name3,field.position0,field.position1,field.position2,field.position3,field.velocity0,field.velocity1,field.velocity2,field.velocity3,field.effort0,field.effort1,field.effort2,field.effort3
415903000000,3868,415897000000,,BL_TO_BASELINK,BR_TO_BASELINK,FL_TO_BASELINK,FR_TO_BASELINK,0.0934331340043082,0.09428074322626401,-0.1368323724058227,-0.12959882150631508,-3.2793377545962954e-05,0.015096271946677634,0.005955852154027792,0.00014638580389455397,0.0,0.0,0.0,0.0
415903000000,3869,415898000000,,BL_TO_BASELINK,BR_TO_BASELINK,FL_TO_BASELINK,FR_TO_BASELINK,0.09343313400437481,0.09428072949055455,-0.13683237148180005,-0.12959882150016977,1.465539720829634e-10,-2.4914038596057786e-08,4.86907152270899e-09,5.523862565276483e-10,0.0,0.0,0.0,0.0
415903000000,3870,415899000000,,BL_TO_BASELINK,BR_TO_BASELINK,FL_TO_BASELINK,FR_TO_BASELINK,0.09343308231276737,0.09428051815336147,-0.13690829901280743,-0.129598612056383,-5.169406295520845e-05,-0.00020262362118730198,-0.0759142746801148,0.00020945090541519412,0.0,0.0,0.0,0.0
415903000000,3871,415900000000,,BL_TO_BASELINK,BR_TO_BASELINK,FL_TO_BASELINK,FR_TO_BASELINK,0.09343310998443322,0.09431714603481822,-0.13687879345626808,-0.12959882265395617,0.00033266768288095494,0.025917742674980645,0.022574188848002007,0.0017726083920959375,0.0,0.0,0.0,0.0
415903000000,3872,415901000000,,BL_TO_BASELINK,BR_TO_BASELINK,FL_TO_BASELINK,FR_TO_BASELINK,0.09343310998446253,0.09431713169004396,-0.13687879175380324,-0.12959882265244183,6.425836945878061e-11,-4.150407847958171e-08,1.4901528771343875e-08,4.025346896086024e-10,0.0,0.0,0.0,0.0
415903000000,3873,415902000000,,BL_TO_BASELINK,BR_TO_BASELINK,FL_TO_BASELINK,FR_TO_BASELINK,0.09343306333325696,0.0943169386086602,-0.13695539184899097,-0.12959863895678314,-4.665379714475365e-05,-0.00018396734385702634,-0.07658119603545946,0.00018370545140223432,0.0,0.0,0.0,0.0
415903000000,3874,415903000000,,BL_TO_BASELINK,BR_TO_BASELINK,FL_TO_BASELINK,FR_TO_BASELINK,0.09343314341567677,0.09436153715688356,-0.13692015734597085,-0.12959913075700147,-4.776588117416311e-05,0.009554151834874028,0.017794038756985393,0.004920918358977903,0.0,0.0,0.0,0.0
415904000000,3875,415904000000,,BL_TO_BASELINK,BR_TO_BASELINK,FL_TO_BASELINK,FR_TO_BASELINK,0.09343314341575848,0.09436152383428009,-0.13692015389677437,-0.1295991307567439,1.7942205013388168e-10,-1.5205997892786538e-07,8.844008032860007e-08,2.9028045592238705e-10,0.0,0.0,0.0,0.0
415905000000,3876,415905000000,,BL_TO_BASELINK,BR_TO_BASELINK,FL_TO_BASELINK,FR_TO_BASELINK,0.09343305562403259,0.09436120950919502,-0.13699293722416428,-0.1296696213752151,-8.779245076326325e-05,-0.0003058467173179119,-0.07277707478432088,-0.07049523037848654,0.0,0.0,0.0,0.0
415906000000,3877,415906000000,,BL_TO_BASELINK,BR_TO_BASELINK,FL_TO_BASELINK,FR_TO_BASELINK,0.09343305527392332,0.09439459655621274,-0.13697324908177144,-0.1296696748505548,-7.423847912402942e-06,0.02184365681694076,0.00863160871346679,2.011102202155446e-05,0.0,0.0,0.0,0.0
415907000000,3878,415907000000,,BL_TO_BASELINK,BR_TO_BASELINK,FL_TO_BASELINK,FR_TO_BASELINK,0.0934330552740219,0.09439458423822433,-0.13697324793345533,-0.12966967447053612,2.1481390971578307e-10,3.6642890614141388e-09,-4.5396191701574384e-09,-1.939816906063041e-09,0.0,0.0,0.0,0.0
415908000000,3879,415908000000,,BL_TO_BASELINK,BR_TO_BASELINK,FL_TO_BASELINK,FR_TO_BASELINK,0.09343300564588919,0.094394381812962,-0.1370470267967976,-0.12966947373474458,-4.9631293884078165e-05,-0.0001945937500725664,-0.07376566994337777,0.00020051292056305625,0.0,0.0,0.0,0.0
415909000000,3880,415909000000,,BL_TO_BASELINK,BR_TO_BASELINK,FL_TO_BASELINK,FR_TO_BASELINK,0.0934330022829899,0.09442621002393992,-0.13702219891572565,-0.12966950447430126,0.00024227373542777368,0.01325358651678099,0.007733823017031286,-0.0009628158192123131,0.0,0.0,0.0,0.0
415910000000,3881,415910000000,,BL_TO_BASELINK,BR_TO_BASELINK,FL_TO_BASELINK,FR_TO_BASELINK,0.09343300228305207,0.09442619530786622,-0.1370221973893777,-0.1296695043711802,1.308177368514185e-10,-6.093472892064467e-08,1.9269795625484476e-08,5.253289568976638e-09,0.0,0.0,0.0,0.0
415911000000,3882,415911000000,,BL_TO_BASELINK,BR_TO_BASELINK,FL_TO_BASELINK,FR_TO_BASELINK,0.09343295397380924,0.09442599658938278,-0.13709427768511695,-0.12966930933053522,-4.8312441070404166e-05,-0.00018940016145688882,-0.07206682093556954,0.00019499626136357945,0.0,0.0,0.0,0.0
415912000000,3883,415912000000,,BL_TO_BASELINK,BR_TO_BASELINK,FL_TO_BASELINK,FR_TO_BASELINK,0.09343294499872723,0.09445103457895421,-0.1370732738558047,-0.1296692980098122,6.401033326988541e-05,0.007814708353613599,0.005072939241006458,-0.00029631068857649025,0.0,0.0,0.0,0.0
415913000000,3884,415913000000,,BL_TO_BASELINK,BR_TO_BASELINK,FL_TO_BASELINK,FR_TO_BASELINK,0.09343294499876897,0.09445101862952576,-0.13707327177190454,-0.1296692979811036,9.122049296483858e-11,-8.56870880517474e-08,3.206263115250463e-08,3.6779689432941964e-09,0.0,0.0,0.0,0.0
415914000000,3885,415914000000,,BL_TO_BASELINK,BR_TO_BASELINK,FL_TO_BASELINK,FR_TO_BASELINK,0.09343289583489955,0.09445081561471369,-0.13714761860939984,-0.1296691001901067,-4.9167246103522244e-05,-0.00019292648088303083,-0.07433127221401047,0.00019779187687898186,0.0,0.0,0.0,0.0
415915000000,3886,415915000000,,BL_TO_BASELINK,BR_TO_BASELINK,FL_TO_BASELINK,FR_TO_BASELINK,0.0934328861369309,0.09447457878988708,-0.13712721558515195,-0.12966908274476285,5.3654108133741746e-05,0.005555482500686541,0.003722271576414967,-0.00023648578931710282,0.0,0.0,0.0,0.0
415916000000,3887,415916000000,,BL_TO_BASELINK,BR_TO_BASELINK,FL_TO_BASELINK,FR_TO_BASELINK,0.09343288613696465,0.09447456183315062,-0.13712721283565799,-0.12966908273650457,7.472433956323687e-11,-9.244990718804136e-08,3.917038117993987e-08,1.8785317572322935e-09,0.0,0.0,0.0,0.0
415917000000,3888,415917000000,,BL_TO_BASELINK,BR_TO_BASELINK,FL_TO_BASELINK,FR_TO_BASELINK,0.0934328365325392,0.094474356398349,-0.13720261175543236,-0.1296688834424664,-4.960787785192322e-05,-0.00019470808129976036,-0.0753818181575375,0.0001993060699095467,0.0,0.0,0.0,0.0
415918000000,3889,415918000000,,BL_TO_BASELINK,BR_TO_BASELINK,FL_TO_BASELINK,FR_TO_BASELINK,0.09343282623804328,0.09449730873500517,-0.13718306014667458,-0.12966886090016327,3.6982609731554816e-05,0.004664009717145782,0.0028117201498574183,-0.00017443670413209988,0.0,0.0,0.0,0.0
415919000000,3890,415919000000,,BL_TO_BASELINK,BR_TO_BASELINK,FL_TO_BASELINK,FR_TO_BASELINK,0.09343282623807259,0.09449729116132932,-0.1371830567864798,-0.1296688608976755,6.2914434079131e-11,-9.039410810499082e-08,4.2063701070904624e-08,8.211277005565343e-10,0.0,0.0,0.0,0.0
415920000000,3891,415920000000,,BL_TO_BASELINK,BR_TO_BASELINK,FL_TO_BASELINK,FR_TO_BASELINK,0.09343277630509395,0.09449708401676649,-0.1372591646810868,-0.1296686604271402,-4.9936473826818484e-05,-0.00019602254428720267,-0.07608963073729216,0.00020048517814243855,0.0,0.0,0.0,0.0
415921000000,3892,415921000000,,BL_TO_BASELINK,BR_TO_BASELINK,FL_TO_BASELINK,FR_TO_BASELINK,0.09343276584522808,0.09451985833845278,-0.13724009999043574,-0.12966863621284563,3.13642769250444e-05,0.004411508413428992,0.002233768132286682,-0.0001329035270485647,0.0,0.0,0.0,0.0
415922000000,3893,415922000000,,BL_TO_BASELINK,BR_TO_BASELINK,FL_TO_BASELINK,FR_TO_BASELINK,0.0934327658452494,0.09451984038980576,-0.1372400961481688,-0.1296686362120516,5.074110923097841e-11,-8.525378421969654e-08,4.251351713377427e-08,3.0764748040756906e-10,0.0,0.0,0.0,0.0
415923000000,3894,415923000000,,BL_TO_BASELINK,BR_TO_BASELINK,FL_TO_BASELINK,FR_TO_BASELINK,0.09343271570596112,0.09451963219194148,-0.13731657880901338,-0.1296684349564048,-5.014283193659902e-05,-0.00019683299156421363,-0.07646366635016731,0.00020127092962084897,0.0,0.0,0.0,0.0
415924000000,3895,415924000000,,BL_TO_BASELINK,BR_TO_BASELINK,FL_TO_BASELINK,FR_TO_BASELINK,0.09343270519881397,0.09454245430281905,-0.13729778780456847,-0.12966841020762399,2.9591856405403877e-05,0.0044474656539501,0.0019409294328779914,-0.0001177901905639149,0.0,0.0,0.0,0.0
415925000000,3896,415925000000,,BL_TO_BASELINK,BR_TO_BASELINK,FL_TO_BASELINK,FR_TO_BASELINK,0.09343270519882729,0.09454243612394375,-0.1372977836298146,-0.12966841020734776,3.716600291414629e-11,-7.967889360457892e-08,4.183714674352301e-08,8.980184998397256e-11,0.0,0.0,0.0,0.0
415926000000,3897,415926000000,,BL_TO_BASELINK,BR_TO_BASELINK,FL_TO_BASELINK,FR_TO_BASELINK,0.09343265495032327,0.09454222735498075,-0.13737443600863042,-0.12966820851864025,-5.02520900174247e-05,-0.00019725330724740947,-0.07663296340496158,0.0002017041607273451,0.0,0.0,0.0,0.0
415927000000,3898,415927000000,,BL_TO_BASELINK,BR_TO_BASELINK,FL_TO_BASELINK,FR_TO_BASELINK,0.09343264444637356,0.09456517862232161,-0.13735576789862947,-0.1296681837539273,2.9405992209696058e-05,0.004581519207218738,0.0018181023002622823,-0.00011553176680045851,0.0,0.0,0.0,0.0
415928000000,3899,415928000000,,BL_TO_BASELINK,BR_TO_BASELINK,FL_TO_BASELINK,FR_TO_BASELINK,0.09343264444638066,0.09456516029369055,-0.13735576351944445,-0.12966818375381095,2.2728305348884703e-11,-7.447255379391948e-08,4.071204889530278e-08,1.6744005487678848e-11,0.0,0.0,0.0,0.0
415929000000,3900,415929000000,,BL_TO_BASELINK,BR_TO_BASELINK,FL_TO_BASELINK,FR_TO_BASELINK,0.09343259414734106,0.09456495124007347,-0.13743246865431757,-0.12966798184988804,-5.030266111795412e-05,-0.00019743879085373783,-0.0766855070807507,0.00020191945429016284,0.0,0.0,0.0,0.0
415930000000,3901,415930000000,,BL_TO_BASELINK,BR_TO_BASELINK,FL_TO_BASELINK,FR_TO_BASELINK,0.09343258366066642,0.09458803893659606,-0.13741383734474422,-0.1296679572442354,2.9904225180565902e-05,0.0047279748053012625,0.0017895463295642122,-0.00011898987102836739,0.0,0.0,0.0,0.0
415931000000,3902,415931000000,,BL_TO_BASELINK,BR_TO_BASELINK,FL_TO_BASELINK,FR_TO_BASELINK,0.09343258366066642,0.09458802050512105,-0.1374138328547696,-0.12966795724416347,7.920539224492984e-12,-6.978549801223144e-08,3.946934778314981e-08,1.2361531936955217e-11,0.0,0.0,0.0,0.0
415932000000,3903,415932000000,,BL_TO_BASELINK,BR_TO_BASELINK,FL_TO_BASELINK,FR_TO_BASELINK,0.09343253334363588,0.09458781132655858,-0.13749053336965478,-0.129667755251079,-5.03206839120654e-05,-0.00019749485051317323,-0.07668079962678534,0.00020200867900031783,0.0,0.0,0.0,0.0
415933000000,3904,415933000000,,BL_TO_BASELINK,BR_TO_BASELINK,FL_TO_BASELINK,FR_TO_BASELINK,0.09343252288021198,0.09461101502021485,-0.13747189535891824,-0.12966773086133276,3.060619712032947e-05,0.004853680216905954,0.0018061576590467816,-0.0001242665373656568,0.0,0.0,0.0,0.0
415934000000,3905,415934000000,,BL_TO_BASELINK,BR_TO_BASELINK,FL_TO_BASELINK,FR_TO_BASELINK,0.0934325228802031,0.0946109965165487,-0.137471890818456,-0.1296677308612617,-6.974438387929993e-12,-6.552084466995844e-08,3.823907634634138e-08,4.008715234760096e-11,0.0,0.0,0.0,0.0
415935000000,3906,415935000000,,BL_TO_BASELINK,BR_TO_BASELINK,FL_TO_BASELINK,FR_TO_BASELINK,0.09343247256088638,0.09461078729498595,-0.13754856457861475,-0.1296675288437985,-5.032300044854193e-05,-0.0001974888133219263,-0.0766540243590848,0.00020203312302049387,0.0,0.0,0.0,0.0
415936000000,3907,415936000000,,BL_TO_BASELINK,BR_TO_BASELINK,FL_TO_BASELINK,FR_TO_BASELINK,0.09343244386807292,0.09463109119941215,-0.1375177294091099,-0.12964953045668182,-3.9259975826780313e-05,-0.00525023018602307,0.0063412049094958185,-0.0068375493603642645,0.0,0.0,0.0,0.0
415937000000,3908,415937000000,,BL_TO_BASELINK,BR_TO_BASELINK,FL_TO_BASELINK,FR_TO_BASELINK,0.09343244386804805,0.09463107317256281,-0.13751772213373048,-0.1296495301393863,-2.10712870762908e-11,-2.0764836724737612e-07,1.5174971836062756e-07,-3.287237234153584e-08,0.0,0.0,0.0,0.0
415938000000,3909,415938000000,,BL_TO_BASELINK,BR_TO_BASELINK,FL_TO_BASELINK,FR_TO_BASELINK,0.0934323444348859,0.09463069967883264,-0.13759734664181789,-0.12973253313399713,-9.943549197974355e-05,-0.0003620958330385615,-0.07962393024058323,-0.0830063091736413,0.0,0.0,0.0,0.0
415939000000,3910,415939000000,,BL_TO_BASELINK,BR_TO_BASELINK,FL_TO_BASELINK,FR_TO_BASELINK,0.09343231827291554,0.094650684692275,-0.13758461994372606,-0.12973243202329687,-3.7188921942226186e-05,0.011784816418977368,0.005289175479825559,0.00018092489459679492,0.0,0.0,0.0,0.0
415940000000,3911,415940000000,,BL_TO_BASELINK,BR_TO_BASELINK,FL_TO_BASELINK,FR_TO_BASELINK,0.09343231827299459,0.09465066839847847,-0.13758461825500135,-0.12973243198426587,1.8614366124880544e-10,-5.153331917445714e-08,1.4402418885978152e-08,-1.978883572631429e-09,0.0,0.0,0.0,0.0
415941000000,3912,415941000000,,BL_TO_BASELINK,BR_TO_BASELINK,FL_TO_BASELINK,FR_TO_BASELINK,0.09343226679582184,0.09465045627407687,-0.13766061847382183,-0.12973222367854387,-5.1480423913383144e-05,-0.00020179890698363012,-0.07598556799522052,0.00020828880334157474,0.0,0.0,0.0,0.0
415942000000,3913,415942000000,,BL_TO_BASELINK,BR_TO_BASELINK,FL_TO_BASELINK,FR_TO_BASELINK,0.09343225918258735,0.09467923546556989,-0.13763626864138967,-0.12973222674457485,0.00020850979539826543,0.008933675228003354,0.00638124926773848,-0.0007719364477754547,0.0,0.0,0.0,0.0
415943000000,3914,415943000000,,BL_TO_BASELINK,BR_TO_BASELINK,FL_TO_BASELINK,FR_TO_BASELINK,0.0934322591826291,0.09467921737577356,-0.13763626660508876,-0.12973222673549678,9.826850271010823e-11,-9.095392583362283e-08,3.1261336474325274e-08,-2.1758268225341437e-09,0.0,0.0,0.0,0.0
415944000000,3915,415944000000,,BL_TO_BASELINK,BR_TO_BASELINK,FL_TO_BASELINK,FR_TO_BASELINK,0.09343221062257889,0.09467901551975544,-0.13770901853234108,-0.12973203096852615,-4.856336404525374e-05,-0.00019040478472985567,-0.07273731119850398,0.00019577195833486716,0.0,0.0,0.0,0.0
415945000000,3916,415945000000,,BL_TO_BASELINK,BR_TO_BASELINK,FL_TO_BASELINK,FR_TO_BASELINK,0.09343219988893559,0.09470307362313424,-0.13768828143525802,-0.12973200800319162,5.65518811850383e-05,0.0064399554966857245,0.004601399605137372,-0.00025803414954431343,0.0,0.0,0.0,0.0
415946000000,3917,415946000000,,BL_TO_BASELINK,BR_TO_BASELINK,FL_TO_BASELINK,FR_TO_BASELINK,0.09343219988896578,0.09470305526443301,-0.1376882789225844,-0.12973200800135487,7.375409658005871e-11,-9.503683166128818e-08,3.6865771343638776e-08,-1.3007651050028768e-09,0.0,0.0,0.0,0.0
415947000000,3918,415947000000,,BL_TO_BASELINK,BR_TO_BASELINK,FL_TO_BASELINK,FR_TO_BASELINK,0.09343215060894394,0.09470285027542946,-0.13776293010068397,-0.12973180987359623,-4.9283455811378885e-05,-0.0001933687054014796,-0.07463483943723394,0.00019813951423239967,0.0,0.0,0.0,0.0
415948000000,3919,415948000000,,BL_TO_BASELINK,BR_TO_BASELINK,FL_TO_BASELINK,FR_TO_BASELINK,0.09343214024669777,0.09472653548965315,-0.1377426681514864,-0.12973178808805041,5.2470455375725616e-05,0.005345693418278797,0.003529200395805598,-0.00022997958769846796,0.0,0.0,0.0,0.0
415949000000,3920,415949000000,,BL_TO_BASELINK,BR_TO_BASELINK,FL_TO_BASELINK,FR_TO_BASELINK,0.09343214024672442,0.09472651695173173,-0.13774266509295607,-0.12973178808784702,6.103418118130755e-11,-9.197161497317974e-08,3.971068657931953e-08,-7.560885563473452e-10,0.0,0.0,0.0,0.0
415950000000,3921,415950000000,,BL_TO_BASELINK,BR_TO_BASELINK,FL_TO_BASELINK,FR_TO_BASELINK,0.09343209056785717,0.0947263102559619,-0.13781817259813955,-0.12973158852534272,-4.968236627459627e-05,-0.00019495899777453862,-0.07549000134625325,0.00019957646042124966,0.0,0.0,0.0,0.0
415951000000,3922,415951000000,,BL_TO_BASELINK,BR_TO_BASELINK,FL_TO_BASELINK,FR_TO_BASELINK,0.09343208007389059,0.09474950911981495,-0.13779865924862023,-0.1297315648216486,3.910112929976159e-05,0.004875576064084695,0.0027762156703902176,-0.00018273808977196937,0.0,0.0,0.0,0.0
415952000000,3923,415952000000,,BL_TO_BASELINK,BR_TO_BASELINK,FL_TO_BASELINK,FR_TO_BASELINK,0.09343208007391102,0.09474949056756543,-0.13779865570411332,-0.12973156482174453,4.861676339285026e-11,-8.621957568732963e-08,4.062808616964175e-08,-4.5065131140664683e-10,0.0,0.0,0.0,0.0
415953000000,3924,415953000000,,BL_TO_BASELINK,BR_TO_BASELINK,FL_TO_BASELINK,FR_TO_BASELINK,0.09343203009548606,0.09474928267005644,-0.13787477507465518,-0.12973136416113817,-4.9981959204817294e-05,-0.00019614765544252039,-0.07610095821492917,0.00020067532582269954,0.0,0.0,0.0,0.0
415954000000,3925,415954000000,,BL_TO_BASELINK,BR_TO_BASELINK,FL_TO_BASELINK,FR_TO_BASELINK,0.09343201962612557,0.09477236348531992,-0.13785568976346774,-0.12973134004849296,3.328127981514287e-05,0.0047222324027100596,0.0022743436271117183,-0.00014757321946846577,0.0,0.0,0.0,0.0
415955000000,3926,415955000000,,BL_TO_BASELINK,BR_TO_BASELINK,FL_TO_BASELINK,FR_TO_BASELINK,0.0934320196261389,0.09477234495961273,-0.13785568583522245,-0.12973134004859244,3.5420236188521415e-11,-8.006389138823233e-08,4.042271405449438e-08,-2.728931629281117e-10,0.0,0.0,0.0,0.0
415956000000,3927,415956000000,,BL_TO_BASELINK,BR_TO_BASELINK,FL_TO_BASELINK,FR_TO_BASELINK,0.09343196945456711,0.09477213632044812,-0.1379321462475298,-0.12973113864613062,-5.017514588342292e-05,-0.00019690213068201262,-0.07644141442360677,0.00020141756535489025,0.0,0.0,0.0,0.0
415957000000,3928,415957000000,,BL_TO_BASELINK,BR_TO_BASELINK,FL_TO_BASELINK,FR_TO_BASELINK,0.09343195901077195,0.09479523051558036,-0.1379133087485256,-0.12973111444020624,3.144013657916875e-05,0.004733125407110118,0.002009891800626381,-0.00013171556277753738,0.0,0.0,0.0,0.0
415958000000,3929,415958000000,,BL_TO_BASELINK,BR_TO_BASELINK,FL_TO_BASELINK,FR_TO_BASELINK,0.09343195901077728,0.09479521201523244,-0.13791330455161432,-0.12973111444025953,2.131188281406793e-11,-7.45142267992438e-08,3.9736775189758156e-08,-1.5702636413372772e-10,0.0,0.0,0.0,0.0
415959000000,3930,415959000000,,BL_TO_BASELINK,BR_TO_BASELINK,FL_TO_BASELINK,FR_TO_BASELINK,0.09343190873588547,0.09479500299208521,-0.13798993091989953,-0.12973091263203873,-5.027850082551383e-05,-0.00019729853623374344,-0.07660701879813483,0.00020182353454007568,0.0,0.0,0.0,0.0
415960000000,3931,415960000000,,BL_TO_BASELINK,BR_TO_BASELINK,FL_TO_BASELINK,FR_TO_BASELINK,0.09343189832035215,0.0948181699426689,-0.13797120950773678,-0.129730888520184,3.094207344261565e-05,0.0048095416821109516,0.001890395934163968,-0.00012698308220753657,0.0,0.0,0.0,0.0
415961000000,3932,415961000000,,BL_TO_BASELINK,BR_TO_BASELINK,FL_TO_BASELINK,FR_TO_BASELINK,0.09343189832035215,0.09481815145073202,-0.13797120514095695,-0.1297308885201911,6.786241707468221e-12,-6.95841897123406e-08,3.881046594170212e-08,-7.09360521711222e-11,0.0,0.0,0.0,0.0
415962000000,3933,415962000000,,BL_TO_BASELINK,BR_TO_BASELINK,FL_TO_BASELINK,FR_TO_BASELINK,0.09343184799500825,0.09481794224422924,-0.13804789384905192,-0.1297306865039074,-5.032898568287092e-05,-0.00019748389780123443,-0.07666917145776803,0.0002020317390472176,0.0,0.0,0.0,0.0
415963000000,3934,415963000000,,BL_TO_BASELINK,BR_TO_BASELINK,FL_TO_BASELINK,FR_TO_BASELINK,0.09343185866237658,0.09484267176699301,-0.13801483225451427,-0.12970982926570418,-4.0892088119318104e-05,-0.0019039385202612655,0.008907934082842588,-0.003840022785610936,0.0,0.0,0.0,0.0
415964000000,3935,415964000000,,BL_TO_BASELINK,BR_TO_BASELINK,FL_TO_BASELINK,FR_TO_BASELINK,0.0934318586624574,0.09484265452140139,-0.1380148253180984,-0.12970982834002864,2.33773465863063e-10,-1.8975067275772695e-07,1.393569704633002e-07,4.850090325886347e-08,0.0,0.0,0.0,0.0
415965000000,3936,415965000000,,BL_TO_BASELINK,BR_TO_BASELINK,FL_TO_BASELINK,FR_TO_BASELINK,0.09343175859825159,0.09484227932058165,-0.13809597911238036,-0.12979226009588718,-0.0001000664234786508,-0.0003642880117353531,-0.08115425265893483,-0.08243396531603553,0.0,0.0,0.0,0.0
415966000000,3937,415966000000,,BL_TO_BASELINK,BR_TO_BASELINK,FL_TO_BASELINK,FR_TO_BASELINK,0.09343173053343534,0.09486230869201862,-0.13808354692403135,-0.1297921488915792,-3.912080849912368e-05,0.011936157805131778,0.005117300022524827,0.00019091610826087874,0.0,0.0,0.0,0.0
415967000000,3938,415967000000,,BL_TO_BASELINK,BR_TO_BASELINK,FL_TO_BASELINK,FR_TO_BASELINK,0.09343173053358012,0.09486229290491366,-0.13808354552537594,-0.12979214837484498,3.336489001748433e-10,-5.094662234098046e-08,1.3361323891042387e-08,8.60234238876656e-09,0.0,0.0,0.0,0.0
415968000000,3939,415968000000,,BL_TO_BASELINK,BR_TO_BASELINK,FL_TO_BASELINK,FR_TO_BASELINK,0.09343167903309624,0.09486208109132832,-0.1381592674836405,-0.12979193947632606,-5.150383060635588e-05,-0.00020181193715194945,-0.07570815641006837,0.00020859933513660278,0.0,0.0,0.0,0.0
415969000000,3940,415969000000,,BL_TO_BASELINK,BR_TO_BASELINK,FL_TO_BASELINK,FR_TO_BASELINK,0.09343167141695385,0.09489085659650343,-0.13813477293791987,-0.1297919425677021,0.00020944781235253396,0.009004292011216814,0.006586192983762083,-0.0007755272530626453,0.0,0.0,0.0,0.0
415970000000,3941,415970000000,,BL_TO_BASELINK,BR_TO_BASELINK,FL_TO_BASELINK,FR_TO_BASELINK,0.09343167141703024,0.09489083886775163,-0.13813477112533512,-0.12979194242797032,1.7246290333339243e-10,-9.318538280247979e-08,3.067901569071829e-08,8.424237543658286e-09,0.0,0.0,0.0,0.0
415971000000,3942,415971000000,,BL_TO_BASELINK,BR_TO_BASELINK,FL_TO_BASELINK,FR_TO_BASELINK,0.0934316229479224,0.09489063762821104,-0.1382073839777025,-0.12979174695782802,-4.847241288191695e-05,-0.00019002020687027,-0.0725986754870134,0.00019540571279488828,0.0,0.0,0.0,0.0
415972000000,3943,415972000000,,BL_TO_BASELINK,BR_TO_BASELINK,FL_TO_BASELINK,FR_TO_BASELINK,0.09343161230949004,0.09491470019638282,-0.138186486981823,-0.12979172457371924,5.858342803955613e-05,0.00642750088092337,0.004753879464048158,-0.0002646205117620669,0.0,0.0,0.0,0.0
415973000000,3944,415973000000,,BL_TO_BASELINK,BR_TO_BASELINK,FL_TO_BASELINK,FR_TO_BASELINK,0.09343161230953889,0.09491468206840015,-0.13818648462390382,-0.12979172453531707,1.1067402203024379e-10,-9.733859897796682e-08,3.680972860548026e-08,4.411536263029814e-09,0.0,0.0,0.0,0.0
415974000000,3945,415974000000,,BL_TO_BASELINK,BR_TO_BASELINK,FL_TO_BASELINK,FR_TO_BASELINK,0.09343156308451128,0.09491447747318116,-0.13826105760168073,-0.12979152662697224,-4.922845407992482e-05,-0.00019312365515748026,-0.07455692477693965,0.00019790406701988839,0.0,0.0,0.0,0.0
415975000000,3946,415975000000,,BL_TO_BASELINK,BR_TO_BASELINK,FL_TO_BASELINK,FR_TO_BASELINK,0.09343155275250936,0.09493813692103537,-0.13824070623733764,-0.12979150500961634,5.3323431903149615e-05,0.0053097017037678045,0.003617316336709135,-0.0002325597478925502,0.0,0.0,0.0,0.0
415976000000,3947,415976000000,,BL_TO_BASELINK,BR_TO_BASELINK,FL_TO_BASELINK,FR_TO_BASELINK,0.09343155275254489,0.09493811853615419,-0.1382407032836035,-0.12979150499876013,8.009171451051067e-11,-9.385455242844065e-08,3.9876742980587965e-08,2.069905857826626e-09,0.0,0.0,0.0,0.0
415976000000,3948,415977000000,,BL_TO_BASELINK,BR_TO_BASELINK,FL_TO_BASELINK,FR_TO_BASELINK,0.09343150308652426,0.09493791201976087,-0.13831619034194276,-0.12979130549990092,-4.966950886478583e-05,-0.00019487850605347246,-0.07546973333676071,0.00019950965161579653,0.0,0.0,0.0,0.0
415976000000,3949,415978000000,,BL_TO_BASELINK,BR_TO_BASELINK,FL_TO_BASELINK,FR_TO_BASELINK,0.09343149260618233,0.0949610933328282,-0.13829662373854124,-0.12979128186057576,3.96026890063135e-05,0.004845629938921845,0.002826337777647632,-0.00018418244043131443,0.0,0.0,0.0,0.0
415981000000,3950,415979000000,,BL_TO_BASELINK,BR_TO_BASELINK,FL_TO_BASELINK,FR_TO_BASELINK,0.0934314926062072,0.09496107488716365,-0.13829662026288947,-0.12979128185736144,5.919901374662473e-11,-8.770446061068249e-08,4.0858883720851225e-08,9.075945585357292e-10,0.0,0.0,0.0,0.0
415982000000,3951,415982000000,,BL_TO_BASELINK,BR_TO_BASELINK,FL_TO_BASELINK,FR_TO_BASELINK,0.09343143215830185,0.09498392502801067,-0.1383536276887094,-0.1297910570975418,4.208506113045907e-11,-8.123116454483714e-08,4.0639199713754515e-08,3.726593270081402e-10,0.0,0.0,0.0,0.0
415983000000,3952,415983000000,,BL_TO_BASELINK,BR_TO_BASELINK,FL_TO_BASELINK,FR_TO_BASELINK,0.09343138196525569,0.09498371638784953,-0.13843011126461935,-0.12979085562214454,-5.01966045171956e-05,-0.00019695492180098195,-0.0764646619328339,0.00020149062810349838,0.0,0.0,0.0,0.0
415984000000,3953,415984000000,,BL_TO_BASELINK,BR_TO_BASELINK,FL_TO_BASELINK,FR_TO_BASELINK,0.0934313715307118,0.09500681982058001,-0.13841125390746267,-0.12979083145996828,3.1609688915905376e-05,0.00473371944109318,0.002028206446096737,-0.00013296016443593503,0.0,0.0,0.0,0.0
415985000000,3954,415985000000,,BL_TO_BASELINK,BR_TO_BASELINK,FL_TO_BASELINK,FR_TO_BASELINK,0.09343137153072156,0.09500680138489148,-0.1384112497406358,-0.1297908314596068,2.6189151541844424e-11,-7.546266541161306e-08,3.992011704881393e-08,1.4814354951098174e-10,0.0,0.0,0.0,0.0
415986000000,3955,415986000000,,BL_TO_BASELINK,BR_TO_BASELINK,FL_TO_BASELINK,FR_TO_BASELINK,0.09343132122809195,0.09500659232666475,-0.1384879053182102,-0.1297906295515059,-5.030622259624695e-05,-0.00019737546425209473,-0.07663629488964394,0.0002019235331557831,0.0,0.0,0.0,0.0
415987000000,3956,415987000000,,BL_TO_BASELINK,BR_TO_BASELINK,FL_TO_BASELINK,FR_TO_BASELINK,0.09343131082200351,0.09502977940937907,-0.13846916900677897,-0.1297906054922997,3.1136927412366705e-05,0.00482232564413311,0.0019044948120104307,-0.00012838092777430268,0.0,0.0,0.0,0.0
415988000000,3957,415988000000,,BL_TO_BASELINK,BR_TO_BASELINK,FL_TO_BASELINK,FR_TO_BASELINK,0.0934313108220044,0.09502976097280236,-0.13846916466184567,-0.12979060549213894,1.0860645716093131e-11,-7.039567077524178e-08,3.896706071357392e-08,7.077908398267496e-11,0.0,0.0,0.0,0.0
415989000000,3958,415989000000,,BL_TO_BASELINK,BR_TO_BASELINK,FL_TO_BASELINK,FR_TO_BASELINK,0.09343126046623507,0.09502955171488292,-0.13854588409088464,-0.12979040336359926,-5.0359395611661306e-05,-0.00019757113505972784,-0.07669995150144818,0.0002021440447638398,0.0,0.0,0.0,0.0
415990000000,3959,415990000000,,BL_TO_BASELINK,BR_TO_BASELINK,FL_TO_BASELINK,FR_TO_BASELINK,0.09343125008485931,0.09505283274296072,-0.13852718882821868,-0.12979037946710026,3.1330949645507616e-05,0.004923292042860204,0.0018677268712751667,-0.00012944353818607549,0.0,0.0,0.0,0.0
415991000000,3960,415991000000,,BL_TO_BASELINK,BR_TO_BASELINK,FL_TO_BASELINK,FR_TO_BASELINK,0.0934312500848522,0.09505281429388202,-0.1385271843832392,-0.12979037946699723,-4.184159962949963e-12,-6.587517010700483e-08,3.7924220357837823e-08,6.311939512726461e-11,0.0,0.0,0.0,0.0
415992000000,3961,415992000000,,BL_TO_BASELINK,BR_TO_BASELINK,FL_TO_BASELINK,FR_TO_BASELINK,0.09343115606914854,0.09505245533777451,-0.1385977012403785,-0.12984068647724367,-9.401729746015552e-05,-0.00034713318782240293,-0.07051974187985574,-0.05031016089502184,0.0,0.0,0.0,0.0
415993000000,3962,415993000000,,BL_TO_BASELINK,BR_TO_BASELINK,FL_TO_BASELINK,FR_TO_BASELINK,0.09343115584769723,0.09508481940851965,-0.13858532368313892,-0.12984075405291673,1.3596933621597834e-05,0.030259370298920785,0.009445634471573502,-0.0001375346429617029,0.0,0.0,0.0,0.0
415994000000,3963,415994000000,,BL_TO_BASELINK,BR_TO_BASELINK,FL_TO_BASELINK,FR_TO_BASELINK,0.09343115584771855,0.09508480779619433,-0.13858532325212103,-0.1298407540512896,4.7047876011729883e-11,8.729122106393428e-08,-2.1199999023641114e-08,1.2374212800259077e-09,0.0,0.0,0.0,0.0
415995000000,3964,415995000000,,BL_TO_BASELINK,BR_TO_BASELINK,FL_TO_BASELINK,FR_TO_BASELINK,0.09343113712116047,0.09507599227440977,-0.13861529377023096,-0.1298538190904983,-1.8757856727244157e-05,-0.00880750493643272,-0.029974065220661497,-0.013065393259749399,0.0,0.0,0.0,0.0
415996000000,3965,415996000000,,BL_TO_BASELINK,BR_TO_BASELINK,FL_TO_BASELINK,FR_TO_BASELINK,0.09343113203751319,0.0950788467751158,-0.13862337359453747,-0.12985476633990078,-5.08337175957811e-06,0.0028557649334458503,-0.008080772434544255,-0.0009469253189228865,0.0,0.0,0.0,0.0
415997000000,3966,415997000000,,BL_TO_BASELINK,BR_TO_BASELINK,FL_TO_BASELINK,FR_TO_BASELINK,0.09343110932988186,0.09507875379989184,-0.1386585965218572,-0.12985467559088715,-2.270768371790549e-05,-8.924274219948222e-05,-0.03521904420389045,9.074383051191695e-05,0.0,0.0,0.0,0.0
415998000000,3967,415998000000,,BL_TO_BASELINK,BR_TO_BASELINK,FL_TO_BASELINK,FR_TO_BASELINK,0.09343108758864016,0.09509497431836422,-0.13863550955233261,-0.12984159374195148,-2.0662102220524864e-05,0.007654548039794269,0.01407222997713341,0.004783786146548838,0.0,0.0,0.0,0.0
415999000000,3968,415999000000,,BL_TO_BASELINK,BR_TO_BASELINK,FL_TO_BASELINK,FR_TO_BASELINK,0.09363108758814676,0.09529496804763582,-0.13843550864053,-0.12964159359818694,0.19999999992812315,0.19999990887670344,0.2000000368694169,0.19999998481457765,0.0,0.0,0.0,0.0
416000000000,3969,416000000000,,BL_TO_BASELINK,BR_TO_BASELINK,FL_TO_BASELINK,FR_TO_BASELINK,0.09403088248757019,0.09569420006742124,-0.13824668618039126,-0.12927301384096346,0.39979466882332015,0.399235582880269,0.18880455760285328,0.36809501282797447,0.0,0.0,0.0,0.0
416001000000,3970,416001000000,,BL_TO_BASELINK,BR_TO_BASELINK,FL_TO_BASELINK,FR_TO_BASELINK,0.0946305801159788,0.09629310679776726,-0.1376818676153535,-0.12887510784442657,0.5996976150832831,0.5989092120721461,0.5642895076851643,0.3978963647448219,0.0,0.0,0.0,0.0
416002000000,3971,416002000000,,BL_TO_BASELINK,BR_TO_BASELINK,FL_TO_BASELINK,FR_TO_BASELINK,0.09543058008187266,0.09709310516854419,-0.13688186723969675,-0.12807510507782816,0.7999999992455136,0.8000001233152285,0.8000000795285791,0.8000003436975253,0.0,0.0,0.0,0.0
416003000000,3972,416003000000,,BL_TO_BASELINK,BR_TO_BASELINK,FL_TO_BASELINK,FR_TO_BASELINK,0.09636150027803492,0.09802382021041467,-0.13624979411385674,-0.127394252880082,0.9309141193065759,0.9307135388993834,0.6320571940873381,0.6808691296027033,0.0,0.0,0.0,0.0
416004000000,3973,416004000000,,BL_TO_BASELINK,BR_TO_BASELINK,FL_TO_BASELINK,FR_TO_BASELINK,0.09729187955274643,0.09895406988567412,-0.13533424950159834,-0.12646369477412467,0.9303792493629714,0.9302501274240347,0.9153058554983785,0.9305477799956189,0.0,0.0,0.0,0.0
416005000000,3974,416005000000,,BL_TO_BASELINK,BR_TO_BASELINK,FL_TO_BASELINK,FR_TO_BASELINK,0.09822381306784411,0.0998882411117501,-0.13431848932194868,-0.1257513565845203,0.9319284794308487,0.9341587273526009,1.0164839769381617,0.712581213881852,0.0,0.0,0.0,0.0
416006000000,3975,416006000000,,BL_TO_BASELINK,BR_TO_BASELINK,FL_TO_BASELINK,FR_TO_BASELINK,0.09915422458402556,0.10081865238273124,-0.1333880769539686,-0.12482092733438677,0.9304115614589933,0.9304115521990384,0.9304115526908772,0.9304119752883248,0.0,0.0,0.0,0.0
416007000000,3976,416007000000,,BL_TO_BASELINK,BR_TO_BASELINK,FL_TO_BASELINK,FR_TO_BASELINK,0.10008499773720736,0.10175008277396813,-0.13262350760631847,-0.12389213815250955,0.9307727470130356,0.9314292478436705,0.7646044504999855,0.92877999986962,0.0,0.0,0.0,0.0
416009000000,3977,416008000000,,BL_TO_BASELINK,BR_TO_BASELINK,FL_TO_BASELINK,FR_TO_BASELINK,0.10101744572560811,0.10268931408722182,-0.13162365260578124,-0.1232255900088628,0.9324394614037896,0.9391732502982774,1.0021336950274216,0.6669605686037603,0.0,0.0,0.0,0.0
416009000000,3978,416009000000,,BL_TO_BASELINK,BR_TO_BASELINK,FL_TO_BASELINK,FR_TO_BASELINK,0.10194785723770661,0.10361972560480925,-0.13069323984495185,-0.1222951585246328,0.9304116033970776,0.9304115956742157,0.930411717449435,0.9304112857856844,0.0,0.0,0.0,0.0
416010000000,3979,416010000000,,BL_TO_BASELINK,BR_TO_BASELINK,FL_TO_BASELINK,FR_TO_BASELINK,0.10287858731819455,0.10455047447710886,-0.12987956242594656,-0.12136630562311623,0.9307275201759796,0.930759690611698,0.8136613609591856,0.9288572843429035,0.0,0.0,0.0,0.0
416011000000,3980,416011000000,,BL_TO_BASELINK,BR_TO_BASELINK,FL_TO_BASELINK,FR_TO_BASELINK,0.10380878399744464,0.10548010527771634,-0.12902894427719058,-0.1205781453530248,0.9301967479552735,0.9296308568826488,0.850600032077879,0.7881847670863742,0.0,0.0,0.0,0.0
416012000000,3981,416012000000,,BL_TO_BASELINK,BR_TO_BASELINK,FL_TO_BASELINK,FR_TO_BASELINK,0.10473912149354181,0.10641021349487811,-0.12816152005209425,-0.11964741580071081,0.9303375665939451,0.9301082627805533,0.867432769054101,0.9307138547651261,0.0,0.0,0.0,0.0
416012000000,3982,416013000000,,BL_TO_BASELINK,BR_TO_BASELINK,FL_TO_BASELINK,FR_TO_BASELINK,0.1056693817558374,0.10734006486592929,-0.12744408280989816,-0.11871229592636201,0.9300652538429283,0.9297079949181363,0.741337698170892,0.8979690537842435,0.0,0.0,0.0,0.0
416014000000,3983,416014000000,,BL_TO_BASELINK,BR_TO_BASELINK,FL_TO_BASELINK,FR_TO_BASELINK,0.10659973880412021,0.10827036042041538,-0.12651388193021607,-0.1178003411727353,0.9303574867267516,0.9302961531099635,0.9301139922993569,0.9118725998419159,0.0,0.0,0.0,0.0
416015000000,3984,416015000000,,BL_TO_BASELINK,BR_TO_BASELINK,FL_TO_BASELINK,FR_TO_BASELINK,0.10752942630377404,0.10919952833237989,-0.12577715223824537,-0.11686665479454117,0.9296846764313429,0.9291552535687462,0.7368204332849133,0.933685581565747,0.0,0.0,0.0,0.0
416016000000,3985,416016000000,,BL_TO_BASELINK,BR_TO_BASELINK,FL_TO_BASELINK,FR_TO_BASELINK,0.10845966182783684,0.11012948392760968,-0.124847567482548,-0.11604835764118526,0.9302355984527845,0.9299556575673574,0.9294735901897564,0.818319108900758,0.0,0.0,0.0,0.0
416018000000,3986,416017000000,,BL_TO_BASELINK,BR_TO_BASELINK,FL_TO_BASELINK,FR_TO_BASELINK,0.10938982930879426,0.11105918074655641,-0.12409651955602641,-0.11511688341655901,0.930167230706218,0.9296963345606897,0.7511259857099546,0.931461324889668,0.0,0.0,0.0,0.0
416019000000,3987,416019000000,,BL_TO_BASELINK,BR_TO_BASELINK,FL_TO_BASELINK,FR_TO_BASELINK,0.11125038419649869,0.11291908256851357,-0.12235127841566573,-0.11335397994267193,0.9302730679386112,0.9298768468347779,0.8155442409048559,0.9309629623319859,0.0,0.0,0.0,0.0
416020000000,3988,416020000000,,BL_TO_BASELINK,BR_TO_BASELINK,FL_TO_BASELINK,FR_TO_BASELINK,0.11218065596266413,0.11384913447843026,-0.12142144821835643,-0.11254848221988567,0.9302717927977258,0.9300518381568836,0.9297348867273809,0.8055336245530055,0.0,0.0,0.0,0.0
416021000000,3989,416021000000,,BL_TO_BASELINK,BR_TO_BASELINK,FL_TO_BASELINK,FR_TO_BASELINK,0.11311092739014672,0.1147790377355058,-0.12061556134496065,-0.1116174635277698,0.9302715423959236,0.9299033709491806,0.8059203138344325,0.9309863608773131,0.0,0.0,0.0,0.0
416022000000,3990,416022000000,,BL_TO_BASELINK,BR_TO_BASELINK,FL_TO_BASELINK,FR_TO_BASELINK,0.11404123179063319,0.11570908546305159,-0.11968574859159098,-0.11078159656808406,0.9303045096847105,0.9300478278707143,0.9297376357595447,0.8359228410372882,0.0,0.0,0.0,0.0
416023000000,3991,416023000000,,BL_TO_BASELINK,BR_TO_BASELINK,FL_TO_BASELINK,FR_TO_BASELINK,0.11497147569111288,0.11663894497831873,-0.11890620848386568,-0.10985043190099653,0.9302439152702852,0.9298594195166414,0.7795915039657634,0.9311229433437505,0.0,0.0,0.0,0.0
416024000000,3992,416024000000,,BL_TO_BASELINK,BR_TO_BASELINK,FL_TO_BASELINK,FR_TO_BASELINK,0.11590177025380832,0.11756903942327668,-0.11797634923006317,-0.10903144387134756,0.9302946965986483,0.9300945804421363,0.9297866412084672,0.8190201342574355,0.0,0.0,0.0,0.0
416025000000,3993,416025000000,,BL_TO_BASELINK,BR_TO_BASELINK,FL_TO_BASELINK,FR_TO_BASELINK,0.11693500926924028,0.11850079720564999,-0.11695854796547689,-0.10810127146184367,1.0081122219170795,0.9300996660076492,0.9899203943381784,0.929406265084279,0.0,0.0,0.0,0.0
416026000000,3994,416026000000,,BL_TO_BASELINK,BR_TO_BASELINK,FL_TO_BASELINK,FR_TO_BASELINK,0.11786524383092534,0.1194307811897346,-0.1160288599243886,-0.10734864087485896,0.9303452380780101,0.9301807396090312,0.930023235665835,0.8410036072737049,0.0,0.0,0.0,0.0
416027000000,3995,416027000000,,BL_TO_BASELINK,BR_TO_BASELINK,FL_TO_BASELINK,FR_TO_BASELINK,0.11894391139865856,0.12036047914677717,-0.11509913297672458,-0.1064186314207003,1.0008247864131237,0.9301338288821143,0.9301176196540447,0.9301646717943775,0.0,0.0,0.0,0.0
416028000000,3996,416028000000,,BL_TO_BASELINK,BR_TO_BASELINK,FL_TO_BASELINK,FR_TO_BASELINK,0.11987411100742396,0.12129053427016512,-0.11416930881479637,-0.10563849932246772,0.9303659881383148,0.9302063655502675,0.9300882706700065,0.8442787103147942,0.0,0.0,0.0,0.0
416029000000,3997,416029000000,,BL_TO_BASELINK,BR_TO_BASELINK,FL_TO_BASELINK,FR_TO_BASELINK,0.12093241806187205,0.12222032902770597,-0.11323949657146848,-0.10470837338462502,1.0059896841699374,0.9301075256843961,0.9300950744191456,0.9301646318633319,0.0,0.0,0.0,0.0
416030000000,3998,416030000000,,BL_TO_BASELINK,BR_TO_BASELINK,FL_TO_BASELINK,FR_TO_BASELINK,0.12186259744375327,0.12315041658455783,-0.11230961611609303,-0.10391529899074037,0.930366797378552,0.9302004145661812,0.9300817784521567,0.8407949646091823,0.0,0.0,0.0,0.0
416031000000,3999,416031000000,,BL_TO_BASELINK,BR_TO_BASELINK,FL_TO_BASELINK,FR_TO_BASELINK,0.12291076587200145,0.1240802452966685,-0.11137977101371543,-0.1029851155552306,1.0076831148349326,0.9300747723723695,0.9300698101957433,0.9301539168713865,0.0,0.0,0.0,0.0
416031000000,4000,416032000000,,BL_TO_BASELINK,BR_TO_BASELINK,FL_TO_BASELINK,FR_TO_BASELINK,0.12384102173739642,0.12499176512402688,-0.11044812053622,-0.10209213960795172,0.9304113246064263,0.9457671244106738,0.931406135978385,0.9274554097771885,0.0,0.0,0.0,0.0
416031000000,4001,416033000000,,BL_TO_BASELINK,BR_TO_BASELINK,FL_TO_BASELINK,FR_TO_BASELINK,0.12484648377508822,0.12592157404973037,-0.10951823091838264,-0.10116185445267512,1.0055030550202384,0.9298200019198516,0.9298883429747928,0.9300719359720004,0.0,0.0,0.0,0.0
416031000000,4002,416034000000,,BL_TO_BASELINK,BR_TO_BASELINK,FL_TO_BASELINK,FR_TO_BASELINK,0.125776789348925,0.12685182799433203,-0.1085880097395604,-0.1002989984928826,0.9303990297372164,0.9302610334405208,0.9302205379305172,0.8629878033297209,0.0,0.0,0.0,0.0
416035000000,4003,416035000000,,BL_TO_BASELINK,BR_TO_BASELINK,FL_TO_BASELINK,FR_TO_BASELINK,0.1267991065672982,0.12784641783928663,-0.10765854908311301,-0.0993690681478947,1.015122722561603,0.9924088546703577,0.9295183227279427,0.929792148419376,0.0,0.0,0.0,0.0
416036000000,4004,416036000000,,BL_TO_BASELINK,BR_TO_BASELINK,FL_TO_BASELINK,FR_TO_BASELINK,0.12772941666254045,0.1287766163036368,-0.10672845833739508,-0.09852933306405554,0.9303766700704027,0.9302182920578623,0.9301197183847045,0.8466558604823311,0.0,0.0,0.0,0.0
416037000000,4005,416037000000,,BL_TO_BASELINK,BR_TO_BASELINK,FL_TO_BASELINK,FR_TO_BASELINK,0.12874255762209508,0.12970502830850794,-0.10579851958191178,-0.0975990659370014,1.0034164413775615,0.9270286508773823,0.9300256035774186,0.9301558495916167,0.0,0.0,0.0,0.0
416038000000,4006,416038000000,,BL_TO_BASELINK,BR_TO_BASELINK,FL_TO_BASELINK,FR_TO_BASELINK,0.12967291218186894,0.1306442227897069,-0.1048665605178245,-0.09667289796809708,0.9304055604363421,0.9527277787570693,0.931698314064406,0.9400322706695386,0.0,0.0,0.0,0.0
416039000000,4007,416039000000,,BL_TO_BASELINK,BR_TO_BASELINK,FL_TO_BASELINK,FR_TO_BASELINK,0.1306032873622227,0.1315746182348807,-0.10393614892473302,-0.09574230544369833,0.9304121507550582,0.9304113791115892,0.9304115647292376,0.9304113887847942,0.0,0.0,0.0,0.0
416040000000,4008,416040000000,,BL_TO_BASELINK,BR_TO_BASELINK,FL_TO_BASELINK,FR_TO_BASELINK,0.13164877522461804,0.13250558971503956,-0.1030048932645915,-0.0947370111577257,1.0730569411804205,1.0202326863985733,0.9450466747226278,1.004396620470297,0.0,0.0,0.0,0.0
416040000000,4009,416041000000,,BL_TO_BASELINK,BR_TO_BASELINK,FL_TO_BASELINK,FR_TO_BASELINK,0.13262125140676062,0.13343500968204225,-0.10207546184134131,-0.09381718883622003,0.9728513991910153,0.9294343395893169,0.9294406999561384,0.9200495988523453,0.0,0.0,0.0,0.0
416043000000,4010,416042000000,,BL_TO_BASELINK,BR_TO_BASELINK,FL_TO_BASELINK,FR_TO_BASELINK,0.13360403360097184,0.13436513306471642,-0.10114531783537384,-0.0928869184395591,0.9827617021511893,0.9301274688192873,0.9301440856893964,0.9302305105761558,0.0,0.0,0.0,0.0
416043000000,4011,416043000000,,BL_TO_BASELINK,BR_TO_BASELINK,FL_TO_BASELINK,FR_TO_BASELINK,0.13454129546298166,0.1352950786635727,-0.10021540600042922,-0.09199208939644077,0.9380406574869122,0.9299056753294165,0.9298735246213886,0.8955251001729815,0.0,0.0,0.0,0.0
416044000000,4012,416044000000,,BL_TO_BASELINK,BR_TO_BASELINK,FL_TO_BASELINK,FR_TO_BASELINK,0.13547167582929287,0.1362254884673053,-0.09928499447662364,-0.09106164982428577,0.9304119593420203,0.9304114914909467,0.9304115781041042,0.9304113474042268,0.0,0.0,0.0,0.0
416045000000,4013,416045000000,,BL_TO_BASELINK,BR_TO_BASELINK,FL_TO_BASELINK,FR_TO_BASELINK,0.13647347893970707,0.13715549370860725,-0.09835495696169971,-0.0901314671934017,1.0017743348486545,0.9300063134391097,0.9300375514691899,0.9301644183955722,0.0,0.0,0.0,0.0
416046000000,4014,416046000000,,BL_TO_BASELINK,BR_TO_BASELINK,FL_TO_BASELINK,FR_TO_BASELINK,0.1373779043739809,0.13808616716851674,-0.09742437575997176,-0.089257135190973,0.9215598688772727,0.9298626511264795,0.9298482367010459,0.8914268771733161,0.0,0.0,0.0,0.0
416047000000,4015,416047000000,,BL_TO_BASELINK,BR_TO_BASELINK,FL_TO_BASELINK,FR_TO_BASELINK,0.13830830242144287,0.13901657824465374,-0.09649396424225021,-0.08832669812200944,0.9304117124192348,0.9304115531625806,0.930411575943381,0.9304115007238206,0.0,0.0,0.0,0.0
416048000000,4016,416048000000,,BL_TO_BASELINK,BR_TO_BASELINK,FL_TO_BASELINK,FR_TO_BASELINK,0.13929207347990502,0.13994667222713542,-0.09556384287392916,-0.08739645954957886,0.9837576830073005,0.9300942871996891,0.9301214061978446,0.9302220628672315,0.0,0.0,0.0,0.0
416049000000,4017,416049000000,,BL_TO_BASELINK,BR_TO_BASELINK,FL_TO_BASELINK,FR_TO_BASELINK,0.1401802101051075,0.14087656561251283,-0.09468745586738336,-0.0865613589764056,0.8952979014323398,0.9298601673991489,0.8840222196119645,0.8464293637504718,0.0,0.0,0.0,0.0
416050000000,4018,416050000000,,BL_TO_BASELINK,BR_TO_BASELINK,FL_TO_BASELINK,FR_TO_BASELINK,0.1411106159174338,0.14180697697967393,-0.09375704433982168,-0.08563093753709072,0.9304118104074597,0.9304115436877717,0.9304115871423926,0.9304113384295659,0.0,0.0,0.0,0.0
416051000000,4019,416051000000,,BL_TO_BASELINK,BR_TO_BASELINK,FL_TO_BASELINK,FR_TO_BASELINK,0.14203459972793375,0.14273818821081008,-0.09283940873653851,-0.08470062665623601,0.9239717215284021,0.9312113905973242,0.9176504315297663,0.9303045014204355,0.0,0.0,0.0,0.0
416052000000,4020,416052000000,,BL_TO_BASELINK,BR_TO_BASELINK,FL_TO_BASELINK,FR_TO_BASELINK,0.14296490007687446,0.14366831307062977,-0.09190955034284709,-0.08388736368912753,0.9303100238496752,0.9301317651465465,0.9298643081083497,0.8162697717380859,0.0,0.0,0.0,0.0
416053000000,4021,416053000000,,BL_TO_BASELINK,BR_TO_BASELINK,FL_TO_BASELINK,FR_TO_BASELINK,0.14391871910230414,0.14460000781841575,-0.09095886467731962,-0.0829570322441322,0.935370140049642,0.9312111116362908,0.9309499238014739,0.9303048775720559,0.0,0.0,0.0,0.0
416054000000,4022,416054000000,,BL_TO_BASELINK,BR_TO_BASELINK,FL_TO_BASELINK,FR_TO_BASELINK,0.14484901960625152,0.14553012188560643,-0.0900289803584231,-0.08215103137768409,0.9303349601534527,0.9301631113597305,0.9299597403725262,0.8268834564747671,0.0,0.0,0.0,0.0
416055000000,4023,416055000000,,BL_TO_BASELINK,BR_TO_BASELINK,FL_TO_BASELINK,FR_TO_BASELINK,0.14585063110693053,0.14646023443634704,-0.08909885765505887,-0.08122077804336492,0.9710791396581818,0.9302875858720375,0.9302763749952849,0.930305430376073,0.0,0.0,0.0,0.0
416056000000,4024,416056000000,,BL_TO_BASELINK,BR_TO_BASELINK,FL_TO_BASELINK,FR_TO_BASELINK,0.14673644566607447,0.14739133719838104,-0.08816784000091982,-0.08035587115973719,0.9154756209947026,0.9305513453743466,0.9411961679995828,0.8798216508817295,0.0,0.0,0.0,0.0
416057000000,4025,416057000000,,BL_TO_BASELINK,BR_TO_BASELINK,FL_TO_BASELINK,FR_TO_BASELINK,0.1476668461036219,0.14832174870191306,-0.08723742532336232,-0.07942538352450423,0.9304117286192056,0.930411575599345,0.9304116351261456,0.9304113084451828,0.0,0.0,0.0,0.0
416058000000,4026,416058000000,,BL_TO_BASELINK,BR_TO_BASELINK,FL_TO_BASELINK,FR_TO_BASELINK,0.14864723662067636,0.14925184410064585,-0.08630729759446343,-0.0784951068694335,0.9803817467243544,0.9300954399485168,0.9301257597557078,0.9302272696654759,0.0,0.0,0.0,0.0
416059000000,4027,416059000000,,BL_TO_BASELINK,BR_TO_BASELINK,FL_TO_BASELINK,FR_TO_BASELINK,0.14954716381985733,0.15018196781748916,-0.08541519900699601,-0.07764461031099668,0.9046575400149708,0.9299548304939441,0.8973187104556062,0.8591447475457453,0.0,0.0,0.0,0.0
416060000000,4028,416060000000,,BL_TO_BASELINK,BR_TO_BASELINK,FL_TO_BASELINK,FR_TO_BASELINK,0.15047757396248596,0.1511123793223117,-0.0844847874962733,-0.0767141524670345,0.9304116838529961,0.930411574601458,0.930411580565007,0.9304111317748296,0.0,0.0,0.0,0.0
416061000000,4029,416061000000,,BL_TO_BASELINK,BR_TO_BASELINK,FL_TO_BASELINK,FR_TO_BASELINK,0.15141656106883694,0.15204338085082014,-0.08354934880524567,-0.0757837716284433,0.9389788714069787,0.9310015981842161,0.9354515699814859,0.9303508227320052,0.0,0.0,0.0,0.0
416062000000,4030,416062000000,,BL_TO_BASELINK,BR_TO_BASELINK,FL_TO_BASELINK,FR_TO_BASELINK,0.15234686481656645,0.1529734717753719,-0.08261953042007075,-0.07498690489233972,0.9303173490673383,0.9301287259990824,0.9298787568801983,0.8133881400904123,0.0,0.0,0.0,0.0
416063000000,4031,416063000000,,BL_TO_BASELINK,BR_TO_BASELINK,FL_TO_BASELINK,FR_TO_BASELINK,0.15336545236686927,0.1539034331948521,-0.08168954163058828,-0.07405671999903163,0.9783655475307138,0.9301895685508025,0.9301966211084629,0.93026119702869,0.0,0.0,0.0,0.0
416064000000,4032,416064000000,,BL_TO_BASELINK,BR_TO_BASELINK,FL_TO_BASELINK,FR_TO_BASELINK,0.15424474732478544,0.15483462234725298,-0.08075846970129863,-0.07319957473817951,0.9060577379531701,0.9306987451591968,0.9306609414008024,0.8878023424487381,0.0,0.0,0.0,0.0
416065000000,4033,416065000000,,BL_TO_BASELINK,BR_TO_BASELINK,FL_TO_BASELINK,FR_TO_BASELINK,0.15517515543138227,0.15576503385800855,-0.07982805692591821,-0.07226907892934076,0.930411573969356,0.9304115783318077,0.9304115735599882,0.9304116117232017,0.0,0.0,0.0,0.0
416066000000,4034,416066000000,,BL_TO_BASELINK,BR_TO_BASELINK,FL_TO_BASELINK,FR_TO_BASELINK,0.15614876800112487,0.15669517938416533,-0.07889788650144602,-0.07133876997074307,0.9736062122575354,0.9301455680097599,0.9301696444929692,0.9302544379924899,0.0,0.0,0.0,0.0
416067000000,4035,416067000000,,BL_TO_BASELINK,BR_TO_BASELINK,FL_TO_BASELINK,FR_TO_BASELINK,0.1570307372169708,0.1576267865677332,-0.07796636478427299,-0.07046650337100502,0.9100209816377132,0.9300004496136809,0.9032449716562821,0.8732123745714738,0.0,0.0,0.0,0.0
416068000000,4036,416068000000,,BL_TO_BASELINK,BR_TO_BASELINK,FL_TO_BASELINK,FR_TO_BASELINK,0.15796114868607525,0.15855719807741941,-0.07703595289793608,-0.06953601063839887,0.9304115920077541,0.930411578246762,0.9304116060437007,0.930411174711415,0.0,0.0,0.0,0.0
416070000000,4037,416069000000,,BL_TO_BASELINK,BR_TO_BASELINK,FL_TO_BASELINK,FR_TO_BASELINK,0.1588980115047578,0.15948750937379863,-0.07610079482155108,-0.06862080195541864,0.9368631354666948,0.9303112568947748,0.9351585358644456,0.9152061671766784,0.0,0.0,0.0,0.0
416070000000,4038,416070000000,,BL_TO_BASELINK,BR_TO_BASELINK,FL_TO_BASELINK,FR_TO_BASELINK,0.15981719135264516,0.16041816793473984,-0.07518323941172511,-0.06769037486582619,0.9191795347267487,0.9306586308074895,0.9175618321196269,0.9303750488931337,0.0,0.0,0.0,0.0
416071000000,4039,416071000000,,BL_TO_BASELINK,BR_TO_BASELINK,FL_TO_BASELINK,FR_TO_BASELINK,0.16074752805914283,0.16134834362337003,-0.07425326120894837,-0.06685868156855612,0.9303367826033621,0.9301757614890112,0.9299755995490808,0.8317886074734009,0.0,0.0,0.0,0.0
416072000000,4040,416072000000,,BL_TO_BASELINK,BR_TO_BASELINK,FL_TO_BASELINK,FR_TO_BASELINK,0.16171802554746417,0.1622762359097356,-0.07328873511706213,-0.06592690665979539,0.9332143130104096,0.9313894462273034,0.9331017721808004,0.9303014162639518,0.0,0.0,0.0,0.0
416073000000,4041,416073000000,,BL_TO_BASELINK,BR_TO_BASELINK,FL_TO_BASELINK,FR_TO_BASELINK,0.16259872552577104,0.16320739248842298,-0.07235770131939478,-0.06506047650881186,0.8952709567879592,0.9307397323444916,0.9306442938075923,0.8817965745650732,0.0,0.0,0.0,0.0
416074000000,4042,416074000000,,BL_TO_BASELINK,BR_TO_BASELINK,FL_TO_BASELINK,FR_TO_BASELINK,0.16352913519269663,0.16413780399514533,-0.07142727839149998,-0.06412998930822766,0.9304115882799565,0.9304115776147558,0.9304115952465316,0.9304115353000493,0.0,0.0,0.0,0.0
416075000000,4043,416075000000,,BL_TO_BASELINK,BR_TO_BASELINK,FL_TO_BASELINK,FR_TO_BASELINK,0.1644991650362675,0.165067995826492,-0.0704970637295359,-0.06319966529003285,0.9700234219404127,0.9301918792785817,0.9302073106152813,0.9302749510561489,0.0,0.0,0.0,0.0
416076000000,4044,416076000000,,BL_TO_BASELINK,BR_TO_BASELINK,FL_TO_BASELINK,FR_TO_BASELINK,0.16537794902628367,0.16599915517449837,-0.06956601808996332,-0.062335289745035105,0.8969517239340921,0.9302223848528934,0.9301367094541508,0.8832256398043637,0.0,0.0,0.0,0.0
416077000000,4045,416077000000,,BL_TO_BASELINK,BR_TO_BASELINK,FL_TO_BASELINK,FR_TO_BASELINK,0.16630836048159736,0.16692956668401937,-0.06863560344911601,-0.061404812856649116,0.9304115795409765,0.9304115780093386,0.9304115875586388,0.9304115380885839,0.0,0.0,0.0,0.0
416078000000,4046,416078000000,,BL_TO_BASELINK,BR_TO_BASELINK,FL_TO_BASELINK,FR_TO_BASELINK,0.1672788665936169,0.16785972882518685,-0.06770541645428185,-0.06047450609761462,0.97050388879515,0.9301621846666752,0.9301850129163001,0.9302643505253918,0.0,0.0,0.0,0.0
416079000000,4047,416079000000,,BL_TO_BASELINK,BR_TO_BASELINK,FL_TO_BASELINK,FR_TO_BASELINK,0.16815491327741672,0.1687909727638779,-0.06677429186856099,-0.05960880563596049,0.8944201118216938,0.9302943964300485,0.9302111868627405,0.8847264647971893,0.0,0.0,0.0,0.0
416080000000,4048,416080000000,,BL_TO_BASELINK,BR_TO_BASELINK,FL_TO_BASELINK,FR_TO_BASELINK,0.1690853244763515,0.16972138427517258,-0.06584387949065373,-0.05867833327166583,0.9304115755882608,0.930411578206324,0.9304115762470637,0.9304115940660573,0.0,0.0,0.0,0.0
416081000000,4049,416081000000,,BL_TO_BASELINK,BR_TO_BASELINK,FL_TO_BASELINK,FR_TO_BASELINK,0.17005382520870782,0.170651556282726,-0.06491368458539437,-0.0577480230357601,0.968501350280038,0.9301720502690733,0.9301943842449245,0.9302707774484682,0.0,0.0,0.0,0.0
416082000000,4050,416082000000,,BL_TO_BASELINK,BR_TO_BASELINK,FL_TO_BASELINK,FR_TO_BASELINK,0.17094396605739792,0.17158302101058354,-0.06396391141366031,-0.05688758382311665,0.8961453742300703,0.9302150721724561,0.8937466367639235,0.8657803827996438,0.0,0.0,0.0,0.0
416083000000,4051,416083000000,,BL_TO_BASELINK,BR_TO_BASELINK,FL_TO_BASELINK,FR_TO_BASELINK,0.17187434931225365,0.17251333134312485,-0.06305169330789173,-0.05595701405408171,0.9303842054107481,0.9303073564148846,0.9116356365630104,0.9305253471823237,0.0,0.0,0.0,0.0
416084000000,4052,416084000000,,BL_TO_BASELINK,BR_TO_BASELINK,FL_TO_BASELINK,FR_TO_BASELINK,0.17280583547528927,0.1734448425727786,-0.06212031190139378,-0.05504549129905456,0.9314686393453863,0.9314989936345102,0.9313702412619825,0.9115043331243183,0.0,0.0,0.0,0.0
416085000000,4053,416085000000,,BL_TO_BASELINK,BR_TO_BASELINK,FL_TO_BASELINK,FR_TO_BASELINK,0.17374256494894613,0.17437516977246847,-0.06118997336441634,-0.054115095691710025,0.9367323945462861,0.9303272799086396,0.9303382269034624,0.9303683299475092,0.0,0.0,0.0,0.0
416086000000,4054,416086000000,,BL_TO_BASELINK,BR_TO_BASELINK,FL_TO_BASELINK,FR_TO_BASELINK,0.17467285078233097,0.1753051330403208,-0.060335073435287434,-0.05328775601799407,0.93028871326261,0.9299703317686873,0.8553861266747751,0.8293755233684444,0.0,0.0,0.0,0.0
416087000000,4055,416087000000,,BL_TO_BASELINK,BR_TO_BASELINK,FL_TO_BASELINK,FR_TO_BASELINK,0.17568365907191286,0.17623508062169257,-0.059405088258470684,-0.05235760164652259,0.9900639735375601,0.9300643174974657,0.9300915983649255,0.9301996681829433,0.0,0.0,0.0,0.0
416088000000,4056,416088000000,,BL_TO_BASELINK,BR_TO_BASELINK,FL_TO_BASELINK,FR_TO_BASELINK,0.1765770925672463,0.17716609740854317,-0.058474203952103565,-0.05148519622539105,0.913044184010544,0.9308156727963702,0.930729135387936,0.8934276840015632,0.0,0.0,0.0,0.0
416089000000,4057,416089000000,,BL_TO_BASELINK,BR_TO_BASELINK,FL_TO_BASELINK,FR_TO_BASELINK,0.17750750406745386,0.17809650891435957,-0.057543791667172606,-0.050554749575499436,0.9304115798887439,0.9304115802742735,0.9304115745213977,0.9304115385215405,0.0,0.0,0.0,0.0
416090000000,4058,416090000000,,BL_TO_BASELINK,BR_TO_BASELINK,FL_TO_BASELINK,FR_TO_BASELINK,0.17849424657085589,0.17902658527577398,-0.05661368710759529,-0.04962451767701648,0.9867379289834051,0.9300764038133253,0.9301040949691683,0.9302090756862661,0.0,0.0,0.0,0.0
416091000000,4059,416091000000,,BL_TO_BASELINK,BR_TO_BASELINK,FL_TO_BASELINK,FR_TO_BASELINK,0.1793789809495978,0.1799586159142077,-0.05567357177357035,-0.048747716206795744,0.9091513105158382,0.930140817190484,0.9016310155287809,0.8768624445663031,0.0,0.0,0.0,0.0
416092000000,4060,416092000000,,BL_TO_BASELINK,BR_TO_BASELINK,FL_TO_BASELINK,FR_TO_BASELINK,0.1803093737127348,0.18088895799702875,-0.05476245977059513,-0.047817178532660876,0.9303907987398398,0.9303348450169566,0.9102691013496109,0.9304981147228332,0.0,0.0,0.0,0.0
416093000000,4061,416093000000,,BL_TO_BASELINK,BR_TO_BASELINK,FL_TO_BASELINK,FR_TO_BASELINK,0.18124869918048248,0.18181853824595162,-0.05383285266925153,-0.04690235545317112,0.9393274654035602,0.9295803105702505,0.9296069064349266,0.9148018378072,0.0,0.0,0.0,0.0
416094000000,4062,416094000000,,BL_TO_BASELINK,BR_TO_BASELINK,FL_TO_BASELINK,FR_TO_BASELINK,0.18219046128871863,0.18274884440049632,-0.05290253769118447,-0.04597198343457087,0.9417631816101338,0.9303062161321912,0.9303149220332426,0.9303481190242878,0.0,0.0,0.0,0.0
416095000000,4063,416095000000,,BL_TO_BASELINK,BR_TO_BASELINK,FL_TO_BASELINK,FR_TO_BASELINK,0.18312075608905332,0.18367883200422686,-0.052042564405262226,-0.04513992369363162,0.930296120951521,0.9299928008511716,0.8603003006090337,0.8336283675728542,0.0,0.0,0.0,0.0
416096000000,4064,416096000000,,BL_TO_BASELINK,BR_TO_BASELINK,FL_TO_BASELINK,FR_TO_BASELINK,0.18414053410279507,0.18460871307696447,-0.0511126390716381,-0.044209805592220874,0.996488592312072,0.9300119162664752,0.930045940456516,0.9301712804055755,0.0,0.0,0.0,0.0
416097000000,4065,416097000000,,BL_TO_BASELINK,BR_TO_BASELINK,FL_TO_BASELINK,FR_TO_BASELINK,0.1850352717949173,0.18553970780063622,-0.050181774502600085,-0.043337948056898945,0.915184756558293,0.9312463705646272,0.9369605479575425,0.8943645926094852,0.0,0.0,0.0,0.0
416098000000,4066,416098000000,,BL_TO_BASELINK,BR_TO_BASELINK,FL_TO_BASELINK,FR_TO_BASELINK,0.18596568263561863,0.18647011931019453,-0.049251362617451555,-0.04240749618746431,0.9304115945953282,0.9304115779548672,0.9304115728898703,0.9304115267162795,0.0,0.0,0.0,0.0
416099000000,4067,416099000000,,BL_TO_BASELINK,BR_TO_BASELINK,FL_TO_BASELINK,FR_TO_BASELINK,0.1869562994420706,0.18740016957664007,-0.048321281920377324,-0.04147727629541631,0.9906088923589456,0.9300503078318019,0.9300804948898962,0.9301935975120175,0.0,0.0,0.0,0.0
416100000000,4068,416100000000,,BL_TO_BASELINK,BR_TO_BASELINK,FL_TO_BASELINK,FR_TO_BASELINK,0.18784100774510293,0.1883318993411045,-0.04738976249887905,-0.040598821932309015,0.9103127905142175,0.9300864401763613,0.9014882314279743,0.8766713105427739,0.0,0.0,0.0,0.0
416101000000,4069,416101000000,,BL_TO_BASELINK,BR_TO_BASELINK,FL_TO_BASELINK,FR_TO_BASELINK,0.1887714191867138,0.18926231084925327,-0.04645935090449349,-0.03966834766328908,0.9304115969388828,0.9304115786134285,0.9304115671513838,0.9304113171373719,0.0,0.0,0.0,0.0
416102000000,4070,416102000000,,BL_TO_BASELINK,BR_TO_BASELINK,FL_TO_BASELINK,FR_TO_BASELINK,0.18971446451110374,0.19019263971825762,-0.04552901190856229,-0.03874584082465482,0.9430452258954032,0.9303289476080273,0.9303390002909685,0.9224871360881888,0.0,0.0,0.0,0.0
416103000000,4071,416103000000,,BL_TO_BASELINK,BR_TO_BASELINK,FL_TO_BASELINK,FR_TO_BASELINK,0.19064487601567137,0.1911230512342481,-0.04459860035741148,-0.037815394764153965,0.9304115824512315,0.9304115782927743,0.9304115736813207,0.9304114642544903,0.0,0.0,0.0,0.0
416104000000,4072,416104000000,,BL_TO_BASELINK,BR_TO_BASELINK,FL_TO_BASELINK,FR_TO_BASELINK,0.19156976936839243,0.19205361723320902,-0.043677271232192894,-0.03691492212925862,0.9248909580873291,0.9305662441730336,0.9213292216588982,0.9004878313295224,0.0,0.0,0.0,0.0
416105000000,4073,416105000000,,BL_TO_BASELINK,BR_TO_BASELINK,FL_TO_BASELINK,FR_TO_BASELINK,0.1925001610136814,0.1929839577469714,-0.042765938762370226,-0.035984399408305556,0.9303921865834422,0.930340583329134,0.9113312783782334,0.9304943175405808,0.0,0.0,0.0,0.0
416106000000,4074,416106000000,,BL_TO_BASELINK,BR_TO_BASELINK,FL_TO_BASELINK,FR_TO_BASELINK,0.1934693031567276,0.19391411256344693,-0.04183575833359576,-0.03505412029259247,0.9691438442328626,0.9301548276545233,0.9301804398843954,0.9302605472068417,0.0,0.0,0.0,0.0
416107000000,4075,416107000000,,BL_TO_BASELINK,BR_TO_BASELINK,FL_TO_BASELINK,FR_TO_BASELINK,0.19435989801801679,0.19484626940888106,-0.04088688250322203,-0.03417974358842102,0.9112734939155677,0.9302040109351496,0.9056492691911683,0.8800261755403427,0.0,0.0,0.0,0.0
416109000000,4076,416108000000,,BL_TO_BASELINK,BR_TO_BASELINK,FL_TO_BASELINK,FR_TO_BASELINK,0.19529029135523324,0.19577661255485612,-0.03997144485253745,-0.033249231977229066,0.9303912497694017,0.9303327461735433,0.9142053516881734,0.9304935021435601,0.0,0.0,0.0,0.0
416110000000,4077,416110000000,,BL_TO_BASELINK,BR_TO_BASELINK,FL_TO_BASELINK,FR_TO_BASELINK,0.1971481724047841,0.1976393750934129,-0.03810898162892151,-0.031457178786953754,0.9065670779701283,0.904355429538028,0.9014089681123367,0.8997378520750535,0.0,0.0,0.0,0.0
416111000000,4078,416111000000,,BL_TO_BASELINK,BR_TO_BASELINK,FL_TO_BASELINK,FR_TO_BASELINK,0.19807858333181638,0.19856978659943447,-0.03717856909772532,-0.030526734887072138,0.9304115788247718,0.930411577813332,0.9304115769416705,0.9304115822209804,0.0,0.0,0.0,0.0
416112000000,4079,416112000000,,BL_TO_BASELINK,BR_TO_BASELINK,FL_TO_BASELINK,FR_TO_BASELINK,0.19900928855337696,0.1995009814300568,-0.036247488361978775,-0.029600294198509403,0.9307081917392788,0.9311949185182986,0.9310803146799194,0.9264127306040194,0.0,0.0,0.0,0.0
416113000000,4080,416113000000,,BL_TO_BASELINK,BR_TO_BASELINK,FL_TO_BASELINK,FR_TO_BASELINK,0.1999397000664862,0.20043139294309142,-0.0353170763853452,-0.028669871720332196,0.9304115774367555,0.9304115770769361,0.9304115775775564,0.9304115772193431,0.0,0.0,0.0,0.0
416114000000,4081,416114000000,,BL_TO_BASELINK,BR_TO_BASELINK,FL_TO_BASELINK,FR_TO_BASELINK,0.200841785520665,0.20134543503096491,-0.034385678744423664,-0.02776054994587618,0.902085775293907,0.9140420627727648,0.9313975690866229,0.9093387155363802,0.0,0.0,0.0,0.0
416115000000,4082,416115000000,,BL_TO_BASELINK,BR_TO_BASELINK,FL_TO_BASELINK,FR_TO_BASELINK,0.201772195025109,0.20227687213468837,-0.03345526063357429,-0.0268301136447624,0.930409572146834,0.9314370135908479,0.9304179354232014,0.9304234403558497,0.0,0.0,0.0,0.0
416116000000,4083,416116000000,,BL_TO_BASELINK,BR_TO_BASELINK,FL_TO_BASELINK,FR_TO_BASELINK,0.2027009466599301,0.20320808409646407,-0.03252409321366123,-0.025900455071120376,0.9287516451887203,0.9312120374048016,0.9311673600849458,0.9296600120509341,0.0,0.0,0.0,0.0
416116000000,4084,416117000000,,BL_TO_BASELINK,BR_TO_BASELINK,FL_TO_BASELINK,FR_TO_BASELINK,0.2036313581752669,0.2041384956088539,-0.03159368158207787,-0.024970034588612577,0.9304115775872956,0.9304115787985117,0.9304115764718205,0.9304115903147442,0.0,0.0,0.0,0.0
416116000000,4085,416118000000,,BL_TO_BASELINK,BR_TO_BASELINK,FL_TO_BASELINK,FR_TO_BASELINK,0.20454383287278688,0.20506900782907422,-0.030680516955576387,-0.024078558434209363,0.9124735352045479,0.9305126365971326,0.913172195279236,0.8914569127355241,0.0,0.0,0.0,0.0
416119000000,4086,416119000000,,BL_TO_BASELINK,BR_TO_BASELINK,FL_TO_BASELINK,FR_TO_BASELINK,0.20547424438045248,0.20599941933472454,-0.029750102371520093,-0.02314814627741235,0.9304115818086194,0.9304115741540887,0.9304116211032715,0.9304115592026371,0.0,0.0,0.0,0.0
416120000000,4087,416120000000,,BL_TO_BASELINK,BR_TO_BASELINK,FL_TO_BASELINK,FR_TO_BASELINK,0.2064071643123606,0.20693066687293804,-0.028817296062046083,-0.022220230079319947,0.9329184563315955,0.9312476689353014,0.9328018693193919,0.9279182245559605,0.0,0.0,0.0,0.0
