%time,field.header.seq,field.header.stamp,field.header.frame_id,field.orientation.x,field.orientation.y,field.orientation.z,field.orientation.w,field.orientation_covariance0,field.orientation_covariance1,field.orientation_covariance2,field.orientation_covariance3,field.orientation_covariance4,field.orientation_covariance5,field.orientation_covariance6,field.orientation_covariance7,field.orientation_covariance8,field.angular_velocity.x,field.angular_velocity.y,field.angular_velocity.z,field.angular_velocity_covariance0,field.angular_velocity_covariance1,field.angular_velocity_covariance2,field.angular_velocity_covariance3,field.angular_velocity_covariance4,field.angular_velocity_covariance5,field.angular_velocity_covariance6,field.angular_velocity_covariance7,field.angular_velocity_covariance8,field.linear_acceleration.x,field.linear_acceleration.y,field.linear_acceleration.z,field.linear_acceleration_covariance0,field.linear_acceleration_covariance1,field.linear_acceleration_covariance2,field.linear_acceleration_covariance3,field.linear_acceleration_covariance4,field.linear_acceleration_covariance5,field.linear_acceleration_covariance6,field.linear_acceleration_covariance7,field.linear_acceleration_covariance8
415903000000,0,415898000000,base_link,-0.031653912443054065,-0.03098364075725675,0.7116281990148662,0.7011585770703591,0.0,0.0,0.0,0.0,0.0,0.0,0.0,0.0,0.0,0.06088078443601801,0.036882171959433635,0.009076217504603962,0.0,0.0,0.0,0.0,0.0,0.0,0.0,0.0,0.0,1.6308058615761045,-2.9643636069669483,6.236763312795147,0.0,0.0,0.0,0.0,0.0,0.0,0.0,0.0,0.0
415903000000,1,415899000000,base_link,-0.031653912443054065,-0.03098364075725675,0.7116281990148662,0.7011585770703591,0.0,0.0,0.0,0.0,0.0,0.0,0.0,0.0,0.0,0.06088078443601801,0.036882171959433635,0.009076217504603962,0.0,0.0,0.0,0.0,0.0,0.0,0.0,0.0,0.0,1.6308058615761045,-2.9643636069669483,6.236763312795147,0.0,0.0,0.0,0.0,0.0,0.0,0.0,0.0,0.0
415903000000,2,415901000000,base_link,-0.03165889503347819,-0.030981381473459246,0.711631886340287,0.7011547095406406,0.0,0.0,0.0,0.0,0.0,0.0,0.0,0.0,0.0,0.05939480628005943,0.04326123120994452,0.008094701499051192,0.0,0.0,0.0,0.0,0.0,0.0,0.0,0.0,0.0,1.8630320143579902,-3.0455257087420837,6.605728369167615,0.0,0.0,0.0,0.0,0.0,0.0,0.0,0.0,0.0
415903000000,3,415902000000,base_link,-0.03165889503347819,-0.030981381473459246,0.711631886340287,0.7011547095406406,0.0,0.0,0.0,0.0,0.0,0.0,0.0,0.0,0.0,0.05939480628005943,0.04326123120994452,0.008094701499051192,0.0,0.0,0.0,0.0,0.0,0.0,0.0,0.0,0.0,1.8630320143579902,-3.0455257087420837,6.605728369167615,0.0,0.0,0.0,0.0,0.0,0.0,0.0,0.0,0.0
415904000000,4,415903000000,base_link,-0.03166949902418651,-0.03101548514563119,0.7116342388044207,0.7011503352876551,0.0,0.0,0.0,0.0,0.0,0.0,0.0,0.0,0.0,-0.017769688697694203,-0.011483458729561864,0.008154895210348958,0.0,0.0,0.0,0.0,0.0,0.0,0.0,0.0,0.0,-0.04688517632751327,0.06465694854771031,0.010510323270409572,0.0,0.0,0.0,0.0,0.0,0.0,0.0,0.0,0.0
415905000000,5,415904000000,base_link,-0.03165605220675997,-0.03098624213403363,0.7116346179273328,0.7011518506889309,0.0,0.0,0.0,0.0,0.0,0.0,0.0,0.0,0.0,0.06059811478471601,0.021939368173213715,-0.0006043745888292397,0.0,0.0,0.0,0.0,0.0,0.0,0.0,0.0,0.0,1.4655754067739128,-4.9865166382197685,8.810312078875727,0.0,0.0,0.0,0.0,0.0,0.0,0.0,0.0,0.0
415906000000,6,415905000000,base_link,-0.03165516057609704,-0.031004296453720517,0.7116339937670125,0.7011517263228575,0.0,0.0,0.0,0.0,0.0,0.0,0.0,0.0,0.0,-0.012263872380986989,-0.01683424030382713,-0.0015709356866127886,0.0,0.0,0.0,0.0,0.0,0.0,0.0,0.0,0.0,-1.666473679555391,0.8003701791015134,20.869074137453204,0.0,0.0,0.0,0.0,0.0,0.0,0.0,0.0,0.0
415907000000,7,415906000000,base_link,-0.03165343239386938,-0.031014147745661094,0.7116334955460017,0.7011518743284338,0.0,0.0,0.0,0.0,0.0,0.0,0.0,0.0,0.0,-0.01161911625407999,-0.01623344699363697,-0.0016401592471985969,0.0,0.0,0.0,0.0,0.0,0.0,0.0,0.0,0.0,-0.06022041474174944,0.05678802828628149,0.00026929760819704995,0.0,0.0,0.0,0.0,0.0,0.0,0.0,0.0,0.0
415908000000,8,415907000000,base_link,-0.03165343239386938,-0.031014147745661094,0.7116334955460017,0.7011518743284338,0.0,0.0,0.0,0.0,0.0,0.0,0.0,0.0,0.0,-0.01161911625407999,-0.01623344699363697,-0.0016401592471985969,0.0,0.0,0.0,0.0,0.0,0.0,0.0,0.0,0.0,-0.06022041474174944,0.05678802828628149,0.00026929760819704995,0.0,0.0,0.0,0.0,0.0,0.0,0.0,0.0,0.0
415909000000,9,415908000000,base_link,-0.031643175864984364,-0.03100266326704228,0.7116368181893089,0.7011494728579097,0.0,0.0,0.0,0.0,0.0,0.0,0.0,0.0,0.0,-0.012704574233044335,-0.017712230122416496,0.002366922324324116,0.0,0.0,0.0,0.0,0.0,0.0,0.0,0.0,0.0,-1.3761649992143719,1.0637420443218395,23.697348337533736,0.0,0.0,0.0,0.0,0.0,0.0,0.0,0.0,0.0
415910000000,10,415909000000,base_link,-0.031641426813152414,-0.031012757849262947,0.7116376050931503,0.7011483066920268,0.0,0.0,0.0,0.0,0.0,0.0,0.0,0.0,0.0,-0.011939669360230006,-0.0167671101371132,0.0020159477733435426,0.0,0.0,0.0,0.0,0.0,0.0,0.0,0.0,0.0,-0.060744713117450166,0.03830597638840871,-0.04377471132425903,0.0,0.0,0.0,0.0,0.0,0.0,0.0,0.0,0.0
415911000000,11,415910000000,base_link,-0.031641426813152414,-0.031012757849262947,0.7116376050931503,0.7011483066920268,0.0,0.0,0.0,0.0,0.0,0.0,0.0,0.0,0.0,-0.011939669360230006,-0.0167671101371132,0.0020159477733435426,0.0,0.0,0.0,0.0,0.0,0.0,0.0,0.0,0.0,-0.060744713117450166,0.03830597638840871,-0.04377471132425903,0.0,0.0,0.0,0.0,0.0,0.0,0.0,0.0,0.0
415912000000,12,415911000000,base_link,-0.031632220652250076,-0.031001442184635044,0.7116424689419878,0.7011442858622127,0.0,0.0,0.0,0.0,0.0,0.0,0.0,0.0,0.0,-0.013405278224315635,-0.01635925756642453,0.003779258698811011,0.0,0.0,0.0,0.0,0.0,0.0,0.0,0.0,0.0,-1.3403404218443329,0.8780896873721402,23.276105636567063,0.0,0.0,0.0,0.0,0.0,0.0,0.0,0.0,0.0
415913000000,13,415912000000,base_link,-0.03163131299138678,-0.031011479860766304,0.7116436845928406,0.7011426490625227,0.0,0.0,0.0,0.0,0.0,0.0,0.0,0.0,0.0,-0.013041848152711526,-0.015545972335727106,0.0033430200792070276,0.0,0.0,0.0,0.0,0.0,0.0,0.0,0.0,0.0,-0.0614173121457629,0.03229994693203431,-0.03153425011568167,0.0,0.0,0.0,0.0,0.0,0.0,0.0,0.0,0.0
415914000000,14,415913000000,base_link,-0.031622197578398695,-0.030978981129571613,0.711647982116752,0.7011401349927427,0.0,0.0,0.0,0.0,0.0,0.0,0.0,0.0,0.0,0.059145465027183125,0.03217059643518899,0.01109481592715816,0.0,0.0,0.0,0.0,0.0,0.0,0.0,0.0,0.0,1.6409778353386781,-2.870001397604984,6.020001802658246,0.0,0.0,0.0,0.0,0.0,0.0,0.0,0.0,0.0
415915000000,15,415914000000,base_link,-0.03162409630420533,-0.03100022896514116,0.7116490095254316,0.7011380674150586,0.0,0.0,0.0,0.0,0.0,0.0,0.0,0.0,0.0,-0.014976010337121174,-0.014766499614286648,0.0041777002797603715,0.0,0.0,0.0,0.0,0.0,0.0,0.0,0.0,0.0,-1.292166616035357,0.7915941527379413,23.301467438290324,0.0,0.0,0.0,0.0,0.0,0.0,0.0,0.0,0.0
415916000000,16,415915000000,base_link,-0.0316243426050523,-0.031010292380971607,0.7116502993572218,0.7011363021168006,0.0,0.0,0.0,0.0,0.0,0.0,0.0,0.0,0.0,-0.014700303379413398,-0.01395215717695721,0.003700023753849798,0.0,0.0,0.0,0.0,0.0,0.0,0.0,0.0,0.0,-0.060632338505963335,0.02822410083669724,-0.03078482232367108,0.0,0.0,0.0,0.0,0.0,0.0,0.0,0.0,0.0
415917000000,17,415916000000,base_link,-0.0316243426050523,-0.031010292380971607,0.7116502993572218,0.7011363021168006,0.0,0.0,0.0,0.0,0.0,0.0,0.0,0.0,0.0,-0.014700303379413398,-0.01395215717695721,0.003700023753849798,0.0,0.0,0.0,0.0,0.0,0.0,0.0,0.0,0.0,-0.060632338505963335,0.02822410083669724,-0.03078482232367108,0.0,0.0,0.0,0.0,0.0,0.0,0.0,0.0,0.0
415919000000,18,415918000000,base_link,-0.031621162722130745,-0.031009069443393582,0.711656841300998,0.7011298595195055,0.0,0.0,0.0,0.0,0.0,0.0,0.0,0.0,0.0,-0.016556759329716786,-0.01206979106568916,0.0036694031916736196,0.0,0.0,0.0,0.0,0.0,0.0,0.0,0.0,0.0,-0.059988118698168086,0.02638349045261512,-0.029635102888324383,0.0,0.0,0.0,0.0,0.0,0.0,0.0,0.0,0.0
415920000000,19,415919000000,base_link,-0.03161451200621292,-0.03097656817469076,0.7116611427216636,0.7011272301050814,0.0,0.0,0.0,0.0,0.0,0.0,0.0,0.0,0.0,0.055686540944589025,0.03567382289363239,0.011416806810852137,0.0,0.0,0.0,0.0,0.0,0.0,0.0,0.0,0.0,1.6836879834540952,-2.916295580475614,6.079547538286035,0.0,0.0,0.0,0.0,0.0,0.0,0.0,0.0,0.0
415921000000,20,415920000000,base_link,-0.03161912984763996,-0.030997749847922727,0.7116619858437832,0.7011252299246736,0.0,0.0,0.0,0.0,0.0,0.0,0.0,0.0,0.0,-0.018692622161596287,-0.010872804236228845,0.004020125066228941,0.0,0.0,0.0,0.0,0.0,0.0,0.0,0.0,0.0,-1.2482736978645625,0.7185751000197536,23.250957234355926,0.0,0.0,0.0,0.0,0.0,0.0,0.0,0.0,0.0
415922000000,21,415921000000,base_link,-0.03162208091266983,-0.03100780597103245,0.7116630952092023,0.7011235261242298,0.0,0.0,0.0,0.0,0.0,0.0,0.0,0.0,0.0,-0.018490223091982724,-0.010076663954831554,0.0035276892106455575,0.0,0.0,0.0,0.0,0.0,0.0,0.0,0.0,0.0,-0.05965171975948491,0.02566329427804681,-0.029133466413750142,0.0,0.0,0.0,0.0,0.0,0.0,0.0,0.0,0.0
415923000000,22,415922000000,base_link,-0.03162208091266983,-0.03100780597103245,0.7116630952092023,0.7011235261242298,0.0,0.0,0.0,0.0,0.0,0.0,0.0,0.0,0.0,-0.018490223091982724,-0.010076663954831554,0.0035276892106455575,0.0,0.0,0.0,0.0,0.0,0.0,0.0,0.0,0.0,-0.05965171975948491,0.02566329427804681,-0.029133466413750142,0.0,0.0,0.0,0.0,0.0,0.0,0.0,0.0,0.0
415924000000,23,415923000000,base_link,-0.03161682908549112,-0.030975297518693202,0.7116672914100313,0.7011209406367186,0.0,0.0,0.0,0.0,0.0,0.0,0.0,0.0,0.0,0.0537317403465383,0.037683852923853796,0.011294000798417041,0.0,0.0,0.0,0.0,0.0,0.0,0.0,0.0,0.0,1.6911613887408046,-2.9259169014833555,6.0909973498314285,0.0,0.0,0.0,0.0,0.0,0.0,0.0,0.0,0.0
415926000000,24,415925000000,base_link,-0.03162342912984114,-0.03097400092058641,0.7116731123812577,0.7011147916786632,0.0,0.0,0.0,0.0,0.0,0.0,0.0,0.0,0.0,0.0517215280406166,0.039743029710445944,0.01117368933545447,0.0,0.0,0.0,0.0,0.0,0.0,0.0,0.0,0.0,1.693977838880253,-2.93017479973522,6.095793254329764,0.0,0.0,0.0,0.0,0.0,0.0,0.0,0.0,0.0
415927000000,25,415926000000,base_link,-0.03163091243672536,-0.0309951615356685,0.7116737451252605,0.701112876674779,0.0,0.0,0.0,0.0,0.0,0.0,0.0,0.0,0.0,-0.022693268717539173,-0.006753665185159888,0.0037805923361038697,0.0,0.0,0.0,0.0,0.0,0.0,0.0,0.0,0.0,-1.240489335173939,0.7073169690376903,23.23912172773458,0.0,0.0,0.0,0.0,0.0,0.0,0.0,0.0,0.0
415928000000,26,415927000000,base_link,-0.031636728923670664,-0.03100520384509183,0.7116746439477726,0.7011112578466743,0.0,0.0,0.0,0.0,0.0,0.0,0.0,0.0,0.0,-0.022496415426447505,-0.005959915630793037,0.0032897780792024212,0.0,0.0,0.0,0.0,0.0,0.0,0.0,0.0,0.0,-0.0595635792683579,0.025544908769330577,-0.02886412314784259,0.0,0.0,0.0,0.0,0.0,0.0,0.0,0.0,0.0
415929000000,27,415928000000,base_link,-0.031636728923670664,-0.03100520384509183,0.7116746439477726,0.7011112578466743,0.0,0.0,0.0,0.0,0.0,0.0,0.0,0.0,0.0,-0.022496415426447505,-0.005959915630793037,0.0032897780792024212,0.0,0.0,0.0,0.0,0.0,0.0,0.0,0.0,0.0,-0.0595635792683579,0.025544908769330577,-0.02886412314784259,0.0,0.0,0.0,0.0,0.0,0.0,0.0,0.0,0.0
415930000000,28,415929000000,base_link,-0.031643300900089336,-0.030993845483908048,0.7116791825797877,0.7011068564297681,0.0,0.0,0.0,0.0,0.0,0.0,0.0,0.0,0.0,-0.024733967817878642,-0.004676084371108627,0.003711823693066334,0.0,0.0,0.0,0.0,0.0,0.0,0.0,0.0,0.0,-1.2422644800623366,0.7090672932720132,23.2384871730049,0.0,0.0,0.0,0.0,0.0,0.0,0.0,0.0,0.0
415931000000,29,415930000000,base_link,-0.031650570146337195,-0.031003884918361,0.7116799932424973,0.7011052615319185,0.0,0.0,0.0,0.0,0.0,0.0,0.0,0.0,0.0,-0.024533434338503395,-0.003880858327419575,0.003222075663624051,0.0,0.0,0.0,0.0,0.0,0.0,0.0,0.0,0.0,-0.05965642409813768,0.025693352465210317,-0.028888232266648828,0.0,0.0,0.0,0.0,0.0,0.0,0.0,0.0,0.0
415932000000,30,415931000000,base_link,-0.031650570146337195,-0.031003884918361,0.7116799932424973,0.7011052615319185,0.0,0.0,0.0,0.0,0.0,0.0,0.0,0.0,0.0,0.04763262489547967,0.04390589335286574,0.011024064750430964,0.0,0.0,0.0,0.0,0.0,0.0,0.0,0.0,0.0,1.693518336924147,-2.931218759541951,6.096450304531087,0.0,0.0,0.0,0.0,0.0,0.0,0.0,0.0,0.0
415933000000,31,415932000000,base_link,-0.03166006185368718,-0.030992525665372795,0.7116843669061595,0.7011008955476242,0.0,0.0,0.0,0.0,0.0,0.0,0.0,0.0,0.0,-0.026788226601429335,-0.0025937017506122897,0.0036697219542147497,0.0,0.0,0.0,0.0,0.0,0.0,0.0,0.0,0.0,-1.2449889492454747,0.7118946808299453,23.239020803779916,0.0,0.0,0.0,0.0,0.0,0.0,0.0,0.0,0.0
415934000000,32,415933000000,base_link,-0.03166879064418313,-0.031002564679531348,0.7116850983493527,0.7010993149831902,0.0,0.0,0.0,0.0,0.0,0.0,0.0,0.0,0.0,-0.026583487533106354,-0.0017967225992277513,0.00318073986140163,0.0,0.0,0.0,0.0,0.0,0.0,0.0,0.0,0.0,-0.05975956403082508,0.025849389255520605,-0.02894084873963898,0.0,0.0,0.0,0.0,0.0,0.0,0.0,0.0,0.0
415935000000,33,415934000000,base_link,-0.0316693525440062,-0.030970049895451553,0.7116889282985717,0.7010968388576198,0.0,0.0,0.0,0.0,0.0,0.0,0.0,0.0,0.0,0.04557386414900766,0.0459956234809553,0.010988662624388412,0.0,0.0,0.0,0.0,0.0,0.0,0.0,0.0,0.0,1.6924707558839267,-2.930527723986245,6.095537997968736,0.0,0.0,0.0,0.0,0.0,0.0,0.0,0.0,0.0
415936000000,34,415935000000,base_link,-0.0316693525440062,-0.030970049895451553,0.7116889282985717,0.7010968388576198,0.0,0.0,0.0,0.0,0.0,0.0,0.0,0.0,0.0,0.04557386414900766,0.0459956234809553,0.010988662624388412,0.0,0.0,0.0,0.0,0.0,0.0,0.0,0.0,0.0,1.6924707558839267,-2.930527723986245,6.095537997968736,0.0,0.0,0.0,0.0,0.0,0.0,0.0,0.0,0.0
415937000000,35,415936000000,base_link,-0.031684193457845684,-0.031001902850502753,0.7116950940233129,0.701088501580023,0.0,0.0,0.0,0.0,0.0,0.0,0.0,0.0,0.0,-0.019315988938882304,-0.010402570928216972,0.009823977102050841,0.0,0.0,0.0,0.0,0.0,0.0,0.0,0.0,0.0,-0.0777734167916097,0.019903171386699725,0.028561590562294015,0.0,0.0,0.0,0.0,0.0,0.0,0.0,0.0,0.0
415938000000,36,415938000000,base_link,-0.031665970483671806,-0.030975410773200977,0.7116972967581763,0.7010882597989093,0.0,0.0,0.0,0.0,0.0,0.0,0.0,0.0,0.0,0.063382572267996,0.011053604024144376,0.003982252544490694,0.0,0.0,0.0,0.0,0.0,0.0,0.0,0.0,0.0,0.7259032686357102,-5.944531158264988,10.127922300367732,0.0,0.0,0.0,0.0,0.0,0.0,0.0,0.0,0.0
415940000000,37,415940000000,base_link,-0.03166229099092221,-0.031000190412790084,0.7116983285904637,0.7010862832812503,0.0,0.0,0.0,0.0,0.0,0.0,0.0,0.0,0.0,-0.010943554652839518,-0.016900518967146134,0.001315851485519616,0.0,0.0,0.0,0.0,0.0,0.0,0.0,0.0,0.0,-0.06851002619905236,0.03960563326701816,0.006109615351970632,0.0,0.0,0.0,0.0,0.0,0.0,0.0,0.0,0.0
415942000000,38,415941000000,base_link,-0.03165296051927975,-0.030988492550779286,0.7117032016568985,0.7010822748944058,0.0,0.0,0.0,0.0,0.0,0.0,0.0,0.0,0.0,-0.01365505022034164,-0.016320083529514053,0.003799287018258575,0.0,0.0,0.0,0.0,0.0,0.0,0.0,0.0,0.0,-1.4015735786317929,0.9572768814044519,23.640401875724272,0.0,0.0,0.0,0.0,0.0,0.0,0.0,0.0,0.0
415943000000,39,415942000000,base_link,-0.03165213174250212,-0.030998471386634252,0.7117044116202454,0.7010806428707954,0.0,0.0,0.0,0.0,0.0,0.0,0.0,0.0,0.0,-0.013070184314463778,-0.015349401804085628,0.00333651608859458,0.0,0.0,0.0,0.0,0.0,0.0,0.0,0.0,0.0,-0.06413728662652923,0.03461343798783689,-0.04133721736163842,0.0,0.0,0.0,0.0,0.0,0.0,0.0,0.0,0.0
415944000000,40,415943000000,base_link,-0.031643189418875214,-0.03096624226920765,0.7117086935226036,0.701078124011493,0.0,0.0,0.0,0.0,0.0,0.0,0.0,0.0,0.0,0.05852030560179297,0.03203435293728028,0.011074748173522973,0.0,0.0,0.0,0.0,0.0,0.0,0.0,0.0,0.0,1.5987052047843187,-2.816359974498347,5.936976904142755,0.0,0.0,0.0,0.0,0.0,0.0,0.0,0.0,0.0
415945000000,41,415944000000,base_link,-0.031643189418875214,-0.03096624226920765,0.7117086935226036,0.701078124011493,0.0,0.0,0.0,0.0,0.0,0.0,0.0,0.0,0.0,0.05852030560179297,0.03203435293728028,0.011074748173522973,0.0,0.0,0.0,0.0,0.0,0.0,0.0,0.0,0.0,1.5987052047843187,-2.816359974498347,5.936976904142755,0.0,0.0,0.0,0.0,0.0,0.0,0.0,0.0,0.0
415946000000,42,415946000000,base_link,-0.03164564673632375,-0.0309970752036831,0.7117109839806235,0.7010743253413221,0.0,0.0,0.0,0.0,0.0,0.0,0.0,0.0,0.0,-0.014844311997525771,-0.013613588398141755,0.0036619189938019276,0.0,0.0,0.0,0.0,0.0,0.0,0.0,0.0,0.0,-0.06294011720574089,0.031220466615999087,-0.031159780149810246,0.0,0.0,0.0,0.0,0.0,0.0,0.0,0.0,0.0
415949000000,43,415948000000,base_link,-0.03164124550375059,-0.0309857558422664,0.7117162602374293,0.7010696680298631,0.0,0.0,0.0,0.0,0.0,0.0,0.0,0.0,0.0,-0.017005930952927358,-0.012645361144919185,0.004132329792425315,0.0,0.0,0.0,0.0,0.0,0.0,0.0,0.0,0.0,0.17387179720314253,-1.0460381291174319,14.663244051898083,0.0,0.0,0.0,0.0,0.0,0.0,0.0,0.0,0.0
415951000000,44,415950000000,base_link,-0.03163647312922224,-0.03096329006850212,0.7117217438086186,0.7010653091018675,0.0,0.0,0.0,0.0,0.0,0.0,0.0,0.0,0.0,0.055472445936318227,0.035908418850198486,0.011379856397276272,0.0,0.0,0.0,0.0,0.0,0.0,0.0,0.0,0.0,0.8042067943235369,-1.4354292652984784,3.014551054030532,0.0,0.0,0.0,0.0,0.0,0.0,0.0,0.0,0.0
415952000000,45,415951000000,base_link,-0.031641235626607686,-0.030984474780378114,0.7117225722321421,0.7010633171874484,0.0,0.0,0.0,0.0,0.0,0.0,0.0,0.0,0.0,-0.01892573539069204,-0.01068059859703354,0.004008550448303635,0.0,0.0,0.0,0.0,0.0,0.0,0.0,0.0,0.0,-1.273873581694446,0.7469039488621751,23.263692021084104,0.0,0.0,0.0,0.0,0.0,0.0,0.0,0.0,0.0
415953000000,46,415952000000,base_link,-0.03163922238631135,-0.030962009082306882,0.7117278522600844,0.7010590402509794,0.0,0.0,0.0,0.0,0.0,0.0,0.0,0.0,0.0,0.053552901678477226,0.03790458607088908,0.011272680821491564,0.0,0.0,0.0,0.0,0.0,0.0,0.0,0.0,0.0,1.683549717053145,-2.915954632807424,6.082024907971643,0.0,0.0,0.0,0.0,0.0,0.0,0.0,0.0,0.0
415954000000,47,415953000000,base_link,-0.03164539110088234,-0.030983195524261663,0.7117285742847766,0.7010570927989652,0.0,0.0,0.0,0.0,0.0,0.0,0.0,0.0,0.0,-0.020883536926144797,-0.008662966315532622,0.0038727712271398266,0.0,0.0,0.0,0.0,0.0,0.0,0.0,0.0,0.0,-1.255998066810291,0.7271294441441055,23.249018386244348,0.0,0.0,0.0,0.0,0.0,0.0,0.0,0.0,0.0
415955000000,48,415954000000,base_link,-0.031649891086355714,-0.03099325348992582,0.7117295636075479,0.7010554406887808,0.0,0.0,0.0,0.0,0.0,0.0,0.0,0.0,0.0,-0.020669835177347568,-0.00786187016370736,0.0033811228893740348,0.0,0.0,0.0,0.0,0.0,0.0,0.0,0.0,0.0,-0.059943548287322956,0.02612042029573336,-0.029318258423167265,0.0,0.0,0.0,0.0,0.0,0.0,0.0,0.0,0.0
415956000000,49,415955000000,base_link,-0.031646201844589314,-0.03096072805976452,0.7117336416675616,0.7010529042415072,0.0,0.0,0.0,0.0,0.0,0.0,0.0,0.0,0.0,0.0515641099813888,0.03993716805490784,0.01115821432805968,0.0,0.0,0.0,0.0,0.0,0.0,0.0,0.0,0.0,1.6901763293853038,-2.9249622928854326,6.092901905089314,0.0,0.0,0.0,0.0,0.0,0.0,0.0,0.0,0.0
415957000000,50,415956000000,base_link,-0.03165379882433789,-0.030981907235346468,0.7117342657563742,0.7010509920057768,0.0,0.0,0.0,0.0,0.0,0.0,0.0,0.0,0.0,-0.022883012870837244,-0.006610476448190933,0.003771162817250458,0.0,0.0,0.0,0.0,0.0,0.0,0.0,0.0,0.0,-1.2475942739899484,0.7175419543301392,23.24050720707072,0.0,0.0,0.0,0.0,0.0,0.0,0.0,0.0,0.0
415958000000,51,415957000000,base_link,-0.03165972935316216,-0.03099196291641119,0.7117351565688533,0.7010493753479725,0.0,0.0,0.0,0.0,0.0,0.0,0.0,0.0,0.0,-0.022676300373504286,-0.005813738697539072,0.0032811486321049224,0.0,0.0,0.0,0.0,0.0,0.0,0.0,0.0,0.0,-0.05971197775658921,0.025876149495868028,-0.029097760834826403,0.0,0.0,0.0,0.0,0.0,0.0,0.0,0.0,0.0
415959000000,52,415958000000,base_link,-0.03165748122914228,-0.03095943425840401,0.7117391401408392,0.701046869834111,0.0,0.0,0.0,0.0,0.0,0.0,0.0,0.0,0.0,0.04954447730860714,0.04200047226347569,0.011071857923097075,0.0,0.0,0.0,0.0,0.0,0.0,0.0,0.0,0.0,1.6930752390700523,-2.929305679586825,6.098056621656739,0.0,0.0,0.0,0.0,0.0,0.0,0.0,0.0,0.0
415960000000,53,415959000000,base_link,-0.031666522585405095,-0.030980609548139346,0.7117396765622268,0.7010449814287744,0.0,0.0,0.0,0.0,0.0,0.0,0.0,0.0,0.0,-0.024909924763916052,-0.0045411542515632446,0.0037015589399137802,0.0,0.0,0.0,0.0,0.0,0.0,0.0,0.0,0.0,-1.2449594201758667,0.7145052552380595,23.236641939087075,0.0,0.0,0.0,0.0,0.0,0.0,0.0,0.0,0.0
415961000000,54,415961000000,base_link,-0.03167389882350678,-0.03099066303754245,0.7117404792883794,0.7010433888713024,0.0,0.0,0.0,0.0,0.0,0.0,0.0,0.0,0.0,-0.02470420762345093,-0.0037454898367339437,0.0032127895683251692,0.0,0.0,0.0,0.0,0.0,0.0,0.0,0.0,0.0,-0.05966329687091787,0.025854213411071747,-0.029023085119495917,0.0,0.0,0.0,0.0,0.0,0.0,0.0,0.0,0.0
415963000000,55,415962000000,base_link,-0.03167310490663816,-0.03095813284504396,0.7117443775494796,0.7010409042723722,0.0,0.0,0.0,0.0,0.0,0.0,0.0,0.0,0.0,0.04750401304593246,0.044078840293809214,0.011013609562355343,0.0,0.0,0.0,0.0,0.0,0.0,0.0,0.0,0.0,1.6937833884073965,-2.9309203965098374,6.099867853442209,0.0,0.0,0.0,0.0,0.0,0.0,0.0,0.0,0.0
415965000000,56,415964000000,base_link,-0.03168970753023413,-0.030990504450008505,0.7117497943239058,0.7010332241416665,0.0,0.0,0.0,0.0,0.0,0.0,0.0,0.0,0.0,-0.02083496214769019,-0.009021729082552103,0.009233872370103478,0.0,0.0,0.0,0.0,0.0,0.0,0.0,0.0,0.0,-1.531714992373235,-0.22900601580837698,11.15944172049976,0.0,0.0,0.0,0.0,0.0,0.0,0.0,0.0,0.0
415967000000,57,415966000000,base_link,-0.03166631306525286,-0.030988456286724555,0.7117527094594855,0.7010314121142507,0.0,0.0,0.0,0.0,0.0,0.0,0.0,0.0,0.0,-0.010278400103288326,-0.017309793115733867,0.0012942272286665525,0.0,0.0,0.0,0.0,0.0,0.0,0.0,0.0,0.0,-0.07042823821049687,0.03936438748885873,0.005545112237863137,0.0,0.0,0.0,0.0,0.0,0.0,0.0,0.0,0.0
415968000000,58,415968000000,base_link,-0.03165570232211587,-0.030954042741115313,0.7117566863042628,0.7010293740276867,0.0,0.0,0.0,0.0,0.0,0.0,0.0,0.0,0.0,0.06398270955179604,0.03276704962722216,0.009998498543021397,0.0,0.0,0.0,0.0,0.0,0.0,0.0,0.0,0.0,1.626163526580568,-2.9450851936424374,6.191052549166983,0.0,0.0,0.0,0.0,0.0,0.0,0.0,0.0,0.0
415970000000,59,415969000000,base_link,-0.03165522317602396,-0.030986675556817125,0.7117589323994432,0.701025673519321,0.0,0.0,0.0,0.0,0.0,0.0,0.0,0.0,0.0,-0.012589465786819595,-0.01575757773784208,0.0034594560055850347,0.0,0.0,0.0,0.0,0.0,0.0,0.0,0.0,0.0,-0.06492598917168896,0.03480209061467954,-0.04124513445702682,0.0,0.0,0.0,0.0,0.0,0.0,0.0,0.0,0.0
415971000000,60,415970000000,base_link,-0.03164596485003739,-0.030954403608004364,0.7117632652937983,0.7010231180098793,0.0,0.0,0.0,0.0,0.0,0.0,0.0,0.0,0.0,0.05902757845892087,0.03163458450878584,0.011181757358097691,0.0,0.0,0.0,0.0,0.0,0.0,0.0,0.0,0.0,1.5965094088390805,-2.812458839267033,5.935173260001298,0.0,0.0,0.0,0.0,0.0,0.0,0.0,0.0,0.0
415972000000,61,415971000000,base_link,-0.03164767273299301,-0.030975247592490117,0.7117643355227069,0.7010210335825089,0.0,0.0,0.0,0.0,0.0,0.0,0.0,0.0,0.0,-0.014685322414300012,-0.014918261403925232,0.004241996268971754,0.0,0.0,0.0,0.0,0.0,0.0,0.0,0.0,0.0,-1.3549924908307758,0.8471715921929869,23.27298213020262,0.0,0.0,0.0,0.0,0.0,0.0,0.0,0.0,0.0
415973000000,62,415972000000,base_link,-0.03164775570794944,-0.030985234246602218,0.7117656549991098,0.7010192487949395,0.0,0.0,0.0,0.0,0.0,0.0,0.0,0.0,0.0,-0.014363849365825493,-0.01407767713515123,0.0037636893181872333,0.0,0.0,0.0,0.0,0.0,0.0,0.0,0.0,0.0,-0.06334474811095162,0.031283829854419576,-0.03126754264741294,0.0,0.0,0.0,0.0,0.0,0.0,0.0,0.0,0.0
415974000000,63,415973000000,base_link,-0.031639620688170896,-0.030952657406395606,0.7117700446341325,0.7010165982084277,0.0,0.0,0.0,0.0,0.0,0.0,0.0,0.0,0.0,0.057884540202510215,0.03365118575711362,0.011485096516726847,0.0,0.0,0.0,0.0,0.0,0.0,0.0,0.0,0.0,1.649349255589791,-2.8742896442146186,6.032728630251567,0.0,0.0,0.0,0.0,0.0,0.0,0.0,0.0,0.0
415975000000,64,415974000000,base_link,-0.03164267488081142,-0.03097389538589023,0.7117710129746915,0.7010145390931583,0.0,0.0,0.0,0.0,0.0,0.0,0.0,0.0,0.0,-0.016526229955034343,-0.013137337707781457,0.004196853871328607,0.0,0.0,0.0,0.0,0.0,0.0,0.0,0.0,0.0,-1.30331535083404,0.7879522568682699,23.292295526017213,0.0,0.0,0.0,0.0,0.0,0.0,0.0,0.0,0.0
415976000000,65,415975000000,base_link,-0.03164405000206699,-0.030983936780086416,0.7117722543639297,0.7010127728356764,0.0,0.0,0.0,0.0,0.0,0.0,0.0,0.0,0.0,-0.01625718352633238,-0.012308761252219297,0.0037045181435032696,0.0,0.0,0.0,0.0,0.0,0.0,0.0,0.0,0.0,-0.061664111634827906,0.028271623908288968,-0.03081225025312584,0.0,0.0,0.0,0.0,0.0,0.0,0.0,0.0,0.0
415976000000,66,415976000000,base_link,-0.031637216295717314,-0.030951406906353417,0.7117765695504121,0.7010101368700902,0.0,0.0,0.0,0.0,0.0,0.0,0.0,0.0,0.0,0.05598986011462826,0.03544294457801191,0.011437327128536087,0.0,0.0,0.0,0.0,0.0,0.0,0.0,0.0,0.0,1.6701407687556038,-2.8983954746738854,6.062327542293693,0.0,0.0,0.0,0.0,0.0,0.0,0.0,0.0,0.0
415976000000,67,415977000000,base_link,-0.031637216295717314,-0.030951406906353417,0.7117765695504121,0.7010101368700902,0.0,0.0,0.0,0.0,0.0,0.0,0.0,0.0,0.0,0.05598986011462826,0.03544294457801191,0.011437327128536087,0.0,0.0,0.0,0.0,0.0,0.0,0.0,0.0,0.0,1.6701407687556038,-2.8983954746738854,6.062327542293693,0.0,0.0,0.0,0.0,0.0,0.0,0.0,0.0,0.0
415980000000,68,415979000000,base_link,-0.03164438515933083,-0.030982662451432694,0.711778552629962,0.7010064190371619,0.0,0.0,0.0,0.0,0.0,0.0,0.0,0.0,0.0,-0.01821775696027452,-0.010366978014773584,0.003553067150851784,0.0,0.0,0.0,0.0,0.0,0.0,0.0,0.0,0.0,-0.6672042735984025,0.38758103476866057,11.615515811487448,0.0,0.0,0.0,0.0,0.0,0.0,0.0,0.0,0.0
415982000000,69,415981000000,base_link,-0.031644759428840735,-0.0309713175985065,0.711783503346163,0.7010018766388334,0.0,0.0,0.0,0.0,0.0,0.0,0.0,0.0,0.0,-0.02041300871360447,-0.00915970733359776,0.0038908573338349343,0.0,0.0,0.0,0.0,0.0,0.0,0.0,0.0,0.0,0.2142420625368225,-1.0938363200197316,14.665388442315086,0.0,0.0,0.0,0.0,0.0,0.0,0.0,0.0,0.0
415984000000,70,415983000000,base_link,-0.03165214467429238,-0.030970028747449,0.7117892534079586,0.7009957616061888,0.0,0.0,0.0,0.0,0.0,0.0,0.0,0.0,0.0,-0.02241796996178081,-0.007103629641471607,0.003776812315700714,0.0,0.0,0.0,0.0,0.0,0.0,0.0,0.0,0.0,-1.2474036653807872,0.7189151457040284,23.236672367507197,0.0,0.0,0.0,0.0,0.0,0.0,0.0,0.0,0.0
415985000000,71,415984000000,base_link,-0.03165773589085305,-0.03098009188171242,0.7117901613820595,0.7009941425040349,0.0,0.0,0.0,0.0,0.0,0.0,0.0,0.0,0.0,-0.0222107560158408,-0.006306659147679462,0.0032871717317062617,0.0,0.0,0.0,0.0,0.0,0.0,0.0,0.0,0.0,-0.05973144312498743,0.025883140678437333,-0.029144767568716645,0.0,0.0,0.0,0.0,0.0,0.0,0.0,0.0,0.0
415986000000,72,415985000000,base_link,-0.031655151450781474,-0.030947545918147704,0.7117941613567501,0.70099163521879,0.0,0.0,0.0,0.0,0.0,0.0,0.0,0.0,0.0,0.05004477225413602,0.04154104716307137,0.011077392936735304,0.0,0.0,0.0,0.0,0.0,0.0,0.0,0.0,0.0,1.6940373491921907,-2.929897635989682,6.102095279646309,0.0,0.0,0.0,0.0,0.0,0.0,0.0,0.0,0.0
415987000000,73,415986000000,base_link,-0.031663855733225575,-0.03096873275681686,0.711794711788191,0.7009897475012803,0.0,0.0,0.0,0.0,0.0,0.0,0.0,0.0,0.0,-0.02445040299433665,-0.005029932616315718,0.003699886272604422,0.0,0.0,0.0,0.0,0.0,0.0,0.0,0.0,0.0,-1.244815939984159,0.7159831640138128,23.232731965146627,0.0,0.0,0.0,0.0,0.0,0.0,0.0,0.0,0.0
415988000000,74,415987000000,base_link,-0.031663855733225575,-0.03096873275681686,0.711794711788191,0.7009897475012803,0.0,0.0,0.0,0.0,0.0,0.0,0.0,0.0,0.0,-0.02445040299433665,-0.005029932616315718,0.003699886272604422,0.0,0.0,0.0,0.0,0.0,0.0,0.0,0.0,0.0,-1.244815939984159,0.7159831640138128,23.232731965146627,0.0,0.0,0.0,0.0,0.0,0.0,0.0,0.0,0.0
415989000000,75,415988000000,base_link,-0.031669769493330974,-0.030946247462842528,0.7117994412474162,0.7009856709720064,0.0,0.0,0.0,0.0,0.0,0.0,0.0,0.0,0.0,0.047998167063221096,0.04362434165790549,0.01101264418403345,0.0,0.0,0.0,0.0,0.0,0.0,0.0,0.0,0.0,1.694717961983833,-2.9315419971173995,6.103913549482525,0.0,0.0,0.0,0.0,0.0,0.0,0.0,0.0,0.0
415990000000,76,415989000000,base_link,-0.031669769493330974,-0.030946247462842528,0.7117994412474162,0.7009856709720064,0.0,0.0,0.0,0.0,0.0,0.0,0.0,0.0,0.0,0.047998167063221096,0.04362434165790549,0.01101264418403345,0.0,0.0,0.0,0.0,0.0,0.0,0.0,0.0,0.0,1.694717961983833,-2.9315419971173995,6.103913549482525,0.0,0.0,0.0,0.0,0.0,0.0,0.0,0.0,0.0
415991000000,77,415990000000,base_link,-0.03168843320205559,-0.030977494198886926,0.7118006464156955,0.7009822236095254,0.0,0.0,0.0,0.0,0.0,0.0,0.0,0.0,0.0,-0.02629419287721419,-0.00214877126021335,0.0031641052871088935,0.0,0.0,0.0,0.0,0.0,0.0,0.0,0.0,0.0,-0.05971269303749485,0.02595617661330385,-0.029074895080352547,0.0,0.0,0.0,0.0,0.0,0.0,0.0,0.0,0.0
415992000000,78,415991000000,base_link,-0.03168843320205559,-0.030977494198886926,0.7118006464156955,0.7009822236095254,0.0,0.0,0.0,0.0,0.0,0.0,0.0,0.0,0.0,-0.02629419287721419,-0.00214877126021335,0.0031641052871088935,0.0,0.0,0.0,0.0,0.0,0.0,0.0,0.0,0.0,-0.05971269303749485,0.02595617661330385,-0.029074895080352547,0.0,0.0,0.0,0.0,0.0,0.0,0.0,0.0,0.0
415994000000,79,415993000000,base_link,-0.03169503074509488,-0.03097694374413226,0.7117932617142433,0.7009894482519257,0.0,0.0,0.0,0.0,0.0,0.0,0.0,0.0,0.0,-0.0236460103423959,-0.0043456275587450115,-0.005966163824305582,0.0,0.0,0.0,0.0,0.0,0.0,0.0,0.0,0.0,-0.05513979529722987,0.06024750583462479,0.030710697589345415,0.0,0.0,0.0,0.0,0.0,0.0,0.0,0.0,0.0
415995000000,80,415994000000,base_link,-0.03169503074509488,-0.03097694374413226,0.7117932617142433,0.7009894482519257,0.0,0.0,0.0,0.0,0.0,0.0,0.0,0.0,0.0,-0.0236460103423959,-0.0043456275587450115,-0.005966163824305582,0.0,0.0,0.0,0.0,0.0,0.0,0.0,0.0,0.0,-0.05513979529722987,0.06024750583462479,0.030710697589345415,0.0,0.0,0.0,0.0,0.0,0.0,0.0,0.0,0.0
415997000000,81,415996000000,base_link,-0.031695165560552165,-0.030967675503430662,0.7117897955047605,0.7009933712734342,0.0,0.0,0.0,0.0,0.0,0.0,0.0,0.0,0.0,0.02505115091541082,0.01964118226504798,0.001680847406714744,0.0,0.0,0.0,0.0,0.0,0.0,0.0,0.0,0.0,-0.7180105610821426,-2.031949204881367,12.038576516327538,0.0,0.0,0.0,0.0,0.0,0.0,0.0,0.0,0.0
415998000000,82,415997000000,base_link,-0.031693401429265675,-0.030951849115032116,0.7117904611665012,0.7009934741027074,0.0,0.0,0.0,0.0,0.0,0.0,0.0,0.0,0.0,0.02505115091541082,0.01964118226504798,0.001680847406714744,0.0,0.0,0.0,0.0,0.0,0.0,0.0,0.0,0.0,0.7305576287682765,-1.2815659196483362,2.459516841200938,0.0,0.0,0.0,0.0,0.0,0.0,0.0,0.0,0.0
415999000000,83,415998000000,base_link,-0.03169543425680247,-0.030982024896920153,0.7117948939605319,0.7009875480436688,0.0,0.0,0.0,0.0,0.0,0.0,0.0,0.0,0.0,-0.024838427465105554,-0.019121629507342804,0.006291233460436943,0.0,0.0,0.0,0.0,0.0,0.0,0.0,0.0,0.0,-0.05313643023863565,0.21978007483341577,0.01922277917250348,0.0,0.0,0.0,0.0,0.0,0.0,0.0,0.0,0.0
416000000000,84,415999000000,base_link,-0.03170417271540154,-0.030976806022539393,0.7117968140782914,0.7009854337923636,0.0,0.0,0.0,0.0,0.0,0.0,0.0,0.0,0.0,-0.0048214466696662565,0.019506066864822532,0.006585840744601496,0.0,0.0,0.0,0.0,0.0,0.0,0.0,0.0,0.0,1.766322894017212,-10.579234888537778,14.30708471501307,0.0,0.0,0.0,0.0,0.0,0.0,0.0,0.0,0.0
416001000000,85,416000000000,base_link,-0.03169907970476939,-0.031011195114635938,0.7117881260107076,0.7009929655806809,0.0,0.0,0.0,0.0,0.0,0.0,0.0,0.0,0.0,-0.04186641304369279,-0.05444365517726918,-0.025411660542637403,0.0,0.0,0.0,0.0,0.0,0.0,0.0,0.0,0.0,-4.184529759628523,-13.802504554200702,18.613773731605768,0.0,0.0,0.0,0.0,0.0,0.0,0.0,0.0,0.0
416002000000,86,416001000000,base_link,-0.03170097317586178,-0.03105166910035247,0.7117788868449553,0.7010004696057927,0.0,0.0,0.0,0.0,0.0,0.0,0.0,0.0,0.0,-0.06036971854056842,-0.05299729444189811,-0.0260842709627774,0.0,0.0,0.0,0.0,0.0,0.0,0.0,0.0,0.0,-0.17424406882709884,-0.15489773542687701,0.23071497024736942,0.0,0.0,0.0,0.0,0.0,0.0,0.0,0.0,0.0
416002000000,87,416002000000,base_link,-0.03170572573515841,-0.031103234931646132,0.7117705581108954,0.7010064253192679,0.0,0.0,0.0,0.0,0.0,0.0,0.0,0.0,0.0,-0.08020225175153643,-0.06463566034602604,-0.023133164907433806,0.0,0.0,0.0,0.0,0.0,0.0,0.0,0.0,0.0,-4.274098001458911,-21.970674049314685,29.482830428233758,0.0,0.0,0.0,0.0,0.0,0.0,0.0,0.0,0.0
416004000000,88,416003000000,base_link,-0.031737926737538634,-0.031151566809340253,0.7117748768308789,0.7009984369484095,0.0,0.0,0.0,0.0,0.0,0.0,0.0,0.0,0.0,-0.11417424394478815,-0.022699608386071636,0.016355733973304663,0.0,0.0,0.0,0.0,0.0,0.0,0.0,0.0,0.0,0.5076124145485321,-4.620513307653833,4.399068402632114,0.0,0.0,0.0,0.0,0.0,0.0,0.0,0.0,0.0
416005000000,89,416004000000,base_link,-0.031737926737538634,-0.031151566809340253,0.7117748768308789,0.7009984369484095,0.0,0.0,0.0,0.0,0.0,0.0,0.0,0.0,0.0,-0.11417424394478815,-0.022699608386071636,0.016355733973304663,0.0,0.0,0.0,0.0,0.0,0.0,0.0,0.0,0.0,0.5076124145485321,-4.620513307653833,4.399068402632114,0.0,0.0,0.0,0.0,0.0,0.0,0.0,0.0,0.0
416006000000,90,416005000000,base_link,-0.03172954243779257,-0.03120783375734867,0.7117749600923323,0.7009962292583468,0.0,0.0,0.0,0.0,0.0,0.0,0.0,0.0,0.0,-0.06857000647706554,-0.09096207062274171,-0.0008456359373098547,0.0,0.0,0.0,0.0,0.0,0.0,0.0,0.0,0.0,-4.157655740639459,-8.09396520714419,13.447086485502421,0.0,0.0,0.0,0.0,0.0,0.0,0.0,0.0,0.0
416008000000,91,416007000000,base_link,-0.03173148160209711,-0.031297171441731185,0.7117841062064574,0.7009828716074005,0.0,0.0,0.0,0.0,0.0,0.0,0.0,0.0,0.0,-0.05613981203389696,-0.03229503011332162,0.03158393335437997,0.0,0.0,0.0,0.0,0.0,0.0,0.0,0.0,0.0,1.4135945863168105,-3.2688270501071326,4.202187746229761,0.0,0.0,0.0,0.0,0.0,0.0,0.0,0.0,0.0
416010000000,92,416009000000,base_link,-0.0316614153754482,-0.03137237025049257,0.7118013475068136,0.7009651709241865,0.0,0.0,0.0,0.0,0.0,0.0,0.0,0.0,0.0,-0.010860343145968274,-0.102037877258117,0.018125211718993253,0.0,0.0,0.0,0.0,0.0,0.0,0.0,0.0,0.0,-1.1628400215762085,-3.741770160686803,6.15386446158808,0.0,0.0,0.0,0.0,0.0,0.0,0.0,0.0,0.0
416013000000,93,416012000000,base_link,-0.03158343663771309,-0.031378181286717356,0.7118715267444944,0.7008971577055739,0.0,0.0,0.0,0.0,0.0,0.0,0.0,0.0,0.0,-0.008722968940552606,-0.056908025686726406,0.042871488521817915,0.0,0.0,0.0,0.0,0.0,0.0,0.0,0.0,0.0,0.9220369546972048,-7.132985636556437,9.24230003311475,0.0,0.0,0.0,0.0,0.0,0.0,0.0,0.0,0.0
416015000000,94,416014000000,base_link,-0.03151817255661429,-0.03130263537762649,0.7118819522932084,0.7008928846951701,0.0,0.0,0.0,0.0,0.0,0.0,0.0,0.0,0.0,0.07197015721150546,-0.02520540054331103,0.0020815424952625194,0.0,0.0,0.0,0.0,0.0,0.0,0.0,0.0,0.0,2.18357260029104,-5.381525860016352,9.460336153688134,0.0,0.0,0.0,0.0,0.0,0.0,0.0,0.0,0.0
416016000000,95,416016000000,base_link,-0.0314727873294253,-0.03127651256703123,0.7118752801488196,0.7009028669740199,0.0,0.0,0.0,0.0,0.0,0.0,0.0,0.0,0.0,0.10102647878272843,-0.02695299973466162,-0.0247588499276387,0.0,0.0,0.0,0.0,0.0,0.0,0.0,0.0,0.0,0.876819954688089,-5.187411245219468,8.103514328055732,0.0,0.0,0.0,0.0,0.0,0.0,0.0,0.0,0.0
416018000000,96,416017000000,base_link,-0.03137910495506833,-0.031170492109029405,0.7118657955619788,0.7009214230588267,0.0,0.0,0.0,0.0,0.0,0.0,0.0,0.0,0.0,0.14000034322804228,-0.020719836723880294,-0.03609046394998444,0.0,0.0,0.0,0.0,0.0,0.0,0.0,0.0,0.0,-2.1305483717336013,-5.418917118602961,7.672734776423406,0.0,0.0,0.0,0.0,0.0,0.0,0.0,0.0,0.0
416019000000,97,416018000000,base_link,-0.03134191260870231,-0.031108674938160965,0.711865905963201,0.7009257213034856,0.0,0.0,0.0,0.0,0.0,0.0,0.0,0.0,0.0,0.1404273609220819,0.0339666143786614,-0.004404827308795399,0.0,0.0,0.0,0.0,0.0,0.0,0.0,0.0,0.0,3.0845444626287843,-5.973680309041278,8.660201786996236,0.0,0.0,0.0,0.0,0.0,0.0,0.0,0.0,0.0
416020000000,98,416019000000,base_link,-0.031267467529617884,-0.03105042890315485,0.7118619756152423,0.7009356204476832,0.0,0.0,0.0,0.0,0.0,0.0,0.0,0.0,0.0,0.18766843278477008,-0.023474462653701608,-0.020581927621006996,0.0,0.0,0.0,0.0,0.0,0.0,0.0,0.0,0.0,-1.8157200731123202,-3.690735951357515,7.235637284837618,0.0,0.0,0.0,0.0,0.0,0.0,0.0,0.0,0.0
416021000000,99,416020000000,base_link,-0.031267467529617884,-0.03105042890315485,0.7118619756152423,0.7009356204476832,0.0,0.0,0.0,0.0,0.0,0.0,0.0,0.0,0.0,0.18646539274295,0.01902949936329762,0.0031605004701165894,0.0,0.0,0.0,0.0,0.0,0.0,0.0,0.0,0.0,2.0346780345197115,-4.341508902214762,6.219010617701791,0.0,0.0,0.0,0.0,0.0,0.0,0.0,0.0,0.0
416022000000,100,416021000000,base_link,-0.031127520427200087,-0.03091685487437065,0.7118623223349709,0.7009474014479211,0.0,0.0,0.0,0.0,0.0,0.0,0.0,0.0,0.0,0.20065541541350768,-0.030313473626359985,-0.019779637980878145,0.0,0.0,0.0,0.0,0.0,0.0,0.0,0.0,0.0,-2.847767347300028,-5.104393880485982,7.90621093299011,0.0,0.0,0.0,0.0,0.0,0.0,0.0,0.0,0.0
416023000000,101,416022000000,base_link,-0.031053607038043197,-0.030819668756023978,0.7118658629243649,0.700951364012258,0.0,0.0,0.0,0.0,0.0,0.0,0.0,0.0,0.0,0.24245775648182238,0.03103457300202596,0.0007977380572285735,0.0,0.0,0.0,0.0,0.0,0.0,0.0,0.0,0.0,2.106206529156373,-4.281267479357052,7.892684856798052,0.0,0.0,0.0,0.0,0.0,0.0,0.0,0.0,0.0
416023000000,102,416023000000,base_link,-0.030963544633830154,-0.03073643678277536,0.7118625142752881,0.7009624035048332,0.0,0.0,0.0,0.0,0.0,0.0,0.0,0.0,0.0,0.24523824557746965,-0.010653329086091956,-0.020793853318858496,0.0,0.0,0.0,0.0,0.0,0.0,0.0,0.0,0.0,-1.418808218005534,-3.666534002210077,5.364693033810516,0.0,0.0,0.0,0.0,0.0,0.0,0.0,0.0,0.0
416025000000,103,416024000000,base_link,-0.031011054818414218,-0.030680815603396958,0.7118435964829045,0.7009819513933604,0.0,0.0,0.0,0.0,0.0,0.0,0.0,0.0,0.0,0.057975929097584034,0.11763856377127256,-0.02136756240899746,0.0,0.0,0.0,0.0,0.0,0.0,0.0,0.0,0.0,10.777501096104913,5.558981499684751,24.738062833215114,0.0,0.0,0.0,0.0,0.0,0.0,0.0,0.0,0.0
416026000000,104,416025000000,base_link,-0.031011054818414218,-0.030680815603396958,0.7118435964829045,0.7009819513933604,0.0,0.0,0.0,0.0,0.0,0.0,0.0,0.0,0.0,0.057975929097584034,0.11763856377127256,-0.02136756240899746,0.0,0.0,0.0,0.0,0.0,0.0,0.0,0.0,0.0,10.777501096104913,5.558981499684751,24.738062833215114,0.0,0.0,0.0,0.0,0.0,0.0,0.0,0.0,0.0
416028000000,105,416027000000,base_link,-0.03094424096115803,-0.030545214957762756,0.7118274967371899,0.7010071744878136,0.0,0.0,0.0,0.0,0.0,0.0,0.0,0.0,0.0,0.06095961643093128,0.09332657093857606,-0.01873166876935997,0.0,0.0,0.0,0.0,0.0,0.0,0.0,0.0,0.0,0.31848453926160947,-0.3177659002547072,11.345434618853297,0.0,0.0,0.0,0.0,0.0,0.0,0.0,0.0,0.0
416029000000,106,416028000000,base_link,-0.03088084867081014,-0.030419308019183657,0.7118174994543842,0.7010255960772848,0.0,0.0,0.0,0.0,0.0,0.0,0.0,0.0,0.0,0.059821386073141795,0.08449816461808346,-0.01189773935574422,0.0,0.0,0.0,0.0,0.0,0.0,0.0,0.0,0.0,0.06546485422398132,-0.22708239684168863,10.284798226089864,0.0,0.0,0.0,0.0,0.0,0.0,0.0,0.0,0.0
416031000000,107,416030000000,base_link,-0.030791398589607267,-0.030344498562668156,0.7118166829080527,0.7010336019861336,0.0,0.0,0.0,0.0,0.0,0.0,0.0,0.0,0.0,0.18832204042832915,0.00835943042879117,-0.01089753618712253,0.0,0.0,0.0,0.0,0.0,0.0,0.0,0.0,0.0,-2.9623664598600485,-3.3762720334931773,10.159229083504558,0.0,0.0,0.0,0.0,0.0,0.0,0.0,0.0,0.0
416034000000,108,416032000000,base_link,-0.030748969958224986,-0.030250499478372217,0.7118135966331055,0.7010426604537414,0.0,0.0,0.0,0.0,0.0,0.0,0.0,0.0,0.0,0.04240709593446816,0.016901811926125873,-0.0022168302821934534,0.0,0.0,0.0,0.0,0.0,0.0,0.0,0.0,0.0,1.039841381839845,2.4390246410434786,5.48783871804762,0.0,0.0,0.0,0.0,0.0,0.0,0.0,0.0,0.0
416034000000,109,416033000000,base_link,-0.030748969958224986,-0.030250499478372217,0.7118135966331055,0.7010426604537414,0.0,0.0,0.0,0.0,0.0,0.0,0.0,0.0,0.0,0.04240709593446816,0.016901811926125873,-0.0022168302821934534,0.0,0.0,0.0,0.0,0.0,0.0,0.0,0.0,0.0,1.039841381839845,2.4390246410434786,5.48783871804762,0.0,0.0,0.0,0.0,0.0,0.0,0.0,0.0,0.0
416035000000,110,416034000000,base_link,-0.03070092152639057,-0.030197620626089598,0.7118204718630616,0.7010400651621858,0.0,0.0,0.0,0.0,0.0,0.0,0.0,0.0,0.0,0.017455743118419357,0.017376161421805945,0.005288318868384547,0.0,0.0,0.0,0.0,0.0,0.0,0.0,0.0,0.0,0.6607489539075272,5.195250552691798,12.305840082022144,0.0,0.0,0.0,0.0,0.0,0.0,0.0,0.0,0.0
416036000000,111,416035000000,base_link,-0.03070092152639057,-0.030197620626089598,0.7118204718630616,0.7010400651621858,0.0,0.0,0.0,0.0,0.0,0.0,0.0,0.0,0.0,0.017455743118419357,0.017376161421805945,0.005288318868384547,0.0,0.0,0.0,0.0,0.0,0.0,0.0,0.0,0.0,0.6607489539075272,5.195250552691798,12.305840082022144,0.0,0.0,0.0,0.0,0.0,0.0,0.0,0.0,0.0
416037000000,112,416036000000,base_link,-0.030653511437895627,-0.03014933987509888,0.7118267052239499,0.7010378886134746,0.0,0.0,0.0,0.0,0.0,0.0,0.0,0.0,0.0,0.018014468433599752,0.030764303998127195,0.009503497964543332,0.0,0.0,0.0,0.0,0.0,0.0,0.0,0.0,0.0,1.8101572115627431,3.3409064964814306,9.23784331805538,0.0,0.0,0.0,0.0,0.0,0.0,0.0,0.0,0.0
416038000000,113,416037000000,base_link,-0.030653511437895627,-0.03014933987509888,0.7118267052239499,0.7010378886134746,0.0,0.0,0.0,0.0,0.0,0.0,0.0,0.0,0.0,0.018014468433599752,0.030764303998127195,0.009503497964543332,0.0,0.0,0.0,0.0,0.0,0.0,0.0,0.0,0.0,1.8101572115627431,3.3409064964814306,9.23784331805538,0.0,0.0,0.0,0.0,0.0,0.0,0.0,0.0,0.0
416039000000,114,416038000000,base_link,-0.030576299969869533,-0.03017960696713239,0.7118338232865448,0.7010327304974586,0.0,0.0,0.0,0.0,0.0,0.0,0.0,0.0,0.0,0.022595162015590194,-0.06942783988262644,0.009623193210906275,0.0,0.0,0.0,0.0,0.0,0.0,0.0,0.0,0.0,-0.2512930369113855,0.048042799336030395,0.09688622450093831,0.0,0.0,0.0,0.0,0.0,0.0,0.0,0.0,0.0
416040000000,115,416039000000,base_link,-0.030613494926478437,-0.03019528931284808,0.7118367006744217,0.7010275101625142,0.0,0.0,0.0,0.0,0.0,0.0,0.0,0.0,0.0,-0.08467965429323424,0.0071924353031347435,0.02800868712603867,0.0,0.0,0.0,0.0,0.0,0.0,0.0,0.0,0.0,0.4222888540974947,7.757648623101152,30.62798928689219,0.0,0.0,0.0,0.0,0.0,0.0,0.0,0.0,0.0
416040000000,116,416040000000,base_link,-0.030617647764496655,-0.030206265286444416,0.7118427429300437,0.7010207204645564,0.0,0.0,0.0,0.0,0.0,0.0,0.0,0.0,0.0,-0.021558343860706507,-0.010364217757263105,0.017771642811699843,0.0,0.0,0.0,0.0,0.0,0.0,0.0,0.0,0.0,1.0544981587811342,1.6781246057176318,4.71960258425891,0.0,0.0,0.0,0.0,0.0,0.0,0.0,0.0,0.0
416042000000,117,416041000000,base_link,-0.030634982996784056,-0.030220216351570853,0.7118472674175592,0.7010147674697051,0.0,0.0,0.0,0.0,0.0,0.0,0.0,0.0,0.0,-0.044254882716091445,0.004481982451333036,0.015011493830412247,0.0,0.0,0.0,0.0,0.0,0.0,0.0,0.0,0.0,1.26605440542554,1.7162747392697868,2.8520412019852355,0.0,0.0,0.0,0.0,0.0,0.0,0.0,0.0,0.0
416043000000,118,416042000000,base_link,-0.0306286713063012,-0.030234939774765896,0.7118518883484798,0.7010097160279096,0.0,0.0,0.0,0.0,0.0,0.0,0.0,0.0,0.0,-0.012900213432483171,-0.029555704897378673,0.012399295302089296,0.0,0.0,0.0,0.0,0.0,0.0,0.0,0.0,0.0,-0.6668415170601,-0.7032021699217211,21.143229305996634,0.0,0.0,0.0,0.0,0.0,0.0,0.0,0.0,0.0
416044000000,119,416043000000,base_link,-0.0306286713063012,-0.030234939774765896,0.7118518883484798,0.7010097160279096,0.0,0.0,0.0,0.0,0.0,0.0,0.0,0.0,0.0,-0.012900213432483171,-0.029555704897378673,0.012399295302089296,0.0,0.0,0.0,0.0,0.0,0.0,0.0,0.0,0.0,-0.6668415170601,-0.7032021699217211,21.143229305996634,0.0,0.0,0.0,0.0,0.0,0.0,0.0,0.0,0.0
416045000000,120,416044000000,base_link,-0.03066148477703435,-0.030275713163688774,0.7118570598553482,0.7010012702397886,0.0,0.0,0.0,0.0,0.0,0.0,0.0,0.0,0.0,-0.09035838011777297,0.01796540836770537,0.006495284909556042,0.0,0.0,0.0,0.0,0.0,0.0,0.0,0.0,0.0,0.8720659596864531,1.4038845166587346,3.0799926031566507,0.0,0.0,0.0,0.0,0.0,0.0,0.0,0.0,0.0
416047000000,121,416046000000,base_link,-0.030639879613177986,-0.030318028901392235,0.7118628460746568,0.7009945101634633,0.0,0.0,0.0,0.0,0.0,0.0,0.0,0.0,0.0,-0.024574474614532427,-0.03766989790869011,0.0068140685199897695,0.0,0.0,0.0,0.0,0.0,0.0,0.0,0.0,0.0,-0.0722179882850836,-0.08457892228545116,-0.011565841085477757,0.0,0.0,0.0,0.0,0.0,0.0,0.0,0.0,0.0
416048000000,122,416047000000,base_link,-0.030676268566031985,-0.030350130501656435,0.7118618292860984,0.7009925621080773,0.0,0.0,0.0,0.0,0.0,0.0,0.0,0.0,0.0,-0.0969020979282285,0.006745811792713607,0.0015875051604279148,0.0,0.0,0.0,0.0,0.0,0.0,0.0,0.0,0.0,1.3429668348952777,2.316349222407001,5.360833593784411,0.0,0.0,0.0,0.0,0.0,0.0,0.0,0.0,0.0
416049000000,123,416048000000,base_link,-0.03065990538875725,-0.030348940199412658,0.7118694640465519,0.7009855763055327,0.0,0.0,0.0,0.0,0.0,0.0,0.0,0.0,0.0,0.01183396196227731,-0.00276982039849447,0.017728625322023676,0.0,0.0,0.0,0.0,0.0,0.0,0.0,0.0,0.0,1.3382906526103284,-6.954793676158438,24.45524461669813,0.0,0.0,0.0,0.0,0.0,0.0,0.0,0.0,0.0
416049000000,124,416050000000,base_link,-0.03065637648090037,-0.030346943679183787,0.7118757325212318,0.7009794512236102,0.0,0.0,0.0,0.0,0.0,0.0,0.0,0.0,0.0,0.0077948448484148475,-0.002981340894351571,0.017416967259346144,0.0,0.0,0.0,0.0,0.0,0.0,0.0,0.0,0.0,0.02175944792747518,-0.2348832963166756,0.00785039571655588,0.0,0.0,0.0,0.0,0.0,0.0,0.0,0.0,0.0
416052000000,125,416051000000,base_link,-0.030681155236998166,-0.03034034992445739,0.7118791300181879,0.7009752022178335,0.0,0.0,0.0,0.0,0.0,0.0,0.0,0.0,0.0,-0.025405251787380043,0.04405744068498142,0.012721256350652573,0.0,0.0,0.0,0.0,0.0,0.0,0.0,0.0,0.0,3.9354411724590426,0.022511382370875688,9.032652545187512,0.0,0.0,0.0,0.0,0.0,0.0,0.0,0.0,0.0
416053000000,126,416052000000,base_link,-0.030696953901851308,-0.030334714018579532,0.7118716266606618,0.7009823744589173,0.0,0.0,0.0,0.0,0.0,0.0,0.0,0.0,0.0,-0.04157222933538991,0.051082704124030265,-0.0039818424444917015,0.0,0.0,0.0,0.0,0.0,0.0,0.0,0.0,0.0,3.7336512819293857,1.1403718922018853,11.724551932725952,0.0,0.0,0.0,0.0,0.0,0.0,0.0,0.0,0.0
416054000000,127,416053000000,base_link,-0.030657303849233184,-0.030320769746114765,0.7118681272984132,0.700988266648843,0.0,0.0,0.0,0.0,0.0,0.0,0.0,0.0,0.0,0.0556878697877045,-0.02241130099421124,-0.01343290252404196,0.0,0.0,0.0,0.0,0.0,0.0,0.0,0.0,0.0,-2.2806709441870203,-3.6357125473374268,9.044080129201616,0.0,0.0,0.0,0.0,0.0,0.0,0.0,0.0,0.0
416055000000,128,416054000000,base_link,-0.03071327064210861,-0.030337651206770417,0.711861489235668,0.7009918273909461,0.0,0.0,0.0,0.0,0.0,0.0,0.0,0.0,0.0,-0.07263670573988004,0.03784569961821714,-0.009671289053639402,0.0,0.0,0.0,0.0,0.0,0.0,0.0,0.0,0.0,1.8628447678740105,2.3038470874798374,7.43563430152206,0.0,0.0,0.0,0.0,0.0,0.0,0.0,0.0,0.0
416056000000,129,416055000000,base_link,-0.030693611792571955,-0.03034490585244663,0.7118625605062263,0.7009912865602913,0.0,0.0,0.0,0.0,0.0,0.0,0.0,0.0,0.0,-0.00033013719265974524,-0.016562013129464377,0.0082721032171606,0.0,0.0,0.0,0.0,0.0,0.0,0.0,0.0,0.0,-2.2724560372588534,-4.005122615557013,20.861965628945324,0.0,0.0,0.0,0.0,0.0,0.0,0.0,0.0,0.0
416057000000,130,416056000000,base_link,-0.03068889811665141,-0.03035065417435685,0.71186573952519,0.7009880157419447,0.0,0.0,0.0,0.0,0.0,0.0,0.0,0.0,0.0,-0.0015833912062000553,-0.015163682461272362,0.008474729807073863,0.0,0.0,0.0,0.0,0.0,0.0,0.0,0.0,0.0,-0.13572466878702288,-0.08146079597168898,0.001058469002554574,0.0,0.0,0.0,0.0,0.0,0.0,0.0,0.0,0.0
416058000000,131,416057000000,base_link,-0.03068889811665141,-0.03035065417435685,0.71186573952519,0.7009880157419447,0.0,0.0,0.0,0.0,0.0,0.0,0.0,0.0,0.0,-0.0015833912062000553,-0.015163682461272362,0.008474729807073863,0.0,0.0,0.0,0.0,0.0,0.0,0.0,0.0,0.0,-0.13572466878702288,-0.08146079597168898,0.001058469002554574,0.0,0.0,0.0,0.0,0.0,0.0,0.0,0.0,0.0
416059000000,132,416058000000,base_link,-0.030707754882489707,-0.030365835374347398,0.7118718820946222,0.7009802945269968,0.0,0.0,0.0,0.0,0.0,0.0,0.0,0.0,0.0,-0.07481003706536357,0.03122710774613061,0.0023876474887738054,0.0,0.0,0.0,0.0,0.0,0.0,0.0,0.0,0.0,1.2050452078761753,2.2529625771352535,5.333452959749784,0.0,0.0,0.0,0.0,0.0,0.0,0.0,0.0,0.0
416061000000,133,416060000000,base_link,-0.030733819545712564,-0.03035113936918406,0.7118792412940305,0.7009723150665506,0.0,0.0,0.0,0.0,0.0,0.0,0.0,0.0,0.0,-0.029424309312371465,0.055071369529019656,0.008691407727490049,0.0,0.0,0.0,0.0,0.0,0.0,0.0,0.0,0.0,0.7021964402497582,-1.634454770613528,10.746260942965536,0.0,0.0,0.0,0.0,0.0,0.0,0.0,0.0,0.0
416063000000,134,416062000000,base_link,-0.030691268473025626,-0.030333572780271545,0.711878867345289,0.7009753195577494,0.0,0.0,0.0,0.0,0.0,0.0,0.0,0.0,0.0,0.06861367092260451,-0.023967636394010956,-0.004832821628618379,0.0,0.0,0.0,0.0,0.0,0.0,0.0,0.0,0.0,-2.3383675721055472,-4.01848774333726,9.545433322403838,0.0,0.0,0.0,0.0,0.0,0.0,0.0,0.0,0.0
416065000000,135,416064000000,base_link,-0.030726743451484163,-0.030353281903871345,0.7118747981885841,0.7009770447157978,0.0,0.0,0.0,0.0,0.0,0.0,0.0,0.0,0.0,6.38666650950425e-05,-0.013177068454731718,7.263287066177905e-05,0.0,0.0,0.0,0.0,0.0,0.0,0.0,0.0,0.0,-0.12202417718981282,-0.1004174223036538,0.013106396865254055,0.0,0.0,0.0,0.0,0.0,0.0,0.0,0.0,0.0
416066000000,136,416065000000,base_link,-0.030763382452544147,-0.030368343667586874,0.7118716094915782,0.7009780236233059,0.0,0.0,0.0,0.0,0.0,0.0,0.0,0.0,0.0,-0.07294403723727821,0.031304123580323195,-0.004565317536656655,0.0,0.0,0.0,0.0,0.0,0.0,0.0,0.0,0.0,1.1386728905157242,2.0418698511469717,5.090728411251607,0.0,0.0,0.0,0.0,0.0,0.0,0.0,0.0,0.0
416067000000,137,416066000000,base_link,-0.03074388805295916,-0.03037764879808258,0.7118716772367162,0.700978406906427,0.0,0.0,0.0,0.0,0.0,0.0,0.0,0.0,0.0,0.007810933863475455,-0.008893258612469507,0.01147368288295986,0.0,0.0,0.0,0.0,0.0,0.0,0.0,0.0,0.0,-1.8003274797031288,-4.9782088254436765,23.793080279123707,0.0,0.0,0.0,0.0,0.0,0.0,0.0,0.0,0.0
416068000000,138,416067000000,base_link,-0.03074388805295916,-0.03037764879808258,0.7118716772367162,0.700978406906427,0.0,0.0,0.0,0.0,0.0,0.0,0.0,0.0,0.0,0.007810933863475455,-0.008893258612469507,0.01147368288295986,0.0,0.0,0.0,0.0,0.0,0.0,0.0,0.0,0.0,-1.8003274797031288,-4.9782088254436765,23.793080279123707,0.0,0.0,0.0,0.0,0.0,0.0,0.0,0.0,0.0
416069000000,139,416068000000,base_link,-0.030750939728655603,-0.03038455073654729,0.7118776415678615,0.7009717413834327,0.0,0.0,0.0,0.0,0.0,0.0,0.0,0.0,0.0,-0.02527373758904701,0.007335230882660582,0.006125626190555639,0.0,0.0,0.0,0.0,0.0,0.0,0.0,0.0,0.0,0.07499182291061182,-0.28213686084873524,16.820627268127623,0.0,0.0,0.0,0.0,0.0,0.0,0.0,0.0,0.0
416070000000,140,416069000000,base_link,-0.030763861270193874,-0.03037913655383567,0.7118802329047164,0.7009687774084654,0.0,0.0,0.0,0.0,0.0,0.0,0.0,0.0,0.0,-0.010431636230379324,0.02564803869645181,0.008970960505468865,0.0,0.0,0.0,0.0,0.0,0.0,0.0,0.0,0.0,1.0354444190269019,-0.8127433462074104,2.88313341014039,0.0,0.0,0.0,0.0,0.0,0.0,0.0,0.0,0.0
416071000000,141,416070000000,base_link,-0.030734921510141348,-0.030369731676085834,0.7118811653997744,0.7009695074300645,0.0,0.0,0.0,0.0,0.0,0.0,0.0,0.0,0.0,0.05406417547886453,-0.028031008129307276,-0.0009113750007794408,0.0,0.0,0.0,0.0,0.0,0.0,0.0,0.0,0.0,-2.038850582919441,-3.2661890734482046,7.068712302900353,0.0,0.0,0.0,0.0,0.0,0.0,0.0,0.0,0.0
416072000000,142,416071000000,base_link,-0.030734921510141348,-0.030369731676085834,0.7118811653997744,0.7009695074300645,0.0,0.0,0.0,0.0,0.0,0.0,0.0,0.0,0.0,0.05406417547886453,-0.028031008129307276,-0.0009113750007794408,0.0,0.0,0.0,0.0,0.0,0.0,0.0,0.0,0.0,-2.038850582919441,-3.2661890734482046,7.068712302900353,0.0,0.0,0.0,0.0,0.0,0.0,0.0,0.0,0.0
416074000000,143,416073000000,base_link,-0.030766512673091825,-0.03035581756527268,0.7118763692412607,0.7009735950474599,0.0,0.0,0.0,0.0,0.0,0.0,0.0,0.0,0.0,0.013446887044460827,-0.00036558871554790307,0.0012964670453466279,0.0,0.0,0.0,0.0,0.0,0.0,0.0,0.0,0.0,-0.09849942378065957,-0.11480644812179752,0.003695573643133443,0.0,0.0,0.0,0.0,0.0,0.0,0.0,0.0,0.0
416075000000,144,416074000000,base_link,-0.030766512673091825,-0.03035581756527268,0.7118763692412607,0.7009735950474599,0.0,0.0,0.0,0.0,0.0,0.0,0.0,0.0,0.0,0.013446887044460827,-0.00036558871554790307,0.0012964670453466279,0.0,0.0,0.0,0.0,0.0,0.0,0.0,0.0,0.0,-0.09849942378065957,-0.11480644812179752,0.003695573643133443,0.0,0.0,0.0,0.0,0.0,0.0,0.0,0.0,0.0
416078000000,145,416077000000,base_link,-0.030777796385996516,-0.03036450035456349,0.711876955807504,0.7009721279466686,0.0,0.0,0.0,0.0,0.0,0.0,0.0,0.0,0.0,0.006947869584084247,-0.01153263142578365,0.001800199618440511,0.0,0.0,0.0,0.0,0.0,0.0,0.0,0.0,0.0,-0.5687134179987283,-0.43668458730701737,14.475316803619055,0.0,0.0,0.0,0.0,0.0,0.0,0.0,0.0,0.0
416080000000,146,416079000000,base_link,-0.030795295615604477,-0.030381909657705854,0.7118756228770561,0.7009719587022736,0.0,0.0,0.0,0.0,0.0,0.0,0.0,0.0,0.0,-6.608705835028407e-05,-0.01829028977513926,0.0003160383984715108,0.0,0.0,0.0,0.0,0.0,0.0,0.0,0.0,0.0,-0.4878475792754965,-0.3359904165685663,9.656493134480158,0.0,0.0,0.0,0.0,0.0,0.0,0.0,0.0,0.0
416081000000,147,416080000000,base_link,-0.03082706832541432,-0.03040616021059716,0.7118730975676582,0.7009720752206433,0.0,0.0,0.0,0.0,0.0,0.0,0.0,0.0,0.0,-0.0772910825538939,0.028516658032522988,-0.003783266533384142,0.0,0.0,0.0,0.0,0.0,0.0,0.0,0.0,0.0,1.0511767542961532,1.9165545482200512,5.068894471256153,0.0,0.0,0.0,0.0,0.0,0.0,0.0,0.0,0.0
416082000000,148,416081000000,base_link,-0.030806662847807163,-0.030412619421484693,0.7118780917498372,0.700967620215596,0.0,0.0,0.0,0.0,0.0,0.0,0.0,0.0,0.0,0.014176219862442182,-0.003058379612386898,0.011503728049780417,0.0,0.0,0.0,0.0,0.0,0.0,0.0,0.0,0.0,-0.8759040566686191,-5.964235968721789,23.981039213595032,0.0,0.0,0.0,0.0,0.0,0.0,0.0,0.0,0.0
416083000000,149,416082000000,base_link,-0.03080637705553579,-0.030408043893240474,0.711884411539417,0.700961413065282,0.0,0.0,0.0,0.0,0.0,0.0,0.0,0.0,0.0,0.007112903848737312,0.005317229658888114,0.017937667131750823,0.0,0.0,0.0,0.0,0.0,0.0,0.0,0.0,0.0,0.21393487644748296,-1.007787821993674,1.019692218999829,0.0,0.0,0.0,0.0,0.0,0.0,0.0,0.0,0.0
416084000000,150,416083000000,base_link,-0.03081440921534009,-0.030412852369881168,0.7118876526939116,0.7009575597262577,0.0,0.0,0.0,0.0,0.0,0.0,0.0,0.0,0.0,-0.018135059033275287,0.004308413279164576,0.010185642779687941,0.0,0.0,0.0,0.0,0.0,0.0,0.0,0.0,0.0,-0.30852968207474474,-0.5247966801327143,15.381288434935701,0.0,0.0,0.0,0.0,0.0,0.0,0.0,0.0,0.0
416085000000,151,416084000000,base_link,-0.03081440921534009,-0.030412852369881168,0.7118876526939116,0.7009575597262577,0.0,0.0,0.0,0.0,0.0,0.0,0.0,0.0,0.0,-0.018135059033275287,0.004308413279164576,0.010185642779687941,0.0,0.0,0.0,0.0,0.0,0.0,0.0,0.0,0.0,-0.30852968207474474,-0.5247966801327143,15.381288434935701,0.0,0.0,0.0,0.0,0.0,0.0,0.0,0.0,0.0
416087000000,152,416086000000,base_link,-0.030852513170175695,-0.030409301348792554,0.7118929218099139,0.7009506863535454,0.0,0.0,0.0,0.0,0.0,0.0,0.0,0.0,0.0,-0.05953749731679078,0.048758609488409974,0.005817926637674536,0.0,0.0,0.0,0.0,0.0,0.0,0.0,0.0,0.0,1.7006010924515342,2.6900249700796066,7.82750561233316,0.0,0.0,0.0,0.0,0.0,0.0,0.0,0.0,0.0
416088000000,153,416087000000,base_link,-0.030832491816258318,-0.030409333484317222,0.7118950250128971,0.700949429878737,0.0,0.0,0.0,0.0,0.0,0.0,0.0,0.0,0.0,0.006427533083544901,-0.012800318309682816,0.002835962005144543,0.0,0.0,0.0,0.0,0.0,0.0,0.0,0.0,0.0,-1.246156938118927,-2.4622997228063266,20.499452509816155,0.0,0.0,0.0,0.0,0.0,0.0,0.0,0.0,0.0
416089000000,154,416088000000,base_link,-0.0308262963083888,-0.030411669543813198,0.711896270347778,0.7009483362391189,0.0,0.0,0.0,0.0,0.0,0.0,0.0,0.0,0.0,0.005367717489618462,-0.01223932886225487,0.0027820911556730183,0.0,0.0,0.0,0.0,0.0,0.0,0.0,0.0,0.0,-0.06554442642512173,-0.07489837552912793,0.018554956323599825,0.0,0.0,0.0,0.0,0.0,0.0,0.0,0.0,0.0
416090000000,155,416089000000,base_link,-0.030865176175621116,-0.030425125357928802,0.7118938232294143,0.7009485267082096,0.0,0.0,0.0,0.0,0.0,0.0,0.0,0.0,0.0,-0.0738011564736172,0.0366555249522135,-0.0021664019233923926,0.0,0.0,0.0,0.0,0.0,0.0,0.0,0.0,0.0,1.4758084545952477,2.443060903761646,5.898323270413101,0.0,0.0,0.0,0.0,0.0,0.0,0.0,0.0,0.0
416091000000,156,416090000000,base_link,-0.030843365772342975,-0.03043303469765376,0.711894147379338,0.7009488141897169,0.0,0.0,0.0,0.0,0.0,0.0,0.0,0.0,0.0,0.014916255225162024,-0.003276137271319813,0.010265055395572348,0.0,0.0,0.0,0.0,0.0,0.0,0.0,0.0,0.0,-0.569711861663849,-4.967830948187538,23.427194325552485,0.0,0.0,0.0,0.0,0.0,0.0,0.0,0.0,0.0
416092000000,157,416091000000,base_link,-0.030840537325405343,-0.030427970716413767,0.7118992346583842,0.700943991734267,0.0,0.0,0.0,0.0,0.0,0.0,0.0,0.0,0.0,0.011495940760855916,0.0029150194137136324,0.014314876916727781,0.0,0.0,0.0,0.0,0.0,0.0,0.0,0.0,0.0,0.1774756191583519,-0.7175411434675741,0.7851494560129009,0.0,0.0,0.0,0.0,0.0,0.0,0.0,0.0,0.0
416093000000,158,416092000000,base_link,-0.030850536088737304,-0.030430071423005516,0.7119015684267576,0.7009410902834496,0.0,0.0,0.0,0.0,0.0,0.0,0.0,0.0,0.0,-0.017047009160745547,0.010969518988626104,0.007881329086800993,0.0,0.0,0.0,0.0,0.0,0.0,0.0,0.0,0.0,0.014718623052687535,0.1680152946445055,15.972442023431581,0.0,0.0,0.0,0.0,0.0,0.0,0.0,0.0,0.0
416094000000,159,416093000000,base_link,-0.0308670457100481,-0.030433198514818315,0.7119029093861934,0.7009388657541861,0.0,0.0,0.0,0.0,0.0,0.0,0.0,0.0,0.0,-0.02765265353602176,0.018904534782836525,0.005859014049717533,0.0,0.0,0.0,0.0,0.0,0.0,0.0,0.0,0.0,0.3338557481618176,0.5661106418645147,1.067017947884338,0.0,0.0,0.0,0.0,0.0,0.0,0.0,0.0,0.0
416095000000,160,416095000000,base_link,-0.030837826063627723,-0.030420683522063414,0.711908637212922,0.7009348776879065,0.0,0.0,0.0,0.0,0.0,0.0,0.0,0.0,0.0,0.05778463786354877,-0.022563416247291062,0.012057373134229941,0.0,0.0,0.0,0.0,0.0,0.0,0.0,0.0,0.0,-1.6917473588217091,-5.714185562681923,11.161509443229109,0.0,0.0,0.0,0.0,0.0,0.0,0.0,0.0,0.0
416097000000,161,416096000000,base_link,-0.030869306522486012,-0.030428755454746215,0.7119102721073066,0.7009314811195148,0.0,0.0,0.0,0.0,0.0,0.0,0.0,0.0,0.0,0.006581904134770197,-0.01373907073444472,0.003351367802630239,0.0,0.0,0.0,0.0,0.0,0.0,0.0,0.0,0.0,-1.1658954595039468,-2.4300936204439085,20.458183531843346,0.0,0.0,0.0,0.0,0.0,0.0,0.0,0.0,0.0
416098000000,162,416097000000,base_link,-0.030862737301566256,-0.030431350700443473,0.711911673267217,0.7009302346215868,0.0,0.0,0.0,0.0,0.0,0.0,0.0,0.0,0.0,0.005522297408575483,-0.013153934957054022,0.0031790102371506463,0.0,0.0,0.0,0.0,0.0,0.0,0.0,0.0,0.0,-0.06233909582839209,-0.059649053907952165,0.016223349745397186,0.0,0.0,0.0,0.0,0.0,0.0,0.0,0.0,0.0
416099000000,163,416098000000,base_link,-0.03090281858839536,-0.03044511645859069,0.7119091448555063,0.7009304388869252,0.0,0.0,0.0,0.0,0.0,0.0,0.0,0.0,0.0,-0.07592990214960399,0.03793938598001771,-0.002245388522656666,0.0,0.0,0.0,0.0,0.0,0.0,0.0,0.0,0.0,1.551030257565638,2.568262494147507,6.176453842743136,0.0,0.0,0.0,0.0,0.0,0.0,0.0,0.0,0.0
416100000000,164,416099000000,base_link,-0.03088098027353124,-0.030453164311859845,0.7119090355970037,0.7009311627229058,0.0,0.0,0.0,0.0,0.0,0.0,0.0,0.0,0.0,0.015196950436873878,-0.002849396520103702,0.010725177773789996,0.0,0.0,0.0,0.0,0.0,0.0,0.0,0.0,0.0,-0.6123404671633592,-4.979584488528242,23.286112148880356,0.0,0.0,0.0,0.0,0.0,0.0,0.0,0.0,0.0
416101000000,165,416100000000,base_link,-0.030875848227457366,-0.030449200857688825,0.7119130549801528,0.7009274786396871,0.0,0.0,0.0,0.0,0.0,0.0,0.0,0.0,0.0,0.012854929385467952,-0.002223511827947936,0.010812302686579046,0.0,0.0,0.0,0.0,0.0,0.0,0.0,0.0,0.0,-0.06454511387862076,-0.13278348438411325,0.016236445667750843,0.0,0.0,0.0,0.0,0.0,0.0,0.0,0.0,0.0
416102000000,166,416101000000,base_link,-0.030888189823877886,-0.030454282063505148,0.7119146885645415,0.7009250549377247,0.0,0.0,0.0,0.0,0.0,0.0,0.0,0.0,0.0,-0.024585667123002006,0.010201119813424711,0.0061790972686065785,0.0,0.0,0.0,0.0,0.0,0.0,0.0,0.0,0.0,0.16762816785325887,0.3230148368930471,17.289669281010347,0.0,0.0,0.0,0.0,0.0,0.0,0.0,0.0,0.0
