%time,field.header.seq,field.header.stamp,field.header.frame_id,field.wrench.force.x,field.wrench.force.y,field.wrench.force.z,field.wrench.torque.x,field.wrench.torque.y,field.wrench.torque.z
415903000000,0,415898000000,BR_wheel_link,-0.109387116844038,0.05546593048023983,0.04649225094940708,0.0045617836732617205,0.012429819560511198,-1.8282096689241654e-05
415903000000,1,415899000000,BR_wheel_link,0.1576580422604623,-0.3276143509308509,0.8575069207745938,-0.02322151014574313,-0.016945163032886013,-0.001757416741382987
415903000000,2,415900000000,BR_wheel_link,-2.3008221577439922,3.043358181878351,29.376027264303367,0.2824290186390777,0.24320825617623199,-0.0006429062006145098
415903000000,3,415901000000,BR_wheel_link,-0.09262576299326342,0.0811720051062862,0.0353523051702697,0.007344972512274856,0.010536018442840446,-6.122854785683511e-05
415903000000,4,415902000000,BR_wheel_link,0.17106935240681115,-0.3476252259398763,0.9193394897012772,-0.0256492606122615,-0.01712396377966289,-0.000684175712328578
415903000000,5,415903000000,BR_wheel_link,-2.5932518671644824,2.635800284407624,28.64319405547477,0.25014300594480965,0.26878085698348886,-0.0045781974145847875
415904000000,6,415904000000,BR_wheel_link,-0.10731847685824668,0.0553125349570085,0.07134457242709852,0.0028088059108088235,0.012117101052873568,3.705030692124354e-05
415905000000,7,415905000000,BR_wheel_link,0.22806147734025106,-0.06566416265892407,0.5104072440172114,-0.024218670544584434,-0.011118810594268629,0.0051777810556374905
415906000000,8,415906000000,BR_wheel_link,-1.973336027562492,3.43228450550866,27.037058801211572,0.33613603439310236,0.2050142342375656,-0.0028573289363031697
415907000000,9,415907000000,BR_wheel_link,-0.09505175375026624,0.07618278416933509,0.043088458875317426,0.006576869643819598,0.010711775721083994,-5.2821279766811315e-05
415908000000,10,415908000000,BR_wheel_link,0.1572029786184573,-0.3268907457094681,0.8488535308889562,-0.023082503493110612,-0.016559918873464342,-0.00154510653008394
415909000000,11,415909000000,BR_wheel_link,-1.8038357330408106,3.6900914119051182,30.6180598865952,0.3590593701055763,0.18314269947867234,-0.0016678539444644198
415910000000,12,415910000000,BR_wheel_link,-0.10996710081914271,0.044075942678405505,-0.023293359401611438,0.0038745981678762536,0.013118114662332817,4.76702464138236e-05
415911000000,13,415911000000,BR_wheel_link,0.1502615803501765,-0.31137139404066216,0.8116435131308797,-0.022168273101883653,-0.015986352137635045,-0.001437843466518881
415912000000,14,415912000000,BR_wheel_link,-1.9105537962257828,3.3756390103551075,29.845078049599188,0.32393205396813746,0.19792953544632327,-0.0008400942735288362
415913000000,15,415913000000,BR_wheel_link,-0.11585250561596983,0.03119643782240293,-0.008130093269544052,0.002311777038678518,0.013615517028536143,4.8686081050932446e-05
415914000000,16,415914000000,BR_wheel_link,0.1483647122840014,-0.30903103991020775,0.8128658840096361,-0.022336039681023656,-0.016108300004396784,-0.0014170859117921125
415915000000,17,415915000000,BR_wheel_link,-1.9411889609222237,3.2658421095422474,29.79012486263334,0.31044039200351514,0.2018272967973383,-0.00047661293993912307
415916000000,18,415916000000,BR_wheel_link,-0.1182215727562175,0.025714377496074824,-0.009737333074068995,0.0016380785122323983,0.013916400697372364,6.337119353311865e-05
415917000000,19,415917000000,BR_wheel_link,0.14692914371495475,-0.30661786832505056,0.8106120164187098,-0.02234080130713673,-0.01614016462172,-0.0014104188110250415
415918000000,20,415918000000,BR_wheel_link,-1.9574219147497551,3.21270032932798,29.6899861500982,0.30407352188370107,0.20384697935984908,-0.0003280838007576109
415919000000,21,415919000000,BR_wheel_link,-0.11905304362749204,0.023813566144847108,-0.009481168160969323,0.0013774241678639896,0.014018145321194997,6.966366382789876e-05
415920000000,22,415920000000,BR_wheel_link,0.14610133923089438,-0.3052927883500147,0.8097000146714177,-0.0223524467305726,-0.01617321554217832,-0.0014132775290637907
415921000000,23,415921000000,BR_wheel_link,-1.9645689681509784,3.19718191250196,29.641570768610833,0.302124141986378,0.20463200640635976,-0.00028056645753103703
415922000000,24,415922000000,BR_wheel_link,-0.11948594328824629,0.02353297556008118,-0.009366928975604786,0.0013058995997694877,0.014067124318873768,7.136144779768314e-05
415923000000,25,415923000000,BR_wheel_link,0.1456135066835989,-0.3044723082309069,0.8089095685371845,-0.022345566389935966,-0.016191934927511226,-0.0014204026345126502
415924000000,26,415924000000,BR_wheel_link,-1.9700249914946397,3.197238809740078,29.61861536494092,0.30204465947091175,0.20517967821419375,-0.00027803317338624786
415925000000,27,415925000000,BR_wheel_link,-0.11979327817056935,0.023888204675056222,-0.009288594220894005,0.0013190506566499657,0.014100385734658194,7.158023431349329e-05
415926000000,28,415926000000,BR_wheel_link,0.14540842568179418,-0.3040758960878974,0.8085149873537467,-0.02233858613297965,-0.016204035532794453,-0.001426214231788635
415927000000,29,415927000000,BR_wheel_link,-1.9749346887755541,3.203343356614799,29.611860838580014,0.3026956975690231,0.20566740641849252,-0.00028876930348144345
415928000000,30,415928000000,BR_wheel_link,-0.12006553366227571,0.024407423327144503,-0.009254901021330472,0.0013603555499153127,0.014129294335893598,7.110818142055497e-05
415929000000,31,415929000000,BR_wheel_link,0.1453662569457898,-0.30392403178883254,0.8083527294918289,-0.02233241381035188,-0.016212147400353732,-0.0014306057440614227
415930000000,32,415930000000,BR_wheel_link,-1.979345007568194,3.2106380197788553,29.613023293798697,0.30350468591304475,0.20611467204435188,-0.0003013335246905357
415931000000,33,415931000000,BR_wheel_link,-0.12030051211513001,0.024890911445642712,-0.009245070346114019,0.0014046469053327288,0.014154305303480639,7.050381855390372e-05
415932000000,34,415932000000,BR_wheel_link,0.14540710580781668,-0.30390289437669127,0.8083308751026265,-0.022327990334203757,-0.01621802942723977,-0.001433624994551488
415933000000,35,415933000000,BR_wheel_link,-1.9830494656872784,3.217069914401035,29.617213504032158,0.3042273068853578,0.2064985560267677,-0.00031142375781032753
415934000000,36,415934000000,BR_wheel_link,-0.12048376051443992,0.025274812714425283,-0.009248576383545712,0.001442337988766352,0.014173873546942103,6.997700683988658e-05
415935000000,37,415935000000,BR_wheel_link,0.14547958990151283,-0.3039402081429086,0.808381570062001,-0.022325282970377745,-0.01622257693101573,-0.0014355682303189977
415936000000,38,415936000000,BR_wheel_link,-3.2230808442854335,1.5779894609150849,26.05683919269734,0.13551415860121663,0.34057359367412676,-0.004838859915757662
415937000000,39,415937000000,BR_wheel_link,-0.13975686759378722,0.009310170812664734,0.05769472068485293,-0.0015537874546264945,0.016217181226607202,0.00010627418682551213
415938000000,40,415938000000,BR_wheel_link,0.16843271097839552,-0.07032953617603832,0.3425605863225029,-0.02554479359482662,-0.007680704197631541,0.00341290271166893
415939000000,41,415939000000,BR_wheel_link,-2.385318926788546,2.8104453759058763,25.095609562089926,0.2658659468786798,0.2561440231321104,-0.002274443674763228
415940000000,42,415940000000,BR_wheel_link,-0.11926265581087814,0.04743090923726432,0.041513289451343374,0.0035602200451175263,0.013639836747526807,8.953978591837918e-06
415941000000,43,415941000000,BR_wheel_link,0.15630895684761983,-0.3227542416367222,0.8491357500603287,-0.023066496738307685,-0.016895374198935796,-0.0017020687848602186
415942000000,44,415942000000,BR_wheel_link,-1.9853841381407604,3.500510168448716,30.476177208876233,0.33555701121981574,0.20526879321508962,-0.0009462120559770111
415943000000,45,415943000000,BR_wheel_link,-0.12184443135559123,0.03507654941614086,-0.020963334022490322,0.0025902339458308103,0.014472388383665956,6.926764194668491e-05
415944000000,46,415944000000,BR_wheel_link,0.1498678430680359,-0.30752608366778733,0.8092674872322454,-0.02215165910092966,-0.01608071262614421,-0.0014190514413130557
415945000000,47,415945000000,BR_wheel_link,-2.00577121146469,3.318987570504199,29.81255232674711,0.31643223198252934,0.2092884337170134,-0.0005211337471461295
415946000000,48,415946000000,BR_wheel_link,-0.12163624060709698,0.028956417165968792,-0.008103824074825225,0.0018992849175903676,0.014300251236059842,6.109458601653983e-05
415947000000,49,415947000000,BR_wheel_link,0.14866467488469154,-0.30724584296952195,0.8125456128374942,-0.02234545353131324,-0.01619272801236151,-0.0014045937154662327
415948000000,50,415948000000,BR_wheel_link,-1.990944119296715,3.264134344774183,29.780001666397055,0.3097294835786447,0.20759687907797225,-0.00037157067916204355
415949000000,51,415949000000,BR_wheel_link,-0.12111581656124804,0.026076332434320573,-0.009706935718416656,0.0015753242837662513,0.014252197193620548,6.685645751945948e-05
415950000000,52,415950000000,BR_wheel_link,0.14734608733287377,-0.30573959199468737,0.810667721570044,-0.022342506363601647,-0.01620204296991527,-0.001405829621696763
415951000000,53,415951000000,BR_wheel_link,-1.983581017003638,3.230756825251282,29.69390234336538,0.3058915318177401,0.2067809602840262,-0.00031494160898736716
415952000000,54,415952000000,BR_wheel_link,-0.1205049998679634,0.024926423785639418,-0.009509700313557641,0.0014408341184010912,0.014182775064648018,6.980750298647729e-05
415953000000,55,415953000000,BR_wheel_link,0.14654167375674848,-0.30492688747957747,0.8100165514626396,-0.022353576636544983,-0.016217901003459052,-0.0014108881965578064
415954000000,56,415954000000,BR_wheel_link,-1.9786199767722155,3.219091888011616,29.650026663763494,0.30451831534366386,0.20615797608477798,-0.0002966886585571121
415955000000,57,415955000000,BR_wheel_link,-0.12020579466732227,0.024664608825444405,-0.009442865457329534,0.0013987883689607506,0.01414594189684415,7.01926538183778e-05
415956000000,58,415956000000,BR_wheel_link,0.14603177990545418,-0.30437546683266825,0.8094039821301984,-0.02234925226653485,-0.016225391145648162,-0.0014181308156220648
415957000000,59,415957000000,BR_wheel_link,-1.9775397056282609,3.217328488929521,29.626498597084073,0.304297637611838,0.20596789245726935,-0.00030001478951272335
415958000000,60,415958000000,BR_wheel_link,-0.1201307083507753,0.024806772348741145,-0.009371094075543058,0.0014043316454385628,0.01413565268784733,7.033880160762e-05
415959000000,61,415959000000,BR_wheel_link,0.14578294133389436,-0.3040958081612271,0.8090966401639075,-0.022345035299344503,-0.016229918323947733,-0.001423098377628597
415960000000,62,415960000000,BR_wheel_link,-1.9789236513980972,3.220108199676048,29.617422259801927,0.3045996506119163,0.2060708505003247,-0.00030761794902982656
415961000000,63,415961000000,BR_wheel_link,-0.12019973907901549,0.025090440989657285,-0.00933575404887602,0.0014283441534063785,0.01414196300061617,7.010152716947131e-05
415962000000,64,415962000000,BR_wheel_link,0.14569476744165447,-0.3039841418354815,0.8089725661895917,-0.02234107376911292,-0.016233330306085113,-0.0014267179954510858
415963000000,65,415963000000,BR_wheel_link,-3.0461794151168347,1.7924468226263848,26.59689330877665,0.1578568671957885,0.32184696469000584,-0.004298224260652213
415964000000,66,415964000000,BR_wheel_link,-0.13102901150747995,0.019999360528190797,0.061810576889480974,-0.0005707940901113632,0.015081395904824439,0.00011719241975512721
415965000000,67,415965000000,BR_wheel_link,0.1532929483846301,-0.0801398589839456,0.33466854642229504,-0.02635757914106704,-0.006948552706207997,0.003505822526796206
415966000000,68,415966000000,BR_wheel_link,-2.364378873766494,2.8385968377557225,25.007886146830565,0.2697866737969459,0.2533314499333828,-0.0026524858828022436
415967000000,69,415967000000,BR_wheel_link,-0.11848360482603393,0.04730336913360528,0.04118171622824564,0.0036095538024540266,0.01355471884282982,1.636544582087649e-06
415968000000,70,415968000000,BR_wheel_link,0.15612945953108343,-0.3222991881647464,0.8473631759288398,-0.022976624281058147,-0.01686423347613302,-0.0017234481770964476
415969000000,71,415969000000,BR_wheel_link,-1.9781847303282758,3.5084533155293824,30.477122405012068,0.3366390213352378,0.2044935780757785,-0.0009762831765150259
415970000000,72,415970000000,BR_wheel_link,-0.12134425512893852,0.035050973964066576,-0.020569962399701665,0.002610821747423904,0.014416058389662867,6.71240145228704e-05
415971000000,73,415971000000,BR_wheel_link,0.1501365472097011,-0.30771835965475935,0.8099377554815048,-0.02216002081690271,-0.016072166197564977,-0.0014070107428949584
415972000000,74,415972000000,BR_wheel_link,-2.001265826899018,3.3250467994532276,29.8214167516662,0.31716209226423925,0.2088091289026071,-0.0005202199521331586
415973000000,75,415973000000,BR_wheel_link,-0.12141882448725641,0.028780778907468024,-0.008107512571915321,0.0018944220135397065,0.014277456258712965,6.034915539916855e-05
415974000000,76,415974000000,BR_wheel_link,0.1488858940835022,-0.30731839269336847,0.8130826761102701,-0.02235493347150652,-0.016189555939228724,-0.0013929245938938814
415975000000,77,415975000000,BR_wheel_link,-1.988523857387483,3.2682516510776534,29.781626266071946,0.31022005849952744,0.20735766841158143,-0.00036578920666451584
415976000000,78,415976000000,BR_wheel_link,-0.1210053889721507,0.025897284213141046,-0.009716111097297146,0.001563889982084417,0.014241146120273909,6.671083931687174e-05
415976000000,79,415977000000,BR_wheel_link,0.14754097239737723,-0.3057771933853406,0.8112169710872109,-0.022353965127287108,-0.016205760247166294,-0.001396820300092826
415976000000,80,415978000000,BR_wheel_link,-1.9819330512489843,3.2348644141103584,29.69285256950687,0.30636977703261253,0.20661891932659085,-0.00031059484744821563
415976000000,81,415979000000,BR_wheel_link,-0.12043611159129716,0.024800687189095297,-0.0095457079227568,0.001431453631680033,0.014175960106860333,6.983833354231407e-05
415980000000,82,415980000000,BR_wheel_link,0.1467162181529272,-0.30493221414903715,0.8105328097468534,-0.022364917267354227,-0.01622482675762977,-0.0014033505633843169
415981000000,83,415981000000,BR_wheel_link,-1.9773709351864568,3.22371319188373,29.64751366846288,0.30505114425316643,0.2060322612481964,-0.00029454824179886603
415982000000,84,415982000000,BR_wheel_link,-0.12015444681313733,0.02460257434589242,-0.009490140826212797,0.0013942164498439123,0.01414062966285317,7.023662312311085e-05
415983000000,85,415983000000,BR_wheel_link,0.14619748602698623,-0.30436692774015855,0.8099044948506424,-0.022360399086115732,-0.01623416742051689,-0.0014115029479356163
415984000000,86,415984000000,BR_wheel_link,-1.9765035196450351,3.2226444397351175,29.623451854994016,0.30490804250672193,0.20585870240946064,-0.0003000687331888984
415985000000,87,415985000000,BR_wheel_link,-0.1200919728172713,0.024797814191126248,-0.009421623330091243,0.0014043612834635068,0.014131454025726428,7.035222844439101e-05
415986000000,88,415986000000,BR_wheel_link,0.1459457549622517,-0.304081671339363,0.8095853377818338,-0.022355794602244645,-0.016239668478131086,-0.001417046326068666
415987000000,89,415987000000,BR_wheel_link,-1.978060935663013,3.2260333141641455,29.614347684586264,0.3052789166296422,0.20597615589896243,-0.0003093978678906945
415988000000,90,415988000000,BR_wheel_link,-0.12017224473598076,0.02512070666159203,-0.009388628168405489,0.0014320698227359811,0.014138853009518483,7.008006502245176e-05
415989000000,91,415989000000,BR_wheel_link,0.14585885257245873,-0.3039700853938369,0.8094567164468498,-0.022351551698426165,-0.016243607468357145,-0.001420981134300944
415990000000,92,415990000000,BR_wheel_link,-1.9807058345492723,3.230708380257982,29.613070995740387,0.3058016024968812,0.20623455214442715,-0.00031813170438593763
415991000000,93,415991000000,BR_wheel_link,-0.12030639386936845,0.025443740900761874,-0.009374861396671924,0.0014627735757925782,0.014152812457222953,6.971286049127341e-05
415992000000,94,415992000000,BR_wheel_link,0.25974131546582957,0.08482921134241575,0.25528771044953236,-0.021366256645173602,-0.008790220819450516,0.006178709193680106
415993000000,95,415993000000,BR_wheel_link,-2.0969166740038188,3.1178571048957506,24.090064319417326,0.3078460878894204,0.220346930456806,-0.004114093682712269
415994000000,96,415994000000,BR_wheel_link,-0.07803593802261531,0.10247480741319617,0.0746681048061362,0.009116253325821631,0.008439711127576272,-0.00011475400982923787
415995000000,97,415995000000,BR_wheel_link,-0.504390748159784,-0.6100874725657316,15.017752587553954,-0.08166718561746211,0.06588654347631397,0.0008471951159611518
415996000000,98,415996000000,BR_wheel_link,-0.6215053933009874,0.46981763034933943,6.0635554648906345,0.0461590232149983,0.061411453695332546,-0.0034321189447649447
415997000000,99,415997000000,BR_wheel_link,0.018685600050548895,-0.09149884613841347,0.2793830485799186,-0.006988043276992546,-0.00364265344471861,-0.0008879177126526992
415998000000,100,415998000000,BR_wheel_link,-2.298042692436002,2.035087067801628,25.536462922914183,0.20067184183649986,0.24080066953689597,-0.005655354215519567
415999000000,101,415999000000,BR_wheel_link,-0.08783077008723167,0.1058226749375563,-0.0807723008113902,-0.05549940405982229,0.009887931824889337,-9.700208587363662e-06
416000000000,102,416000000000,BR_wheel_link,0.14670273385411295,0.5544275769748453,-0.4724562086455598,-0.06802236506234502,-0.012678187877969909,0.0014196744599380387
416001000000,103,416001000000,BR_wheel_link,0.10901829276447672,1.2963491925664776,-2.5460980711812278,-0.05045491376078619,0.02319980550930616,0.010821656135048235
416002000000,104,416002000000,BR_wheel_link,0.03178397270866308,0.10659919448429785,-0.18275707806176728,-0.05664716370584026,-0.0008108506396195918,0.0003530241788156689
416003000000,105,416003000000,BR_wheel_link,0.178308797754835,1.3810138874327018,-2.5115494728504304,-0.034400641242230856,0.0031619471929265203,-0.0021796632832729377
416004000000,106,416004000000,BR_wheel_link,-0.12657955674593271,0.14532924732839264,-0.24155076897935412,0.01068284546428926,-0.014493514511469761,-0.014859957258141973
416005000000,107,416005000000,BR_wheel_link,-0.012464889890746053,0.2529975866955171,-1.1471323789011683,-0.015360552483856708,0.02159205038484348,0.00439029996271925
416006000000,108,416006000000,BR_wheel_link,0.04822631412090013,0.13150304206806435,-0.11424438959868538,0.0028569377070349934,-9.442541572287255e-05,0.0019706645993325584
416007000000,109,416007000000,BR_wheel_link,-0.15520583519115982,-0.03182000376187918,0.1934428227461505,-0.005867272518067823,-0.01952177544189905,-0.013216197917282114
416008000000,110,416008000000,BR_wheel_link,-0.2811780995351543,0.04848621286175421,-1.0035492808287,-0.02037659411276259,0.024029588905074575,0.0011974855785970805
416009000000,111,416009000000,BR_wheel_link,0.0994948012409114,0.18982236825824392,-0.1456386652322917,0.006645915642827746,-0.0026976221764114933,0.0011411678531564958
416010000000,112,416010000000,BR_wheel_link,-0.21414252507715076,0.03421847448585123,0.009427614193239457,3.087435924841245e-05,-0.01920042924851578,-0.015872415241416898
416010000000,113,416011000000,BR_wheel_link,0.14495970938272262,1.0031669070428626,-1.6564929017906396,0.0025681061893143885,0.01419841768319602,0.012757419355846553
416012000000,114,416012000000,BR_wheel_link,-0.061963923504313984,0.01315009775392955,0.08669784809459069,-0.0031698211818204586,-0.009781340650397582,-0.005619205444128375
416012000000,115,416013000000,BR_wheel_link,0.26358240545560074,-0.26803693809231727,1.0732124430908825,-0.0367951851609624,-0.02623037820208058,0.0030299599946768518
416014000000,116,416014000000,BR_wheel_link,0.06664449311350495,0.8370241240280663,-1.3111346378333337,0.01170256564920694,0.017829558573833802,0.016163291567561824
416015000000,117,416015000000,BR_wheel_link,0.03269173047575005,-0.1610190168415195,0.5530110899766287,-0.016880096283193882,-0.019786311012011507,-0.004676921026580683
416016000000,118,416016000000,BR_wheel_link,0.10617858925870693,0.8510397645948,-1.4828023646170738,0.007971132083283934,0.021201214951319963,0.016223779115290146
416017000000,119,416017000000,BR_wheel_link,0.041843658928426966,-0.12414370374858352,0.4760693000661218,-0.01289745340338014,-0.02071723497980847,-0.006542909108777842
416018000000,120,416018000000,BR_wheel_link,0.08353338064046245,0.5971942070123821,-1.217023990932948,0.0007843961252075992,0.019194430292963617,0.011703411440409636
416019000000,121,416019000000,BR_wheel_link,-0.15963948353804858,0.0832873959000178,-0.057679049961515,-8.607335979704707e-05,-0.017978343772038503,-0.011134692987414726
416020000000,122,416020000000,BR_wheel_link,-0.10414077725833354,0.02298506073638095,-0.6063923284897718,-0.014710825239548626,0.018300528936727383,0.00428733480281085
416021000000,123,416021000000,BR_wheel_link,-0.09023151232296378,0.06542419406817586,-0.025651689079307066,0.00041938510350556565,-0.013964430644181056,-0.00826035643342149
416022000000,124,416022000000,BR_wheel_link,0.09125186060348589,0.3802150762010652,-0.9491260490239359,-0.00444723262157844,0.016044162733894717,0.0075444276546940536
416023000000,125,416023000000,BR_wheel_link,0.0665802440843368,-0.14402118940168185,0.5081078906612212,-0.012910390190382861,-0.01965653743271971,-0.00590705692950224
416024000000,126,416024000000,BR_wheel_link,0.031220647181377154,0.3599115477786955,-0.8080271395845133,-0.0009357520878743031,0.01366312349217096,0.007327898063528172
416025000000,127,416025000000,BR_wheel_link,0.08776045083505712,0.6140562557614799,-2.4296124697426005,0.058096671850205284,-0.038362662397901544,0.005683740001364952
416026000000,128,416026000000,BR_wheel_link,-0.4376674254638578,-0.7906221250920696,-0.17171520527832723,-0.04880014993046315,0.0312388548486632,-0.002017879035600487
416027000000,129,416027000000,BR_wheel_link,0.26069797970124897,0.5964393999869873,-1.5696199524186762,0.04786398042389883,-0.02503813922708665,0.0008275276477718175
416028000000,130,416028000000,BR_wheel_link,-0.38251681493094847,-0.7382964093062407,-0.09794102608524641,-0.042496176439081934,0.025458643589307904,-0.004547808563093271
416029000000,131,416029000000,BR_wheel_link,0.24195689269743104,0.5218178351346447,-1.4126182674969254,0.042857554723035894,-0.02295592447892192,0.0011931310780135401
416030000000,132,416030000000,BR_wheel_link,-0.3364700772928786,-0.6855433528482104,-0.09699702902453938,-0.039895869354466346,0.023466970142299946,-0.004489156566066399
416031000000,133,416031000000,BR_wheel_link,0.25493099282363607,0.49275303249046154,-1.3241936020819258,0.040340921730795655,-0.022272136357025064,0.0018777684952286024
416031000000,134,416032000000,BR_wheel_link,-5.0711679827672125,2.4976468460306185,16.834141809808383,0.3016699233272817,0.5173476925060349,-0.016929043072878645
416031000000,135,416033000000,BR_wheel_link,0.08358278454153174,0.25620548178350017,-0.29678401289338296,0.0189764871196715,0.015323735482144985,0.006699333376521349
416031000000,136,416034000000,BR_wheel_link,-0.14223076198361545,-0.5273607867506203,0.0913543981276616,-0.02752332865916548,0.010463560328260318,-0.005487389307380815
416035000000,137,416035000000,BR_wheel_link,-0.6971353946313066,5.385561447883706,7.095593913379346,0.5704352494314955,0.08554122422683097,0.0013070888488985952
416036000000,138,416036000000,BR_wheel_link,-0.24862559812774487,-0.3436488585787929,0.027982585576839213,-0.012967899186782645,0.02053762512531569,-0.0044527934206949685
416037000000,139,416037000000,BR_wheel_link,0.6661185386286913,1.9354068772339155,0.17720904521720066,0.199005441596192,-0.05540057673383257,0.0038182589419715556
416038000000,140,416038000000,BR_wheel_link,-8.593677443247135,4.708815425765821,18.694187571762942,-0.030932920068520275,0.8905378626892941,-0.2294931838591305
416039000000,141,416039000000,BR_wheel_link,-0.24714135182135066,0.11183214287913784,0.15196129154962495,0.006616398695271076,0.027433003091020817,-0.007623063438775582
416040000000,142,416040000000,BR_wheel_link,-0.728402494318686,4.374672023765937,2.787946966506037,0.37919289735600104,0.08250716935769051,-0.02978541783470085
416040000000,143,416041000000,BR_wheel_link,-0.0794946503230434,-0.2329278250550344,-0.36471090924940885,0.008586557904127299,0.004615652869143629,0.002049425443270705
416042000000,144,416042000000,BR_wheel_link,0.049697028577832224,0.018751715817545055,-0.2781490076633499,0.006826354796177125,-0.0052324853574156165,0.0022187857804421736
416043000000,145,416043000000,BR_wheel_link,-0.15639196422409052,-0.34444348717821294,-1.463401388017699,-0.009658762221618454,0.009867127315913285,-0.0007134177763119413
416044000000,146,416044000000,BR_wheel_link,0.008732298755183162,0.0038552673346027126,-0.005210214214208719,0.0001535149211764509,-0.0005714049642201062,0.00014302742052380284
416045000000,147,416045000000,BR_wheel_link,0.26754683941763563,0.2895962216480776,-0.7719652781854967,0.023846264570007873,-0.014712060056019667,0.005326117741126825
416046000000,148,416046000000,BR_wheel_link,-0.28066087434431075,-0.5394443798289537,-1.4234424037399647,-0.020777821680685437,0.016897690791011007,-0.003358623105939459
416047000000,149,416047000000,BR_wheel_link,0.01064006646447598,0.010142525007334825,-0.00365318735838752,0.00024303086479049354,-0.00042875408017364284,3.31369637701004e-05
416048000000,150,416048000000,BR_wheel_link,0.26999100930849596,0.3001120347819758,-0.7039038670067601,0.022537789004300323,-0.013648040174792637,0.004934616953010874
416049000000,151,416049000000,BR_wheel_link,-0.3097250672080154,-0.5232836281959771,-0.6291607466871605,-0.03366225351220256,0.0018150732897492527,-0.0072090895204098004
416049000000,152,416050000000,BR_wheel_link,-0.00964606423640193,0.0319072138246584,-0.046346147527159175,0.001082053301913289,0.0001995833626262118,-0.00013480927497009726
416051000000,153,416051000000,BR_wheel_link,0.10500127449374799,0.20249449596316887,-0.5134641421119893,0.010051729068433811,-0.014358807009878342,0.005078983010059702
416052000000,154,416052000000,BR_wheel_link,-0.22335308612660973,-0.1941278038976732,-0.5413952282561708,-0.024742747984877512,0.023802104883785886,0.002412300966210531
416053000000,155,416053000000,BR_wheel_link,0.3167419589059027,0.4424509053873267,-1.0190708012449867,0.029758764630820816,-0.025403680703496846,0.005273593487585295
416054000000,156,416054000000,BR_wheel_link,-0.2595764617067132,-0.37495286544071965,-0.351931876982487,-0.029849659931982075,0.02292700536115693,-0.0006795168467340026
416055000000,157,416055000000,BR_wheel_link,0.2527128112267314,0.5071556257985664,-1.282128344766556,0.03977383794518695,-0.01873009649071658,0.0022201116619427535
416056000000,158,416056000000,BR_wheel_link,-0.4027023026224106,-0.5895931098701261,-1.1917212247548115,-0.022514813665023732,0.0159050507135292,-0.011166820825696281
416057000000,159,416057000000,BR_wheel_link,0.017943289203073025,0.014804636553613661,-0.0012915753124905327,0.000432195317886686,-0.0004910848637085456,-1.1397411283010407e-05
416058000000,160,416058000000,BR_wheel_link,0.2998222380126762,0.3150374504122884,-0.6960601175951369,0.022816418544553397,-0.013979385387107579,0.005581788562308393
416059000000,161,416059000000,BR_wheel_link,-0.28999054123934753,-0.520867500116653,-0.9864343429286662,-0.028396185224720386,0.008513150988229164,-0.007447986804575077
416060000000,162,416060000000,BR_wheel_link,0.007463357048198886,0.02637280680060263,-0.023893934457055486,0.0008185318266592515,-0.00011295595071328938,-9.386345359593523e-06
416061000000,163,416061000000,BR_wheel_link,0.2422001563923899,0.22297498538176141,-0.49286326419094273,0.013215362690593495,-0.016048122697713486,0.006507638783417827
416062000000,164,416062000000,BR_wheel_link,-0.2507600780793583,-0.32814590001674004,-0.43587214019489673,-0.030145102330453057,0.02483781591725469,0.0005286627887294683
416063000000,165,416063000000,BR_wheel_link,0.3818707576989919,0.5819939952539208,-1.3448008421045794,0.042931231050175774,-0.021943091775042695,0.005116927089802577
416064000000,166,416064000000,BR_wheel_link,-0.34061779601705944,-0.5691131388972555,-1.370273305276053,-0.02222701678018632,0.01881886303143577,-0.006425934778272144
416065000000,167,416065000000,BR_wheel_link,0.013649022596991618,0.01470935334091473,-0.004872830156433279,0.0004753728798755875,-0.00042380236295137314,-0.00012044098575884267
416066000000,168,416066000000,BR_wheel_link,0.2763259639606525,0.3081118567037957,-0.6980377797578888,0.022732917835601794,-0.013412924216815426,0.0049742128191964385
416067000000,169,416067000000,BR_wheel_link,-0.31657673751999316,-0.5669631271249513,-1.1693585049084123,-0.02500904161059226,0.011514461601872797,-0.009604676552685435
416068000000,170,416068000000,BR_wheel_link,0.01584964380831856,0.021525121340510066,-0.011010167864211471,0.0005852768005247622,-0.00036755312802763527,-6.141230295873229e-06
416069000000,171,416069000000,BR_wheel_link,0.15374821054502413,0.07497712990420678,-1.354169268803072,0.009582650010862084,-0.004308725110245307,0.0033930829324352266
416069000000,172,416070000000,BR_wheel_link,0.030117643800878585,-0.053265279145179284,0.1495344437305005,-0.004712509517316367,-0.005807800137927756,0.00016353706529074886
416071000000,173,416071000000,BR_wheel_link,-0.13196381391721557,-0.1768929990441734,-0.3626997569918401,-0.01985970273110395,0.01694263659428925,0.00045832007740612764
416072000000,174,416072000000,BR_wheel_link,0.39388085162218056,0.45829555364225855,-1.0066612847020462,0.02744275075846648,-0.02597957504563217,0.010488535519164077
416073000000,175,416073000000,BR_wheel_link,-0.4135134084500837,-0.462177106576398,-1.313247953940056,-0.015544889682290286,0.01772655190343216,-0.009345038467640156
416074000000,176,416074000000,BR_wheel_link,0.006980375704234359,0.01666944075023885,-0.015284879803341029,0.0006303030196669915,-0.00025844080620447457,-0.0002024900821608157
416075000000,177,416075000000,BR_wheel_link,0.23733982451612626,0.29397423441598347,-0.7280601038541517,0.023143040181908138,-0.01290213997030131,0.004097402036665528
416076000000,178,416076000000,BR_wheel_link,-0.23901724543896552,-0.5539959750998734,-1.4437636704143606,-0.021068097654214194,0.016216152238918306,-0.0050555421402189524
416077000000,179,416077000000,BR_wheel_link,0.013178634292990469,0.01820663778243331,-0.007386981192300919,0.0005305985892747649,-0.00032890710527674183,-6.141667150108085e-05
416078000000,180,416078000000,BR_wheel_link,0.28482154215242017,0.3154867570117024,-0.7180823781322663,0.023439069940548986,-0.013743093349929535,0.005156984879442504
416079000000,181,416079000000,BR_wheel_link,-0.22817495292288192,-0.5617228465555087,-1.4110386942505313,-0.021816046397663193,0.016201242686244226,-0.004970747182836479
416080000000,182,416080000000,BR_wheel_link,0.013764275271554553,0.018781511589752317,-0.007425240838133057,0.0005405993534143552,-0.0003364336661580683,-5.482784982985093e-05
416081000000,183,416081000000,BR_wheel_link,0.28668815891253807,0.31726336918170095,-0.7162356331733255,0.02345609178806042,-0.013727036322591714,0.005172329358802545
416082000000,184,416082000000,BR_wheel_link,-0.3102027293151802,-0.5500017189902592,-0.9800257613475798,-0.02839071878209431,0.00877510626127081,-0.008774138527514092
416083000000,185,416083000000,BR_wheel_link,-0.022789783393507998,0.04411345181714549,-0.06486781610599063,0.0021627062165377802,-0.002879339787126741,-0.00221675507551912
416084000000,186,416084000000,BR_wheel_link,0.17750105329526952,0.09188501872285608,-1.3058107362539935,0.007463328208498375,-0.00048033251510148315,0.00513459467465642
416085000000,187,416085000000,BR_wheel_link,0.04900436530625631,0.0443756415510978,-0.13074577663294476,0.0038642914873512355,-0.0023983943001488484,0.0012017610305216674
416086000000,188,416086000000,BR_wheel_link,-0.20365587815049957,-0.29698808535576493,-0.25031556389209797,-0.02750084809417485,0.010841874388007216,-0.005202986143811012
416087000000,189,416087000000,BR_wheel_link,0.3993944741318202,0.4860190761390404,-1.1567475330657782,0.036926310363616405,-0.020408768096376637,0.007124618678625163
416088000000,190,416088000000,BR_wheel_link,-0.31019707973481264,-0.49961558274447115,-1.3020486572575145,-0.0206984245108722,0.018987260809715797,-0.003326985737505346
416089000000,191,416089000000,BR_wheel_link,0.01206491169368691,0.015643563158252636,-0.010330727429507521,0.0004541808215354418,-0.0002430661833431174,8.304393312071564e-05
416090000000,192,416090000000,BR_wheel_link,0.2882038808259715,0.29834962722888164,-0.7799184081256633,0.024665746174385814,-0.01467988478397037,0.00589083277889574
416091000000,193,416091000000,BR_wheel_link,-0.3605137835297964,-0.5923097980754736,-1.0429479612336459,-0.027544323003086308,0.011438251458328294,-0.008301257066032958
416092000000,194,416092000000,BR_wheel_link,-0.010030286191370107,0.02825104687360689,-0.031029811837637533,0.0010009252238321442,-0.0021162552122219688,-0.0012973566421728032
416093000000,195,416093000000,BR_wheel_link,0.12156743812614294,0.013078658186770953,-1.3419269116540224,0.009089363979831525,-0.0021538204668711276,0.003408232629334715
416094000000,196,416094000000,BR_wheel_link,0.051373871867888374,0.031135175994779177,-0.09968544558317675,0.003065105545368216,-0.0022381479581007474,0.0014976796727886059
416095000000,197,416095000000,BR_wheel_link,-0.23267925293219788,-0.31093505399042626,-0.2832605237879108,-0.026409266928890097,0.012271250650775153,-0.00593563494278008
416096000000,198,416096000000,BR_wheel_link,0.42696193166427343,0.4811913721858979,-1.1646619485246346,0.03721826337850712,-0.0211837490642277,0.00809311404002102
416097000000,199,416097000000,BR_wheel_link,-0.3206108672367936,-0.5295037420755618,-1.262277678401516,-0.02172200355145888,0.01911680232624234,-0.0036215806467226426
416098000000,200,416098000000,BR_wheel_link,0.012797089734501459,0.016543838033466984,-0.0145796034249294,0.000587739081186578,-0.00028887444857047455,0.00010132075104498251
416099000000,201,416099000000,BR_wheel_link,0.30182861079771156,0.2995143168608292,-0.8054257164205544,0.025382213908483185,-0.015270239030118137,0.006412956857371654
416100000000,202,416100000000,BR_wheel_link,-0.369740197423461,-0.6174480351781755,-1.0098668983473955,-0.028283081296320886,0.01162555209371804,-0.008753579622541058
416101000000,203,416101000000,BR_wheel_link,0.007334690457205818,0.020376024480870468,-0.020371574001906333,0.0006257290391952445,-0.00016173056374291453,-4.090166309661419e-05
416102000000,204,416102000000,BR_wheel_link,0.11984053071991402,0.00431809032300914,-1.477644137042387,0.011641383775704117,-0.003491413587710882,0.002957015626049391
416103000000,205,416103000000,BR_wheel_link,0.005064115938118041,0.00033334228233323875,0.004628284921689348,-7.13323121190919e-05,-6.890811108831529e-05,0.00013399800536815983
416104000000,206,416104000000,BR_wheel_link,-0.09157906802409746,-0.2600537989814318,-1.4822509569659839,-0.0069185479275197794,0.006129460963604216,-0.0031278350844731427
416105000000,207,416105000000,BR_wheel_link,0.039489354074058805,-0.02009104469028694,0.12226725007318742,-0.002550858320162795,-0.003632819698923881,-0.00029051547468878256
416106000000,208,416106000000,BR_wheel_link,0.20600295893194512,0.20664782306007945,-0.5410872966089113,0.01717139927873037,-0.010237762677176333,0.004336210444415916
416107000000,209,416107000000,BR_wheel_link,-0.26875014434693495,-0.43032528128806946,-1.2724446458712666,-0.02005108651942982,0.011495054281021449,-0.004718727418413187
416108000000,210,416108000000,BR_wheel_link,-0.020251923401632965,0.03944998618642368,-0.05382150319124418,0.0009407013186166205,-0.0018219104344092641,-0.0009428330894972802
416109000000,211,416109000000,BR_wheel_link,0.2879642814894122,0.25829736837782896,-0.6450931440122343,0.02080689383094061,-0.013125059739602563,0.006341428928206666
416110000000,212,416110000000,BR_wheel_link,-1.2735268360076208,-1.8516992001422297,6.977843673228705,-0.39815831471071944,0.13453584409367852,-0.030868058567313318
416111000000,213,416111000000,BR_wheel_link,-0.013175137758553425,-0.0751416939589948,-0.08292138983533885,-0.007501524131646257,0.0022182946552208515,-0.0006546739298848294
416112000000,214,416112000000,BR_wheel_link,0.12401644625836761,-0.13661208761513405,-1.4195869410694795,0.009422503898276927,-0.005929575880638331,0.0018413091004061684
416113000000,215,416113000000,BR_wheel_link,-0.005858982617247158,-0.000604225661710017,-0.012536870507029004,0.00018097167417136333,8.149747537808264e-05,-8.190209163575442e-05
416114000000,216,416114000000,BR_wheel_link,-1.1919334130674388,-0.6107056640506305,1.1266843623739389,-0.1101718292505064,0.13179826906538358,-0.032217274008165674
416115000000,217,416115000000,BR_wheel_link,-0.43978821063175305,0.2201438219372233,1.336585960326127,-0.022409008889551572,0.047682823403309635,-0.01148509014175959
416116000000,218,416116000000,BR_wheel_link,-0.0017207348692342694,-0.2530842592676482,-1.2169693048275267,0.0032777302338383935,-0.0014147398315315042,-0.0022482976150344377
416116000000,219,416117000000,BR_wheel_link,0.0011071631182146364,0.0026405666965939375,-0.004949831502786512,0.00015453780610708432,-0.00014151205574211443,-2.7092373522277586e-05
416116000000,220,416118000000,BR_wheel_link,-0.12182220994370384,-0.23132429998342913,-0.8837534211744753,-0.009934740080517365,-0.005601400699577971,-0.0032001548072800256
416119000000,221,416119000000,BR_wheel_link,-0.006503798169199369,0.017423842503479538,-0.028806986432884655,0.0005804361340003479,0.000261713478953765,4.6704306305722017e-05
416120000000,222,416120000000,BR_wheel_link,-0.04520606179112275,-0.027842920746305913,-1.6295291478200034,0.0062247840318762635,0.0034572026280104296,0.002226258298789659
416121000000,223,416121000000,BR_wheel_link,0.05197616830730606,-0.05102411419342814,0.22964517268338208,-0.006067482720883257,-0.0047693699975426135,0.0005675120083602215
416122000000,224,416122000000,BR_wheel_link,-0.02124860551603952,-0.08218332187810173,-1.260860925065098,0.0034882624028658616,0.003391551493741926,0.0004443568222898627
416123000000,225,416123000000,BR_wheel_link,0.003606509828937481,0.005868253224667932,-0.0078053227036711855,0.000224333000901093,-8.596797523156858e-05,4.0351051689118155e-05
416124000000,226,416124000000,BR_wheel_link,-0.03317674417574637,-0.10568414625587519,3.6992265368569273,-0.12755196667327218,0.005247500689616359,-0.0011773652549740086
416125000000,227,416125000000,BR_wheel_link,0.1275176629271012,0.26460008163622595,3.766524006039251,-0.0810130877629369,-0.012238051882323311,0.0036296739144545676
416126000000,228,416126000000,BR_wheel_link,-0.015133632552952084,-0.0777186947684675,-0.19540607532710222,-0.010833636580160993,0.0069407043965203415,3.06034015331468e-05
416127000000,229,416127000000,BR_wheel_link,1.3410681227674297,4.47329692389958,15.562206138357045,0.03624142710527013,-0.1388585657748825,0.03490264157056528
416128000000,230,416128000000,BR_wheel_link,0.04016047020967598,0.017779140678916602,0.008097966196423369,0.00036681252411201615,-0.005910750210682908,0.0019111788080620803
416129000000,231,416129000000,BR_wheel_link,-1.0303464224263061,1.1598372425029704,12.933242100468267,-0.23078730737777345,0.10591794592158481,-0.029433614186523023
416130000000,232,416130000000,BR_wheel_link,-0.034709876743994214,-0.05057631562890595,0.03708166669203604,-0.010031095542644019,0.0026710582105396795,-0.0010067755245498377
416131000000,233,416131000000,BR_wheel_link,0.3453932870116193,1.4542008205821335,7.383254818733397,-0.06814510081712255,-0.03221230840305189,0.009569970468903444
416132000000,234,416132000000,BR_wheel_link,0.6588797855530133,0.0749792638823078,3.953750868816761,-0.10166893260222365,-0.06954946531503127,0.01814220182645578
416133000000,235,416133000000,BR_wheel_link,0.0017829752671429042,-0.08646378251912251,-0.2488636867479224,-0.01276121487600566,0.006078816038889547,0.0007539620400849509
416133000000,236,416134000000,BR_wheel_link,1.3170739545225556,4.055923557830023,15.699804837092096,-0.006296564419705095,-0.13928086304514753,0.0329850124375839
416135000000,237,416135000000,BR_wheel_link,0.002689780194322651,0.016736606166606705,0.05268594857570198,-0.005663220484532536,-0.0070755711776557826,0.002563489208060464
416136000000,238,416136000000,BR_wheel_link,-2.6461025784080108,1.3144051526959522,8.36837590094885,-0.10273442068312605,0.27328741148150215,-0.070969288571182
416137000000,239,416137000000,BR_wheel_link,1.4917464052122096,0.2158618147067054,8.31038753221778,-0.20001935082608274,-0.15326693018731916,0.03798895325903685
416138000000,240,416138000000,BR_wheel_link,0.02676839756882264,-0.09671455678419846,-0.04548465828919056,-0.008183252281050364,-0.00420077950608322,0.0008577300276763946
416139000000,241,416139000000,BR_wheel_link,-1.1688034430600032,2.8854216556439987,15.1451948282632,-0.12656427598394793,0.12297640332599906,-0.0314970754773933
416140000000,242,416140000000,BR_wheel_link,0.006660656598067498,-0.03287849537227997,-0.26707163711526305,-0.003061243014465291,0.004909099838156966,-0.0012531722455637827
416141000000,243,416141000000,BR_wheel_link,0.09686373681442655,-0.10760104181847004,0.5272745874818022,-0.014437213068522421,-0.010230945194915415,0.001519086070227199
416143000000,244,416142000000,BR_wheel_link,-1.2911080728947035,2.476401941445736,8.120483635111604,0.014955042302191357,0.13478729336843098,-0.03459792891452132
416143000000,245,416143000000,BR_wheel_link,-0.016164472703003273,-0.045136238335073686,0.25154350802461345,-0.010307334230822352,-0.0019279295424158233,0.00023558701650918567
416144000000,246,416144000000,BR_wheel_link,-0.4354579474286524,3.2371095954727362,5.825547990026415,0.1602280775827466,0.0462438013511538,-0.01069577032959405
416145000000,247,416145000000,BR_wheel_link,0.11534140064790516,0.006873043397170001,0.18907100292864895,-0.029335368826500237,0.0020727984851727967,0.004357127369593913
416146000000,248,416146000000,BR_wheel_link,-0.01356094288851839,6.199380243957185,8.462163302098237,0.3867229728581871,-0.004489807586681577,-0.0006339072835225609
416147000000,249,416147000000,BR_wheel_link,0.02129541337046459,-0.08184056179675889,0.44895826251250437,-0.014750041690292724,-0.0026134282386498352,0.00015584567360505297
416148000000,250,416148000000,BR_wheel_link,-0.014167463064323371,4.314818211330709,6.170140016567194,0.2603842702185353,-0.002443041506842769,-0.0002394604434510679
416148000000,251,416149000000,BR_wheel_link,-0.01861214592460453,-0.11513018683889004,0.2592595727273469,-0.01781184257093759,-5.465428864372471e-06,-0.0006714647943944426
416150000000,252,416150000000,BR_wheel_link,0.18255770183473352,5.330491970699448,6.65053155412251,0.35142836595161964,-0.019613618633964935,0.00446503288162747
416151000000,253,416151000000,BR_wheel_link,-0.0638104383220586,-0.1500758532980152,0.22934236296338367,-0.017476528590018234,0.0019753848415735185,-0.0015216746850814974
416152000000,254,416152000000,BR_wheel_link,0.39663380098970435,4.06976371390456,4.50107533142496,0.2804289503417046,-0.038811515358705445,0.009747084666805612
416153000000,255,416153000000,BR_wheel_link,-0.040416131823342014,-0.18325992820586673,0.2507114050045419,-0.022475803297685015,0.0013627578415864438,0.00045566448148761274
416154000000,256,416154000000,BR_wheel_link,-0.11316781009251375,2.6886860761584295,3.9633347757065858,0.14851830493911253,0.014321496716548338,-0.003793475598888721
416155000000,257,416155000000,BR_wheel_link,0.01518421291049784,0.038837667341932634,0.002943876577237574,0.0048786854560173825,-0.0016401991859367503,0.0004713473085732592
416156000000,258,416156000000,BR_wheel_link,-0.25830776842477177,-0.0879675499255432,6.365918690803496,-0.18990563017601492,0.024934335525693976,-0.007261625557231427
416157000000,259,416157000000,BR_wheel_link,-0.9755391970061142,0.8276083111860549,2.48527602316016,0.007008703452781373,0.10450827335863606,-0.02565129077817112
416158000000,260,416158000000,BR_wheel_link,-0.016884760834006963,-0.06311126301502845,-0.7231438251633437,-0.0047278140126972585,-0.003852644121434328,0.002293627760913604
416159000000,261,416159000000,BR_wheel_link,0.0006282945466253196,-0.0032194393099761595,0.004852529331940372,-7.50396215687319e-05,6.15190306975065e-05,0.00016181357355042896
416160000000,262,416160000000,BR_wheel_link,-0.734941822029171,3.7004709825940507,14.56317899642765,-0.01472874002268141,0.07752105480679448,-0.020722112142868253
416161000000,263,416161000000,BR_wheel_link,0.0032572431565365896,-0.01973729545452197,-0.2110364046890356,0.0006978918937598176,0.002182502995131466,-0.0007679507111131795
416162000000,264,416162000000,BR_wheel_link,0.029069230904090287,-0.0545757473182855,0.3237222944315706,-0.009642090558719733,-0.008595672358211353,0.00026053109682789254
416163000000,265,416163000000,BR_wheel_link,-1.5374963658015999,2.9352804993641834,8.390903488823964,0.06401338379718266,0.16224872452006034,-0.04109747603260484
416164000000,266,416164000000,BR_wheel_link,0.18924417320501885,-0.532106716438248,2.7326601173021015,-0.1324953292948881,-0.012931201980687167,0.004716412356522079
416165000000,267,416165000000,BR_wheel_link,0.017374283034798123,-0.04238596982629761,-0.021612171265853287,-0.0031965414289542946,-0.001987148477721664,0.0004832948103428654
416166000000,268,416166000000,BR_wheel_link,0.13344385844275397,3.6737834444476674,18.526842398429643,-0.12787516704568214,-0.01571106460967643,0.003799294951311758
416167000000,269,416167000000,BR_wheel_link,-0.013162976731895726,0.030593588175327657,-0.11164470672024385,-0.00272148864210167,-7.75885458236458e-06,5.495121215179876e-06
416168000000,270,416168000000,BR_wheel_link,0.004328744971273727,-0.03628723460343139,0.29400963124276036,-0.00991717753064459,-0.008528530996986347,0.00035414573832858213
416169000000,271,416169000000,BR_wheel_link,-1.5800442626967492,3.2700700206402677,9.701359563548955,0.07067987001583066,0.1647367040638052,-0.04397991614526171
416170000000,272,416170000000,BR_wheel_link,-0.03135125017341076,-0.024503818547854404,0.3283955947047703,-0.010261112015046918,-0.0006413896914252036,-0.000185320867966826
416171000000,273,416171000000,BR_wheel_link,-0.6294777314155755,4.116468510599324,7.018460696138776,0.21961334497450663,0.07016883734489934,-0.01596093450427682
416172000000,274,416172000000,BR_wheel_link,0.05945489719366413,-0.08253878194165432,0.4973767884603645,-0.027178387278149634,-0.0005289338350327258,0.002206262860551595
416173000000,275,416173000000,BR_wheel_link,-0.40963913027554133,6.861758066727777,10.356074576231801,0.40106051487798705,0.042051524189933714,-0.010382188579729067
416174000000,276,416174000000,BR_wheel_link,0.10756256741897739,0.028539658248759273,0.6164558161183125,-0.01486416659325374,-0.004448832742015017,0.0035727777543325388
416175000000,277,416175000000,BR_wheel_link,-1.1150123363382778,6.220965590012545,10.957690593370536,0.32572217998468855,0.1119042554683881,-0.028415646555656433
416176000000,278,416176000000,BR_wheel_link,0.18511194236678302,0.09934468911372553,0.7431214371231933,-0.013491513884491073,-0.007188187206537478,0.004287819137844018
416177000000,279,416177000000,BR_wheel_link,-1.3080955446415832,8.551638415384406,12.55249395440905,0.5100844761681239,0.12125053740396138,-0.03525966167076195
416178000000,280,416178000000,BR_wheel_link,0.18459023844925032,0.12578226194263709,0.8003322197408178,-0.012403672779979665,-0.006785952987257146,0.004687644813145691
416179000000,281,416179000000,BR_wheel_link,-1.4470975732408267,7.926264328895108,13.428758084359043,0.4060178385778089,0.13961583592632612,-0.0393208551090269
416180000000,282,416180000000,BR_wheel_link,0.17083707300143225,0.1060081597555047,0.8418455340507747,-0.011532947920104805,-0.006555334941751053,0.0028914872547178066
416181000000,283,416181000000,BR_wheel_link,-1.0056225192656991,8.114646655223629,12.480888773027841,0.45641314123474797,0.09277363532738994,-0.027306925922357856
416182000000,284,416182000000,BR_wheel_link,0.1743908140300875,0.13684497606063284,0.8145359306097141,-0.009394072866443982,-0.007445507724981811,0.0041267755788388346
416183000000,285,416183000000,BR_wheel_link,-1.2874395112132144,8.066534448157027,12.975377916798475,0.43860402933424963,0.12170001556023041,-0.03505249662223782
416184000000,286,416184000000,BR_wheel_link,0.16758335495845403,0.14075968160843674,0.8378795599914795,-0.009621106751621063,-0.006635804847888929,0.00348688386505187
416185000000,287,416185000000,BR_wheel_link,-1.2438246800075632,8.14846558219493,12.579482017484434,0.46003617868077323,0.11537629966186555,-0.03402553128257817
416186000000,288,416186000000,BR_wheel_link,0.15066485072982977,0.14317945995998366,0.8181467919553516,-0.009250504660619557,-0.006019346167988559,0.0035322146711172088
416187000000,289,416187000000,BR_wheel_link,-1.478948132031952,8.178905715493126,12.931773088031196,0.4522523149100647,0.14138649395068603,-0.04073654560697064
416188000000,290,416188000000,BR_wheel_link,0.13918140414640445,0.14737509797766996,0.8365107000727836,-0.009282988262092895,-0.004740522670728096,0.003024176887631931
416189000000,291,416189000000,BR_wheel_link,-1.642586635271413,8.267525734572498,12.954989209546394,0.4612021065254399,0.1576317364984784,-0.04547610560905063
416190000000,292,416190000000,BR_wheel_link,0.12442332264961042,0.1508341630536848,0.8428516637891889,-0.009039996525599678,-0.0034416088479937578,0.002546293592118821
416191000000,293,416191000000,BR_wheel_link,-1.8748335877636664,8.34363181340899,13.126656380069395,0.4642160610571903,0.1817147669557563,-0.05207551149792216
416192000000,294,416192000000,BR_wheel_link,0.10789900774333372,0.1549454056083799,0.8467784252361226,-0.009049847180037329,-0.0018668773643005072,0.002057032318693325
416193000000,295,416193000000,BR_wheel_link,-2.0994198801999655,8.413373946425729,13.28387563240331,0.46668003482823883,0.2054651084242003,-0.058520869426504356
416194000000,296,416194000000,BR_wheel_link,0.10254118714982258,0.16798472449700283,0.8602796175575163,-0.0087853854059639,-0.0010053090673574393,0.0019599130293697867
416195000000,297,416195000000,BR_wheel_link,-2.2887663518349033,8.539357814192424,13.524691863363238,0.4730315762068873,0.22468127719888792,-0.06391123720112159
416196000000,298,416196000000,BR_wheel_link,0.1001304959752061,0.1814181447201793,0.8787172945399759,-0.008487658976499966,-0.0004147014966457887,0.0019253855956186145
416197000000,299,416197000000,BR_wheel_link,-2.440127169980458,8.677966298415008,13.59524086540766,0.4859609345843827,0.23824214340872685,-0.06845340894667645
416198000000,300,416198000000,BR_wheel_link,0.10258998160971958,0.20026954177289047,0.9103387757420123,-0.008309576969027638,0.0003876247129250259,0.00224787737399344
416199000000,301,416199000000,BR_wheel_link,-2.5167970752829114,8.913634475292032,13.80389889841825,0.504331040988034,0.24377582800363043,-0.07073429405051798
416200000000,302,416200000000,BR_wheel_link,0.11495190913370901,0.21743939755414185,0.9344816705873977,-0.007335238075255956,0.0008290122217295636,0.0029529356977132416
416201000000,303,416201000000,BR_wheel_link,-2.642279178152632,9.14704406279549,14.21880448909302,0.5183864748877499,0.25807850930800774,-0.07425015760038127
416202000000,304,416202000000,BR_wheel_link,0.09057120398384558,0.1972032723316146,1.0279213732180272,-0.007319025517348929,-0.0001832104984336065,0.0021784266720169
416203000000,305,416203000000,BR_wheel_link,-2.016356606698544,8.844839656278362,20.816389693825123,0.29898813662530227,0.18811700114486457,-0.05548526976399358
416204000000,306,416204000000,BR_wheel_link,-0.12089749495492086,0.13368548642582243,-0.013764474512513144,0.01354605298674777,0.012867639496801536,-0.0035177984846350395
416205000000,307,416205000000,BR_wheel_link,0.1568980745967633,-0.1648599400671436,0.8799567977313312,-0.023499669934190046,-0.019780829251040646,0.003403564147741899
416206000000,308,416206000000,BR_wheel_link,-2.048644343108404,10.020214274043619,26.194417844818176,0.25839945880470344,0.19523376255408137,-0.055740449164118765
416207000000,309,416207000000,BR_wheel_link,-0.11656342085675096,0.10478829912548317,-0.025752294485048136,0.010893321667712563,0.012806318537504666,-0.003405851925060756
416208000000,310,416208000000,BR_wheel_link,0.1601470231575915,-0.15654668057989232,0.8790928168992123,-0.023351876731983197,-0.018163049181208504,0.003672401225721893
416209000000,311,416209000000,BR_wheel_link,-2.0186230656851913,9.874774819095006,26.57964144314497,0.23170637140840336,0.1959020672307796,-0.055013146242087904
416210000000,312,416210000000,BR_wheel_link,-0.11634238879245282,0.08951915481721821,-0.017357737053796563,0.008739227719848069,0.012911125756522146,-0.003391333877103775
416211000000,313,416211000000,BR_wheel_link,0.16452492781759537,-0.15372446218928076,0.8947896117289635,-0.023554393505319245,-0.017730748780040814,0.003752085735166659
416212000000,314,416212000000,BR_wheel_link,-2.831698233322591,8.280770912149542,25.447787439453705,0.10456967830499425,0.28171029927845503,-0.08122563096640528
416213000000,315,416213000000,BR_wheel_link,-0.1179267808200975,0.08929423549989343,0.04826795269961156,0.005322199049118662,0.012799529920819418,-0.0033896039649280035
416214000000,316,416214000000,BR_wheel_link,0.1206785797227041,-0.09466276120815409,0.3659325339002495,-0.028434440576382503,-0.006188506517561395,0.0039129901851724025
416215000000,317,416215000000,BR_wheel_link,-2.403163544261921,8.128155829701893,22.450161895766723,0.17056946212314233,0.24643309004687047,-0.06921387945119968
416216000000,318,416216000000,BR_wheel_link,-0.12130727814237773,0.07929264692897435,0.020905955977359073,0.0066132925699379334,0.013370625549218725,-0.0035388286937989913
416217000000,319,416217000000,BR_wheel_link,0.17715572786252434,-0.1578384527532414,0.9479948707793315,-0.024154835273422926,-0.018237657069596475,0.003554917007457544
416218000000,320,416218000000,BR_wheel_link,-1.971729007981168,9.95870953167811,27.691810281299574,0.20760016754456326,0.19493930083377636,-0.05408437973183362
416219000000,321,416219000000,BR_wheel_link,-0.11611157170528012,0.06494214014466687,-0.010118900949709558,0.005536027562270529,0.013097215176179067,-0.0033951493906268053
416220000000,322,416220000000,BR_wheel_link,0.1695623033415909,-0.14612194406233964,0.907228324675861,-0.023539252131399516,-0.016996827792866882,0.003887514287732823
416221000000,323,416221000000,BR_wheel_link,-1.9313884401389094,9.786194948536949,27.377318856164724,0.19939651976136777,0.19208305687942476,-0.05284983310961133
416222000000,324,416222000000,BR_wheel_link,-0.11332729174842737,0.05742588108071534,-0.006867741680173189,0.004727226545252833,0.012776324056576895,-0.003294843101065383
416223000000,325,416223000000,BR_wheel_link,0.16766011857695595,-0.14186085171109836,0.9080463363848919,-0.023662698181945954,-0.01698132887371838,0.003974247919713504
416225000000,326,416224000000,BR_wheel_link,-2.945084775902494,7.828945655069141,25.09223593177498,0.06693700382936604,0.2973486924833561,-0.08504663385689414
416225000000,327,416225000000,BR_wheel_link,-0.15036236147245807,-0.015162378306889754,0.030964617013925708,-0.0034346730678342825,0.016891603872866305,-0.004557574087177017
416226000000,328,416226000000,BR_wheel_link,0.15167428854906004,-0.07223662218213664,0.6833213399307887,-0.01990319317183363,-0.014317973665873975,0.0041681935007642276
416227000000,329,416227000000,BR_wheel_link,-2.138459509813215,8.928880975049754,26.038294138721703,0.14840516314808921,0.21933449151414375,-0.05966061931213961
416228000000,330,416228000000,BR_wheel_link,-0.12164359142654396,0.03198145453426518,0.004102067796414341,0.001974752179384364,0.013730744367597626,-0.003516605546564075
416229000000,331,416229000000,BR_wheel_link,0.16445900018399412,-0.1348378131249044,0.9145350289309433,-0.023805005207776953,-0.017336222167557834,0.003915421958703903
416230000000,332,416230000000,BR_wheel_link,-1.9261942753943226,9.609573230281558,27.196430786639436,0.18487801259199552,0.1928574353447569,-0.052583997447342525
416231000000,333,416231000000,BR_wheel_link,-0.11414577129540099,0.03982718341832415,-0.00601691564747765,0.0027525904940491376,0.01291058666584436,-0.003302383835680762
416232000000,334,416232000000,BR_wheel_link,0.16169041581223578,-0.129591797010434,0.9007176541522952,-0.023591921859356556,-0.01687156545655457,0.004063069190610762
416233000000,335,416233000000,BR_wheel_link,-1.883809875976632,9.71846374307902,27.153458728281983,0.19912122694255865,0.1878802676024216,-0.051451367630016745
416234000000,336,416234000000,BR_wheel_link,-0.11153441497742578,0.042643280502229416,-0.006344981324628947,0.003094914520714304,0.012594037189385258,-0.0032254831786607155
416235000000,337,416235000000,BR_wheel_link,0.16088179750964884,-0.12698052907282675,0.9004020469152816,-0.023570750406199072,-0.016842251977684828,0.004094631460133486
416236000000,338,416236000000,BR_wheel_link,-2.9910397978979084,7.743138845317576,24.726137420651895,0.06948714760275614,0.30265351462859824,-0.08659922960339195
416237000000,339,416237000000,BR_wheel_link,-0.12801481587203178,0.03750882176039198,0.047662932602337754,0.0002682642697225601,0.014245247501386366,-0.0036673405030792404
416238000000,340,416238000000,BR_wheel_link,0.18463159741995064,0.00464756317769377,0.39112869617264945,-0.025963128282448414,-0.008017187190136868,0.006381198918109016
416239000000,341,416239000000,BR_wheel_link,-2.1836114665538395,8.566954182142359,23.088189730947885,0.2019930385514218,0.22332313786886585,-0.06302611313460953
416240000000,342,416240000000,BR_wheel_link,-0.10874981941919716,0.0693847373305235,0.021410750759910037,0.005168466408047312,0.011975015840340336,-0.003148209577113507
416241000000,343,416241000000,BR_wheel_link,0.168401115072658,-0.13009373479782022,0.9330166795603823,-0.023819231321643028,-0.017525107404121585,0.003896990526077645
416242000000,344,416242000000,BR_wheel_link,-1.849552843263007,10.342917607757375,27.779373389550535,0.2504351134819637,0.1825681903358946,-0.051124945972742565
416243000000,345,416243000000,BR_wheel_link,-0.11006851169258713,0.052207087849673706,-0.010027708979885629,0.004110732682571266,0.012429944428277627,-0.0032114152403338817
416244000000,346,416244000000,BR_wheel_link,0.1610046489136291,-0.12116178450356406,0.8930636082695748,-0.023112593489390806,-0.016514276486870292,0.004083978017165776
416245000000,347,416245000000,BR_wheel_link,-1.8704535439111303,10.175184324808296,27.444486364400333,0.24297283462331093,0.18627014608768647,-0.05166214664196081
416246000000,348,416246000000,BR_wheel_link,-0.11098242204649184,0.04525711497722168,-0.006627854270379712,0.003437700092518128,0.012529422615179534,-0.003217882882537309
416247000000,349,416247000000,BR_wheel_link,0.15944119391317757,-0.11782364447134219,0.8944665845946868,-0.02322971313158816,-0.016555973584791054,0.004162810893734005
416248000000,350,416248000000,BR_wheel_link,-1.8699507492910876,10.161875637729391,27.41113521539239,0.24240186896526572,0.18648918974957163,-0.051575430271634304
416249000000,351,416249000000,BR_wheel_link,-0.11138183144054906,0.040515912045267444,-0.007563078948820953,0.0030025234552871405,0.012588375190116878,-0.0032255478351145596
416250000000,352,416250000000,BR_wheel_link,0.15738541027498487,-0.11429054663642182,0.8912102000742155,-0.02316619960294672,-0.01655389434529092,0.004175137427528964
416251000000,353,416251000000,BR_wheel_link,-1.8689799638388482,10.174409529935314,27.37240068068786,0.24511710073883042,0.1865554141541788,-0.05155044725787859
416252000000,354,416252000000,BR_wheel_link,-0.11155002954396857,0.03760357425584533,-0.008089692202689878,0.0027345041149611244,0.012610808928294342,-0.003227224692704953
416253000000,355,416253000000,BR_wheel_link,0.15562085077152218,-0.11098423541763545,0.8881282273083104,-0.023087342266354026,-0.016541703796925492,0.004180777145331053
