%time,field.header.seq,field.header.stamp,field.header.frame_id,field.orientation.x,field.orientation.y,field.orientation.z,field.orientation.w,field.orientation_covariance0,field.orientation_covariance1,field.orientation_covariance2,field.orientation_covariance3,field.orientation_covariance4,field.orientation_covariance5,field.orientation_covariance6,field.orientation_covariance7,field.orientation_covariance8,field.angular_velocity.x,field.angular_velocity.y,field.angular_velocity.z,field.angular_velocity_covariance0,field.angular_velocity_covariance1,field.angular_velocity_covariance2,field.angular_velocity_covariance3,field.angular_velocity_covariance4,field.angular_velocity_covariance5,field.angular_velocity_covariance6,field.angular_velocity_covariance7,field.angular_velocity_covariance8,field.linear_acceleration.x,field.linear_acceleration.y,field.linear_acceleration.z,field.linear_acceleration_covariance0,field.linear_acceleration_covariance1,field.linear_acceleration_covariance2,field.linear_acceleration_covariance3,field.linear_acceleration_covariance4,field.linear_acceleration_covariance5,field.linear_acceleration_covariance6,field.linear_acceleration_covariance7,field.linear_acceleration_covariance8
450113000000,0,450103000000,base_link,-0.001153383411378127,0.0011496556687942499,0.004620223389983356,0.9999880006951967,0.0,0.0,0.0,0.0,0.0,0.0,0.0,0.0,0.0,0.0624707261977732,0.034810593180066476,-0.005071127324602635,0.0,0.0,0.0,0.0,0.0,0.0,0.0,0.0,0.0,2.8765316904149034,-3.6665195229450873,9.857316396409635,0.0,0.0,0.0,0.0,0.0,0.0,0.0,0.0,0.0
450113000000,1,450104000000,base_link,-0.001153383411378127,0.0011496556687942499,0.004620223389983356,0.9999880006951967,0.0,0.0,0.0,0.0,0.0,0.0,0.0,0.0,0.0,0.0624707261977732,0.034810593180066476,-0.005071127324602635,0.0,0.0,0.0,0.0,0.0,0.0,0.0,0.0,0.0,2.8765316904149034,-3.6665195229450873,9.857316396409635,0.0,0.0,0.0,0.0,0.0,0.0,0.0,0.0,0.0
450113000000,2,450106000000,base_link,-0.0011530826020934755,0.0011490526387716057,0.004617881029450097,0.9999880125548226,0.0,0.0,0.0,0.0,0.0,0.0,0.0,0.0,0.0,0.06247040188585119,0.03480902436608891,-0.005068163860470851,0.0,0.0,0.0,0.0,0.0,0.0,0.0,0.0,0.0,-0.023012350902726204,-0.022716803029570902,9.800545259467526,0.0,0.0,0.0,0.0,0.0,0.0,0.0,0.0,0.0
450113000000,3,450107000000,base_link,-0.001152778055777786,0.0011484463028170106,0.004615539187705481,0.9999880244142179,0.0,0.0,0.0,0.0,0.0,0.0,0.0,0.0,0.0,0.06247007094769998,0.03480745604794375,-0.005065216185470258,0.0,0.0,0.0,0.0,0.0,0.0,0.0,0.0,0.0,2.8762280871197095,-3.665410889824644,9.857272811459419,0.0,0.0,0.0,0.0,0.0,0.0,0.0,0.0,0.0
450113000000,4,450108000000,base_link,-0.001152778055777786,0.0011484463028170106,0.004615539187705481,0.9999880244142179,0.0,0.0,0.0,0.0,0.0,0.0,0.0,0.0,0.0,0.06247007094769998,0.03480745604794375,-0.005065216185470258,0.0,0.0,0.0,0.0,0.0,0.0,0.0,0.0,0.0,2.8762280871197095,-3.665410889824644,9.857272811459419,0.0,0.0,0.0,0.0,0.0,0.0,0.0,0.0,0.0
450113000000,5,450109000000,base_link,-0.0012063103827670229,0.0011160477767473236,0.004614624785245932,0.9999880021733821,0.0,0.0,0.0,0.0,0.0,0.0,0.0,0.0,0.0,-0.06235922698162694,-0.0354286359917122,-0.004644006744942026,0.0,0.0,0.0,0.0,0.0,0.0,0.0,0.0,0.0,-2.9214232955802206,3.6184058897138804,9.744415226407575,0.0,0.0,0.0,0.0,0.0,0.0,0.0,0.0,0.0
450113000000,6,450110000000,base_link,-0.001152469775114082,0.0011478366654502062,0.004613197853990261,0.9999880362734181,0.0,0.0,0.0,0.0,0.0,0.0,0.0,0.0,0.0,0.062469746089651904,0.034805886556949675,-0.005062279086255015,0.0,0.0,0.0,0.0,0.0,0.0,0.0,0.0,0.0,2.8760788021034545,-3.6648564885511132,9.857250731553902,0.0,0.0,0.0,0.0,0.0,0.0,0.0,0.0,0.0
450113000000,7,450111000000,base_link,-0.001205984246064498,0.0011154440784709103,0.00461228370983891,0.9999880140409114,0.0,0.0,0.0,0.0,0.0,0.0,0.0,0.0,0.0,-0.06235240442083101,-0.035433433127529515,-0.004641207719573997,0.0,0.0,0.0,0.0,0.0,0.0,0.0,0.0,0.0,-2.921245503183721,3.6178659437535745,9.744436948301665,0.0,0.0,0.0,0.0,0.0,0.0,0.0,0.0,0.0
450113000000,8,450112000000,base_link,-0.0012056543851291493,0.0011148370913785228,0.004609943128283516,0.9999880259083693,0.0,0.0,0.0,0.0,0.0,0.0,0.0,0.0,0.0,-0.06234557729972303,-0.03543821181810497,-0.004638420316058694,0.0,0.0,0.0,0.0,0.0,0.0,0.0,0.0,0.0,-2.9210690550008493,3.61732633999274,9.74445829139503,0.0,0.0,0.0,0.0,0.0,0.0,0.0,0.0,0.0
450114000000,9,450113000000,base_link,-0.0012056543851291493,0.0011148370913785228,0.004609943128283516,0.9999880259083693,0.0,0.0,0.0,0.0,0.0,0.0,0.0,0.0,0.0,-0.06234557729972303,-0.03543821181810497,-0.004638420316058694,0.0,0.0,0.0,0.0,0.0,0.0,0.0,0.0,0.0,-2.9210690550008493,3.61732633999274,9.74445829139503,0.0,0.0,0.0,0.0,0.0,0.0,0.0,0.0,0.0
450115000000,10,450114000000,base_link,-0.0012053208093685632,0.001114226828600538,0.004607603025584182,0.9999880377757926,0.0,0.0,0.0,0.0,0.0,0.0,0.0,0.0,0.0,-0.06233874325253559,-0.035442977003563865,-0.0046356606256950416,0.0,0.0,0.0,0.0,0.0,0.0,0.0,0.0,0.0,-2.920893328048051,3.6167871746733797,9.744479078093276,0.0,0.0,0.0,0.0,0.0,0.0,0.0,0.0,0.0
450116000000,11,450115000000,base_link,-0.0012053208093685632,0.001114226828600538,0.004607603025584182,0.9999880377757926,0.0,0.0,0.0,0.0,0.0,0.0,0.0,0.0,0.0,-0.06233874325253559,-0.035442977003563865,-0.0046356606256950416,0.0,0.0,0.0,0.0,0.0,0.0,0.0,0.0,0.0,-2.920893328048051,3.6167871746733797,9.744479078093276,0.0,0.0,0.0,0.0,0.0,0.0,0.0,0.0,0.0
450117000000,12,450116000000,base_link,-0.001151522609789404,0.0011459880356033143,0.004606176808090303,0.9999880718500166,0.0,0.0,0.0,0.0,0.0,0.0,0.0,0.0,0.0,0.06246874711651431,0.0348011383093732,-0.005053589613914029,0.0,0.0,0.0,0.0,0.0,0.0,0.0,0.0,0.0,2.875652604627629,-3.663204036440793,9.857196306165761,0.0,0.0,0.0,0.0,0.0,0.0,0.0,0.0,0.0
450118000000,13,450117000000,base_link,-0.0012049835194465036,0.001113613295838878,0.0046052633708299874,0.9999880496433097,0.0,0.0,0.0,0.0,0.0,0.0,0.0,0.0,0.0,-0.06233188304435651,-0.03544774182792923,-0.004632949921937689,0.0,0.0,0.0,0.0,0.0,0.0,0.0,0.0,0.0,-2.920718032846645,3.616248515241918,9.744498846453514,0.0,0.0,0.0,0.0,0.0,0.0,0.0,0.0,0.0
450119000000,14,450118000000,base_link,-0.0011511994779994541,0.0011453652817353939,0.0046038373729264115,0.9999880837087896,0.0,0.0,0.0,0.0,0.0,0.0,0.0,0.0,0.0,0.062468390386595796,0.03479952568422783,-0.005050791714038486,0.0,0.0,0.0,0.0,0.0,0.0,0.0,0.0,0.0,2.875508656901318,-3.6626563961215584,9.85717937742916,0.0,0.0,0.0,0.0,0.0,0.0,0.0,0.0,0.0
450120000000,15,450119000000,base_link,-0.001204642513814737,0.0011129964925711867,0.00460292412866277,0.9999880615110799,0.0,0.0,0.0,0.0,0.0,0.0,0.0,0.0,0.0,-0.06232499779517144,-0.03545250991072966,-0.004630284227046967,0.0,0.0,0.0,0.0,0.0,0.0,0.0,0.0,0.0,-2.920543059430451,3.615710527695045,9.744518016900166,0.0,0.0,0.0,0.0,0.0,0.0,0.0,0.0,0.0
450121000000,16,450120000000,base_link,-0.0011508726696279922,0.0011447392952866,0.004601498376320755,0.9999880955675107,0.0,0.0,0.0,0.0,0.0,0.0,0.0,0.0,0.0,0.06246802809669777,0.034797905072541095,-0.00504803292317855,0.0,0.0,0.0,0.0,0.0,0.0,0.0,0.0,0.0,2.875363156903125,-3.66210918781677,9.857161505347062,0.0,0.0,0.0,0.0,0.0,0.0,0.0,0.0,0.0
450122000000,17,450121000000,base_link,-0.0012042978312696564,0.0011123764506362646,0.004600585309789,0.9999880733789644,0.0,0.0,0.0,0.0,0.0,0.0,0.0,0.0,0.0,-0.06231809494261323,-0.03545728130960058,-0.004627650868966961,0.0,0.0,0.0,0.0,0.0,0.0,0.0,0.0,0.0,-2.920368304784851,3.6151733050797747,9.744537057739283,0.0,0.0,0.0,0.0,0.0,0.0,0.0,0.0,0.0
450123000000,18,450122000000,base_link,-0.001150542219096421,0.0011441101185568562,0.0045991598392908905,0.9999881074259892,0.0,0.0,0.0,0.0,0.0,0.0,0.0,0.0,0.0,0.062467676467244285,0.034796201403422065,-0.005045388904781999,0.0,0.0,0.0,0.0,0.0,0.0,0.0,0.0,0.0,2.8752189468645737,-3.6615685408338265,9.857151297125466,0.0,0.0,0.0,0.0,0.0,0.0,0.0,0.0,0.0
450124000000,19,450123000000,base_link,-0.001203949473315295,0.0011117531871210743,0.004598246900084439,0.9999880852470006,0.0,0.0,0.0,0.0,0.0,0.0,0.0,0.0,0.0,-0.062311097425056895,-0.03546209900013659,-0.004625121030739884,0.0,0.0,0.0,0.0,0.0,0.0,0.0,0.0,0.0,-2.920193584864419,3.61463635955495,9.74455320798254,0.0,0.0,0.0,0.0,0.0,0.0,0.0,0.0,0.0
450125000000,20,450124000000,base_link,-0.0011502080921991717,0.001143477696446265,0.004596821679205547,0.9999881192847003,0.0,0.0,0.0,0.0,0.0,0.0,0.0,0.0,0.0,0.0624673523354506,0.03479441606277202,-0.005042860032724299,0.0,0.0,0.0,0.0,0.0,0.0,0.0,0.0,0.0,2.87507325073815,-3.661030812445473,9.857141885788302,0.0,0.0,0.0,0.0,0.0,0.0,0.0,0.0,0.0
450126000000,21,450125000000,base_link,-0.0012035973829431432,0.0011111266564678693,0.004595908817162467,0.9999880971156795,0.0,0.0,0.0,0.0,0.0,0.0,0.0,0.0,0.0,-0.06230400322913169,-0.0354669718233374,-0.004622691828199636,0.0,0.0,0.0,0.0,0.0,0.0,0.0,0.0,0.0,-2.9200191200185226,3.6141000996750074,9.744567551808284,0.0,0.0,0.0,0.0,0.0,0.0,0.0,0.0,0.0
450127000000,22,450126000000,base_link,-0.0011498702332567248,0.0011428419752052177,0.004594483813574781,0.9999881311441416,0.0,0.0,0.0,0.0,0.0,0.0,0.0,0.0,0.0,0.062467047858246874,0.03479266888861404,-0.00504030238710489,0.0,0.0,0.0,0.0,0.0,0.0,0.0,0.0,0.0,2.874922271981447,-3.6604854318482567,9.857119611364917,0.0,0.0,0.0,0.0,0.0,0.0,0.0,0.0,0.0
450128000000,23,450127000000,base_link,-0.0012032415667545071,0.0011104968351291625,0.004593571044914901,0.9999881089850852,0.0,0.0,0.0,0.0,0.0,0.0,0.0,0.0,0.0,-0.06229693835492372,-0.03547184086254622,-0.004620229860753164,0.0,0.0,0.0,0.0,0.0,0.0,0.0,0.0,0.0,-2.919845245975884,3.613565372666532,9.744585334591429,0.0,0.0,0.0,0.0,0.0,0.0,0.0,0.0,0.0
450129000000,24,450128000000,base_link,-0.001149528627370479,0.001142202971267355,0.004592146267701256,0.9999881430041876,0.0,0.0,0.0,0.0,0.0,0.0,0.0,0.0,0.0,0.06246676605943287,0.034790949391200775,-0.005037698257513102,0.0,0.0,0.0,0.0,0.0,0.0,0.0,0.0,0.0,2.874771720334496,-3.659935984395797,9.857093859225962,0.0,0.0,0.0,0.0,0.0,0.0,0.0,0.0,0.0
450130000000,25,450129000000,base_link,-0.0012028820402473822,0.001109863722273109,0.004591233613468618,0.999988120855054,0.0,0.0,0.0,0.0,0.0,0.0,0.0,0.0,0.0,-0.06228990866339107,-0.03547670616632686,-0.004617727998519557,0.0,0.0,0.0,0.0,0.0,0.0,0.0,0.0,0.0,-2.919672034778852,3.6130313473138203,9.744605909181267,0.0,0.0,0.0,0.0,0.0,0.0,0.0,0.0,0.0
450131000000,26,450130000000,base_link,-0.0012025188155065077,0.0011092273198546763,0.0045888965477408625,0.9999881327254466,0.0,0.0,0.0,0.0,0.0,0.0,0.0,0.0,0.0,-0.06228291827043828,-0.035481578202301564,-0.004615204755622077,0.0,0.0,0.0,0.0,0.0,0.0,0.0,0.0,0.0,-2.919500935557184,3.6124979560900052,9.74463246542972,0.0,0.0,0.0,0.0,0.0,0.0,0.0,0.0,0.0
450132000000,27,450131000000,base_link,-0.0012025188155065077,0.0011092273198546763,0.0045888965477408625,0.9999881327254466,0.0,0.0,0.0,0.0,0.0,0.0,0.0,0.0,0.0,-0.06228291827043828,-0.035481578202301564,-0.004615204755622077,0.0,0.0,0.0,0.0,0.0,0.0,0.0,0.0,0.0,-2.919500935557184,3.6124979560900052,9.74463246542972,0.0,0.0,0.0,0.0,0.0,0.0,0.0,0.0,0.0
450133000000,28,450132000000,base_link,-0.0012021519101885105,0.0011085876353810918,0.004586559851568351,0.9999881445962087,0.0,0.0,0.0,0.0,0.0,0.0,0.0,0.0,0.0,-0.062275972240787375,-0.03548646563807289,-0.0046127012658669945,0.0,0.0,0.0,0.0,0.0,0.0,0.0,0.0,0.0,-2.919332426767206,3.611964175540785,9.744664938337756,0.0,0.0,0.0,0.0,0.0,0.0,0.0,0.0,0.0
450134000000,29,450133000000,base_link,-0.0012021519101885105,0.0011085876353810918,0.004586559851568351,0.9999881445962087,0.0,0.0,0.0,0.0,0.0,0.0,0.0,0.0,0.0,-0.062275972240787375,-0.03548646563807289,-0.0046127012658669945,0.0,0.0,0.0,0.0,0.0,0.0,0.0,0.0,0.0,-2.919332426767206,3.611964175540785,9.744664938337756,0.0,0.0,0.0,0.0,0.0,0.0,0.0,0.0,0.0
450135000000,30,450134000000,base_link,-0.0011484814082096603,0.001140266384509101,0.00458513582853059,0.9999881785863577,0.0,0.0,0.0,0.0,0.0,0.0,0.0,0.0,0.0,0.06246684374482854,0.0347859691355653,-0.005029819774939283,0.0,0.0,0.0,0.0,0.0,0.0,0.0,0.0,0.0,2.8743544780093533,-3.658229565525742,9.856984209125024,0.0,0.0,0.0,0.0,0.0,0.0,0.0,0.0,0.0
450136000000,31,450135000000,base_link,-0.001201781324346443,0.0011079446838049038,0.004584223482095566,0.9999881564675116,0.0,0.0,0.0,0.0,0.0,0.0,0.0,0.0,0.0,-0.062269021237792634,-0.03549137875126938,-0.0046102987712816085,0.0,0.0,0.0,0.0,0.0,0.0,0.0,0.0,0.0,-2.9191646730168634,3.6114286933865367,9.744696811486065,0.0,0.0,0.0,0.0,0.0,0.0,0.0,0.0,0.0
450137000000,32,450136000000,base_link,-0.0011481249306897136,0.001139614377251454,0.004582799698896212,0.9999881904478346,0.0,0.0,0.0,0.0,0.0,0.0,0.0,0.0,0.0,0.062466961849999746,0.03478424249846163,-0.005027365922846233,0.0,0.0,0.0,0.0,0.0,0.0,0.0,0.0,0.0,2.8742228191333963,-3.657661309000735,9.856952844201535,0.0,0.0,0.0,0.0,0.0,0.0,0.0,0.0,0.0
450138000000,33,450137000000,base_link,-0.0012014070568882687,0.0011072984791681284,0.004581887356948397,0.9999881683397109,0.0,0.0,0.0,0.0,0.0,0.0,0.0,0.0,0.0,-0.06226205181676582,-0.035496313381601544,-0.0046080219279291176,0.0,0.0,0.0,0.0,0.0,0.0,0.0,0.0,0.0,-2.918996896027744,3.6108920883371995,9.744727288613348,0.0,0.0,0.0,0.0,0.0,0.0,0.0,0.0,0.0
450139000000,34,450138000000,base_link,-0.0011477647802439859,0.0011389591417643927,0.004580463783224843,0.9999882023102138,0.0,0.0,0.0,0.0,0.0,0.0,0.0,0.0,0.0,0.06246706037640732,0.03478248190854088,-0.005025048511661666,0.0,0.0,0.0,0.0,0.0,0.0,0.0,0.0,0.0,2.8740912308805378,-3.6570988443359744,9.856927221591516,0.0,0.0,0.0,0.0,0.0,0.0,0.0,0.0,0.0
450140000000,35,450139000000,base_link,-0.0012010291074111145,0.001106649037460037,0.004579551384111518,0.999988180213202,0.0,0.0,0.0,0.0,0.0,0.0,0.0,0.0,0.0,-0.06225505059336242,-0.035501258716867164,-0.004605870170770513,0.0,0.0,0.0,0.0,0.0,0.0,0.0,0.0,0.0,-2.9188285475528826,3.610354932376575,9.744755372556785,0.0,0.0,0.0,0.0,0.0,0.0,0.0,0.0,0.0
450141000000,36,450140000000,base_link,-0.0011474009707554654,0.00113830068265959,0.004578127987034724,0.9999882141738984,0.0,0.0,0.0,0.0,0.0,0.0,0.0,0.0,0.0,0.062467131900184734,0.03478069863926345,-0.005022861306024353,0.0,0.0,0.0,0.0,0.0,0.0,0.0,0.0,0.0,2.8739583408453124,-3.6565423293334676,9.856906671582108,0.0,0.0,0.0,0.0,0.0,0.0,0.0,0.0,0.0
450142000000,37,450141000000,base_link,-0.0012006474762127708,0.0011059963731702852,0.004577215476363611,0.9999881920883583,0.0,0.0,0.0,0.0,0.0,0.0,0.0,0.0,0.0,-0.06224800928057161,-0.03550620642206187,-0.004603828443241917,0.0,0.0,0.0,0.0,0.0,0.0,0.0,0.0,0.0,-2.918659381450792,3.6098177380380387,9.744780666358,0.0,0.0,0.0,0.0,0.0,0.0,0.0,0.0,0.0
450143000000,38,450142000000,base_link,-0.0011470335110487853,0.0011376390036314046,0.004575792225719603,0.9999882260392514,0.0,0.0,0.0,0.0,0.0,0.0,0.0,0.0,0.0,0.06246706243855402,0.0347788677567266,-0.005020839527549605,0.0,0.0,0.0,0.0,0.0,0.0,0.0,0.0,0.0,2.873797546806344,-3.655990215875205,9.856883048108644,0.0,0.0,0.0,0.0,0.0,0.0,0.0,0.0,0.0
450144000000,39,450143000000,base_link,-0.0012002621626450716,0.0011053404664370422,0.004574879545931735,0.999988203965594,0.0,0.0,0.0,0.0,0.0,0.0,0.0,0.0,0.0,-0.062240924907700286,-0.03551120812920431,-0.004601906067045961,0.0,0.0,0.0,0.0,0.0,0.0,0.0,0.0,0.0,-2.9184852134582178,3.609279956955626,9.74480200086255,0.0,0.0,0.0,0.0,0.0,0.0,0.0,0.0,0.0
450145000000,40,450144000000,base_link,-0.0011466623537850918,0.0011369740771438647,0.004573456403937638,0.9999882379067845,0.0,0.0,0.0,0.0,0.0,0.0,0.0,0.0,0.0,0.06246701232138311,0.03477702144596376,-0.005018892570224797,0.0,0.0,0.0,0.0,0.0,0.0,0.0,0.0,0.0,2.8736359413249426,-3.6554395733475866,9.856860259361216,0.0,0.0,0.0,0.0,0.0,0.0,0.0,0.0,0.0
450146000000,41,450145000000,base_link,-0.0011462874585965574,0.001136305866730782,0.004571120488147405,0.9999882497767273,0.0,0.0,0.0,0.0,0.0,0.0,0.0,0.0,0.0,0.06246698266949989,0.03477521864200736,-0.005016889095274911,0.0,0.0,0.0,0.0,0.0,0.0,0.0,0.0,0.0,2.873472322865139,-3.654883997733459,9.856830466720345,0.0,0.0,0.0,0.0,0.0,0.0,0.0,0.0,0.0
450147000000,42,450146000000,base_link,-0.0011462874585965574,0.001136305866730782,0.004571120488147405,0.9999882497767273,0.0,0.0,0.0,0.0,0.0,0.0,0.0,0.0,0.0,0.06246698266949989,0.03477521864200736,-0.005016889095274911,0.0,0.0,0.0,0.0,0.0,0.0,0.0,0.0,0.0,2.873472322865139,-3.654883997733459,9.856830466720345,0.0,0.0,0.0,0.0,0.0,0.0,0.0,0.0,0.0
450148000000,43,450147000000,base_link,-0.0011994804083734858,0.0011040188119856031,0.00457020746164649,0.999988227727192,0.0,0.0,0.0,0.0,0.0,0.0,0.0,0.0,0.0,-0.06222672326012996,-0.03552130753452864,-0.00459808714804736,0.0,0.0,0.0,0.0,0.0,0.0,0.0,0.0,0.0,-2.9181311727512185,3.6082051511231397,9.744845919317418,0.0,0.0,0.0,0.0,0.0,0.0,0.0,0.0,0.0
450149000000,44,450148000000,base_link,-0.0011459088142904755,0.001135634377804859,0.004568784530228168,0.9999882616488384,0.0,0.0,0.0,0.0,0.0,0.0,0.0,0.0,0.0,0.06246696667451958,0.034773458252155894,-0.005014793440178962,0.0,0.0,0.0,0.0,0.0,0.0,0.0,0.0,0.0,2.873309978742417,-3.654325812700609,9.856799272050173,0.0,0.0,0.0,0.0,0.0,0.0,0.0,0.0,0.0
450150000000,45,450149000000,base_link,-0.001199083979606687,0.001103353051406487,0.004567871390453749,0.9999882396111538,0.0,0.0,0.0,0.0,0.0,0.0,0.0,0.0,0.0,-0.062219695874106196,-0.035526348497756446,-0.004596061541383054,0.0,0.0,0.0,0.0,0.0,0.0,0.0,0.0,0.0,-2.917952925691729,3.6076675611028586,9.744870662522153,0.0,0.0,0.0,0.0,0.0,0.0,0.0,0.0,0.0
450151000000,46,450150000000,base_link,-0.0011455264284799267,0.0011349596193114316,0.004566448600274101,0.9999882735227675,0.0,0.0,0.0,0.0,0.0,0.0,0.0,0.0,0.0,0.062466961668637966,0.034771724334048584,-0.005012617750589472,0.0,0.0,0.0,0.0,0.0,0.0,0.0,0.0,0.0,2.873150535721379,-3.6537673809158284,9.856770037637343,0.0,0.0,0.0,0.0,0.0,0.0,0.0,0.0,0.0
450152000000,47,450151000000,base_link,-0.0011451403127774509,0.001134281594906279,0.004564112754674943,0.9999882853982291,0.0,0.0,0.0,0.0,0.0,0.0,0.0,0.0,0.0,0.062466972253167566,0.034770025462378125,-0.0050103768321870055,0.0,0.0,0.0,0.0,0.0,0.0,0.0,0.0,0.0,2.872998723940505,-3.6532154388433598,9.85675126168166,0.0,0.0,0.0,0.0,0.0,0.0,0.0,0.0,0.0
450153000000,48,450152000000,base_link,-0.0011451403127774509,0.001134281594906279,0.004564112754674943,0.9999882853982291,0.0,0.0,0.0,0.0,0.0,0.0,0.0,0.0,0.0,0.062466972253167566,0.034770025462378125,-0.0050103768321870055,0.0,0.0,0.0,0.0,0.0,0.0,0.0,0.0,0.0,2.872998723940505,-3.6532154388433598,9.85675126168166,0.0,0.0,0.0,0.0,0.0,0.0,0.0,0.0,0.0
450154000000,49,450153000000,base_link,-0.001198280024686925,0.0011020117180451517,0.004563199493840629,0.9999882633838936,0.0,0.0,0.0,0.0,0.0,0.0,0.0,0.0,0.0,-0.06220572550685888,-0.035536361091432433,-0.004591806894012192,0.0,0.0,0.0,0.0,0.0,0.0,0.0,0.0,0.0,-2.9175959376285636,3.6065913153424236,9.744919496399536,0.0,0.0,0.0,0.0,0.0,0.0,0.0,0.0,0.0
450155000000,50,450154000000,base_link,-0.0011447504968534934,0.0011336003081529188,0.0045617770412632345,0.9999882972749568,0.0,0.0,0.0,0.0,0.0,0.0,0.0,0.0,0.0,0.06246696112482018,0.03476837809549963,-0.005008038721888165,0.0,0.0,0.0,0.0,0.0,0.0,0.0,0.0,0.0,2.8728467087071463,-3.6526577054237164,9.856724286284797,0.0,0.0,0.0,0.0,0.0,0.0,0.0,0.0,0.0
450156000000,51,450155000000,base_link,-0.001197872520042091,0.001101336188520542,0.004560863777592896,0.9999882752720793,0.0,0.0,0.0,0.0,0.0,0.0,0.0,0.0,0.0,-0.062198804171194895,-0.03554130058182308,-0.004589564101765949,0.0,0.0,0.0,0.0,0.0,0.0,0.0,0.0,0.0,-2.9174178559139388,3.6060531825425652,9.744943863042652,0.0,0.0,0.0,0.0,0.0,0.0,0.0,0.0,0.0
450157000000,52,450156000000,base_link,-0.0011443570003819776,0.0011329157989600064,0.004559441524067382,0.9999883091525804,0.0,0.0,0.0,0.0,0.0,0.0,0.0,0.0,0.0,0.06246694041961217,0.03476672478376629,-0.005005682045614395,0.0,0.0,0.0,0.0,0.0,0.0,0.0,0.0,0.0,2.872697743497783,-3.652102059731316,9.85670151286069,0.0,0.0,0.0,0.0,0.0,0.0,0.0,0.0,0.0
450158000000,53,450157000000,base_link,-0.0011974613489323454,0.0011006574349066542,0.004558528263329134,0.9999882871612054,0.0,0.0,0.0,0.0,0.0,0.0,0.0,0.0,0.0,-0.06219188494242893,-0.03554623007203156,-0.004587311083375746,0.0,0.0,0.0,0.0,0.0,0.0,0.0,0.0,0.0,-2.9172399093112373,3.6055146379680254,9.744967108533817,0.0,0.0,0.0,0.0,0.0,0.0,0.0,0.0,0.0
450159000000,54,450158000000,base_link,-0.0011439598306619587,0.0011322280691106227,0.0045571062115263876,0.999988321031042,0.0,0.0,0.0,0.0,0.0,0.0,0.0,0.0,0.0,0.06246691880343126,0.03476505638470796,-0.005003338181019012,0.0,0.0,0.0,0.0,0.0,0.0,0.0,0.0,0.0,2.8725496557543777,-3.651547678649539,9.856680083057132,0.0,0.0,0.0,0.0,0.0,0.0,0.0,0.0,0.0
450160000000,55,450159000000,base_link,-0.0011970465046534753,0.001099975457118587,0.0045561929465555385,0.9999882990512905,0.0,0.0,0.0,0.0,0.0,0.0,0.0,0.0,0.0,-0.06218495279631975,-0.03555116119021062,-0.00458507330068137,0.0,0.0,0.0,0.0,0.0,0.0,0.0,0.0,0.0,-2.9170620951048534,3.604975981438601,9.7449894234894,0.0,0.0,0.0,0.0,0.0,0.0,0.0,0.0,0.0
450161000000,56,450160000000,base_link,-0.0011435589837640267,0.0011315371140380487,0.004554771091433057,0.999988332910397,0.0,0.0,0.0,0.0,0.0,0.0,0.0,0.0,0.0,0.062466895633289714,0.03476339087612938,-0.005000996787269648,0.0,0.0,0.0,0.0,0.0,0.0,0.0,0.0,0.0,2.8724011292024634,-3.650992710750523,9.85665708928487,0.0,0.0,0.0,0.0,0.0,0.0,0.0,0.0,0.0
450162000000,57,450161000000,base_link,-0.0011966279890167594,0.001099290254797134,0.004553857821034742,0.9999883109423517,0.0,0.0,0.0,0.0,0.0,0.0,0.0,0.0,0.0,-0.06217802374970327,-0.035556088195515874,-0.004582838699539316,0.0,0.0,0.0,0.0,0.0,0.0,0.0,0.0,0.0,-2.916884436653959,3.604437549881044,9.745011828101266,0.0,0.0,0.0,0.0,0.0,0.0,0.0,0.0,0.0
450163000000,58,450162000000,base_link,-0.0011962058046363255,0.001098601847257358,0.0045515228920845665,0.9999883228343304,0.0,0.0,0.0,0.0,0.0,0.0,0.0,0.0,0.0,-0.06217109480791763,-0.035560979359471584,-0.004580590818461415,0.0,0.0,0.0,0.0,0.0,0.0,0.0,0.0,0.0,-2.9167091600985913,3.6038994843907637,9.745033227771112,0.0,0.0,0.0,0.0,0.0,0.0,0.0,0.0,0.0
450164000000,59,450163000000,base_link,-0.0011962058046363255,0.001098601847257358,0.0045515228920845665,0.9999883228343304,0.0,0.0,0.0,0.0,0.0,0.0,0.0,0.0,0.0,-0.06217109480791763,-0.035560979359471584,-0.004580590818461415,0.0,0.0,0.0,0.0,0.0,0.0,0.0,0.0,0.0,-2.9167091600985913,3.6038994843907637,9.745033227771112,0.0,0.0,0.0,0.0,0.0,0.0,0.0,0.0,0.0
450165000000,60,450164000000,base_link,-0.001142746283089025,0.0011301455641463513,0.004550101433952767,0.9999883566716551,0.0,0.0,0.0,0.0,0.0,0.0,0.0,0.0,0.0,0.06246680318205662,0.03476003847877522,-0.004996257837254683,0.0,0.0,0.0,0.0,0.0,0.0,0.0,0.0,0.0,2.872138156206868,-3.64989116880798,9.856621752801125,0.0,0.0,0.0,0.0,0.0,0.0,0.0,0.0,0.0
450166000000,61,450165000000,base_link,-0.0011423344781957682,0.001129445014976091,0.004547766900019492,0.9999883685534153,0.0,0.0,0.0,0.0,0.0,0.0,0.0,0.0,0.0,0.06246672854648826,0.034758335262321714,-0.00499396036359443,0.0,0.0,0.0,0.0,0.0,0.0,0.0,0.0,0.0,2.872006492973005,-3.6493437871284313,9.856606773180912,0.0,0.0,0.0,0.0,0.0,0.0,0.0,0.0,0.0
450167000000,62,450166000000,base_link,-0.0011423344781957682,0.001129445014976091,0.004547766900019492,0.9999883685534153,0.0,0.0,0.0,0.0,0.0,0.0,0.0,0.0,0.0,0.06246672854648826,0.034758335262321714,-0.00499396036359443,0.0,0.0,0.0,0.0,0.0,0.0,0.0,0.0,0.0,2.872006492973005,-3.6493437871284313,9.856606773180912,0.0,0.0,0.0,0.0,0.0,0.0,0.0,0.0,0.0
450168000000,63,450167000000,base_link,-0.0011953504880985143,0.00109721549547205,0.004546853587189221,0.9999883466210113,0.0,0.0,0.0,0.0,0.0,0.0,0.0,0.0,0.0,-0.062157201085327705,-0.03557069599828698,-0.004576185681825418,0.0,0.0,0.0,0.0,0.0,0.0,0.0,0.0,0.0,-2.9163630154766316,3.6028258122177874,9.745074538817484,0.0,0.0,0.0,0.0,0.0,0.0,0.0,0.0,0.0
450169000000,64,450169000000,base_link,-0.0011949173532842076,0.0010965175600933322,0.004544519123971609,0.9999883585160835,0.0,0.0,0.0,0.0,0.0,0.0,0.0,0.0,0.0,-0.06215019102547441,-0.03557555932314549,-0.0045740864052723745,0.0,0.0,0.0,0.0,0.0,0.0,0.0,0.0,0.0,-2.9161911983191193,3.602290376906789,9.74509361964738,0.0,0.0,0.0,0.0,0.0,0.0,0.0,0.0,0.0
450172000000,65,450171000000,base_link,-0.001194480565066651,0.001095816445923884,0.0045421847246284236,0.9999883704125883,0.0,0.0,0.0,0.0,0.0,0.0,0.0,0.0,0.0,-0.06214315110814658,-0.03558042847836022,-0.004572038009155756,0.0,0.0,0.0,0.0,0.0,0.0,0.0,0.0,0.0,-0.021822705508391025,-0.023769331490980643,9.80055835687132,0.0,0.0,0.0,0.0,0.0,0.0,0.0,0.0,0.0
450174000000,66,450173000000,base_link,-0.001194040123310869,0.0010951121480131142,0.004539850359189626,0.9999883823106562,0.0,0.0,0.0,0.0,0.0,0.0,0.0,0.0,0.0,0.06246636390272895,0.03475133278571811,-0.004985399486048207,0.0,0.0,0.0,0.0,0.0,0.0,0.0,0.0,0.0,-0.02180644471026241,-0.02376337593108976,9.800559159475968,0.0,0.0,0.0,0.0,0.0,0.0,0.0,0.0,0.0
450175000000,67,450174000000,base_link,-0.0011406509104379522,0.0011266110383521429,0.004538429733313481,0.9999884160922189,0.0,0.0,0.0,0.0,0.0,0.0,0.0,0.0,0.0,0.06246636390272895,0.03475133278571811,-0.004985399486048207,0.0,0.0,0.0,0.0,0.0,0.0,0.0,0.0,0.0,2.8714588119442346,-3.6471635494268266,9.85653843594095,0.0,0.0,0.0,0.0,0.0,0.0,0.0,0.0,0.0
450176000000,68,450175000000,base_link,-0.0011402208893315487,0.0011258945845652787,0.004536095520961779,0.9999884279806106,0.0,0.0,0.0,0.0,0.0,0.0,0.0,0.0,0.0,0.06246627308211703,0.03474956857541002,-0.004983327993488177,0.0,0.0,0.0,0.0,0.0,0.0,0.0,0.0,0.0,2.871317565160016,-3.6466180465805964,9.856517800157244,0.0,0.0,0.0,0.0,0.0,0.0,0.0,0.0,0.0
450177000000,69,450176000000,base_link,-0.0011931483053162534,0.0010936939693567686,0.004535181669745124,0.9999884061117135,0.0,0.0,0.0,0.0,0.0,0.0,0.0,0.0,0.0,-0.06212193100877701,-0.0355950684033503,-0.004566042382516424,0.0,0.0,0.0,0.0,0.0,0.0,0.0,0.0,0.0,-2.915508615954778,3.6001588324980385,9.745171755411135,0.0,0.0,0.0,0.0,0.0,0.0,0.0,0.0,0.0
450178000000,70,450177000000,base_link,-0.0011931483053162534,0.0010936939693567686,0.004535181669745124,0.9999884061117135,0.0,0.0,0.0,0.0,0.0,0.0,0.0,0.0,0.0,-0.06212193100877701,-0.0355950684033503,-0.004566042382516424,0.0,0.0,0.0,0.0,0.0,0.0,0.0,0.0,0.0,-2.915508615954778,3.6001588324980385,9.745171755411135,0.0,0.0,0.0,0.0,0.0,0.0,0.0,0.0,0.0
450179000000,71,450178000000,base_link,-0.0011926969136016555,0.0010929800642435425,0.004532847311483449,0.9999884180148799,0.0,0.0,0.0,0.0,0.0,0.0,0.0,0.0,0.0,-0.06211478417185714,-0.03559998602914222,-0.004564116670001565,0.0,0.0,0.0,0.0,0.0,0.0,0.0,0.0,0.0,-2.9153389295595065,3.5996276286487507,9.74519052848514,0.0,0.0,0.0,0.0,0.0,0.0,0.0,0.0,0.0
450180000000,72,450179000000,base_link,-0.0011393498074647752,0.0011244521078518123,0.004531427084788112,0.9999884517623436,0.0,0.0,0.0,0.0,0.0,0.0,0.0,0.0,0.0,0.06246612720935084,0.03474595278611386,-0.00497929443427451,0.0,0.0,0.0,0.0,0.0,0.0,0.0,0.0,0.0,2.8710331405104648,-3.6455306709812443,9.856478743856728,0.0,0.0,0.0,0.0,0.0,0.0,0.0,0.0,0.0
450181000000,73,450180000000,base_link,-0.0011922418479327454,0.001092262943576604,0.004530512933139534,0.999988429919867,0.0,0.0,0.0,0.0,0.0,0.0,0.0,0.0,0.0,-0.06210766432631055,-0.03560489460922172,-0.004562161128424218,0.0,0.0,0.0,0.0,0.0,0.0,0.0,0.0,0.0,-2.9151699196994776,3.599097637386825,9.745211868336705,0.0,0.0,0.0,0.0,0.0,0.0,0.0,0.0,0.0
450182000000,74,450181000000,base_link,-0.0011389087276697791,0.0011237260545573652,0.0045290928369557315,0.9999884636558257,0.0,0.0,0.0,0.0,0.0,0.0,0.0,0.0,0.0,0.06246605493395553,0.03474420218024014,-0.00497720491319727,0.0,0.0,0.0,0.0,0.0,0.0,0.0,0.0,0.0,2.870888653460586,-3.6449812254561924,9.856451386651882,0.0,0.0,0.0,0.0,0.0,0.0,0.0,0.0,0.0
450183000000,75,450182000000,base_link,-0.0011917831292501955,0.0010915426183887218,0.004528178570450929,0.999988441826464,0.0,0.0,0.0,0.0,0.0,0.0,0.0,0.0,0.0,-0.06210059056037885,-0.03560978202278743,-0.00456015229399281,0.0,0.0,0.0,0.0,0.0,0.0,0.0,0.0,0.0,-2.9150013395240983,3.598568350349572,9.745235420206527,0.0,0.0,0.0,0.0,0.0,0.0,0.0,0.0,0.0
450184000000,76,450183000000,base_link,-0.0011917831292501955,0.0010915426183887218,0.004528178570450929,0.999988441826464,0.0,0.0,0.0,0.0,0.0,0.0,0.0,0.0,0.0,-0.06210059056037885,-0.03560978202278743,-0.00456015229399281,0.0,0.0,0.0,0.0,0.0,0.0,0.0,0.0,0.0,-2.9150013395240983,3.598568350349572,9.745235420206527,0.0,0.0,0.0,0.0,0.0,0.0,0.0,0.0,0.0
450186000000,77,450185000000,base_link,-0.0011913207607554463,0.0010908190982145175,0.004525844249937069,0.9999884537345246,0.0,0.0,0.0,0.0,0.0,0.0,0.0,0.0,0.0,-0.06209352892235791,-0.03561466317409757,-0.004558124450707588,0.0,0.0,0.0,0.0,0.0,0.0,0.0,0.0,0.0,-0.021725050362443404,-0.023716213530681384,9.800557964220937,0.0,0.0,0.0,0.0,0.0,0.0,0.0,0.0,0.0
450187000000,78,450186000000,base_link,-0.0011380155492423144,0.0011222643870505082,0.004524424451714816,0.9999884874470487,0.0,0.0,0.0,0.0,0.0,0.0,0.0,0.0,0.0,0.06246590601140227,0.03474071968839171,-0.0049729606923432845,0.0,0.0,0.0,0.0,0.0,0.0,0.0,0.0,0.0,2.8706038010059407,-3.6438836642355543,9.856401360479028,0.0,0.0,0.0,0.0,0.0,0.0,0.0,0.0,0.0
450188000000,79,450187000000,base_link,-0.0011908547427869896,0.00109009238686036,0.004523509984874831,0.9999884656439726,0.0,0.0,0.0,0.0,0.0,0.0,0.0,0.0,0.0,-0.062086478238121134,-0.03561953906525652,-0.004556082171202286,0.0,0.0,0.0,0.0,0.0,0.0,0.0,0.0,0.0,-2.9146646475807807,3.597510029069176,9.745283181725405,0.0,0.0,0.0,0.0,0.0,0.0,0.0,0.0,0.0
450189000000,80,450188000000,base_link,-0.0011375634631408025,0.0011215287738664719,0.004522090341849746,0.999988499344626,0.0,0.0,0.0,0.0,0.0,0.0,0.0,0.0,0.0,0.062465829734494265,0.03473899340976398,-0.00497080866500719,0.0,0.0,0.0,0.0,0.0,0.0,0.0,0.0,0.0,2.870462113439754,-3.643334031370354,9.856375465672373,0.0,0.0,0.0,0.0,0.0,0.0,0.0,0.0,0.0
450190000000,81,450189000000,base_link,-0.001190385080145067,0.0010893624883695282,0.004521175788276424,0.9999884775547273,0.0,0.0,0.0,0.0,0.0,0.0,0.0,0.0,0.0,-0.0620794436494099,-0.03562440710761797,-0.0045540223417146804,0.0,0.0,0.0,0.0,0.0,0.0,0.0,0.0,0.0,-2.9144963983710284,3.5969809871210017,9.745307519791039,0.0,0.0,0.0,0.0,0.0,0.0,0.0,0.0,0.0
450191000000,82,450190000000,base_link,-0.0011371077187125728,0.0011207899808667878,0.004519756305053234,0.9999885112434032,0.0,0.0,0.0,0.0,0.0,0.0,0.0,0.0,0.0,0.06246575133011496,0.034737275245928775,-0.004968641324154783,0.0,0.0,0.0,0.0,0.0,0.0,0.0,0.0,0.0,2.870321178964207,-3.6427843344696087,9.856349768681106,0.0,0.0,0.0,0.0,0.0,0.0,0.0,0.0,0.0
450192000000,83,450191000000,base_link,-0.001189911776715543,0.0010886294073667749,0.00451884167167937,0.9999884894667156,0.0,0.0,0.0,0.0,0.0,0.0,0.0,0.0,0.0,-0.062072421295673544,-0.035629268729323205,-0.0045519501136910894,0.0,0.0,0.0,0.0,0.0,0.0,0.0,0.0,0.0,-2.914328133652966,3.5964519495743206,9.745331957674212,0.0,0.0,0.0,0.0,0.0,0.0,0.0,0.0,0.0
450193000000,84,450192000000,base_link,-0.0011894348335314351,0.0010878931463907985,0.004516507641590573,0.999988501379892,0.0,0.0,0.0,0.0,0.0,0.0,0.0,0.0,0.0,-0.06206540853294303,-0.03563412493834388,-0.004549869424127934,0.0,0.0,0.0,0.0,0.0,0.0,0.0,0.0,0.0,-2.9141598357824376,3.5959229053127495,9.745356390777399,0.0,0.0,0.0,0.0,0.0,0.0,0.0,0.0,0.0
450194000000,85,450193000000,base_link,-0.0011894348335314351,0.0010878931463907985,0.004516507641590573,0.999988501379892,0.0,0.0,0.0,0.0,0.0,0.0,0.0,0.0,0.0,-0.06206540853294303,-0.03563412493834388,-0.004549869424127934,0.0,0.0,0.0,0.0,0.0,0.0,0.0,0.0,0.0,-2.9141598357824376,3.5959229053127495,9.745356390777399,0.0,0.0,0.0,0.0,0.0,0.0,0.0,0.0,0.0
450195000000,86,450194000000,base_link,-0.0011889542549012207,0.0010871537098878679,0.004514173705687298,0.9999885132942008,0.0,0.0,0.0,0.0,0.0,0.0,0.0,0.0,0.0,-0.06205840832029813,-0.03563897393401466,-0.004547778310288752,0.0,0.0,0.0,0.0,0.0,0.0,0.0,0.0,0.0,-2.913991507653648,3.595393896575498,9.745380948389178,0.0,0.0,0.0,0.0,0.0,0.0,0.0,0.0,0.0
450196000000,87,450195000000,base_link,-0.0011889542549012207,0.0010871537098878679,0.004514173705687298,0.9999885132942008,0.0,0.0,0.0,0.0,0.0,0.0,0.0,0.0,0.0,-0.06205840832029813,-0.03563897393401466,-0.004547778310288752,0.0,0.0,0.0,0.0,0.0,0.0,0.0,0.0,0.0,-2.913991507653648,3.595393896575498,9.745380948389178,0.0,0.0,0.0,0.0,0.0,0.0,0.0,0.0,0.0
450197000000,88,450196000000,base_link,-0.0011884700443333845,0.0010864111028049607,0.0045118398705725205,0.9999885252095905,0.0,0.0,0.0,0.0,0.0,0.0,0.0,0.0,0.0,-0.06205141680807314,-0.035643817165227416,-0.004545681236572162,0.0,0.0,0.0,0.0,0.0,0.0,0.0,0.0,0.0,-2.9138231414046416,3.5948649029589506,9.745405460820951,0.0,0.0,0.0,0.0,0.0,0.0,0.0,0.0,0.0
450198000000,89,450197000000,base_link,-0.0011884700443333845,0.0010864111028049607,0.0045118398705725205,0.9999885252095905,0.0,0.0,0.0,0.0,0.0,0.0,0.0,0.0,0.0,-0.06205141680807314,-0.035643817165227416,-0.004545681236572162,0.0,0.0,0.0,0.0,0.0,0.0,0.0,0.0,0.0,-2.9138231414046416,3.5948649029589506,9.745405460820951,0.0,0.0,0.0,0.0,0.0,0.0,0.0,0.0,0.0
450199000000,90,450198000000,base_link,-0.001135248229465382,0.001117803077111991,0.004510421045755199,0.9999885588494142,0.0,0.0,0.0,0.0,0.0,0.0,0.0,0.0,0.0,0.062465411932920996,0.034730471581521795,-0.004959872071534113,0.0,0.0,0.0,0.0,0.0,0.0,0.0,0.0,0.0,2.8697629370739226,-3.6405856280845414,9.856247820940256,0.0,0.0,0.0,0.0,0.0,0.0,0.0,0.0,0.0
450200000000,91,450199000000,base_link,-0.0011879822040859688,0.001085665329208673,0.0045095061399742994,0.999988537126026,0.0,0.0,0.0,0.0,0.0,0.0,0.0,0.0,0.0,-0.06204443138201909,-0.03564865577817509,-0.004543581456621775,0.0,0.0,0.0,0.0,0.0,0.0,0.0,0.0,0.0,-2.9136547467152916,3.5943359463612747,9.745429875944344,0.0,0.0,0.0,0.0,0.0,0.0,0.0,0.0,0.0
450201000000,92,450200000000,base_link,-0.001134774249583243,0.0011170484400526508,0.0045080874836994625,0.9999885707533982,0.0,0.0,0.0,0.0,0.0,0.0,0.0,0.0,0.0,0.062465328883414856,0.03472878376747617,-0.004957665106807107,0.0,0.0,0.0,0.0,0.0,0.0,0.0,0.0,0.0,2.8696247126395344,-3.6400349292150933,9.856221257596866,0.0,0.0,0.0,0.0,0.0,0.0,0.0,0.0,0.0
450202000000,93,450201000000,base_link,-0.0011874907386346847,0.0010849163914120495,0.004507172516032976,0.9999885490434779,0.0,0.0,0.0,0.0,0.0,0.0,0.0,0.0,0.0,-0.062037455749582325,-0.03565349263428837,-0.004541480075986104,0.0,0.0,0.0,0.0,0.0,0.0,0.0,0.0,0.0,-2.9134865045906904,3.593807052209452,9.745454728341176,0.0,0.0,0.0,0.0,0.0,0.0,0.0,0.0,0.0
450203000000,94,450202000000,base_link,-0.0011342966321113619,0.0011162906477788811,0.004505754029720969,0.999988582658304,0.0,0.0,0.0,0.0,0.0,0.0,0.0,0.0,0.0,0.062465248153172885,0.03472709639812519,-0.004955461224462612,0.0,0.0,0.0,0.0,0.0,0.0,0.0,0.0,0.0,2.869487114705629,-3.6394845977868155,9.856195371404059,0.0,0.0,0.0,0.0,0.0,0.0,0.0,0.0,0.0
450204000000,95,450203000000,base_link,-0.001133815380123674,0.001115529702415782,0.0045034206815006425,0.9999885945641243,0.0,0.0,0.0,0.0,0.0,0.0,0.0,0.0,0.0,0.06246516492432116,0.03472541129256949,-0.004953261632779309,0.0,0.0,0.0,0.0,0.0,0.0,0.0,0.0,0.0,2.8693497384341526,-3.6389348199965927,9.856170004413977,0.0,0.0,0.0,0.0,0.0,0.0,0.0,0.0,0.0
450205000000,96,450204000000,base_link,-0.001133815380123674,0.001115529702415782,0.0045034206815006425,0.9999885945641243,0.0,0.0,0.0,0.0,0.0,0.0,0.0,0.0,0.0,0.06246516492432116,0.03472541129256949,-0.004953261632779309,0.0,0.0,0.0,0.0,0.0,0.0,0.0,0.0,0.0,2.8693497384341526,-3.6389348199965927,9.856170004413977,0.0,0.0,0.0,0.0,0.0,0.0,0.0,0.0,0.0
450206000000,97,450205000000,base_link,-0.0011864969375394527,0.0010834090376600272,0.0045025055852862235,0.999988572881375,0.0,0.0,0.0,0.0,0.0,0.0,0.0,0.0,0.0,-0.06202351628385464,-0.03566316067932367,-0.004537291410832344,0.0,0.0,0.0,0.0,0.0,0.0,0.0,0.0,0.0,-2.9131501447888803,3.5927493759878266,9.745504388986435,0.0,0.0,0.0,0.0,0.0,0.0,0.0,0.0,0.0
450207000000,98,450206000000,base_link,-0.0011333304570719123,0.0011147656232017337,0.004501087432076954,0.9999886064708985,0.0,0.0,0.0,0.0,0.0,0.0,0.0,0.0,0.0,0.06246507776063263,0.034723730623294854,-0.004951064348054814,0.0,0.0,0.0,0.0,0.0,0.0,0.0,0.0,0.0,2.869212471594751,-3.638385295614047,9.85614469074696,0.0,0.0,0.0,0.0,0.0,0.0,0.0,0.0,0.0
450208000000,99,450207000000,base_link,-0.0011859946162347875,0.001082650613852407,0.004500172273529988,0.9999885848018102,0.0,0.0,0.0,0.0,0.0,0.0,0.0,0.0,0.0,-0.062016553254159154,-0.035667988300014504,-0.004535201336381322,0.0,0.0,0.0,0.0,0.0,0.0,0.0,0.0,0.0,-2.9129819261126815,3.592220650590122,9.745529114333948,0.0,0.0,0.0,0.0,0.0,0.0,0.0,0.0,0.0
450209000000,100,450208000000,base_link,-0.0011328418961100279,0.0011139983944669256,0.004498754284381839,0.9999886183785816,0.0,0.0,0.0,0.0,0.0,0.0,0.0,0.0,0.0,0.06246499167090924,0.03472202968124428,-0.004948896612462987,0.0,0.0,0.0,0.0,0.0,0.0,0.0,0.0,0.0,2.869076422245009,-3.6378381657414827,9.85612242811777,0.0,0.0,0.0,0.0,0.0,0.0,0.0,0.0,0.0
450210000000,101,450209000000,base_link,-0.001132349695825388,0.0011132280015211,0.004496421215394469,0.9999886302872832,0.0,0.0,0.0,0.0,0.0,0.0,0.0,0.0,0.0,0.06246490039160364,0.03472035777865579,-0.004946706179579486,0.0,0.0,0.0,0.0,0.0,0.0,0.0,0.0,0.0,2.868938968123281,-3.637288122305955,9.856095242435757,0.0,0.0,0.0,0.0,0.0,0.0,0.0,0.0,0.0
450211000000,102,450210000000,base_link,-0.001132349695825388,0.0011132280015211,0.004496421215394469,0.9999886302872832,0.0,0.0,0.0,0.0,0.0,0.0,0.0,0.0,0.0,0.06246490039160364,0.03472035777865579,-0.004946706179579486,0.0,0.0,0.0,0.0,0.0,0.0,0.0,0.0,0.0,2.868938968123281,-3.637288122305955,9.856095242435757,0.0,0.0,0.0,0.0,0.0,0.0,0.0,0.0,0.0
450212000000,103,450211000000,base_link,-0.001184979087014017,0.001081124285233191,0.0044955059167510894,0.9999886086458164,0.0,0.0,0.0,0.0,0.0,0.0,0.0,0.0,0.0,-0.06200261199591671,-0.03567764037120986,-0.004531057179442836,0.0,0.0,0.0,0.0,0.0,0.0,0.0,0.0,0.0,-2.912646135548898,3.5911640004831664,9.745578207560563,0.0,0.0,0.0,0.0,0.0,0.0,0.0,0.0,0.0
450213000000,104,450212000000,base_link,-0.001131853864774378,0.0011124544633711536,0.004494088241321935,0.9999886421968878,0.0,0.0,0.0,0.0,0.0,0.0,0.0,0.0,0.0,0.06246480104210768,0.03471869823769039,-0.004944505093677385,0.0,0.0,0.0,0.0,0.0,0.0,0.0,0.0,0.0,2.8688024651339026,-3.6367384594091643,9.856069065079431,0.0,0.0,0.0,0.0,0.0,0.0,0.0,0.0,0.0
450214000000,105,450213000000,base_link,-0.0011844658997386265,0.0010803563970391307,0.004493172883182151,0.9999886205692693,0.0,0.0,0.0,0.0,0.0,0.0,0.0,0.0,0.0,-0.061995669467626344,-0.03568244603239407,-0.004528965890438195,0.0,0.0,0.0,0.0,0.0,0.0,0.0,0.0,0.0,-2.912478518787761,3.5906361577408505,9.745603615499641,0.0,0.0,0.0,0.0,0.0,0.0,0.0,0.0,0.0
450215000000,106,450214000000,base_link,-0.0011313544132249467,0.0011116777886266858,0.004491755369573738,0.9999886541073282,0.0,0.0,0.0,0.0,0.0,0.0,0.0,0.0,0.0,0.06246469630664987,0.034717036741561104,-0.004942310910948757,0.0,0.0,0.0,0.0,0.0,0.0,0.0,0.0,0.0,2.8686667838615705,-3.636189847988588,9.856044287715864,0.0,0.0,0.0,0.0,0.0,0.0,0.0,0.0,0.0
450216000000,107,450215000000,base_link,-0.001130851344687657,0.00111089797809608,0.004489422594677996,0.999988666018613,0.0,0.0,0.0,0.0,0.0,0.0,0.0,0.0,0.0,0.06246458731435379,0.034715377819793135,-0.004940121333471534,0.0,0.0,0.0,0.0,0.0,0.0,0.0,0.0,0.0,2.8685311299688063,-3.635641332030026,9.856019158314103,0.0,0.0,0.0,0.0,0.0,0.0,0.0,0.0,0.0
450217000000,108,450216000000,base_link,-0.0011834286931162899,0.0010788112050683302,0.004488507109924363,0.9999886444189435,0.0,0.0,0.0,0.0,0.0,0.0,0.0,0.0,0.0,-0.061981783848894224,-0.03569204487518362,-0.004524802428909106,0.0,0.0,0.0,0.0,0.0,0.0,0.0,0.0,0.0,-2.9121435239118987,3.5895808618951928,9.745653582216706,0.0,0.0,0.0,0.0,0.0,0.0,0.0,0.0,0.0
450218000000,109,450217000000,base_link,-0.0011834286931162899,0.0010788112050683302,0.004488507109924363,0.9999886444189435,0.0,0.0,0.0,0.0,0.0,0.0,0.0,0.0,0.0,-0.061981783848894224,-0.03569204487518362,-0.004524802428909106,0.0,0.0,0.0,0.0,0.0,0.0,0.0,0.0,0.0,-2.9121435239118987,3.5895808618951928,9.745653582216706,0.0,0.0,0.0,0.0,0.0,0.0,0.0,0.0,0.0
450219000000,110,450218000000,base_link,-0.0011303446611170052,0.0011101150356786498,0.00448708991353797,0.9999886779307366,0.0,0.0,0.0,0.0,0.0,0.0,0.0,0.0,0.0,0.062464474359818625,0.03471372252973213,-0.004937934794209702,0.0,0.0,0.0,0.0,0.0,0.0,0.0,0.0,0.0,2.8683955399786103,-3.635092946586705,9.85599386488058,0.0,0.0,0.0,0.0,0.0,0.0,0.0,0.0,0.0
450220000000,111,450219000000,base_link,-0.001182904679064967,0.0010780339078941433,0.004486174363926784,0.9999886563451559,0.0,0.0,0.0,0.0,0.0,0.0,0.0,0.0,0.0,-0.06197484538329705,-0.035696837382956446,-0.004522725507485526,0.0,0.0,0.0,0.0,0.0,0.0,0.0,0.0,0.0,-2.9119761265471915,3.5890535195146214,9.745678502744532,0.0,0.0,0.0,0.0,0.0,0.0,0.0,0.0,0.0
450221000000,112,450220000000,base_link,-0.00112983436475111,0.0011093289654322063,0.0044847573247456625,0.9999886898436867,0.0,0.0,0.0,0.0,0.0,0.0,0.0,0.0,0.0,0.062464358282475804,0.03471206918132294,-0.00493575223762187,0.0,0.0,0.0,0.0,0.0,0.0,0.0,0.0,0.0,2.8682600686152737,-3.6345448451365594,9.855968671379518,0.0,0.0,0.0,0.0,0.0,0.0,0.0,0.0,0.0
450222000000,113,450221000000,base_link,-0.0011293204571402077,0.0011085397699559436,0.004482424826430346,0.9999887017574544,0.0,0.0,0.0,0.0,0.0,0.0,0.0,0.0,0.0,0.06246423983226068,0.034710418239155806,-0.004933572357682102,0.0,0.0,0.0,0.0,0.0,0.0,0.0,0.0,0.0,2.8681246157581346,-3.6339968893777113,9.855943367817426,0.0,0.0,0.0,0.0,0.0,0.0,0.0,0.0,0.0
450223000000,114,450222000000,base_link,-0.0011293204571402077,0.0011085397699559436,0.004482424826430346,0.9999887017574544,0.0,0.0,0.0,0.0,0.0,0.0,0.0,0.0,0.0,0.06246423983226068,0.034710418239155806,-0.004933572357682102,0.0,0.0,0.0,0.0,0.0,0.0,0.0,0.0,0.0,2.8681246157581346,-3.6339968893777113,9.855943367817426,0.0,0.0,0.0,0.0,0.0,0.0,0.0,0.0,0.0
450224000000,115,450223000000,base_link,-0.0011818458411069156,0.0010764699257138292,0.004481509144493596,0.9999886802002785,0.0,0.0,0.0,0.0,0.0,0.0,0.0,0.0,0.0,-0.061960973770188735,-0.035706412741052636,-0.004518580708215752,0.0,0.0,0.0,0.0,0.0,0.0,0.0,0.0,0.0,-2.911641485104563,3.5879994253546883,9.745728208098347,0.0,0.0,0.0,0.0,0.0,0.0,0.0,0.0,0.0
450225000000,116,450224000000,base_link,-0.0011288029394823094,0.0011077474518112894,0.004480092417811103,0.9999887136720269,0.0,0.0,0.0,0.0,0.0,0.0,0.0,0.0,0.0,0.062464119441791054,0.03470877057810977,-0.004931393095611464,0.0,0.0,0.0,0.0,0.0,0.0,0.0,0.0,0.0,2.8679891625270972,-3.6334489887013257,9.855917875597225,0.0,0.0,0.0,0.0,0.0,0.0,0.0,0.0,0.0
450226000000,117,450225000000,base_link,-0.0011813110211822435,0.0010756832455531067,0.0044791766699951024,0.9999886921291588,0.0,0.0,0.0,0.0,0.0,0.0,0.0,0.0,0.0,-0.06195404222995683,-0.03571119567258985,-0.00451650969109271,0.0,0.0,0.0,0.0,0.0,0.0,0.0,0.0,0.0,-2.9114742474139343,3.5874726886095853,9.745753114066723,0.0,0.0,0.0,0.0,0.0,0.0,0.0,0.0,0.0
450227000000,118,450226000000,base_link,-0.0011807726034262491,0.0010748934426403995,0.004476844287115711,0.9999887040588884,0.0,0.0,0.0,0.0,0.0,0.0,0.0,0.0,0.0,-0.06194711447454832,-0.03571597535443866,-0.00451443773069041,0.0,0.0,0.0,0.0,0.0,0.0,0.0,0.0,0.0,-2.9113070677791097,3.586946153458303,9.74577810030642,0.0,0.0,0.0,0.0,0.0,0.0,0.0,0.0,0.0
450228000000,119,450227000000,base_link,-0.0011277570795975018,0.001106153458474003,0.0044754278737964455,0.9999887375034993,0.0,0.0,0.0,0.0,0.0,0.0,0.0,0.0,0.0,0.06246387396315881,0.034705486313657566,-0.004927030784454619,0.0,0.0,0.0,0.0,0.0,0.0,0.0,0.0,0.0,2.8677183675889926,-3.6323532837040355,9.855866429277102,0.0,0.0,0.0,0.0,0.0,0.0,0.0,0.0,0.0
450229000000,120,450228000000,base_link,-0.0011277570795975018,0.001106153458474003,0.0044754278737964455,0.9999887375034993,0.0,0.0,0.0,0.0,0.0,0.0,0.0,0.0,0.0,0.06246387396315881,0.034705486313657566,-0.004927030784454619,0.0,0.0,0.0,0.0,0.0,0.0,0.0,0.0,0.0,2.8677183675889926,-3.6323532837040355,9.855866429277102,0.0,0.0,0.0,0.0,0.0,0.0,0.0,0.0,0.0
450230000000,121,450229000000,base_link,-0.0011802305898837087,0.0010741005195278497,0.0044745119981984185,0.999988715989439,0.0,0.0,0.0,0.0,0.0,0.0,0.0,0.0,0.0,-0.061940191033470975,-0.035720751680666754,-0.0045123637746961225,0.0,0.0,0.0,0.0,0.0,0.0,0.0,0.0,0.0,-2.9111399455601603,3.5864198127545968,9.745803182437948,0.0,0.0,0.0,0.0,0.0,0.0,0.0,0.0,0.0
450231000000,122,450230000000,base_link,-0.0011272287405087842,0.001105351788612322,0.0044730957428474214,0.999988749420345,0.0,0.0,0.0,0.0,0.0,0.0,0.0,0.0,0.0,0.06246374377899717,0.03470384780377518,-0.004924846101316952,0.0,0.0,0.0,0.0,0.0,0.0,0.0,0.0,0.0,2.8675829311362295,-3.6318056513041754,9.85584054678749,0.0,0.0,0.0,0.0,0.0,0.0,0.0,0.0,0.0
450232000000,123,450231000000,base_link,-0.0011266967969137498,0.0011045470064112138,0.004470763709606893,0.999988761337892,0.0,0.0,0.0,0.0,0.0,0.0,0.0,0.0,0.0,0.062463612615852475,0.034702214199549754,-0.004922656825813106,0.0,0.0,0.0,0.0,0.0,0.0,0.0,0.0,0.0,2.867447543841012,-3.6312579165375594,9.855814405766473,0.0,0.0,0.0,0.0,0.0,0.0,0.0,0.0,0.0
450233000000,124,450232000000,base_link,-0.0011266967969137498,0.0011045470064112138,0.004470763709606893,0.999988761337892,0.0,0.0,0.0,0.0,0.0,0.0,0.0,0.0,0.0,0.062463612615852475,0.034702214199549754,-0.004922656825813106,0.0,0.0,0.0,0.0,0.0,0.0,0.0,0.0,0.0,2.867447543841012,-3.6312579165375594,9.855814405766473,0.0,0.0,0.0,0.0,0.0,0.0,0.0,0.0,0.0
450234000000,125,450233000000,base_link,-0.0011791357829375464,0.0010725053218370957,0.004469847714468317,0.9999887398528795,0.0,0.0,0.0,0.0,0.0,0.0,0.0,0.0,0.0,-0.06192635860626996,-0.03573029526135091,-0.004508207028360861,0.0,0.0,0.0,0.0,0.0,0.0,0.0,0.0,0.0,-2.910805780504597,3.5853676577580713,9.745853502592643,0.0,0.0,0.0,0.0,0.0,0.0,0.0,0.0,0.0
450235000000,126,450234000000,base_link,-0.0011261612503718308,0.00110373911446904,0.004468431778469673,0.9999887732561034,0.0,0.0,0.0,0.0,0.0,0.0,0.0,0.0,0.0,0.06246349012375783,0.03470059618493701,-0.00492045936839079,0.0,0.0,0.0,0.0,0.0,0.0,0.0,0.0,0.0,2.867312150052627,-3.6307104618707338,9.855788893077682,0.0,0.0,0.0,0.0,0.0,0.0,0.0,0.0,0.0
450236000000,127,450235000000,base_link,-0.0011785829933162733,0.0010717030548477975,0.004467515730365123,0.9999887517856834,0.0,0.0,0.0,0.0,0.0,0.0,0.0,0.0,0.0,-0.0619194508792925,-0.03573505636546451,-0.004506117203087189,0.0,0.0,0.0,0.0,0.0,0.0,0.0,0.0,0.0,-2.9106387523852715,3.5848419695033615,9.745878973872195,0.0,0.0,0.0,0.0,0.0,0.0,0.0,0.0,0.0
450237000000,128,450236000000,base_link,-0.0011256221064522474,0.001102928116310394,0.004466099957249884,0.9999887851749216,0.0,0.0,0.0,0.0,0.0,0.0,0.0,0.0,0.0,0.06246336805371787,0.0346989890614022,-0.004918251512054882,0.0,0.0,0.0,0.0,0.0,0.0,0.0,0.0,0.0,2.867176862516207,-3.630162815300934,9.855763082597177,0.0,0.0,0.0,0.0,0.0,0.0,0.0,0.0,0.0
450238000000,129,450237000000,base_link,-0.0011780266174504278,0.0010708976823060466,0.004465183861835002,0.9999887637191344,0.0,0.0,0.0,0.0,0.0,0.0,0.0,0.0,0.0,-0.06191255016873421,-0.035739809018181086,-0.004504017197725752,0.0,0.0,0.0,0.0,0.0,0.0,0.0,0.0,0.0,-2.9104717264701736,3.5843164533093206,9.745904464951364,0.0,0.0,0.0,0.0,0.0,0.0,0.0,0.0,0.0
450239000000,130,450238000000,base_link,-0.0011250793689821636,0.0011021140168921563,0.004463768254461358,0.9999887970942863,0.0,0.0,0.0,0.0,0.0,0.0,0.0,0.0,0.0,0.062463243213676176,0.034697385252905985,-0.004916037258924044,0.0,0.0,0.0,0.0,0.0,0.0,0.0,0.0,0.0,2.8670418716013026,-3.6296151130145753,9.855737080967643,0.0,0.0,0.0,0.0,0.0,0.0,0.0,0.0,0.0
450240000000,131,450239000000,base_link,-0.0011774666583402366,0.0010700892068488395,0.004462852115028205,0.9999887756531857,0.0,0.0,0.0,0.0,0.0,0.0,0.0,0.0,0.0,-0.06190565403926559,-0.035744557370765706,-0.004501911770990157,0.0,0.0,0.0,0.0,0.0,0.0,0.0,0.0,0.0,-2.9103047134609334,3.5837910320621313,9.745929863865221,0.0,0.0,0.0,0.0,0.0,0.0,0.0,0.0,0.0
450241000000,132,450240000000,base_link,-0.001124533039138659,0.0011012968191118446,0.004461436675190132,0.9999888090141578,0.0,0.0,0.0,0.0,0.0,0.0,0.0,0.0,0.0,0.06246311769124779,0.03469578364203025,-0.004913819196082197,0.0,0.0,0.0,0.0,0.0,0.0,0.0,0.0,0.0,2.8669070899463143,-3.6290674527765034,9.85571101071407,0.0,0.0,0.0,0.0,0.0,0.0,0.0,0.0,0.0
450242000000,133,450241000000,base_link,-0.0011769031173515642,0.0010692776300015518,0.004460520493911246,0.9999887875878037,0.0,0.0,0.0,0.0,0.0,0.0,0.0,0.0,0.0,-0.061898761293351624,-0.03574930312124297,-0.004499803267618796,0.0,0.0,0.0,0.0,0.0,0.0,0.0,0.0,0.0,-2.9101377306470124,3.5832657285066976,9.745955244680824,0.0,0.0,0.0,0.0,0.0,0.0,0.0,0.0,0.0
450243000000,134,450242000000,base_link,-0.0011239831173743484,0.0011004765246435707,0.004459105222780228,0.9999888209345057,0.0,0.0,0.0,0.0,0.0,0.0,0.0,0.0,0.0,0.062462991901090566,0.03469418610289957,-0.004911595977018421,0.0,0.0,0.0,0.0,0.0,0.0,0.0,0.0,0.0,2.8667724031206054,-3.6285196726666133,9.855684644216945,0.0,0.0,0.0,0.0,0.0,0.0,0.0,0.0,0.0
450244000000,135,450243000000,base_link,-0.0011234296047317263,0.0010996531359783908,0.004456773901671743,0.999988832855294,0.0,0.0,0.0,0.0,0.0,0.0,0.0,0.0,0.0,0.06246286562379043,0.03469259364340981,-0.00490936648698445,0.0,0.0,0.0,0.0,0.0,0.0,0.0,0.0,0.0,2.866637851061666,-3.627971775682862,9.85565805073939,0.0,0.0,0.0,0.0,0.0,0.0,0.0,0.0,0.0
450245000000,136,450244000000,base_link,-0.0011234296047317263,0.0010996531359783908,0.004456773901671743,0.999988832855294,0.0,0.0,0.0,0.0,0.0,0.0,0.0,0.0,0.0,0.06246286562379043,0.03469259364340981,-0.00490936648698445,0.0,0.0,0.0,0.0,0.0,0.0,0.0,0.0,0.0,2.866637851061666,-3.627971775682862,9.85565805073939,0.0,0.0,0.0,0.0,0.0,0.0,0.0,0.0,0.0
450246000000,137,450245000000,base_link,-0.001175765297065693,0.00106764517967963,0.0044558576458005325,0.9999888114585967,0.0,0.0,0.0,0.0,0.0,0.0,0.0,0.0,0.0,-0.0618849926542865,-0.035758784681233065,-0.0044955720504901864,0.0,0.0,0.0,0.0,0.0,0.0,0.0,0.0,0.0,-2.909803899029826,3.582215572716813,9.74600637489481,0.0,0.0,0.0,0.0,0.0,0.0,0.0,0.0,0.0
450247000000,138,450246000000,base_link,-0.0011228725030640733,0.001098826656055413,0.0044544427171163605,0.9999888447764814,0.0,0.0,0.0,0.0,0.0,0.0,0.0,0.0,0.0,0.06246273861374592,0.03469100626626131,-0.004907130714496899,0.0,0.0,0.0,0.0,0.0,0.0,0.0,0.0,0.0,2.8665034856636264,-3.6274238171233826,9.855631336787571,0.0,0.0,0.0,0.0,0.0,0.0,0.0,0.0,0.0
450248000000,139,450247000000,base_link,-0.0011751910221674939,0.001066824311456896,0.004453526428997317,0.9999888233946898,0.0,0.0,0.0,0.0,0.0,0.0,0.0,0.0,0.0,-0.06187811803436954,-0.03576351972801637,-0.0044934484285852954,0.0,0.0,0.0,0.0,0.0,0.0,0.0,0.0,0.0,-2.9096370558701294,3.5816907183087947,9.746032154239506,0.0,0.0,0.0,0.0,0.0,0.0,0.0,0.0,0.0
450249000000,140,450248000000,base_link,-0.0011223118146108328,0.0010979970878189766,0.004452111674302561,0.9999888566980262,0.0,0.0,0.0,0.0,0.0,0.0,0.0,0.0,0.0,0.06246261064732343,0.034689423993390804,-0.004904888838138261,0.0,0.0,0.0,0.0,0.0,0.0,0.0,0.0,0.0,2.866369318234565,-3.626875810982473,9.855604516767224,0.0,0.0,0.0,0.0,0.0,0.0,0.0,0.0,0.0
450250000000,141,450249000000,base_link,-0.0011746131737304425,0.0010660003518497972,0.004451195357191799,0.9999888353311921,0.0,0.0,0.0,0.0,0.0,0.0,0.0,0.0,0.0,-0.06187124996050418,-0.0357682507332937,-0.004491319686938244,0.0,0.0,0.0,0.0,0.0,0.0,0.0,0.0,0.0,-2.909470261739387,3.5811660077095966,9.746058062057509,0.0,0.0,0.0,0.0,0.0,0.0,0.0,0.0,0.0
450251000000,142,450250000000,base_link,-0.00112174754179223,0.0010971644343202248,0.004449780778230619,0.9999888686198873,0.0,0.0,0.0,0.0,0.0,0.0,0.0,0.0,0.0,0.062462481511325114,0.034687846809956555,-0.004902641158459551,0.0,0.0,0.0,0.0,0.0,0.0,0.0,0.0,0.0,2.8662353557557685,-3.626327772300859,9.855577603799624,0.0,0.0,0.0,0.0,0.0,0.0,0.0,0.0,0.0
450252000000,143,450251000000,base_link,-0.001121179687135409,0.0010963286987063052,0.004447450033653975,0.9999888805420248,0.0,0.0,0.0,0.0,0.0,0.0,0.0,0.0,0.0,0.06246235104312016,0.034686274564130516,-0.004900388153399945,0.0,0.0,0.0,0.0,0.0,0.0,0.0,0.0,0.0,2.8661016036079388,-3.625779724129625,9.85555061986725,0.0,0.0,0.0,0.0,0.0,0.0,0.0,0.0,0.0
450253000000,144,450252000000,base_link,-0.001121179687135409,0.0010963286987063052,0.004447450033653975,0.9999888805420248,0.0,0.0,0.0,0.0,0.0,0.0,0.0,0.0,0.0,0.06246235104312016,0.034686274564130516,-0.004900388153399945,0.0,0.0,0.0,0.0,0.0,0.0,0.0,0.0,0.0,2.8661016036079388,-3.625779724129625,9.85555061986725,0.0,0.0,0.0,0.0,0.0,0.0,0.0,0.0,0.0
450255000000,145,450254000000,base_link,-0.0011206082531838282,0.0010954898841276563,0.00444511944497269,0.9999888924643996,0.0,0.0,0.0,0.0,0.0,0.0,0.0,0.0,0.0,0.062462219134638994,0.03468470709758803,-0.004898130309171164,0.0,0.0,0.0,0.0,0.0,0.0,0.0,0.0,0.0,-0.021890383657294826,-0.022044866478456004,9.800537259755624,0.0,0.0,0.0,0.0,0.0,0.0,0.0,0.0,0.0
450256000000,146,450255000000,base_link,-0.0011200332424426414,0.0010946479937182902,0.004442789016246066,0.9999889043869752,0.0,0.0,0.0,0.0,0.0,0.0,0.0,0.0,0.0,0.062462085716453855,0.034683144287717085,-0.004895868032025675,0.0,0.0,0.0,0.0,0.0,0.0,0.0,0.0,0.0,2.8658347130649138,-3.624683656418611,9.855496465221895,0.0,0.0,0.0,0.0,0.0,0.0,0.0,0.0,0.0
450257000000,147,450256000000,base_link,-0.0011200332424426414,0.0010946479937182902,0.004442789016246066,0.9999889043869752,0.0,0.0,0.0,0.0,0.0,0.0,0.0,0.0,0.0,-0.06184384070885742,-0.03578713338388783,-0.004482760493025269,0.0,0.0,0.0,0.0,0.0,0.0,0.0,0.0,0.0,-2.9088035463676825,3.5790685774798088,9.746162733045349,0.0,0.0,0.0,0.0,0.0,0.0,0.0,0.0,0.0
450258000000,148,450257000000,base_link,-0.0011194546573655166,0.0010938030305958624,0.0044404587512630826,0.9999889163097153,0.0,0.0,0.0,0.0,0.0,0.0,0.0,0.0,0.0,0.06246195075068786,0.03468158603382662,-0.004893601643017325,0.0,0.0,0.0,0.0,0.0,0.0,0.0,0.0,0.0,2.865701559388225,-3.624135653219941,9.855469295071698,0.0,0.0,0.0,0.0,0.0,0.0,0.0,0.0,0.0
450259000000,149,450258000000,base_link,-0.0011194546573655166,0.0010938030305958624,0.0044404587512630826,0.9999889163097153,0.0,0.0,0.0,0.0,0.0,0.0,0.0,0.0,0.0,0.06246195075068786,0.03468158603382662,-0.004893601643017325,0.0,0.0,0.0,0.0,0.0,0.0,0.0,0.0,0.0,2.865701559388225,-3.624135653219941,9.855469295071698,0.0,0.0,0.0,0.0,0.0,0.0,0.0,0.0,0.0
450260000000,150,450259000000,base_link,-0.001171670409579545,0.0010618342944277493,0.004439542331728068,0.9999888950184733,0.0,0.0,0.0,0.0,0.0,0.0,0.0,0.0,0.0,-0.0618370031586096,-0.03579184387704824,-0.004480611459340241,0.0,0.0,0.0,0.0,0.0,0.0,0.0,0.0,0.0,-2.9086369760188227,3.5785445753726934,9.746189111762067,0.0,0.0,0.0,0.0,0.0,0.0,0.0,0.0,0.0
450261000000,151,450260000000,base_link,-0.0011710711686411144,0.0010609918539941482,0.0044372122214225715,0.999988906956625,0.0,0.0,0.0,0.0,0.0,0.0,0.0,0.0,0.0,-0.06183017143758296,-0.03579654893324489,-0.0044784581409834405,0.0,0.0,0.0,0.0,0.0,0.0,0.0,0.0,0.0,-2.9084705221553198,3.578020726961085,9.746215558280225,0.0,0.0,0.0,0.0,0.0,0.0,0.0,0.0,0.0
450262000000,152,450261000000,base_link,-0.0011182867749215406,0.0010921038993438143,0.0044357987276009685,0.9999889401555451,0.0,0.0,0.0,0.0,0.0,0.0,0.0,0.0,0.0,0.06246167670265824,0.0346784841084213,-0.004889052849431312,0.0,0.0,0.0,0.0,0.0,0.0,0.0,0.0,0.0,2.8654373586508712,-3.6230400239207086,9.855415276328769,0.0,0.0,0.0,0.0,0.0,0.0,0.0,0.0,0.0
450263000000,153,450262000000,base_link,-0.001170468371082195,0.0010601463463123454,0.004434882285100746,0.9999889188949217,0.0,0.0,0.0,0.0,0.0,0.0,0.0,0.0,0.0,-0.06182334514531699,-0.035801247994342075,-0.004476301370727713,0.0,0.0,0.0,0.0,0.0,0.0,0.0,0.0,0.0,-2.9083042192549136,3.5774970430460677,9.746242042541231,0.0,0.0,0.0,0.0,0.0,0.0,0.0,0.0,0.0
450264000000,154,450263000000,base_link,-0.0011176974849471497,0.0010912497394133772,0.004433468976908014,0.9999889520785563,0.0,0.0,0.0,0.0,0.0,0.0,0.0,0.0,0.0,0.0624614335020426,0.03467692051071761,-0.0048867899876145525,0.0,0.0,0.0,0.0,0.0,0.0,0.0,0.0,0.0,2.8653031340590442,-3.6225039766939773,9.855399285473785,0.0,0.0,0.0,0.0,0.0,0.0,0.0,0.0,0.0
450265000000,155,450264000000,base_link,-0.0011176974849471497,0.0010912497394133772,0.004433468976908014,0.9999889520785563,0.0,0.0,0.0,0.0,0.0,0.0,0.0,0.0,0.0,0.0624614335020426,0.03467692051071761,-0.0048867899876145525,0.0,0.0,0.0,0.0,0.0,0.0,0.0,0.0,0.0,2.8653031340590442,-3.6225039766939773,9.855399285473785,0.0,0.0,0.0,0.0,0.0,0.0,0.0,0.0,0.0
450267000000,156,450266000000,base_link,-0.0011692520380256815,0.001058446174842355,0.004430222961632462,0.9999889427718073,0.0,0.0,0.0,0.0,0.0,0.0,0.0,0.0,0.0,-0.061809581421251654,-0.0358105548287822,-0.0044719447187989165,0.0,0.0,0.0,0.0,0.0,0.0,0.0,0.0,0.0,-2.907964146027091,3.576450475554238,9.746276011481227,0.0,0.0,0.0,0.0,0.0,0.0,0.0,0.0,0.0
450268000000,157,450267000000,base_link,-0.0011165082165978534,0.0010895321688810288,0.004428810002849171,0.9999889759247419,0.0,0.0,0.0,0.0,0.0,0.0,0.0,0.0,0.0,0.06246037580328624,0.034673847061711977,-0.004882131651619731,0.0,0.0,0.0,0.0,0.0,0.0,0.0,0.0,0.0,2.8650005508398326,-3.621462447384313,9.85537883476606,0.0,0.0,0.0,0.0,0.0,0.0,0.0,0.0,0.0
450269000000,158,450268000000,base_link,-0.0011686385053954324,0.00105759149795081,0.004427893663653964,0.9999889547099862,0.0,0.0,0.0,0.0,0.0,0.0,0.0,0.0,0.0,-0.06180273980138538,-0.03581515317521705,-0.004469578332032112,0.0,0.0,0.0,0.0,0.0,0.0,0.0,0.0,0.0,-2.907791782836835,3.575929866832398,9.746292673397312,0.0,0.0,0.0,0.0,0.0,0.0,0.0,0.0,0.0
450270000000,159,450269000000,base_link,-0.0011159081928133721,0.0010886687551054793,0.004426480918467702,0.9999889878473289,0.0,0.0,0.0,0.0,0.0,0.0,0.0,0.0,0.0,0.06245988442450954,0.03467239110176046,-0.004879571751832012,0.0,0.0,0.0,0.0,0.0,0.0,0.0,0.0,0.0,2.864849163257566,-3.620926913215687,9.855352121710274,0.0,0.0,0.0,0.0,0.0,0.0,0.0,0.0,0.0
450271000000,160,450270000000,base_link,-0.0011159081928133721,0.0010886687551054793,0.004426480918467702,0.9999889878473289,0.0,0.0,0.0,0.0,0.0,0.0,0.0,0.0,0.0,0.06245988442450954,0.03467239110176046,-0.004879571751832012,0.0,0.0,0.0,0.0,0.0,0.0,0.0,0.0,0.0,2.864849163257566,-3.620926913215687,9.855352121710274,0.0,0.0,0.0,0.0,0.0,0.0,0.0,0.0,0.0
450272000000,161,450271000000,base_link,-0.0011153045392951811,0.001087802266565103,0.004424152251475682,0.9999889997689322,0.0,0.0,0.0,0.0,0.0,0.0,0.0,0.0,0.0,0.0624594448282593,0.03467090592726951,-0.004876935373238518,0.0,0.0,0.0,0.0,0.0,0.0,0.0,0.0,0.0,2.8647009816133275,-3.6203910641776824,9.855328303904681,0.0,0.0,0.0,0.0,0.0,0.0,0.0,0.0,0.0
450273000000,162,450272000000,base_link,-0.0011153045392951811,0.001087802266565103,0.004424152251475682,0.9999889997689322,0.0,0.0,0.0,0.0,0.0,0.0,0.0,0.0,0.0,0.0624594448282593,0.03467090592726951,-0.004876935373238518,0.0,0.0,0.0,0.0,0.0,0.0,0.0,0.0,0.0,2.8647009816133275,-3.6203910641776824,9.855328303904681,0.0,0.0,0.0,0.0,0.0,0.0,0.0,0.0,0.0
450274000000,163,450273000000,base_link,-0.0011146972279953238,0.0010869326610256774,0.0044218240484770405,0.9999890116894109,0.0,0.0,0.0,0.0,0.0,0.0,0.0,0.0,0.0,0.06245904519361713,0.03466946988801878,-0.004874156836155719,0.0,0.0,0.0,0.0,0.0,0.0,0.0,0.0,0.0,2.8645518510418304,-3.6198469630797767,9.85529485887086,0.0,0.0,0.0,0.0,0.0,0.0,0.0,0.0,0.0
450275000000,164,450274000000,base_link,-0.0011146972279953238,0.0010869326610256774,0.0044218240484770405,0.9999890116894109,0.0,0.0,0.0,0.0,0.0,0.0,0.0,0.0,0.0,0.06245904519361713,0.03466946988801878,-0.004874156836155719,0.0,0.0,0.0,0.0,0.0,0.0,0.0,0.0,0.0,2.8645518510418304,-3.6198469630797767,9.85529485887086,0.0,0.0,0.0,0.0,0.0,0.0,0.0,0.0,0.0
450276000000,165,450275000000,base_link,-0.0011667765549507267,0.0010550087946241107,0.0044209083193950055,0.9999889905186684,0.0,0.0,0.0,0.0,0.0,0.0,0.0,0.0,0.0,-0.061782379291941025,-0.035828996582061734,-0.0044618369158440415,0.0,0.0,0.0,0.0,0.0,0.0,0.0,0.0,0.0,-2.907279400106024,3.574370928424916,9.746359603255273,0.0,0.0,0.0,0.0,0.0,0.0,0.0,0.0,0.0
450277000000,166,450276000000,base_link,-0.0011661487506848891,0.0010541416563000993,0.0044185810055427065,0.9999890024517056,0.0,0.0,0.0,0.0,0.0,0.0,0.0,0.0,0.0,-0.06177574680272013,-0.03583357020291951,-0.0044590023649119645,0.0,0.0,0.0,0.0,0.0,0.0,0.0,0.0,0.0,-2.9071105477667407,3.573852073816305,9.746390150311427,0.0,0.0,0.0,0.0,0.0,0.0,0.0,0.0,0.0
