%time,field.header.seq,field.header.stamp,field.header.frame_id,field.wrench.force.x,field.wrench.force.y,field.wrench.force.z,field.wrench.torque.x,field.wrench.torque.y,field.wrench.torque.z
450113000000,0,450103000000,BR_wheel_link,-5.336721936381531,19.791509953406674,4.338902161781322,0.6131849013725383,0.2727270253107309,-0.4913262373167147
450113000000,1,450104000000,BR_wheel_link,-0.051512608884090524,1.093461688506903,0.8954582349571877,-0.007647954531538136,0.007149147339321461,-0.0034024107697288816
450113000000,2,450105000000,BR_wheel_link,-5.336233868194788,19.79170586030935,4.337006521861495,0.6134074093595345,0.27269775077480185,-0.49128173731834485
450113000000,3,450106000000,BR_wheel_link,-0.05145190628960579,1.0935287866476533,0.8953164950069384,-0.0076487620856973025,0.007149849957498852,-0.0033963986376616
450113000000,4,450107000000,BR_wheel_link,-5.335745793668695,19.79190102511329,4.3351110027668955,0.6136298609808525,0.2726684758955997,-0.49123723559549
450113000000,5,450108000000,BR_wheel_link,-0.05139124108288753,1.0935957738988855,0.895174614226493,-0.00764956791228439,0.0071505542777584915,-0.003390389680017622
450113000000,6,450109000000,BR_wheel_link,-5.335257741316939,19.792095485579313,4.3332154682373245,0.6138522726633836,0.2726392018662205,-0.4911927346321141
450113000000,7,450110000000,BR_wheel_link,-0.05133083050099748,1.093662703724501,0.8950328598116348,-0.0076503741461708885,0.00715125869438695,-0.003384385661092837
450113000000,8,450111000000,BR_wheel_link,-5.3347706388121345,19.792290169979132,4.331320608306585,0.6140746192165835,0.2726099823302731,-0.49114832613196985
450113000000,9,450112000000,BR_wheel_link,-0.05127117630479683,1.0937294068412253,0.8948910393307318,-0.00765118182517984,0.007151964460992461,-0.003378393187952536
450113000000,10,450113000000,BR_wheel_link,-5.334286261672207,19.792484793551903,4.329426206097244,0.6142969017435757,0.2725809207459935,-0.4911041870951091
450114000000,11,450114000000,BR_wheel_link,-0.05121165337333648,1.093795874707137,0.8947486863529573,-0.007651981178051327,0.007152686715211823,-0.003372423005619575
450115000000,12,450115000000,BR_wheel_link,-5.333803558542545,19.792679089752784,4.327530839628951,0.6145192575186054,0.2725519531395929,-0.4910602104196307
450116000000,13,450116000000,BR_wheel_link,-0.051152160178991615,1.093862053110291,0.894605478655051,-0.007652766924164004,0.007153426576450396,-0.0033664703311377725
450117000000,14,450117000000,BR_wheel_link,-5.333321856340726,19.792872504099595,4.325633626927658,0.6147417525124296,0.27252303872767336,-0.4910163282897553
450118000000,15,450118000000,BR_wheel_link,-0.05109271095468801,1.0939279947813165,0.8944616466026122,-0.007653532027463783,0.007154173437225171,-0.0033605301938296776
450119000000,16,450119000000,BR_wheel_link,-5.332840807129656,19.79306585624723,4.32373478443809,0.6149644112540985,0.27249415560974216,-0.49097250453116725
450120000000,17,450120000000,BR_wheel_link,-0.051033297279928336,1.0939938024305451,0.8943174564920826,-0.007654276912653353,0.00715492183120085,-0.003354598605167282
450121000000,18,450121000000,BR_wheel_link,-5.332360240698156,19.7932598570188,4.321834874629733,0.6151872139064621,0.27246529404965836,-0.4909287218941609
450122000000,19,450122000000,BR_wheel_link,-0.050973742791813464,1.0940590501343335,0.8941713661117467,-0.007655009826398575,0.007155706981443144,-0.003348685720852165
450123000000,20,450123000000,BR_wheel_link,-5.331880105552344,19.79344997865167,4.319930944423947,0.6154102216845216,0.27243645369502617,-0.4908849793204581
450124000000,21,450124000000,BR_wheel_link,-0.05091426290850729,1.0941237737189682,0.8940239828099764,-0.007655709832490865,0.007156503009125604,-0.003342789415016309
450125000000,22,450125000000,BR_wheel_link,-5.331400582112367,19.793638468369235,4.3180234942659155,0.6156335065252456,0.2724076402098752,-0.4908412901546784
450126000000,23,450126000000,BR_wheel_link,-0.05085512307088598,1.0941888605842065,0.8938781545131412,-0.0076563702765795345,0.0071572519987535155,-0.003336889444854797
450127000000,24,450127000000,BR_wheel_link,-5.330921850715436,19.79383378917321,4.316118309221856,0.615856925329429,0.2723788600604925,-0.4907976653445141
450128000000,25,450128000000,BR_wheel_link,-0.05079604732219814,1.0942544740657154,0.8937334518216711,-0.007657036649369238,0.007157996572448013,-0.0033309895582539707
450129000000,26,450129000000,BR_wheel_link,-5.330444273349508,19.794033731101695,4.314216205982342,0.6160802671295951,0.272350142657045,-0.49075414840571824
450130000000,27,450130000000,BR_wheel_link,-0.050737112784200754,1.0943216301839962,0.893592133320969,-0.0076577619255109265,0.007158736417399417,-0.0033250810995044816
450131000000,28,450131000000,BR_wheel_link,-5.329969344841844,19.794243440817844,4.312323901124851,0.616303108615704,0.272321578013021,-0.490710890064119
450132000000,29,450132000000,BR_wheel_link,-0.050678554682654475,1.0943902884664998,0.8934545609367505,-0.007658572080093647,0.007159479222497192,-0.003319172182092039
450133000000,30,450133000000,BR_wheel_link,-5.329498077631454,19.794461408495383,4.310442950701175,0.6165251962958481,0.27229323303758085,-0.4906679982016216
450134000000,31,450134000000,BR_wheel_link,-0.05062019808648638,1.094458873077122,0.8933170717968302,-0.007659435836810931,0.007160255033587946,-0.0033132844563341147
450135000000,32,450135000000,BR_wheel_link,-5.329028523825298,19.794675805634114,4.308564278979117,0.6167468336685854,0.2722650005619354,-0.4906252873816201
450136000000,33,450136000000,BR_wheel_link,-0.050561932814428064,1.0945271282061804,0.8931791031457499,-0.007660316299357929,0.007161044953722657,-0.0033074095844295853
450137000000,34,450137000000,BR_wheel_link,-5.328559087546973,19.794886299980536,4.306685275675446,0.6169682848022199,0.27223678064597673,-0.4905825932997893
450138000000,35,450138000000,BR_wheel_link,-0.05050364645730701,1.0945948771301472,0.8930400731906278,-0.0076611908441737014,0.0071618397670426825,-0.003301538503591541
450139000000,36,450139000000,BR_wheel_link,-5.328088508281453,19.795092323089566,4.304803944547944,0.6171897366309503,0.2722084950596793,-0.4905397871387031
450140000000,37,450140000000,BR_wheel_link,-0.05044523529979946,1.094662064757777,0.8928997606012186,-0.007662044995664713,0.007162633844313326,-0.0032956657440115383
450141000000,38,450141000000,BR_wheel_link,-5.327616097575724,19.795294092979187,4.302919368619367,0.6174113031798399,0.272180100233868,-0.4904967977629904
450142000000,39,450142000000,BR_wheel_link,-0.05038447844685885,1.094728493034963,0.8927565497837642,-0.007662840614962786,0.007163447649362216,-0.003289790840695657
450143000000,40,450143000000,BR_wheel_link,-5.327134631534637,19.795487805472654,4.301026185632276,0.6176333582529557,0.27215117304151765,-0.4904529039205257
450144000000,41,450144000000,BR_wheel_link,-0.050323332634035295,1.0947949438553424,0.8926133887107048,-0.007663610033614989,0.007164216154649293,-0.0032838642222808557
450145000000,42,450145000000,BR_wheel_link,-5.326647789965326,19.7956805532035,4.29913226111536,0.6178554634205182,0.27212192825143955,-0.49040847172999624
450146000000,43,450146000000,BR_wheel_link,-0.05026215904816785,1.0948618124752123,0.892471897449334,-0.007664372458270017,0.007164928688389285,-0.0032778993576313012
450147000000,44,450147000000,BR_wheel_link,-5.326158042280783,19.79587603550278,4.297241804822754,0.6180773668678714,0.2720925142983807,-0.49036374844486474
450148000000,45,450148000000,BR_wheel_link,-0.05020091397449531,1.094929125149946,0.8923317708563446,-0.00766515947578984,0.007165618700291043,-0.0032719112921307785
450149000000,46,450149000000,BR_wheel_link,-5.3256667832915925,19.796072747077787,4.295355415531142,0.6182989145093927,0.2720630189700563,-0.4903188783158439
450150000000,47,450150000000,BR_wheel_link,-0.05013965602519099,1.0949966860183153,0.8921924570787974,-0.007665980163054639,0.0071663042876353765,-0.003265911978571426
450151000000,48,450151000000,BR_wheel_link,-5.3251748376424874,19.796268797198195,4.293472306152907,0.6185200812218306,0.2720334929063092,-0.49027394619684866
450152000000,49,450152000000,BR_wheel_link,-0.05007874668699223,1.0950641699257775,0.89205321704607,-0.007666830033433221,0.0071669845077066575,-0.0032599023482490384
450153000000,50,450153000000,BR_wheel_link,-5.3246827951453755,19.796462333377512,4.291591085182477,0.6187409178167733,0.27200396876687855,-0.49022901140992464
450154000000,51,450154000000,BR_wheel_link,-0.05001810534750362,1.0951316750303988,0.891914904492732,-0.007667688206273386,0.007167654993778044,-0.003253898334964615
450155000000,52,450155000000,BR_wheel_link,-5.324191668086057,19.796656457573718,4.2897124804328195,0.6189615038963803,0.27197450335695894,-0.4901841699441276
450156000000,53,450156000000,BR_wheel_link,-0.04995742209112388,1.0951990269060423,0.8917761650369344,-0.007668569718513469,0.007168352868162297,-0.0032479056499268555
450157000000,54,450157000000,BR_wheel_link,-5.3237012047750785,19.79684796602767,4.287834213154532,0.6191819030783947,0.2719450828935881,-0.4901393989987743
450158000000,55,450158000000,BR_wheel_link,-0.04989678985026583,1.0952661638539931,0.8916370572235623,-0.007669457007091579,0.007169063168975867,-0.003241923327539475
450159000000,56,450159000000,BR_wheel_link,-5.323211245112736,19.797037650238384,4.285955732467544,0.6194022184410204,0.27191569393479587,-0.49009467919271504
450160000000,57,450160000000,BR_wheel_link,-0.04983626154249082,1.0953332324596385,0.8914980436131144,-0.007670340578228492,0.007169771115644767,-0.0032359463450926927
450161000000,58,450161000000,BR_wheel_link,-5.322721680747487,19.79722744063516,4.284077669137259,0.6196224909534742,0.2718863270330433,-0.49004999646559144
450162000000,59,450162000000,BR_wheel_link,-0.04977740349880454,1.0953996886031176,0.8913587568992415,-0.007671219372482396,0.007170472923797438,-0.003229986227628101
450163000000,60,450163000000,BR_wheel_link,-5.322237339359391,19.797416397901674,4.282199558968179,0.619842698552595,0.2718572650889855,-0.4900058329159092
450164000000,61,450164000000,BR_wheel_link,-0.049718900054776555,1.095465929359494,0.8912189765822898,-0.007672088935200519,0.0071712008619245916,-0.0032240639918987664
450165000000,62,450165000000,BR_wheel_link,-5.321756734838754,19.797606502258095,4.280320683164953,0.6200630304679046,0.27182841481341463,-0.48996203417642187
450166000000,63,450166000000,BR_wheel_link,-0.0496604589139745,1.0955317831553626,0.8910778611909438,-0.007672942183650471,0.007171964847731801,-0.0032181748417757726
450167000000,64,450167000000,BR_wheel_link,-5.321278504492444,19.797795800936978,4.278438951913578,0.6202836053012515,0.2717996950848747,-0.48991846427921765
450168000000,65,450168000000,BR_wheel_link,-0.04960209781837679,1.0955972844243684,0.8909356834122502,-0.007673764797472668,0.007172745846368325,-0.003212309336122248
450169000000,66,450169000000,BR_wheel_link,-5.320801826505918,19.79798525988003,4.276554370341423,0.6205044805955897,0.27177105507440613,-0.48987503892342554
450170000000,67,450170000000,BR_wheel_link,-0.049543808472992154,1.0956625953119012,0.890792916365106,-0.007674554390959599,0.0071735308521043255,-0.003206458940427075
450171000000,68,450171000000,BR_wheel_link,-5.320326201387428,19.798176173635575,4.274667835131696,0.6207256361300931,0.27174246490050885,-0.4898317073368419
450172000000,69,450172000000,BR_wheel_link,-0.049485545913595046,1.0957278185170485,0.890649761564947,-0.007675317538955509,0.0071743184415488164,-0.0032006192088364135
450173000000,70,450173000000,BR_wheel_link,-5.319851338979788,19.798368725370068,4.272780009358526,0.620947013623085,0.2717139091533844,-0.4897884417912827
450174000000,71,450174000000,BR_wheel_link,-0.04942730032645218,1.095793020767287,0.8905064090682184,-0.007676060560043969,0.007175107135162735,-0.003194787532301263
450175000000,72,450175000000,BR_wheel_link,-5.319377086897435,19.798562925898597,4.270891514147388,0.62116854895547,0.27168538080260535,-0.4897452285848048
450176000000,73,450176000000,BR_wheel_link,-0.0493690771934304,1.0958582631851632,0.8903630636328292,-0.007676789347651836,0.007175895094507974,-0.0031889618227687105
450177000000,74,450177000000,BR_wheel_link,-5.318903355691413,19.798758817304854,4.269002979757929,0.6213901781430086,0.2716568763627394,-0.4897020600770504
450178000000,75,450178000000,BR_wheel_link,-0.04931079286531751,1.0959232453813577,0.8902184047703339,-0.007677513090954555,0.0071767151272263685,-0.003183156776006713
450179000000,76,450179000000,BR_wheel_link,-5.318430684349032,19.798953092761025,4.267112031266715,0.621611967807513,0.27162842849524,-0.48965899227521326
450180000000,77,450180000000,BR_wheel_link,-0.049252840103745116,1.0959884993179245,0.8900747942902226,-0.007678208441484318,0.007177506483805083,-0.0031773574437555566
450181000000,78,450181000000,BR_wheel_link,-5.317959238348686,19.799152541980163,4.265222731248667,0.6218338648552553,0.271600041947889,-0.4896160347604328
450182000000,79,450182000000,BR_wheel_link,-0.04919500071482195,1.0960541465312528,0.8899321131981451,-0.00767890234429955,0.007178289199750841,-0.003171559554554026
450183000000,80,450183000000,BR_wheel_link,-5.317488637675751,19.79935577394623,4.263335818276547,0.6220557152208723,0.2715717005799964,-0.4895731549973847
450184000000,81,450184000000,BR_wheel_link,-0.04913715112427102,1.0961198938843064,0.8897894671683143,-0.007679608395004243,0.007179085345871244,-0.0031657679853412785
450185000000,82,450185000000,BR_wheel_link,-5.317018580774383,19.799559064697,4.261449864008289,0.6222774643731914,0.2715433919197305,-0.48953032864550966
450186000000,83,450186000000,BR_wheel_link,-0.04907937719906159,1.096185666035468,0.8896470066975348,-0.0076803195081850024,0.007179883863548979,-0.0031599811863514816
450187000000,84,450187000000,BR_wheel_link,-5.316548880792104,19.799762383318374,4.25956486654671,0.6224991113981505,0.2715151049981715,-0.4894875371010894
450188000000,85,450188000000,BR_wheel_link,-0.04902167999228536,1.0962514840982418,0.8895048471056447,-0.007681035087728997,0.007180680829809965,-0.0031541966307100443
450189000000,86,450189000000,BR_wheel_link,-5.31607936995237,19.799965909355834,4.257681025321592,0.6227206455888109,0.2714868301223785,-0.4894447636743484
450190000000,87,450190000000,BR_wheel_link,-0.048964027398214094,1.096317317640981,0.8893628651559701,-0.00768175713726103,0.007181479052376582,-0.0031484140505870666
450191000000,88,450191000000,BR_wheel_link,-5.315609939317275,19.800169170480157,4.25579814535462,0.6229420615668472,0.27145856152170955,-0.48940199819862984
450192000000,89,450192000000,BR_wheel_link,-0.04890641820148037,1.096383140848294,0.8892210148369901,-0.007682484832181787,0.007182278229486813,-0.0031426333922864712
450193000000,90,450193000000,BR_wheel_link,-5.315140542405392,19.800372008827686,4.253916091695343,0.6231633648941638,0.2714302964308371,-0.4893592360918792
450194000000,91,450194000000,BR_wheel_link,-0.048848860529776834,1.0964489689557158,0.8890793628394333,-0.007683216877589015,0.007183076027000929,-0.0031368539606391466
450195000000,92,450195000000,BR_wheel_link,-5.314671163542383,19.80057466576477,4.252034954178197,0.6233845593764559,0.27140203359829557,-0.48931647542549656
450196000000,93,450196000000,BR_wheel_link,-0.048791334358693914,1.096514778976918,0.8889378016029644,-0.007683953949914665,0.007183875089296722,-0.0031310763432475545
450197000000,94,450197000000,BR_wheel_link,-5.3142017972673345,19.800776876783363,4.250154533727351,0.6236056512926561,0.27137377278070024,-0.48927371583294144
450198000000,95,450198000000,BR_wheel_link,-0.04873384224523532,1.0965805533623452,0.888796293033704,-0.007684694709538422,0.007184675358622526,-0.003125300954519834
450199000000,96,450199000000,BR_wheel_link,-5.313732457853989,19.80097861022673,4.248274701082262,0.6238266524267472,0.2713455144896536,-0.4892309585032032
450200000000,97,450200000000,BR_wheel_link,-0.04867642373751058,1.0966463785692886,0.8886550895112643,-0.007685440520488089,0.007185475499743973,-0.003119528085686063
450201000000,98,450201000000,BR_wheel_link,-5.313263451692463,19.801180687468506,4.24639603466788,0.6240475456570643,0.2713172761434627,-0.48918823327721755
450202000000,99,450202000000,BR_wheel_link,-0.048619040366425136,1.0967121986681205,0.8885139635328189,-0.007686191894203891,0.007186278500352824,-0.0031137584950694935
450203000000,100,450203000000,BR_wheel_link,-5.312794630889679,19.8013824715074,4.244518077010621,0.6242683446762008,0.2712890493516657,-0.48914552588612703
450204000000,101,450204000000,BR_wheel_link,-0.048561693332209624,1.0967779733954524,0.8883728461358701,-0.007686945106520069,0.007187082243412482,-0.0031079917339570844
450205000000,102,450205000000,BR_wheel_link,-5.3123258592235,19.801583839678372,4.242640546543392,0.6244890731524133,0.27126082566925186,-0.48910282241125314
450206000000,103,450206000000,BR_wheel_link,-0.04850438355527327,1.096843706504881,0.8882317560105839,-0.007687698551348281,0.007187885831668597,-0.00310222737238932
450207000000,104,450207000000,BR_wheel_link,-5.311857157327784,19.8017849242957,4.240763403945867,0.6247097422195075,0.2712326055551999,-0.4890601240614304
450208000000,105,450208000000,BR_wheel_link,-0.04844712287081422,1.0969092814136256,0.8880900970275032,-0.0076884536646719985,0.007188703964792524,-0.0030964740353185568
450209000000,106,450209000000,BR_wheel_link,-5.31138907381845,19.80198475255854,4.238885518559351,0.6249304156631308,0.2712044203986782,-0.4890174854008769
450210000000,107,450210000000,BR_wheel_link,-0.04839008361101739,1.0969749727632623,0.8879491071030394,-0.007689197147011545,0.007189505231424965,-0.0030907230091317167
450211000000,108,450211000000,BR_wheel_link,-5.3109215926016,19.802186898655375,4.2370089786164895,0.6251510711797049,0.2711762665805972,-0.4889749011945521
450212000000,109,450212000000,BR_wheel_link,-0.04833307890427964,1.0970407041292345,0.8878081794000457,-0.007689944350064133,0.007190311968340466,-0.0030849762899566703
450213000000,110,450213000000,BR_wheel_link,-5.310454521648133,19.802389282017934,4.235133091357934,0.6253716671998436,0.27114813619441597,-0.4889323558414243
450214000000,111,450214000000,BR_wheel_link,-0.04827610518874331,1.097106347314883,0.8876670538565379,-0.007690693830741742,0.007191126645429732,-0.0030792358452497383
450215000000,112,450215000000,BR_wheel_link,-5.309987766854906,19.80259092121863,4.233257238162097,0.6255922150585626,0.2711200243054322,-0.4888898408863267
450216000000,113,450216000000,BR_wheel_link,-0.04821919883301746,1.0971719222629277,0.8875259102087536,-0.007691440786381449,0.0071919420328128685,-0.003073500012283487
450217000000,114,450217000000,BR_wheel_link,-5.3095212594177505,19.80279238144681,4.231381609171777,0.6258127262790162,0.27109192598717485,-0.4888473485587976
450218000000,115,450218000000,BR_wheel_link,-0.04816234010966718,1.0972374513819254,0.8873847683016106,-0.007692185885099243,0.007192758200751593,-0.0030677678785979556
450219000000,116,450219000000,BR_wheel_link,-5.30905493835011,19.8029937623732,4.229506274066444,0.6260331992243857,0.27106383763603126,-0.48880487273222883
450220000000,117,450220000000,BR_wheel_link,-0.048105515665891,1.0973029329311312,0.8872435985083184,-0.007692929825778265,0.007193576043777888,-0.003062039385062911
450221000000,118,450221000000,BR_wheel_link,-5.308588775914859,19.803194977883297,4.227631198294278,0.6262536328611065,0.27103575774525374,-0.488762410787408
450222000000,119,450222000000,BR_wheel_link,-0.04804872744639647,1.0973683761669606,0.8871024329109427,-0.007693672401139149,0.007194394710527415,-0.003056314267550525
450223000000,120,450223000000,BR_wheel_link,-5.308122765866754,19.80339612755061,4.225756442291496,0.6264740263480537,0.27100768587884083,-0.48871996201468715
450224000000,121,450224000000,BR_wheel_link,-0.04799197446002643,1.0974337944330192,0.886961302303626,-0.007694413941458244,0.007195213830288379,-0.0030505922719853643
450225000000,122,450225000000,BR_wheel_link,-5.307656907992935,19.8035973008463,4.223882084552927,0.6266943763510987,0.27097962204091225,-0.48867752637286194
450226000000,123,450226000000,BR_wheel_link,-0.0479352545333723,1.0974991956186528,0.8868202200451227,-0.007695155036090439,0.007196033522433146,-0.003044873314664607
450227000000,124,450227000000,BR_wheel_link,-5.307191204990538,19.803798519983566,4.222008176033156,0.6269146787090747,0.27095156649449903,-0.4886351042063405
450228000000,125,450228000000,BR_wheel_link,-0.04787856733427729,1.0975645844414856,0.8866791975130115,-0.007695896097000079,0.0071968537760309665,-0.0030391573412174534
450229000000,126,450229000000,BR_wheel_link,-5.306725657404576,19.803999794167535,4.220134755769679,0.6271349298047886,0.27092351937513304,-0.4885926956463191
450230000000,127,450230000000,BR_wheel_link,-0.047821911854731024,1.097629921565161,0.8865381566423503,-0.007696636005676517,0.0071976752246455345,-0.0030334450981751317
450231000000,128,450231000000,BR_wheel_link,-5.3062602424577285,19.804200880771766,4.218261613203292,0.6273551380723836,0.2708954795281892,-0.48855029857156657
450232000000,129,450232000000,BR_wheel_link,-0.047765290340264215,1.0976952644273144,0.8863972140071139,-0.007697376051202484,0.007198496669237964,-0.003027735457130383
450233000000,130,450233000000,BR_wheel_link,-5.305794985918661,19.80440215892692,4.216389047464252,0.627575293262744,0.27086744821782394,-0.4885079152840712
450234000000,131,450234000000,BR_wheel_link,-0.047708656129812246,1.097760700057639,0.8862564896836588,-0.007698119462902624,0.007199315993184921,-0.0030220251309987798
450235000000,132,450235000000,BR_wheel_link,-5.305329640509606,19.804603884554968,4.214517432733537,0.6277953725567178,0.270839411066915,-0.48846552132113774
450236000000,133,450236000000,BR_wheel_link,-0.04765203898438549,1.0978261414677277,0.8861158962271448,-0.007698865203880515,0.007200134804392812,-0.003016316007301211
450237000000,134,450237000000,BR_wheel_link,-5.304864286554383,19.804805542216258,4.212646537295721,0.628015370807131,0.2708113736860753,-0.4884231254982905
450238000000,135,450238000000,BR_wheel_link,-0.0475954490241765,1.0978915392421187,0.8859753337390445,-0.0076996131486489075,0.007200955695808646,-0.003010609902800664
450239000000,136,450239000000,BR_wheel_link,-5.304399031967525,19.805006822353956,4.210776142623347,0.6282352927463236,0.270783342677538,-0.4883807388416419
450240000000,137,450240000000,BR_wheel_link,-0.04753888835802696,1.0979569073429043,0.8858348187638789,-0.007700362917146812,0.007201778009341821,-0.003004906757891038
450241000000,138,450241000000,BR_wheel_link,-5.303933894768258,19.805207872991282,4.20890626927992,0.6284551442621474,0.27075531872662717,-0.4883383628058617
450242000000,139,450242000000,BR_wheel_link,-0.04748236404710707,1.098022267357394,0.8856944062868771,-0.007701113981407176,0.007202600338454728,-0.0029992061778995557
450243000000,140,450243000000,BR_wheel_link,-5.303468887000729,19.80540892203061,4.207037014405285,0.6286749276697998,0.2707273022337381,-0.4882959982559481
450244000000,141,450244000000,BR_wheel_link,-0.047425874627375714,1.0980876309651755,0.8855541105960829,-0.007701866722852725,0.007203422741206551,-0.00299350804882838
450245000000,142,450245000000,BR_wheel_link,-5.303004017810714,19.80561003531098,4.205168424020615,0.628894641723589,0.270699293707044,-0.488253646050576
450246000000,143,450246000000,BR_wheel_link,-0.047369418931671146,1.0981529982498772,0.8854139235149455,-0.007702621475913587,0.007204245618382548,-0.002987812482178599
450247000000,144,450247000000,BR_wheel_link,-5.302539294602217,19.805811186288903,4.2033004938064105,0.6291142853880974,0.2706712936367133,-0.48821130698010484
450248000000,145,450248000000,BR_wheel_link,-0.0473129982257166,1.098218367088975,0.8852738410060483,-0.0077033782518090375,0.007205069047131985,-0.002982119558462573
450249000000,146,450249000000,BR_wheel_link,-5.302074721294756,19.806012356884477,4.201433215100914,0.6293338585713115,0.2706433022725084,-0.4881689814565368
450250000000,147,450250000000,BR_wheel_link,-0.04725661314092109,1.098283735048367,0.8851338583157758,-0.007704137001843962,0.007205893079348142,-0.0029764293204786597
450251000000,148,450251000000,BR_wheel_link,-5.3016102977034025,19.806213529140624,4.199566575420703,0.6295533616069194,0.2706153196121798,-0.4881266694747881
450252000000,149,450252000000,BR_wheel_link,-0.0472002636362166,1.098349099040306,0.8849939681990209,-0.007704897652219414,0.007206717794360987,-0.0029707418055580585
450253000000,150,450253000000,BR_wheel_link,-5.301146021414049,19.80641468045911,4.1977005561326095,0.629772795225628,0.2705873455155965,-0.48808437080462125
450254000000,151,450254000000,BR_wheel_link,-0.04714394969917295,1.0984144562875895,0.8848541645887756,-0.0077056600779013065,0.007207543216295191,-0.0029650570352595415
450255000000,152,450255000000,BR_wheel_link,-5.300681889405097,19.806615795013602,4.19583513927228,0.6299921604638355,0.2705593797916519,-0.488042085141228
450256000000,153,450256000000,BR_wheel_link,-0.04708767123305128,1.0984798047953155,0.8847144430470366,-0.007706424143505005,0.007208369338769651,-0.0029593750168995354
450257000000,154,450257000000,BR_wheel_link,-5.300217898915641,19.806816864675024,4.193970310097183,0.6302114584412769,0.2705314222546321,-0.4879998121949954
450258000000,155,450258000000,BR_wheel_link,-0.047031428011977405,1.0985451432344633,0.8845748001815301,-0.007707189729340513,0.0072091961532306835,-0.0029536957533066828
450259000000,156,450259000000,BR_wheel_link,-5.299754047891657,19.80701788603335,4.192106056866091,0.6304306902196871,0.2705034727578451,-0.4879575517433902
450260000000,157,450260000000,BR_wheel_link,-0.046975271722583416,1.0986104615050873,0.8844352447037023,-0.0077079568379446505,0.007210023072662992,-0.0029480193907131078
450261000000,158,450261000000,BR_wheel_link,-5.299290487558861,19.80721887967901,4.190242404819424,0.6306498536941043,0.27047554014910896,-0.48791531885854816
450262000000,159,450262000000,BR_wheel_link,-0.04691920208187028,1.09867574957944,0.8842957459128091,-0.007708725232825399,0.007210851263622582,-0.00294234709867737
450263000000,160,450263000000,BR_wheel_link,-5.298827300763461,19.807419825974733,4.188379285552097,0.6308689545482034,0.2704476291466262,-0.4878731216890776
450264000000,161,450264000000,BR_wheel_link,-0.046862944666771725,1.0987400698663345,0.8841538849702051,-0.007709463899787395,0.007211689716092548,-0.0029366832809401685
450265000000,162,450265000000,BR_wheel_link,-5.298362243077758,19.80761391616044,4.1865104596376534,0.6310882811945484,0.27041960952832617,-0.4878307390992105
450266000000,163,450266000000,BR_wheel_link,-0.0468056332010441,1.0988021133076318,0.8840062166869059,-0.0077100986904113785,0.0072125365731651875,-0.0029310247252916366
450267000000,164,450267000000,BR_wheel_link,-5.2978899667953065,19.80779268687991,4.184625935697181,0.6313084384700132,0.27039116466958174,-0.48778763666360536
450268000000,165,450268000000,BR_wheel_link,-0.046748535848947705,1.0988648007004875,0.8838608497540663,-0.007710679273316343,0.007213321355497148,-0.002925337609857212
450269000000,166,450269000000,BR_wheel_link,-5.297417299074784,19.807981131397163,4.182744785608011,0.6315287771024316,0.27036268202169017,-0.4877444778282179
450270000000,167,450270000000,BR_wheel_link,-0.04669137285534301,1.0989282490139285,0.8837169638614738,-0.0077112821651731875,0.007214110155292578,-0.0029196455207452466
450271000000,168,450271000000,BR_wheel_link,-5.296945869040163,19.80817490653162,4.180868150960537,0.6317489266752813,0.2703342709198706,-0.4877014378865784
450272000000,169,450272000000,BR_wheel_link,-0.04663423007039389,1.0989920574707948,0.8835733759542291,-0.00771191903288017,0.007214928030349144,-0.002913969784525178
450273000000,170,450273000000,BR_wheel_link,-5.296476570607503,19.80837007268786,4.178993968614341,0.6319688834031464,0.2703059869016144,-0.4876586100311714
450274000000,171,450274000000,BR_wheel_link,-0.04657752115136583,1.0990566451574661,0.8834320032872647,-0.00771256865613591,0.007215722640949781,-0.0029083007494804377
450275000000,172,450275000000,BR_wheel_link,-5.2960097336419745,19.808572223032844,4.177125425653531,0.6321886206663987,0.27027784454816633,-0.4876160210329534
450276000000,173,450276000000,BR_wheel_link,-0.046521144802266025,1.0991222158345135,0.8832932493824572,-0.007713249700123808,0.007216497534649499,-0.002902630064909079
450277000000,174,450277000000,BR_wheel_link,-5.295544872015033,19.80878131243153,4.175264011444408,0.6324079805966697,0.2702498202226413,-0.48757362621923345
450278000000,175,450278000000,BR_wheel_link,-0.04646484911273449,1.0991882504659605,0.883155437154274,-0.007713980979000317,0.007217291993523455,-0.002896965642114716
450279000000,176,450279000000,BR_wheel_link,-5.2950813317101,19.808991018181676,4.173406831811782,0.6326269205411247,0.2702218829162719,-0.48753136876884823
450280000000,177,450280000000,BR_wheel_link,-0.0464087027206061,1.0992544245982514,0.8830181674425502,-0.007714747072835706,0.007218097784076742,-0.0028913078830493694
450281000000,178,450281000000,BR_wheel_link,-5.294618587268642,19.80919968281418,4.171552385817765,0.6328455091642883,0.2701940013141992,-0.48748919662303847
450282000000,179,450282000000,BR_wheel_link,-0.046352714328024014,1.0993206443744032,0.8828813695651182,-0.007715536252747681,0.0072189064533582405,-0.0028856534608895927
450283000000,180,450283000000,BR_wheel_link,-5.294156204435039,19.80940725796864,4.169700050037198,0.6330638112237514,0.2701661481091325,-0.487447065101458
450284000000,181,450284000000,BR_wheel_link,-0.04629682234672043,1.0993868015610486,0.8827447070043546,-0.007716343355251668,0.007219720394484756,-0.0028800017423793295
450285000000,182,450285000000,BR_wheel_link,-5.2936938781321246,19.809613053516152,4.167848916837899,0.6332818853017115,0.27013830438215153,-0.48740494331020806
450286000000,183,450286000000,BR_wheel_link,-0.0462411333898538,1.0994531049708487,0.8826088014922477,-0.007717170477456346,0.0072205371516349546,-0.0028743539889201576
450287000000,184,450287000000,BR_wheel_link,-5.2932325009141605,19.809819219298863,4.166000328690695,0.6334997038216931,0.27011052029756777,-0.4873629178035609
450288000000,185,450288000000,BR_wheel_link,-0.04618576841613469,1.099519831627387,0.8824741570574697,-0.007718032874794266,0.007221367285221032,-0.002868718426644749
450289000000,186,450289000000,BR_wheel_link,-5.292773675018146,19.810027705513058,4.164155880909457,0.6337171982354664,0.2700828885485899,-0.4873211468176566
450290000000,187,450290000000,BR_wheel_link,-0.04613015260564802,1.0995860480674187,0.8823378488361391,-0.007718900814260158,0.007222219534213614,-0.002863094659061118
450291000000,188,450291000000,BR_wheel_link,-5.292313683748329,19.810230507450793,4.162308378547178,0.6339347027499226,0.27005519149983964,-0.4872792627077582
450292000000,189,450292000000,BR_wheel_link,-0.04607329294849486,1.0996532356574782,0.8822038235370997,-0.007719760442247036,0.0072230545166870885,-0.00285746509281534
450293000000,190,450293000000,BR_wheel_link,-5.291850462722713,19.810439696980534,4.1604650450968395,0.634152123152767,0.2700273015729181,-0.487237048629753
450294000000,191,450294000000,BR_wheel_link,-0.04601597756659262,1.0997205053113306,0.8820692789972532,-0.007720652990927707,0.007223891227568874,-0.0028518029728667143
450295000000,192,450295000000,BR_wheel_link,-5.2913832710184945,19.810644289684834,4.158621902348704,0.6343692864529917,0.26999918785338434,-0.487194446792872
450296000000,193,450296000000,BR_wheel_link,-0.04595876705474142,1.0997878919991713,0.881935808291878,-0.007721547310180382,0.007224681566600115,-0.0028461117826544596
450297000000,194,450297000000,BR_wheel_link,-5.290913365224718,19.810848425921684,4.156781154264652,0.6345861842550252,0.26997092087083024,-0.4871515780608118
450298000000,195,450298000000,BR_wheel_link,-0.045901567237154384,1.0998554316557156,0.8818031840483294,-0.007722460090594809,0.007225449992816852,-0.002840399576951534
450299000000,196,450299000000,BR_wheel_link,-5.2904416097785,19.81105154608937,4.154943028925618,0.6348027567008916,0.26994255393218997,-0.48710853077587307
450300000000,197,450300000000,BR_wheel_link,-0.04584514560570201,1.099922396550264,0.881669776901607,-0.007723395610036551,0.0072262173544135055,-0.0028346793604768954
450301000000,198,450301000000,BR_wheel_link,-5.289970453410859,19.811248963519255,4.1531046254909265,0.6350190453975807,0.2699142319182712,-0.4870655528628302
450302000000,199,450302000000,BR_wheel_link,-0.045789367707966246,1.0999887680955056,0.881535873626696,-0.007724326723620122,0.007226987234849746,-0.0028289752965606732
450303000000,200,450303000000,BR_wheel_link,-5.289501291438193,19.811443510546464,4.151265498791067,0.6352352427436855,0.2698860296236049,-0.4870227760061727
450304000000,201,450304000000,BR_wheel_link,-0.045733866634280765,1.1000545337719938,0.8814007741972931,-0.0077252517700786925,0.007227786985252611,-0.0028232984910443273
450305000000,202,450305000000,BR_wheel_link,-5.289034318153728,19.81163497000124,4.149424087923068,0.6354514968271642,0.2698579547965718,-0.48698021651098017
450306000000,203,450306000000,BR_wheel_link,-0.0456787630905566,1.100119624227362,0.8812642068115101,-0.0077261589124233325,0.007228614060277049,-0.002817650424821808
450307000000,204,450307000000,BR_wheel_link,-5.288569925122227,19.81182385644526,4.147579428608225,0.635667936548158,0.2698300255236636,-0.4869379096067362
450308000000,205,450308000000,BR_wheel_link,-0.04562387397942266,1.1001844754173342,0.8811271778765476,-0.007727038963688263,0.007229455432187595,-0.0028120296905235374
450309000000,206,450309000000,BR_wheel_link,-5.28810806455476,19.81201439914296,4.145733236301588,0.6358846139392151,0.26980223342989545,-0.4868958444098218
450310000000,207,450310000000,BR_wheel_link,-0.04556928846965475,1.1002508997287483,0.8809937968114058,-0.00772794666802104,0.00723029417012327,-0.0028064207450382806
450311000000,208,450311000000,BR_wheel_link,-5.28765108943687,19.812218443452092,4.143895969540625,0.636101073240153,0.2697747145354331,-0.48685425077235167
450312000000,209,450312000000,BR_wheel_link,-0.045514585786711526,1.1003176588141785,0.8808603811616923,-0.007728893330498311,0.007231173185919187,-0.002800832960622242
450313000000,210,450313000000,BR_wheel_link,-5.287196139928858,19.81242297439661,4.142060308751151,0.636317378142874,0.2697473131488623,-0.486812857753424
450314000000,211,450314000000,BR_wheel_link,-0.04545989489069712,1.1003839436122846,0.8807258187887874,-0.0077298239760067704,0.007232054507738355,-0.002795255879817783
450315000000,212,450315000000,BR_wheel_link,-5.286740653251296,19.812624419262352,4.140221883340487,0.6365338044062793,0.2697198765142105,-0.48677140858659923
450316000000,213,450316000000,BR_wheel_link,-0.04540526557553109,1.100449974130048,0.8805909103189635,-0.007730724824599986,0.007232919583539243,-0.00278967783331328
450317000000,214,450317000000,BR_wheel_link,-5.286284357870557,19.812825621213605,4.138381892294916,0.6367503848317624,0.2696923856990172,-0.4867298725448424
450318000000,215,450318000000,BR_wheel_link,-0.1261585158111434,0.9152201818300588,0.5461565576375594,-0.06134408000333584,0.0025603549275013556,-0.0008047373358260596
450319000000,216,450319000000,BR_wheel_link,-2.376727265605821,6.694122430750313,6.901969433751569,-0.4323156045475597,0.1418439791357164,-0.23689268858938323
450320000000,217,450320000000,BR_wheel_link,0.1524471636531381,-0.10640173237241962,-0.3429325777633196,-0.109285107174318,0.000378265883720615,0.011207388852908244
450321000000,218,450321000000,BR_wheel_link,0.2160423903157775,-0.49135560581740767,-1.1046080714732809,0.007921490905288146,0.010104486083756192,-0.00397361047333707
450322000000,219,450322000000,BR_wheel_link,0.0003185066321355438,-0.468002083525042,-1.0149637425372193,0.006027805554782935,-0.006426864414577604,0.005817525581122149
450323000000,220,450323000000,BR_wheel_link,0.08387205686519938,-0.2670969781246323,-0.33939579517589474,-0.004914023778730895,0.004034491677852433,-0.005196060636508461
450324000000,221,450324000000,BR_wheel_link,0.12326092077145984,0.11737919132843846,-0.15022960203308022,-0.010780653697658887,-0.00902659091877671,0.017628652362516144
450325000000,222,450325000000,BR_wheel_link,0.0015013157727384674,-0.24583997646755837,-0.306379332784731,-0.004546098143476614,0.005970875923433999,-0.006784798982772445
450326000000,223,450326000000,BR_wheel_link,-0.21164190690255702,-0.41995971444890295,-0.5990462889251295,-0.0004284660704690421,-0.007768675029302996,8.61459849438621e-05
450327000000,224,450327000000,BR_wheel_link,0.0020771185532409415,-0.1665541834777484,-0.09831369632424039,-0.007461010961593701,0.003458123251475548,-0.005989072073899455
450328000000,225,450328000000,BR_wheel_link,2.050579381246401,17.246630762427152,9.734714779704296,-0.0007369042971709764,-0.13412034592998195,0.22076031389025985
450329000000,226,450329000000,BR_wheel_link,0.09078074202228067,-0.0709787787966867,-0.00981242464106469,-0.0013503592506919665,-0.005525508586590861,0.009004507630130424
450330000000,227,450330000000,BR_wheel_link,0.03884683382074534,22.144750050430314,10.701872782607383,0.16994721062428275,-0.010579636663663886,0.013401816782187817
450331000000,228,450331000000,BR_wheel_link,-0.2103555555382651,1.2068410288096323,-0.25179403228649777,0.09173514778156175,0.008304955842459874,-0.017161677172529005
450332000000,229,450332000000,BR_wheel_link,-0.3124337443107167,-0.47686974112228475,0.16922903872954428,-0.025418888673133976,0.0011910105785282708,-0.02051721395231509
450333000000,230,450333000000,BR_wheel_link,-3.9399344176573097,8.175214715742095,2.9682829476993597,0.11718496741769972,0.2187368695463402,-0.380682315893424
450334000000,231,450334000000,BR_wheel_link,0.0574147116145164,0.5097319400979619,0.5024886242275577,-0.025158543888384316,0.00577436208336274,-0.0036221304046837924
450335000000,232,450335000000,BR_wheel_link,-4.4136080555205295,16.537549392007122,4.043554141245341,0.46322261672748344,0.2278481674114694,-0.409581281056763
450336000000,233,450336000000,BR_wheel_link,0.0957176085433402,0.8840203096360352,0.6299503331215288,-0.013737711973087657,0.006588836888577201,-0.0005069399068801124
450337000000,234,450337000000,BR_wheel_link,-4.300473763071511,17.34008383848928,3.529971139101035,0.5639761539356813,0.21729611422988226,-0.3946631874368848
450338000000,235,450338000000,BR_wheel_link,0.09544685276851414,0.976803373180658,0.6209049894209525,-0.008821177183104753,0.007021045425060883,0.0007560442503306862
450339000000,236,450339000000,BR_wheel_link,-4.480514268857988,18.441953372823296,3.4366236258003076,0.636179969587228,0.22424702042763192,-0.4092279754934518
450340000000,237,450340000000,BR_wheel_link,0.005333582830048662,1.1092052244925226,0.9091571186898226,-0.007348700429088332,0.004045638744442744,0.0003508375973171166
450341000000,238,450341000000,BR_wheel_link,-4.980500960738911,19.860818422987712,4.00527129276633,0.6532409561107605,0.2515951971774842,-0.45710403896214236
450342000000,239,450342000000,BR_wheel_link,-0.010772230780170896,1.1604166249391414,0.951400343583291,-0.009049420246801413,0.006260919384284401,-0.0013087635604866568
450343000000,240,450343000000,BR_wheel_link,-5.238726986106819,20.21714769207155,4.156881088249801,0.6561722098673143,0.2663052606613004,-0.48239925824973834
450344000000,241,450344000000,BR_wheel_link,-0.028995580212615637,1.168854264509142,0.9492711751687448,-0.00961371775132124,0.0075293280804639515,-0.0026227393848250397
450345000000,242,450345000000,BR_wheel_link,-5.384570553497288,20.283218844157783,4.162263833003676,0.658915405393293,0.2747285710455626,-0.49683301512033895
450346000000,243,450346000000,BR_wheel_link,-0.04296875507205395,1.1626058537633461,0.9345243947652925,-0.00954089469577962,0.008144852077309642,-0.0033879232285957067
450347000000,244,450347000000,BR_wheel_link,-5.450614090996315,20.249391237498383,4.112467470832219,0.6622456305996475,0.278566345669114,-0.503424791475538
450348000000,245,450348000000,BR_wheel_link,-0.05205371210152266,1.1529334850332376,0.9182582406469448,-0.009236398228709324,0.008357921902962093,-0.003721250625787295
450349000000,246,450349000000,BR_wheel_link,-5.468848031197501,20.18852930738743,4.049015699972056,0.6656792126099652,0.2796329228711645,-0.5052900108627865
450350000000,247,450350000000,BR_wheel_link,-0.05736521290006511,1.1441353634055678,0.9043912700583636,-0.008907739799577106,0.008358374620559288,-0.00379090564974445
450351000000,248,450351000000,BR_wheel_link,-5.46291597646704,20.12959409631225,3.989382486196827,0.6688837844456089,0.27929285101682444,-0.504757799526045
450352000000,249,450352000000,BR_wheel_link,-0.06022027819952272,1.1374985549370957,0.8938204027813321,-0.0086390426920152,0.0082721616135961,-0.0037317110167609698
450353000000,250,450353000000,BR_wheel_link,-5.447596242350388,20.08291888071744,3.9390513414693635,0.6717997532843075,0.27840208498931757,-0.5032885491022587
450354000000,251,450354000000,BR_wheel_link,-0.06168701112219635,1.133060368280482,0.8862576366945918,-0.008451154372565672,0.008171559249831425,-0.0036324367189536763
450355000000,252,450355000000,BR_wheel_link,-5.431913352347683,20.051410117783924,3.898049253078453,0.6745536702748203,0.27748156497680304,-0.5017733197935815
450356000000,253,450356000000,BR_wheel_link,-0.062470903733052946,1.1304190153937408,0.8810124779639869,-0.008336945528504041,0.008090251203570068,-0.003539984233305366
450357000000,254,450357000000,BR_wheel_link,-5.419768457773456,20.031988212312953,3.8654091908096744,0.6770677061601977,0.2767645713111265,-0.5006053239041078
450358000000,255,450358000000,BR_wheel_link,-0.06293819679527031,1.1291480759823698,0.877395301003726,-0.008274058593458615,0.008037464536107975,-0.0034699460405250826
450359000000,256,450359000000,BR_wheel_link,-5.4117965221053925,20.022494779224427,3.838764493180429,0.6794741158458124,0.2762861935025639,-0.49984631446051714
450360000000,257,450360000000,BR_wheel_link,-0.06330262666589669,1.1288504248728857,0.8748517986102413,-0.00824387667150026,0.008012913291999975,-0.0034266043789940876
450361000000,258,450361000000,BR_wheel_link,-5.407819803317958,20.02067839626945,3.8161023583788682,0.6818642639719691,0.2760352591248787,-0.49947830794927234
450362000000,259,450362000000,BR_wheel_link,-0.06366718517627536,1.1292082876140492,0.8729741026061565,-0.00823253381737396,0.0080118324951799,-0.003407477161331591
450363000000,260,450363000000,BR_wheel_link,-5.407106669917815,20.024442534504846,3.795902503695906,0.6842875079575156,0.2759693347908093,-0.4994291660294077
450364000000,261,450364000000,BR_wheel_link,-0.06407122943815663,1.1299873274173255,0.8714864004077568,-0.00823085992933566,0.008028356557265496,-0.003407506711626124
450365000000,262,450365000000,BR_wheel_link,-5.408800052081732,20.03205010321067,3.77712240420464,0.6867625252871222,0.27603925592877077,-0.4996147277205709
450366000000,263,450366000000,BR_wheel_link,-0.06452153767378356,1.131024338727918,0.8702135004012185,-0.008233425743810802,0.008057108090216494,-0.0034213184838259207
450367000000,264,450367000000,BR_wheel_link,-5.412123837885878,20.042159302365487,3.759099130687773,0.6892889909992621,0.2762008136810208,-0.4999590078176829
450368000000,265,450368000000,BR_wheel_link,-0.06501077761025782,1.132210607543361,0.8690502357019642,-0.008237394709936561,0.008093785308929537,-0.0034442599902243585
450369000000,266,450369000000,BR_wheel_link,-5.416460086646425,20.053787381358376,3.741439506840567,0.6918569939930614,0.2764190202028331,-0.5004016713079709
450370000000,267,450370000000,BR_wheel_link,-0.06552748493872204,1.1334765516403877,0.8679370172423974,-0.008241536464904015,0.008135234691382585,-0.0034727391955120357
450371000000,268,450371000000,BR_wheel_link,-5.4213580471255245,20.066248051105,3.7239269679964138,0.6944534770850999,0.27666849813722794,-0.5008988236859669
450372000000,269,450372000000,BR_wheel_link,-0.0660612650031947,1.1347798546520327,0.8668417522235033,-0.008245505193973796,0.008179320507495801,-0.0035042452327508624
450373000000,270,450373000000,BR_wheel_link,-5.4266147810039955,20.079431378447048,3.7063010664185074,0.6971004157062219,0.27693676532655215,-0.5014296997628147
450374000000,271,450374000000,BR_wheel_link,-0.06661146180961611,1.1360849332239524,0.8657470486517794,-0.008250223971513817,0.008225003894546699,-0.0035377211547618233
450375000000,272,450375000000,BR_wheel_link,-5.432020042135424,20.092842121908056,3.688565803603294,0.6997709487669106,0.2772127643518066,-0.5019745440242438
450376000000,273,450376000000,BR_wheel_link,-0.06717432264349199,1.1373744423877172,0.8646472211337043,-0.008256269284076046,0.008271682598648673,-0.003572340700473363
450377000000,274,450377000000,BR_wheel_link,-5.437435449419501,20.106017799209532,3.6708421123637955,0.7024274493562628,0.2774899469849714,-0.5025210360133165
450378000000,275,450378000000,BR_wheel_link,-0.06773930661562054,1.1386484276449147,0.8635429673679058,-0.008263042436532345,0.008318325573070544,-0.0036068734324244947
450379000000,276,450379000000,BR_wheel_link,-5.442750960305457,20.11895554644721,3.653103399872772,0.7050729379672307,0.27776179484438146,-0.5030581451298106
450379000000,277,450380000000,BR_wheel_link,-0.06830184915109247,1.139907983461418,0.8624336774362802,-0.008270502438725732,0.008364648681534088,-0.0036408485622771714
450381000000,278,450381000000,BR_wheel_link,-5.447932561947106,20.13165428191951,3.6353446808631382,0.707707945698686,0.27802630219350033,-0.5035824686572371
450382000000,279,450382000000,BR_wheel_link,-0.06886073000505251,1.141154188127769,0.8613199173638906,-0.008278651621179295,0.008410578133362318,-0.0036741679151468926
450383000000,280,450383000000,BR_wheel_link,-5.452980520281869,20.144128181630755,3.6175666572828935,0.7103331141927056,0.2782834497038975,-0.5040939988015924
450384000000,281,450384000000,BR_wheel_link,-0.0694161196047874,1.1423884364581864,0.8602024616788104,-0.008287468402965176,0.00845614144340721,-0.003706895969067486
450385000000,282,450385000000,BR_wheel_link,-5.457909634519732,20.15640235981894,3.5997703264596015,0.7129496089468301,0.27853404292043005,-0.5045941515443194
450386000000,283,450386000000,BR_wheel_link,-0.0699687399218476,1.143612279228691,0.8590819564876454,-0.008296902106039243,0.008501409551924164,-0.0037391615536103637
450387000000,284,450387000000,BR_wheel_link,-5.4627395773269685,20.168506691173977,3.581955615736613,0.7155589623420658,0.27877915783770013,-0.5050848150345805
450388000000,285,450388000000,BR_wheel_link,-0.07039420855584846,1.1445022428992795,0.8578016726332071,-0.008287144305605914,0.008556424787528893,-0.003790323658911735
450389000000,286,450389000000,BR_wheel_link,-5.467921544407688,20.18064815811245,3.563269864008312,0.7182535679570687,0.2790424569171379,-0.5056078209785292
450390000000,287,450390000000,BR_wheel_link,-0.12797018957925532,1.090825511789553,0.7632309388163053,-0.007647135612525066,0.00857716376371595,-0.004125309624756595
450391000000,288,450391000000,BR_wheel_link,-5.575270868641806,19.905197967424783,3.361621000751121,0.7239202677523386,0.2855768481097929,-0.516612437018903
450392000000,289,450392000000,BR_wheel_link,-0.14002290171571813,1.0665301820241753,0.7267503409616973,-0.006134858169622592,0.009340358307154404,-0.005635790690459194
450393000000,290,450393000000,BR_wheel_link,-5.701617228831978,19.91317257502544,3.216525440607495,0.7389082202709147,0.2925839116480535,-0.5288912182151074
450394000000,291,450394000000,BR_wheel_link,-0.14406333361709708,1.0654514182546135,0.7174808198719721,-0.0050313177440976286,0.009752946155513767,-0.006469556662696408
450395000000,292,450395000000,BR_wheel_link,-5.791949523104299,20.043853275677264,3.1421533274681144,0.7534866024944221,0.297377730501218,-0.5374812670871069
450396000000,293,450396000000,BR_wheel_link,-0.14425281234514536,1.0731218232233344,0.7187445441216999,-0.004354993283375025,0.010048677071989072,-0.006998058167463416
450397000000,294,450397000000,BR_wheel_link,-5.8585364331457335,20.19379158708296,3.105765128744174,0.7653072495898162,0.3008430125705783,-0.5437594914942775
450398000000,295,450398000000,BR_wheel_link,-0.1447186720462127,1.0812805830004313,0.721072006336175,-0.003958889219388967,0.010279730050403448,-0.007359614724602509
450399000000,296,450399000000,BR_wheel_link,0.14661945407603277,13.707840895155968,-2.8891812161918633,1.0142290838124128,-0.018974261907565043,0.028358559113144312
450400000000,297,450400000000,BR_wheel_link,-0.07155844846233783,0.21689783526518144,-0.08420699197547328,0.02330851017333654,0.0046327963379659415,0.008466538497085422
450401000000,298,450401000000,BR_wheel_link,-0.06666896090241843,-0.4388806213039608,-0.20767846506615847,0.009745344505173044,-0.0036074880231025115,0.006656543230994373
450402000000,299,450402000000,BR_wheel_link,-2.0325065833704943,18.561312397748168,3.9477830203215905,0.653465614269854,0.08983544080747431,-0.16624927443752208
450403000000,300,450403000000,BR_wheel_link,-0.10118896377867662,-0.13661454888944094,-0.20069024635372737,0.016232621914856426,0.003519264649451854,-0.003945152910007527
450404000000,301,450404000000,BR_wheel_link,-2.0983719013209465,13.66177409911853,4.371317151775225,0.3292849153856335,0.10494964532880209,-0.18419540406572954
450405000000,302,450405000000,BR_wheel_link,-0.1155178002110956,0.0345479406835221,-0.015169762015375704,0.004999236547846299,0.005818040289045332,-0.010027803764719035
450406000000,303,450406000000,BR_wheel_link,-0.650559987182228,22.991315985676952,8.569024879364385,0.43029982821669505,0.03342162249590603,-0.05685085813884355
450407000000,304,450407000000,BR_wheel_link,-0.12956307200348907,0.009335366403554582,-0.03980889109063229,0.007445958433239338,0.0039179636798955565,-0.008171369165746267
450408000000,305,450408000000,BR_wheel_link,-1.4845057508235486,13.059882760470947,4.876316396576752,0.24122959839701347,0.07983804008595152,-0.1410185604222521
450409000000,306,450409000000,BR_wheel_link,-0.05359486012503881,0.06176688490974984,-0.018035035583592485,0.0049033577821193984,0.002866869909943313,-0.004752339954518192
450410000000,307,450410000000,BR_wheel_link,-0.7845202202351738,29.2956281083554,12.75501529645263,0.36952183182039283,0.04101363856795984,-0.07298290082731468
450411000000,308,450411000000,BR_wheel_link,-0.06237603979832807,-0.0991648181090026,-0.11016826348049855,0.004340830025007308,0.0029978284977986588,-0.006084135873160009
450412000000,309,450412000000,BR_wheel_link,0.045421175692543066,0.21387584923410446,0.25603753313768335,-0.009021872744104487,-0.00533065715028819,0.009647016423107307
450413000000,310,450413000000,BR_wheel_link,-4.207594956681729,17.610143152790332,2.4410060751921336,0.6981050612262815,0.20938857723980228,-0.38448769957839546
450414000000,311,450414000000,BR_wheel_link,0.05342901082685816,1.283589433749455,1.0477990025302624,-0.015024443029144557,0.0024649239832541517,0.007016469696768822
450415000000,312,450415000000,BR_wheel_link,-2.349943592417372,21.22674299619171,3.7533643944959088,0.7553476950149748,0.12870161015040224,-0.22754653235346353
450416000000,313,450416000000,BR_wheel_link,-0.5567586495015638,-0.08305544203278951,0.5070753533447513,-0.020322565761424577,0.004979751498954778,-0.035853160472309596
450417000000,314,450417000000,BR_wheel_link,-0.8455426110390388,3.0387776820849144,-1.472215695850918,0.2777193748868689,0.06465623853550527,-0.09766971319701835
450418000000,315,450418000000,BR_wheel_link,-0.1485374467869373,-1.08189791966644,-0.3689877810606514,-0.010539634006195,0.010273206634610847,-0.020744251721545513
450419000000,316,450419000000,BR_wheel_link,0.0332805247916994,-0.00888580128999032,-0.0077114025874685955,0.00046195578662871134,-0.0008435037613617632,0.00188367612189716
450420000000,317,450420000000,BR_wheel_link,0.31629648124223936,-0.47273423405064297,-0.6672649857528214,0.024258574592805178,-0.005251356778959142,0.021735447391942324
450421000000,318,450421000000,BR_wheel_link,-0.25602198115808333,-1.4634520694103612,-0.19747706815865002,-0.025409195897844544,0.006806455084089489,-0.021910143071892617
450422000000,319,450422000000,BR_wheel_link,0.04280824198176674,0.000252621207646389,-0.024685343736979733,0.001042175393346379,-0.0006734393222163105,0.001743138463301872
450423000000,320,450423000000,BR_wheel_link,0.30494462099698394,-0.5001638431138208,-0.7076070065578818,0.025539579728892696,-0.00523848664545226,0.02146726791741842
450424000000,321,450424000000,BR_wheel_link,-0.25140782153938585,-1.3967464463651038,-0.14316532458777262,-0.02477264468105038,0.0056047554747670186,-0.02110104321050361
450425000000,322,450425000000,BR_wheel_link,0.01799767167353534,-0.0006344926121303927,-0.01600789390292585,0.0007112856667368828,-0.0004706104547128399,0.000888993433516158
450426000000,323,450426000000,BR_wheel_link,0.2841658841631676,-0.4968109483359277,-0.6896123323117025,0.024900229593379876,-0.004943821525849629,0.020495784607822344
450427000000,324,450427000000,BR_wheel_link,-0.2637151017682546,-1.4054758254781379,-0.12033346560028094,-0.025043591176962445,0.005293452080153978,-0.021344440867216118
450428000000,325,450428000000,BR_wheel_link,0.014220074458999674,0.0007227552566741152,-0.018296836671790044,0.0007360055468143877,-0.000403302360423637,0.0007225090472928144
450429000000,326,450429000000,BR_wheel_link,0.28090155953393164,-0.5026610354867425,-0.6930108913021583,0.025025071840033088,-0.004863751431046436,0.020426225592532706
450430000000,327,450430000000,BR_wheel_link,-0.26972732289508045,-1.3976305045543005,-0.10998907501128534,-0.024958626213745214,0.0050913408340124856,-0.021284304711646017
450431000000,328,450431000000,BR_wheel_link,0.014026305195545902,0.0032149507866270923,-0.01443987429820447,0.0005977460693899698,-0.0003098212433174627,0.0005430952923472793
450432000000,329,450432000000,BR_wheel_link,0.2769441199692938,-0.5044739238617618,-0.6896225469081818,0.02493311690880226,-0.004783118417886686,0.020289048923534895
450433000000,330,450433000000,BR_wheel_link,-0.2720108869781701,-1.3975567275475405,-0.10808436388956552,-0.024857376705501748,0.005019174719690587,-0.021238750748814098
450434000000,331,450434000000,BR_wheel_link,0.013682914185839671,0.004682715866193754,-0.012488492090276316,0.0005136007394064692,-0.0002597501339107448,0.00044673810052572475
450435000000,332,450435000000,BR_wheel_link,0.27469727989132176,-0.5055497864943148,-0.6864491567524701,0.024852918832028347,-0.004725711010645634,0.020217195527168698
450436000000,333,450436000000,BR_wheel_link,-0.2722300835073722,-1.3963018802475025,-0.10684427324803815,-0.02479520921858002,0.004991396635034689,-0.021190668713062355
450437000000,334,450437000000,BR_wheel_link,0.012972303940216154,0.0051468678697425205,-0.011755158859466042,0.0004754682763125855,-0.0002315386765966378,0.00038619088484538697
450438000000,335,450438000000,BR_wheel_link,0.2736892511148942,-0.5071895036783086,-0.6847280988940647,0.02482673560501756,-0.004690657373149036,0.02020891837950989
450439000000,336,450439000000,BR_wheel_link,-0.2721791086427812,-1.394648608243763,-0.10488597405950595,-0.024782596632797322,0.00498285760237928,-0.021173182388150875
450440000000,337,450440000000,BR_wheel_link,0.012335075282750305,0.005288310531597599,-0.01158035374598427,0.0004566683112361699,-0.00021732526855088803,0.00035245801305266257
450441000000,338,450441000000,BR_wheel_link,0.27321825517366777,-0.5089983174766197,-0.6836728642605266,0.02482488835786135,-0.004667034207127931,0.020226126109644624
450442000000,339,450442000000,BR_wheel_link,-0.27204197504266986,-1.3929364921445753,-0.10278503519044571,-0.024788048317141063,0.004973836615313357,-0.021163594299388293
450443000000,340,450443000000,BR_wheel_link,0.011777921604172995,0.005284757141812027,-0.011386643535784178,0.0004425303028702964,-0.00020846753480482084,0.0003266907147873724
450444000000,341,450444000000,BR_wheel_link,0.2730117235809571,-0.5107741254143651,-0.6828792335447335,0.024832209370287284,-0.004648617224326724,0.02025340963786589
450445000000,342,450445000000,BR_wheel_link,-0.27198581724970944,-1.3913268496810083,-0.10052616544909589,-0.02480589368778905,0.004967712957536477,-0.021170701543766633
450446000000,343,450446000000,BR_wheel_link,0.011368380279420106,0.005333902428529004,-0.011288570774168796,0.0004309818779416326,-0.0002036395901421114,0.00031382106934427467
450447000000,344,450447000000,BR_wheel_link,0.2730601658529276,-0.5127167082944658,-0.6825186745546236,0.024854827024767875,-0.004634927604173682,0.020293642598838434
450448000000,345,450448000000,BR_wheel_link,-0.27207147624664424,-1.3895827383121062,-0.0978250339562475,-0.02483806104116877,0.004958342606944153,-0.02118528219899799
450449000000,346,450449000000,BR_wheel_link,0.011055517867231596,0.005362752057617697,-0.011225910997595638,0.00042214746585589026,-0.00020036073310314073,0.0003050234164988858
450450000000,347,450450000000,BR_wheel_link,0.27317509566063686,-0.5147247194242515,-0.6823246997019372,0.024883466566780636,-0.004623510413105169,0.020337438421858468
450451000000,348,450451000000,BR_wheel_link,-0.27222352322792864,-1.3878344368579043,-0.09493005445478167,-0.024875690049515037,0.004945611994390923,-0.02120219071589964
450452000000,349,450452000000,BR_wheel_link,0.010779040154280104,0.005384491274450226,-0.011161472505943737,0.00041412776907055006,-0.0001978516251929108,0.00029769680072546447
450453000000,350,450453000000,BR_wheel_link,0.27329576936155,-0.5167459743882167,-0.6821757091896302,0.024913860500614747,-0.004613030811276669,0.02038154097359396
450454000000,351,450454000000,BR_wheel_link,-0.2724352921074286,-1.3860716121521095,-0.09190738678906782,-0.024916183633652236,0.0049307377854988475,-0.021220350159936282
450455000000,352,450455000000,BR_wheel_link,0.010532402041114499,0.005399630963016596,-0.011106126866285633,0.00040694933097655225,-0.0001957805200891791,0.0002914465072786618
450456000000,353,450456000000,BR_wheel_link,0.2734262319826561,-0.5188063471098576,-0.6820824523062136,0.024946471881936893,-0.004603268737445763,0.020426674938437066
450457000000,354,450457000000,BR_wheel_link,-0.27270841190116407,-1.3842895376608262,-0.08878221373978473,-0.0249590936623041,0.004914768811668935,-0.02124001518686366
450458000000,355,450458000000,BR_wheel_link,0.010324579062516775,0.005383359023995801,-0.011104374414011773,0.00040199427752051164,-0.00019428529052159958,0.0002870608640307285
450459000000,356,450459000000,BR_wheel_link,0.2735263157900742,-0.5208397325262643,-0.6819391016848197,0.024977516392448138,-0.004593337460925886,0.02047013233589085
450460000000,357,450460000000,BR_wheel_link,-0.2729892080466378,-1.3825191325971278,-0.08564146483570548,-0.02500165203602739,0.004897648733656019,-0.021258958947573344
450461000000,358,450461000000,BR_wheel_link,0.010259223001772875,0.005188770656933012,-0.011424383339157766,0.00040367775606468413,-0.0001949598761324858,0.00029053751279786537
450462000000,359,450462000000,BR_wheel_link,0.2729761734605842,-0.5217088111124057,-0.6803031105446948,0.024954671075941143,-0.004573828847033188,0.02046584285586462
450463000000,360,450463000000,BR_wheel_link,-0.334769434557075,-0.38975439385564625,0.5653050120032095,-0.041962511161541254,0.009881839123321922,-0.03134032893363277
450464000000,361,450464000000,BR_wheel_link,0.42263305543240826,-0.9124196597909672,-1.2368343233459198,0.044884368265175896,-0.008907429322036206,0.0326787075506444
450465000000,362,450465000000,BR_wheel_link,-0.36212964134015374,-1.3824873162751659,0.03204236643080305,-0.02704649450470804,0.003923868534523684,-0.023613651583395734
450466000000,363,450466000000,BR_wheel_link,0.004834565558375744,0.005643369362037525,-0.004290208286413557,0.00024313377000974925,-0.00027421421367745854,0.00016941242496670717
