%time,field.header.seq,field.header.stamp,field.header.frame_id,field.wrench.force.x,field.wrench.force.y,field.wrench.force.z,field.wrench.torque.x,field.wrench.torque.y,field.wrench.torque.z
450113000000,0,450103000000,FR_wheel_link,-0.3018322792368626,0.3675328178104837,0.5368871099247907,0.04025632227762678,0.00880405826880837,0.02979972869883706
450113000000,1,450104000000,FR_wheel_link,0.4939678692132838,0.6392652382219637,-1.1553149496016826,-0.05811341963906196,-0.014128391423240363,-0.04899400624103144
450113000000,2,450105000000,FR_wheel_link,-0.3018666264507998,0.36762429902597976,0.5368349212156559,0.04025394864730706,0.008804353601124599,0.029800901177263178
450113000000,3,450106000000,FR_wheel_link,0.4939145409848473,0.6392890738274026,-1.1552134493675783,-0.058102735891262025,-0.014126274865732404,-0.04898646864749939
450113000000,4,450107000000,FR_wheel_link,-0.30190093933447104,0.367715746043047,0.536782686544385,0.04025157288664341,0.008804648633098046,0.029802071510135274
450113000000,5,450108000000,FR_wheel_link,0.4938618417510587,0.6393120499807963,-1.1551122641214353,-0.0580921181062925,-0.014124178506829637,-0.04897900077497855
450113000000,6,450109000000,FR_wheel_link,-0.301935195595823,0.367807151041076,0.5367303693012885,0.04024919341944402,0.00880494320704692,0.029803238369764947
450113000000,7,450110000000,FR_wheel_link,0.49380532807317756,0.6393398755817491,-1.1550091716379944,-0.058081158455055445,-0.014121978140823718,-0.04897116181789321
450113000000,8,450111000000,FR_wheel_link,-0.3019694660549796,0.36789855657036147,0.5366782043255487,0.04024682275366441,0.008805238566035045,0.029804410470485126
450113000000,9,450112000000,FR_wheel_link,0.4937409242379483,0.6393778056834937,-1.1549021673607465,-0.058069508667162144,-0.014119568409008664,-0.048962576118870435
450113000000,10,450113000000,FR_wheel_link,-0.30200388013448465,0.36799018391143634,0.5366264840764952,0.04024448818931727,0.008805540380452927,0.029805612265042056
450114000000,11,450114000000,FR_wheel_link,0.49367954424533894,0.6394115411632655,-1.1547966733018282,-0.058058163872936,-0.014117253337327773,-0.04895431326875633
450115000000,12,450115000000,FR_wheel_link,-0.3020380671130869,0.3680816773078778,0.5365745465906693,0.040242141278429254,0.00880583833719004,0.029806801085957298
450116000000,13,450116000000,FR_wheel_link,0.4936234852525496,0.6394380649588834,-1.1546939903451632,-0.05804736032975464,-0.014115105402287945,-0.04894662092067707
450117000000,14,450117000000,FR_wheel_link,-0.3020719384829499,0.368173028558668,0.5365221596191988,0.040239774003486065,0.008806133157117183,0.029807971817329075
450118000000,15,450118000000,FR_wheel_link,0.49357080618906995,0.639459997496308,-1.1545928196267161,-0.05803687157181663,-0.014113053829983945,-0.048939270939175855
450119000000,16,450119000000,FR_wheel_link,-0.30210553554544567,0.3682642893679728,0.5364693191969911,0.04023738908693944,0.008806426665955129,0.029809127907646824
450120000000,17,450120000000,FR_wheel_link,0.4935199747331385,0.6394794337699465,-1.1544923211754574,-0.05802653587010737,-0.014111048389585115,-0.04893209425504013
450121000000,18,450121000000,FR_wheel_link,-0.3021389607638027,0.36835552669239613,0.5364161145073756,0.04023499176824104,0.008806719880104893,0.029810275031269862
450122000000,19,450122000000,FR_wheel_link,0.4934817257047838,0.6394819338204617,-1.1543989674325565,-0.058017527622755326,-0.014109453530862827,-0.048926299976994395
450123000000,20,450123000000,FR_wheel_link,-0.30217184412516673,0.36844651770329445,0.5363620299293549,0.040232553161524846,0.008807007246161177,0.029811388016863685
450124000000,21,450124000000,FR_wheel_link,0.4934496116454817,0.6394760257088803,-1.1543083814354047,-0.058009104017028836,-0.014108038235397241,-0.048921139370154125
450125000000,22,450125000000,FR_wheel_link,-0.3022042347943463,0.3685373372840455,0.5363071261332163,0.040230081171400194,0.008807291950238945,0.02981247376867463
450126000000,23,450126000000,FR_wheel_link,0.4934046595078031,0.6394872942488099,-1.1542094973953614,-0.057999223842925746,-0.014106169549934763,-0.04891449798289383
450127000000,24,450127000000,FR_wheel_link,-0.3022368697608917,0.36862842025484915,0.5362524366620287,0.0402276323106876,0.008807584220658554,0.029813581540110344
450128000000,25,450128000000,FR_wheel_link,0.4933532289591372,0.6395072498380397,-1.1541075557242564,-0.05798872099964852,-0.014104109281206652,-0.04890718221705381
450129000000,26,450129000000,FR_wheel_link,-0.3022697498293697,0.36871960310256885,0.5361982266469878,0.04022520627886907,0.0088078789456715,0.0298147057693692
450130000000,27,450130000000,FR_wheel_link,0.4932819110873174,0.6395537305978417,-1.153997237263682,-0.05797641344353175,-0.014101498452230616,-0.04889787502633181
450131000000,28,450131000000,FR_wheel_link,-0.3023039461555281,0.36881147600700154,0.5361467483298602,0.04022293944848895,0.008808204412744089,0.029815955884943974
450132000000,29,450132000000,FR_wheel_link,0.49318679290854595,0.6396317089039345,-1.1538767968081318,-0.0579619741538985,-0.014098238836520784,-0.04888621018150942
450133000000,30,450133000000,FR_wheel_link,-0.3023393784638023,0.3689036927453769,0.5360984416969653,0.04022083117218225,0.008808552877026686,0.029817319183223615
450134000000,31,450134000000,FR_wheel_link,0.49309235376918104,0.6397086910527707,-1.1537577784410469,-0.057947741752977,-0.01409504689883928,-0.048874714919812004
450135000000,32,450135000000,FR_wheel_link,-0.30237449411722583,0.36899516658793463,0.5360506593818047,0.0402187063568859,0.008808884710981256,0.02981864567656679
450136000000,33,450136000000,FR_wheel_link,0.49300147553351154,0.6397809522106608,-1.153640682488782,-0.05793388656522372,-0.014091971300480425,-0.048863612922944985
450137000000,34,450137000000,FR_wheel_link,-0.3024090512949533,0.36908589856816904,0.5360026324412485,0.04021653598665416,0.008809200397891572,0.0298199176241661
450138000000,35,450138000000,FR_wheel_link,0.49291794397654565,0.639843648008101,-1.1535271351572605,-0.05792073381135757,-0.014089110084344955,-0.04885327026732754
450139000000,36,450139000000,FR_wheel_link,-0.30244307257727,0.36917617119862345,0.5359539602965783,0.04021432262548433,0.008809508246631988,0.02982114740923007
450140000000,37,450140000000,FR_wheel_link,0.4928432063189231,0.6398948681806087,-1.1534177332949325,-0.057908400924784144,-0.014086498721648629,-0.048843821172131006
450141000000,38,450141000000,FR_wheel_link,-0.30247668306821296,0.36926627520411803,0.5359045225147353,0.04021207983037087,0.008809816757598359,0.029822354516755724
450142000000,39,450142000000,FR_wheel_link,0.4928120908307405,0.6398891781300758,-1.1533291672839576,-0.05790001014271993,-0.014085087454850612,-0.04883864423232167
450143000000,40,450143000000,FR_wheel_link,-0.30250831433602765,0.36935461970565964,0.5358512702986198,0.040209576756251635,0.008810075541179309,0.02982333863128871
450144000000,41,450144000000,FR_wheel_link,0.49278042677734446,0.6398846582834781,-1.1532398352693298,-0.05789148819779653,-0.014083630533048579,-0.04883335603481306
450145000000,42,450145000000,FR_wheel_link,-0.3025399517940807,0.36944312951896263,0.535797411191102,0.040207063530288974,0.008810345084585613,0.02982432426520861
450146000000,43,450146000000,FR_wheel_link,0.49273746074089064,0.639895555514215,-1.1531437265975641,-0.05788172465819965,-0.014081786428729341,-0.04882679178459431
450147000000,44,450147000000,FR_wheel_link,-0.30257205055984954,0.3695319296142749,0.5357439578066394,0.04020457977117166,0.008810625004360893,0.02982533958442447
450148000000,45,450148000000,FR_wheel_link,0.4926873868449684,0.6399162262678251,-1.153044120616249,-0.0578712554244132,-0.01407972381607474,-0.0488194749634416
450149000000,46,450149000000,FR_wheel_link,-0.3026046292217331,0.3696209136372709,0.5356911914069502,0.04020212821475254,0.008810910137378562,0.029826382578073758
450150000000,47,450150000000,FR_wheel_link,0.4926336102658719,0.6399420205577351,-1.1529431507075192,-0.05786046900473034,-0.014077564261177379,-0.04881180248797603
450151000000,48,450151000000,FR_wheel_link,-0.3026376364025743,0.36971006618113306,0.535639131271521,0.04019971033750985,0.008811199609172007,0.029827453885519696
450152000000,49,450152000000,FR_wheel_link,0.4925777888837619,0.6399709019801405,-1.152841859701381,-0.05784955763846504,-0.014075368116172516,-0.04880398667834247
450153000000,50,450153000000,FR_wheel_link,-0.302671741770676,0.36980049087215217,0.5355883738703825,0.04019742335184514,0.008811526482112452,0.02982865466812984
450154000000,51,450154000000,FR_wheel_link,0.49251280030535227,0.6400114749120572,-1.1527354902230849,-0.05783773755917533,-0.01407289400592632,-0.04879520796283599
450155000000,52,450155000000,FR_wheel_link,-0.30270618507643476,0.3698910616491436,0.5355381920916719,0.04019516244751124,0.008811854564035028,0.029829877386020793
450156000000,53,450156000000,FR_wheel_link,0.4924514636361354,0.6400469758781875,-1.1526319263395977,-0.0578263918139282,-0.014070569400661285,-0.04878689205402036
450157000000,54,450157000000,FR_wheel_link,-0.3027406046501038,0.3699815273457509,0.5354881236524175,0.04019289974192067,0.008812178611613404,0.02983109605143072
450158000000,55,450158000000,FR_wheel_link,0.4923922027645216,0.6400795564778836,-1.152529634216638,-0.05781528655873474,-0.014068320132471416,-0.04877882048491982
450159000000,56,450159000000,FR_wheel_link,-0.3027749262531445,0.3700718879553024,0.535438004054535,0.04019063094039833,0.008812499863526424,0.02983230769333618
450160000000,57,450160000000,FR_wheel_link,0.4923316392746614,0.6401138109415582,-1.1524264473242032,-0.057804035407531824,-0.014066025582048329,-0.04877060094758986
450161000000,58,450161000000,FR_wheel_link,-0.30280922916540615,0.37016221990411907,0.535387888335531,0.04018836179767816,0.008812820526351985,0.02983351813032599
450162000000,59,450162000000,FR_wheel_link,0.49225260117672803,0.6401716056105913,-1.1523136497779756,-0.05779113124494827,-0.01406322829417043,-0.04876060710965211
450163000000,60,450163000000,FR_wheel_link,-0.3028436951702861,0.370252925554268,0.5353383459623432,0.04018614049391459,0.008813147128936986,0.0298347687281517
450164000000,61,450164000000,FR_wheel_link,0.4921748487078312,0.6402273270467703,-1.1522015421049814,-0.057778383197848435,-0.014060481443165119,-0.048750771855695686
450165000000,62,450165000000,FR_wheel_link,-0.3028780009093818,0.37034359797946786,0.535288799461415,0.0401839215028478,0.008813471114493293,0.02983601813816276
450166000000,63,450166000000,FR_wheel_link,0.4921055625256549,0.6402715025700143,-1.1520941351697305,-0.057766522458977024,-0.014058009865860747,-0.04874186198110742
450167000000,64,450167000000,FR_wheel_link,-0.3029118479402721,0.3704340702693389,0.5352386647259865,0.04018167500518366,0.008813789500700468,0.029837242284639763
450168000000,65,450168000000,FR_wheel_link,0.4920420739317503,0.6403077601047205,-1.1519894831823332,-0.05775522031767455,-0.01405571026431925,-0.04873355231380723
450169000000,66,450169000000,FR_wheel_link,-0.30294526091491536,0.370524407629345,0.5351878523106823,0.04017940190443888,0.008814105258853755,0.02983844402438219
450170000000,67,450170000000,FR_wheel_link,0.4919814266743742,0.6403401431083651,-1.1518858469858138,-0.057744153085161704,-0.014053481774682455,-0.048725509045110894
450171000000,68,450171000000,FR_wheel_link,-0.3029783631750621,0.37061469331392677,0.535136482133654,0.04017711031338812,0.008814420878049678,0.029839631299338337
450172000000,69,450172000000,FR_wheel_link,0.4919229776972496,0.6403695787802464,-1.1517830456430245,-0.057733267372134335,-0.014051307978085435,-0.04871767051601801
450173000000,70,450173000000,FR_wheel_link,-0.30301123843507133,0.37070495660150055,0.5350846772803146,0.040174805475737145,0.008814737055542693,0.02984080857004591
450174000000,71,450174000000,FR_wheel_link,0.4918658148633421,0.6403973139898277,-1.1516806867843157,-0.057722479123218706,-0.014049163091010243,-0.04870994464098685
450175000000,72,450175000000,FR_wheel_link,-0.3030439631063867,0.3707952156808982,0.5350325706720859,0.04017249243341567,0.008815054076130861,0.029841979796067765
450176000000,73,450176000000,FR_wheel_link,0.49180880068152316,0.6404248853669724,-1.1515782307859252,-0.05771167982468221,-0.014047013794226149,-0.048702214352266585
450177000000,74,450177000000,FR_wheel_link,-0.3030766154464543,0.3708854892564606,0.5349803022447076,0.04017017647498667,0.008815372164695646,0.029843149088140633
450178000000,75,450178000000,FR_wheel_link,0.4917609416007238,0.6404402027947401,-1.1514811061215784,-0.0577018524713458,-0.014045165262849976,-0.04869549258866011
450179000000,76,450179000000,FR_wheel_link,-0.30310888337206676,0.37097558575553935,0.5349274967507646,0.04016783573058618,0.008815686453498197,0.029844296320353163
450180000000,77,450180000000,FR_wheel_link,0.49170393787485944,0.6404677190279602,-1.1513780554230495,-0.05769098878411459,-0.014042994223058478,-0.048687716874145845
450181000000,78,450181000000,FR_wheel_link,-0.30314130439527087,0.37106585105085493,0.5348748537080071,0.040165510591886555,0.008816004954410976,0.029845457716153816
450182000000,79,450182000000,FR_wheel_link,0.49164146342164566,0.640502658659798,-1.1512721182218302,-0.05767956353998291,-0.014040649263146835,-0.048679348015576336
450183000000,80,450183000000,FR_wheel_link,-0.3031739698653941,0.37115627017343583,0.5348225593358731,0.04016320510634776,0.008816326441782481,0.02984663590362475
450184000000,81,450184000000,FR_wheel_link,0.4915800040201149,0.6405362843076717,-1.1511672867959895,-0.057668296839307236,-0.014038354342900442,-0.04867112440828751
450185000000,82,450185000000,FR_wheel_link,-0.3032066950643157,0.37124668769666685,0.5347704107415793,0.04016090461095311,0.00881664720207848,0.029847817204956197
450186000000,83,450186000000,FR_wheel_link,0.4915173346948224,0.6405714995471532,-1.1510619272520044,-0.05765692381485621,-0.014036026994030242,-0.04866278280296602
450187000000,84,450187000000,FR_wheel_link,-0.30323948579136906,0.37133710966880634,0.5347184042648487,0.040158609644426815,0.008816967787148187,0.029849002299857416
450188000000,85,450188000000,FR_wheel_link,0.4914526626324265,0.6406093812062369,-1.1509555494462904,-0.05764535630881163,-0.014033639738808773,-0.04865423303893267
450189000000,86,450189000000,FR_wheel_link,-0.30327236974081995,0.3714275517361324,0.534666567377269,0.04015632190058793,0.008817288727874907,0.029850192841893542
450190000000,87,450190000000,FR_wheel_link,0.4913870198385551,0.6406485602428713,-1.1508487949158122,-0.05763370781160266,-0.014031227758431433,-0.048645591590471056
450191000000,88,450191000000,FR_wheel_link,-0.3033053212937869,0.3715179941338965,0.5346148646347544,0.040154039204868874,0.008817609640793008,0.029851386909894535
450192000000,89,450192000000,FR_wheel_link,0.49132061466923593,0.6406887531611699,-1.1507417380008103,-0.05762199612072674,-0.014028796467401515,-0.048636878652744214
450193000000,90,450193000000,FR_wheel_link,-0.30333832175685405,0.3716084270014109,0.5345632680073261,0.040151760270057055,0.008817930437562188,0.02985258338793337
450194000000,91,450194000000,FR_wheel_link,0.4912529428738166,0.6407306407088134,-1.1506340428491413,-0.05761016251097225,-0.014026327531698253,-0.048628034962736634
450195000000,92,450195000000,FR_wheel_link,-0.30337138261122426,0.3716988600963921,0.5345117868260042,0.04014948590454678,0.00881825138876023,0.029853783078500878
450196000000,93,450196000000,FR_wheel_link,0.4911848550294007,0.6407730889982561,-1.150526227412072,-0.05759829946179172,-0.014023849622710239,-0.04861915573128121
450197000000,94,450197000000,FR_wheel_link,-0.3034044776623838,0.3717892785941853,0.5344603838102204,0.04014721414124239,0.008818572160729874,0.029854984267439544
450198000000,95,450198000000,FR_wheel_link,0.4911165065967295,0.6408158833253178,-1.1504183401880308,-0.057586419528033006,-0.014021366551927084,-0.04861025548125498
450199000000,96,450199000000,FR_wheel_link,-0.3034375902066805,0.3718796771236791,0.5344090313872785,0.04014494388818192,0.008818892692207418,0.02985618606434244
450200000000,97,450200000000,FR_wheel_link,0.4910457182444972,0.6408618323594175,-1.1503092770518504,-0.05757431461170966,-0.014018814665460292,-0.04860110960845459
450201000000,98,450201000000,FR_wheel_link,-0.3034707434381866,0.37197003452490324,0.5343578425744916,0.040142678371307805,0.008819212622164768,0.029857389385865834
450202000000,99,450202000000,FR_wheel_link,0.4909748049433976,0.6409079778624596,-1.1502002761751908,-0.057562210986621856,-0.014016263255995774,-0.04859195977729805
450203000000,100,450203000000,FR_wheel_link,-0.3035038929702633,0.3720603353445918,0.5343067274074621,0.04014041368624808,0.008819531637265423,0.029858591430711155
450204000000,101,450204000000,FR_wheel_link,0.4909040684343577,0.6409539321134426,-1.1500913693467352,-0.05755012467512997,-0.014013716860136173,-0.04858282858518921
450205000000,102,450205000000,FR_wheel_link,-0.30353702909700125,0.3721505997249601,0.5342556216365115,0.04013814855481608,0.008819850238416856,0.029859792197806982
450206000000,103,450206000000,FR_wheel_link,0.49083318522256575,0.6410000982511472,-1.149982364310407,-0.0575380222494037,-0.014011165202519126,-0.04857368099964692
450207000000,104,450207000000,FR_wheel_link,-0.30357016072156845,0.3722408449147688,0.534204520240056,0.04013588336050718,0.008820168788417857,0.029860992432422042
450208000000,105,450208000000,FR_wheel_link,0.4907656917576409,0.6410417061983573,-1.1498753933834438,-0.057526292587594216,-0.014008729143763037,-0.04856491749156685
450209000000,106,450209000000,FR_wheel_link,-0.30360314281910766,0.37233099814045073,0.5341532413814803,0.04013360872021526,0.008820485142009114,0.02986218363176957
450210000000,107,450210000000,FR_wheel_link,0.49069231652658324,0.6410911427508689,-1.1497647536072955,-0.057513916786053006,-0.014006092372831363,-0.04855549138670352
450211000000,108,450211000000,FR_wheel_link,-0.3036362519239735,0.37242124273859945,0.534102130325626,0.04013134520484979,0.008820803642284304,0.029863384506594145
450212000000,109,450212000000,FR_wheel_link,0.4906189157266411,0.6411406355388795,-1.1496543425252381,-0.05750156373459045,-0.01400346297593971,-0.04854607957270233
450213000000,110,450213000000,FR_wheel_link,-0.30366939245076624,0.3725114920122606,0.534051083929632,0.040129084588937526,0.008821121978557488,0.02986458736621314
450214000000,111,450214000000,FR_wheel_link,0.4905468421412605,0.6411883234788042,-1.1495448141708418,-0.05748936776131192,-0.01400088251267519,-0.04853682577332667
450215000000,112,450215000000,FR_wheel_link,-0.30370248404941086,0.3726016970123126,0.5339999927615816,0.04012682108272176,0.00882143925646545,0.029865787097318776
450216000000,113,450216000000,FR_wheel_link,0.49047449907219864,0.6412363345332068,-1.1494350822496922,-0.05747714290014862,-0.013998293007146745,-0.04852754273084828
450217000000,114,450217000000,FR_wheel_link,-0.30373555199654295,0.37269188236723705,0.5339488748382937,0.04012455671905185,0.00882175629995254,0.02986698574161387
450218000000,115,450218000000,FR_wheel_link,0.49040199805560963,0.6412845425939102,-1.1493252450787528,-0.057464902272969166,-0.013995698467755408,-0.048518243170391565
450219000000,116,450219000000,FR_wheel_link,-0.30376860347872686,0.3727820525700064,0.53389773560626,0.04012229189650303,0.008822073277223138,0.02986818369931504
450220000000,117,450220000000,FR_wheel_link,0.4903296639914337,0.6413325209718951,-1.1492155069749623,-0.05745268117939282,-0.013993109821164333,-0.04850896329395183
450221000000,118,450221000000,FR_wheel_link,-0.30380163203618954,0.37287220233109236,0.5338465671213697,0.040120026108647414,0.008822390102284387,0.029869380490857463
450222000000,119,450222000000,FR_wheel_link,0.4902572889804562,0.6413805509458295,-1.1491057356088634,-0.057440455882181,-0.013990519668106416,-0.048499678932389635
450223000000,120,450223000000,FR_wheel_link,-0.3038346440414728,0.3729623351914703,0.5337953785735512,0.04011775986492706,0.008822706885396155,0.029870576542300072
450224000000,121,450224000000,FR_wheel_link,0.49018472619406084,0.6414288348055281,-1.1489958553209214,-0.05742821117684376,-0.01398792329274921,-0.04849037401591762
450225000000,122,450225000000,FR_wheel_link,-0.303867648313845,0.37305245503426915,0.5337441840563931,0.04011549381800664,0.00882302371002334,0.029871772384117645
450226000000,123,450226000000,FR_wheel_link,0.49011194645275186,0.641477415448918,-1.1488858648934017,-0.05741594523647016,-0.01398532015140367,-0.0484810461071953
450227000000,124,450227000000,FR_wheel_link,-0.3039006503416472,0.37314256300527315,0.5336929943234142,0.04011322836293496,0.008823340581194095,0.02987296830381985
450228000000,125,450228000000,FR_wheel_link,0.4900389073868097,0.641526352060205,-1.1487757474005718,-0.05740365416918638,-0.013982709049524327,-0.04847169090713579
450229000000,126,450229000000,FR_wheel_link,-0.30393365452889176,0.37323265980817105,0.5336418176992279,0.040110963776145335,0.008823657488538757,0.02987416450369202
450230000000,127,450230000000,FR_wheel_link,0.48996603530203836,0.6415750595348029,-1.1486656754399984,-0.05739137746157146,-0.013980102084864486,-0.04846235160032923
450231000000,128,450231000000,FR_wheel_link,-0.303966609437445,0.3733227024925048,0.5335905700229133,0.0401086935617078,0.008823972695453776,0.029875355217204396
450232000000,129,450232000000,FR_wheel_link,0.48989266899220835,0.6416244420836347,-1.1485553535465636,-0.05737905167942012,-0.013977479738422345,-0.048452959667499844
450233000000,130,450233000000,FR_wheel_link,-0.30399957722431603,0.37341274001040226,0.5335393489541528,0.04010642485113915,0.008824288020421452,0.029876546779576685
450234000000,131,450234000000,FR_wheel_link,0.4898191020996645,0.6416742851464843,-1.1484450431779616,-0.05736670137280104,-0.013974849139643619,-0.04844354171309518
450235000000,132,450235000000,FR_wheel_link,-0.3040327116268062,0.37350290613844933,0.5334883503619474,0.040104174969963345,0.008824608801057503,0.029877755850665107
450236000000,133,450236000000,FR_wheel_link,0.48974493930243806,0.6417249404700573,-1.148334485493577,-0.05735429573169985,-0.013972201418381767,-0.048434063060589956
450237000000,134,450237000000,FR_wheel_link,-0.3040659377385285,0.37359313204068273,0.5334374771430179,0.04010193487312494,0.008824932083367543,0.02987897392067838
450238000000,135,450238000000,FR_wheel_link,0.48967052773903225,0.6417758759305354,-1.1482238664360493,-0.05734187661523578,-0.013969549782245058,-0.048424565933318606
450239000000,136,450239000000,FR_wheel_link,-0.3040991756445609,0.37368334528468167,0.5333866362042486,0.04009969603444694,0.008825255197424128,0.029880192646414727
450240000000,137,450240000000,FR_wheel_link,0.4895959042672296,0.6418270794439865,-1.148113181193625,-0.05732944281721523,-0.013966893633937194,-0.04841505068623261
450241000000,138,450241000000,FR_wheel_link,-0.3041324211987719,0.3737735422416665,0.5333358264252603,0.04009745835945404,0.008825578165834687,0.02988141177467772
450242000000,139,450242000000,FR_wheel_link,0.48952072364119287,0.6418790293508858,-1.1480022137927302,-0.057316954869897296,-0.01396422062797545,-0.048405477179037086
450243000000,140,450243000000,FR_wheel_link,-0.3041656850825236,0.3738637302388989,0.5332850620314528,0.04009522271944369,0.008825901194989619,0.029882632047778
450244000000,141,450244000000,FR_wheel_link,0.489444956740181,0.6419317737586554,-1.1478909630852785,-0.05730441065600122,-0.013961530101704112,-0.04839584276124808
450245000000,142,450245000000,FR_wheel_link,-0.3041989725047063,0.37395391168022163,0.5332343513915037,0.04009298948712154,0.008826224321189544,0.02988385376423613
450246000000,143,450246000000,FR_wheel_link,0.48936868106872594,0.6419852105193041,-1.1477794841035984,-0.057291819410610935,-0.013958824935586579,-0.048386156670302695
450247000000,144,450247000000,FR_wheel_link,-0.3042322827732612,0.3740440852962307,0.5331836950693816,0.04009075859766728,0.008826547493094356,0.029885076841775462
450248000000,145,450248000000,FR_wheel_link,0.48929190790875854,0.642039323145942,-1.1476677828107258,-0.05727918245028909,-0.013956105544484624,-0.04837642027353366
450249000000,146,450249000000,FR_wheel_link,-0.3042656150612079,0.37413425043365717,0.5331330923164617,0.04008852998645979,0.008826870686368036,0.02988630121995655
450250000000,147,450250000000,FR_wheel_link,0.48921465474056514,0.6420940869863647,-1.1475558678988955,-0.057266501631562286,-0.01395337250612034,-0.04836663553444878
450251000000,148,450251000000,FR_wheel_link,-0.3042989681516902,0.3742244065144156,0.5330825411596413,0.040086303554955224,0.00882719388504753,0.029887526820410078
450252000000,149,450252000000,FR_wheel_link,0.4891369581062834,0.6421494520237288,-1.1474437585035688,-0.05725378074488555,-0.013950626994148894,-0.04835680645187783
450253000000,150,450253000000,FR_wheel_link,-0.30433234001646664,0.3743145526486533,0.5330320381638275,0.040084079144436645,0.008827517071111436,0.02988875351696522
450254000000,151,450254000000,FR_wheel_link,0.4890588459457761,0.6422053799260763,-1.1473314673216113,-0.057241022484473644,-0.0139478698375915,-0.048346935943505844
450255000000,152,450255000000,FR_wheel_link,-0.30436572866322237,0.37440468813532063,0.532981579711933,0.04008185660337145,0.008827840234903126,0.029889981192889145
450256000000,153,450256000000,FR_wheel_link,0.48898033822979486,0.6422618433953584,-1.1472190023999183,-0.05722822864943627,-0.013945101585808868,-0.04833702600393305
450257000000,154,450257000000,FR_wheel_link,-0.3043991324435995,0.3744948125319741,0.5329311625996711,0.040079635808348744,0.00882816337388329,0.02989120975621439
450258000000,155,450258000000,FR_wheel_link,0.4889014516995841,0.6423188197737262,-1.1471063705392144,-0.05721540072453206,-0.01394232269068013,-0.04832707828198594
450259000000,156,450259000000,FR_wheel_link,-0.30443255000861474,0.37458492554836853,0.532880784148993,0.040077416660524154,0.008828486488341801,0.0298924391342597
450260000000,157,450260000000,FR_wheel_link,0.4888215201950022,0.642377173437483,-1.1469932281766058,-0.05720247771895207,-0.013939514508194062,-0.04831702750270553
450261000000,158,450261000000,FR_wheel_link,-0.30446599289554127,0.3746750393524055,0.5328304748230944,0.040075201264582805,0.008828809901767118,0.02989367107350339
450262000000,159,450262000000,FR_wheel_link,0.4887407769366802,0.6424365813702306,-1.1468797009540135,-0.05718948358273409,-0.013936684503269027,-0.04830689869863943
450263000000,160,450263000000,FR_wheel_link,-0.3044994497160802,0.3747651470847087,0.5327802233509246,0.040072988858863706,0.008829133354326576,0.02989490481703222
450264000000,161,450264000000,FR_wheel_link,0.4886778194991257,0.6424728452140627,-1.1467745496635082,-0.05717814587242932,-0.013934360290992865,-0.04829857575387593
450265000000,162,450265000000,FR_wheel_link,-0.30453227897034196,0.3748550425575075,0.532728420349475,0.040070700468074136,0.00882944605284338,0.02989608465053499
450266000000,163,450266000000,FR_wheel_link,0.4886621320416087,0.6424474626851828,-1.1466910039475322,-0.05717110288653524,-0.01393334536577721,-0.048294962862211015
450267000000,164,450267000000,FR_wheel_link,-0.3045635529442966,0.3749445984855755,0.5326721843793215,0.04006820459763506,0.008829734834752823,0.02989712490244509
450268000000,165,450268000000,FR_wheel_link,0.48862228897864574,0.6424531613126613,-1.1465936817675855,-0.057161579187315015,-0.013931565570690425,-0.04828874285934758
450269000000,166,450269000000,FR_wheel_link,-0.30459557131596365,0.37503498608853547,0.5326163131812578,0.04006576106237537,0.008830042150925577,0.029898225836780527
450270000000,167,450270000000,FR_wheel_link,0.4885743506849969,0.6424695073209163,-1.1464932035826825,-0.0571513533830132,-0.013929572081295903,-0.04828173089559229
450271000000,168,450271000000,FR_wheel_link,-0.30462815834949464,0.3751257126235784,0.5325612698925645,0.040063360979703026,0.008830354827852233,0.029899364901734875
450272000000,169,450272000000,FR_wheel_link,0.4885265275108768,0.6424856604039562,-1.1463939805691488,-0.057141260920606306,-0.013927623025926053,-0.04827481098932568
450273000000,170,450273000000,FR_wheel_link,-0.30466095611256094,0.37521646613421156,0.5325067830372475,0.040060980450445864,0.008830665284585268,0.029900516487463252
450274000000,171,450274000000,FR_wheel_link,0.4884634404542966,0.6425222132963141,-1.1462863803795709,-0.05712959648187059,-0.013925188288789669,-0.04826623832024306
450275000000,172,450275000000,FR_wheel_link,-0.30469437928469345,0.37530750635089616,0.5324534240220418,0.040058651815040584,0.00883097978060886,0.029901708888481142
450276000000,173,450276000000,FR_wheel_link,0.4883842702904038,0.642580387380019,-1.1461705989724962,-0.05711633593672176,-0.013922261442151357,-0.04825596418336581
450277000000,174,450277000000,FR_wheel_link,-0.3047286214696799,0.37539888682030303,0.5324015039823302,0.040056387057245776,0.008831299096964491,0.029902951934169544
450278000000,175,450278000000,FR_wheel_link,0.4883014042359157,0.6426435768622704,-1.1460541863699871,-0.05710284073697749,-0.013919265554525224,-0.048245389082207234
450279000000,176,450279000000,FR_wheel_link,-0.3047633116386422,0.37549033545433963,0.5323505427065471,0.04005415617647049,0.008831616917468598,0.029904218807070056
450279000000,177,450280000000,FR_wheel_link,0.4882154895928939,0.6427107860076625,-1.145936857241204,-0.057089123916828945,-0.013916203671814134,-0.04823454972813296
450281000000,178,450281000000,FR_wheel_link,-0.30479827972042445,0.37558178341311954,0.532300229645125,0.04005194607787874,0.008831932658545321,0.02990549936604587
450282000000,179,450282000000,FR_wheel_link,0.4881261863796872,0.6427824509140201,-1.1458180686493078,-0.05707511512030472,-0.013913053096910915,-0.04822338592773819
450283000000,180,450283000000,FR_wheel_link,-0.3048334632592005,0.37567323334193936,0.5322503939532779,0.040049751667013155,0.008832247238710211,0.02990679058878322
450284000000,181,450284000000,FR_wheel_link,0.48803573779725196,0.6428555821123224,-1.145698994906776,-0.057061038003493825,-0.013909882652139119,-0.04821213517789568
450285000000,182,450285000000,FR_wheel_link,-0.3048687527503182,0.37576464797764103,0.5322008258557311,0.040047564410698115,0.00883256037683314,0.029908085950330333
450286000000,183,450286000000,FR_wheel_link,0.4879381079895919,0.6429378658163936,-1.1455765957932493,-0.05704632441833976,-0.013906518741245726,-0.048200180825425105
450287000000,184,450287000000,FR_wheel_link,-0.30490412600683836,0.3758558850019797,0.5321517569048196,0.04004538601456922,0.00883286924383366,0.02990938034673986
450288000000,185,450288000000,FR_wheel_link,0.4878291934868862,0.6430345358685741,-1.1454492640406715,-0.05703063854175524,-0.013902860123804928,-0.04818713725971861
450289000000,186,450289000000,FR_wheel_link,-0.30493947176239977,0.3759466460992602,0.5321035020621665,0.040043213769850115,0.008833167257315337,0.029910660027117696
450290000000,187,450290000000,FR_wheel_link,0.48773749731248073,0.6431091852604421,-1.1453309070871485,-0.05701661239090151,-0.013899709533829097,-0.04817587458343884
450291000000,188,450291000000,FR_wheel_link,-0.3049743830539585,0.37603711903494264,0.5320545312637998,0.04004100187373655,0.00883345915068766,0.029911906289819504
450292000000,189,450292000000,FR_wheel_link,0.4876440487685567,0.6431860496988415,-1.1452105638755936,-0.05700219969545557,-0.013896434462901126,-0.04816422510485555
450293000000,190,450293000000,FR_wheel_link,-0.3050085586828712,0.37612616457498177,0.532004843805219,0.04003866697874153,0.008833712800668822,0.029913023160812437
450294000000,191,450294000000,FR_wheel_link,0.48756065482822947,0.6432506973468904,-1.1450965445969805,-0.05698884124681711,-0.013893481201661144,-0.04815367319221986
450295000000,192,450295000000,FR_wheel_link,-0.3050426418933998,0.37621500805958014,0.531954969421298,0.04003631710816731,0.008833966791120215,0.02991412591325709
450296000000,193,450296000000,FR_wheel_link,0.48746930043834547,0.6433263446014059,-1.1449774421373173,-0.05697458043855199,-0.013890245161258637,-0.0481422071589328
450297000000,194,450297000000,FR_wheel_link,-0.3050770082446886,0.3763039409458662,0.5319054004700168,0.04003398283409429,0.008834226024687933,0.029915243218541086
450298000000,195,450298000000,FR_wheel_link,0.48737268278116114,0.6434092322913265,-1.1448555707532893,-0.05695978787351499,-0.013886843810262554,-0.048130180937954535
450299000000,196,450299000000,FR_wheel_link,-0.30511169090221796,0.37639295825698166,0.5318562694639704,0.040031667402253154,0.008834488519614523,0.0299163768930204
450300000000,197,450300000000,FR_wheel_link,0.48727251106072117,0.6434968300810547,-1.144732614452134,-0.056944794603240076,-0.013883384092263612,-0.04811791932239359
450301000000,198,450301000000,FR_wheel_link,-0.3051470063477672,0.37648281142931433,0.5318079401932999,0.040029439554120284,0.008834775659280073,0.029917597691586275
450302000000,199,450302000000,FR_wheel_link,0.48716749445351,0.6435902147186289,-1.1446069303803432,-0.056929374759748255,-0.013879796307207003,-0.04810520451542472
450303000000,200,450303000000,FR_wheel_link,-0.3051825555367356,0.3765730566343616,0.5317599471021933,0.04002725183076426,0.008835072405438816,0.029918858492059896
450304000000,201,450304000000,FR_wheel_link,0.4870660427094586,0.6436781902048506,-1.1444834432590754,-0.05691440347149697,-0.013876351014949885,-0.048092940912806234
450305000000,202,450305000000,FR_wheel_link,-0.3052178434937818,0.37666322479013575,0.5317116819056517,0.040025054610922706,0.008835366093691243,0.029920110820126272
450306000000,203,450306000000,FR_wheel_link,0.48696856903600444,0.6437602864676152,-1.1443621964695414,-0.05689990751164492,-0.013873055631209495,-0.04808116587700458
450307000000,204,450307000000,FR_wheel_link,-0.3052527500328481,0.37675331596539774,0.5316629696441131,0.04002284512175612,0.00883565825736937,0.029921352391755137
450308000000,205,450308000000,FR_wheel_link,0.48687098766214065,0.6438419514840268,-1.1442405902822606,-0.05688540271221797,-0.013869758997982476,-0.048069380893245035
450309000000,206,450309000000,FR_wheel_link,-0.30528723313962786,0.376843152597481,0.5316138483819429,0.04002061240737705,0.008835944610591107,0.029922568568078595
450310000000,207,450310000000,FR_wheel_link,0.4867474109369192,0.6439573914332654,-1.144106679282686,-0.05686846003702304,-0.013865716330856726,-0.04805493229725946
450311000000,208,450311000000,FR_wheel_link,-0.30532205450752053,0.3769325480404391,0.5315666127203291,0.04001844027461749,0.008836230074563928,0.029923805333439735
450312000000,209,450312000000,FR_wheel_link,0.4866301153308066,0.6440649625153833,-1.1439775342684457,-0.05685226191329456,-0.013861904866876083,-0.04804121975694136
450313000000,210,450313000000,FR_wheel_link,-0.3053564674277129,0.3770212237498369,0.5315197408722566,0.040016255669788184,0.008836505051090765,0.029925008915809265
450314000000,211,450314000000,FR_wheel_link,0.4865224355429287,0.6441603173423339,-1.1438527126905615,-0.05683692137855732,-0.0138583535645343,-0.04802845651883871
450315000000,212,450315000000,FR_wheel_link,-0.30539032513547054,0.37710951715464913,0.5314721628561357,0.04001403249912279,0.008836774892777002,0.029926175271865845
450316000000,213,450316000000,FR_wheel_link,0.48641581697340486,0.6442543813961605,-1.1437275363761767,-0.05682158746445879,-0.013854800884335442,-0.048015738465726515
450317000000,214,450317000000,FR_wheel_link,-0.3054238805678313,0.3771976752115076,0.5314240446661723,0.04001178743360105,0.008837044792919843,0.02992732314201158
450318000000,215,450318000000,FR_wheel_link,1.155256513100599,-0.16971397070580665,-1.1533969591167264,-0.1591938189532402,-0.02634124934100705,-0.10654153705553478
450319000000,216,450319000000,FR_wheel_link,-0.3971986134802645,-0.33019365094341296,1.5535834337404724,-0.01993562282321261,-0.005338569498100403,0.013087845941195908
450320000000,217,450320000000,FR_wheel_link,0.5184247591948884,-22.399527458878694,-6.352104309846665,-1.3838021059768713,-0.021745367516585876,-0.06386190740254644
450321000000,218,450321000000,FR_wheel_link,-4.36270373848232,-14.898862136809258,-5.417683274103094,-1.0293651771099548,0.10983764289788461,0.42409534583179065
450322000000,219,450322000000,FR_wheel_link,-1.8990209216398508,-13.960621929553744,-4.30988166092301,-0.8858947979420376,0.060370203355098816,0.20456979003518913
450323000000,220,450323000000,FR_wheel_link,-4.359641686181901,-11.647782386234473,-2.3270174633909155,-0.5810854960216751,0.1215297457530329,0.4444083212345915
450324000000,221,450324000000,FR_wheel_link,0.319377644682805,-6.1136412232728805,-3.0187368816135653,-0.5017828556876208,-0.006139049433655498,-0.028633295005404534
450325000000,222,450325000000,FR_wheel_link,-1.8000675918634004,-8.302596229467449,-1.360680779212158,-0.3903163305028278,0.044623976595634364,0.17211825989278767
450326000000,223,450326000000,FR_wheel_link,-1.6037406809889505,-10.707323258739818,-1.547714845946053,-0.4865585125576723,0.05610748744703053,0.17682544674957218
450327000000,224,450327000000,FR_wheel_link,-2.5943115742796303,-7.930869582566809,-0.8638677642528356,-0.3143309505113138,0.07218701298736666,0.26314305601975313
450328000000,225,450328000000,FR_wheel_link,0.0187661936136752,1.1044964203002707,-0.4712853524963455,-0.008625234974556853,0.010279740012272246,0.005769352921506498
450329000000,226,450329000000,FR_wheel_link,0.0073108388497625165,0.034231631848298,0.026744937226410734,9.330113563033787e-05,-6.551572788472169e-05,-0.0011939153120045269
450330000000,227,450330000000,FR_wheel_link,-0.045335243071009654,1.462234248437271,-0.49299300490947917,0.005340965626335655,0.0026256822674294855,0.002795732203445038
450331000000,228,450331000000,FR_wheel_link,0.015988222795390937,0.06392028519532506,-0.06223000697179528,-0.00014959504846803927,0.001041832620462946,0.00027347181162260084
450332000000,229,450332000000,FR_wheel_link,-2.892705333227418,-20.153934848127605,2.11930153849145,-0.8691717098550227,0.16465057641182654,0.2862196684200326
450333000000,230,450333000000,FR_wheel_link,-0.29434644984163905,-0.2875822818634898,0.41897133402447934,-0.007187953328023379,0.0077222510130117005,0.025115265515498177
450334000000,231,450334000000,FR_wheel_link,-0.2640770430948621,-9.144944242137745,-2.3667873190314683,-0.7140386527578791,0.024653471494287208,0.03421194431423053
450335000000,232,450335000000,FR_wheel_link,-0.28319494228223585,0.06830385909730202,0.3950547517859501,0.009942322699843626,0.006751605695276424,0.02486743320688515
450336000000,233,450336000000,FR_wheel_link,0.5981518520011933,-5.281890857613959,-2.5014290741712966,-0.5146882351286807,-0.022603687646219485,-0.049580898537583455
450337000000,234,450337000000,FR_wheel_link,-0.23133137737340423,0.2275759541697381,0.33561633284358083,0.016004894997110178,0.00658731180604707,0.022440613244304342
450338000000,235,450338000000,FR_wheel_link,1.014832332208111,-3.1322161384737512,-2.510323234516902,-0.4003636840826093,-0.047503991515148655,-0.09254541178794629
450339000000,236,450339000000,FR_wheel_link,-0.20953565892261802,0.36016354116230237,0.39436534975774323,0.03297055013062164,0.006649767828817323,0.02190456209246334
450340000000,237,450340000000,FR_wheel_link,0.4042249997632977,0.7412601076661021,-1.0118840354817837,-0.03661127341354867,-0.007581797004556424,-0.029875746595903037
450341000000,238,450341000000,FR_wheel_link,-0.29455751143718634,0.3836840128336659,0.5081120491108239,0.03869526581836793,0.009163338829866538,0.02861616795510323
450342000000,239,450342000000,FR_wheel_link,0.35662888869546405,0.8340596522572143,-1.0811283000552006,-0.03932017425652231,-0.008514828123060068,-0.029600045973733054
450343000000,240,450343000000,FR_wheel_link,-0.3065794545796006,0.3813925378231072,0.547927226498133,0.03987298774223624,0.008902569352887281,0.02916442472501642
450344000000,241,450344000000,FR_wheel_link,0.32726879247020657,0.870999226833255,-1.0979714342617715,-0.04004812970487634,-0.008838147405548709,-0.029128188258485926
450345000000,242,450345000000,FR_wheel_link,-0.30759054900518823,0.3778476093922817,0.5600409415028034,0.04004821973350371,0.008677817819424533,0.02912143007396729
450346000000,243,450346000000,FR_wheel_link,0.3099303373789243,0.8841305014836544,-1.0962546869353536,-0.04004931198642771,-0.008910718789264352,-0.028729799518949644
450347000000,244,450347000000,FR_wheel_link,-0.3051634263263472,0.3758272167220024,0.5587380581181146,0.039853012061969784,0.008556334277120287,0.028927469605472912
450348000000,245,450348000000,FR_wheel_link,0.30072423826371253,0.8863744388920564,-1.089063968115955,-0.039810301503141375,-0.008881991865986245,-0.028457769441821868
450349000000,246,450349000000,FR_wheel_link,-0.3022056298187471,0.37529314656300244,0.5522321688644896,0.03956245942032077,0.008516214883365686,0.028730921014263538
450350000000,247,450350000000,FR_wheel_link,0.29664090589313336,0.8839369164116913,-1.081577713896118,-0.03953206445028208,-0.00882203262135199,-0.028295764946524356
450351000000,248,450351000000,FR_wheel_link,-0.2997521698039446,0.37574509675288814,0.5447486426600947,0.039290301529365725,0.008524412519653255,0.0285755935303964
450352000000,249,450352000000,FR_wheel_link,0.2953893347258774,0.8799744176094377,-1.075621256618829,-0.03929237175868151,-0.008763547682526322,-0.028207749018364946
450353000000,250,450353000000,FR_wheel_link,-0.2980284431011234,0.3767680741532946,0.5380791677078792,0.039073242765686675,0.008556445288033548,0.028466209697085004
450354000000,251,450354000000,FR_wheel_link,0.29553744367112933,0.8759031800165367,-1.0715252664900725,-0.039111249785286,-0.008718861220907457,-0.028163544830396618
450355000000,252,450355000000,FR_wheel_link,-0.2969216190160219,0.37808905658468295,0.5327537165288857,0.03891405043571066,0.00859665657699958,0.028393777757810604
450356000000,253,450356000000,FR_wheel_link,0.2962569016559994,0.8722456239084743,-1.0690291606171116,-0.0389840448863387,-0.008690101423486064,-0.028141697411686928
450357000000,254,450357000000,FR_wheel_link,-0.29629326978428744,0.3794509080411377,0.52896741927138,0.038805710057957646,0.008634244695140153,0.0283464029586377
450358000000,255,450358000000,FR_wheel_link,0.29711750552790805,0.8691500822815861,-1.0677885257727333,-0.038900621341690665,-0.00867550665155191,-0.028129579365742625
450359000000,256,450359000000,FR_wheel_link,-0.295992030570775,0.3808281183601843,0.5263516401364987,0.038734761097871155,0.008667876525431495,0.028316349767115764
450360000000,257,450360000000,FR_wheel_link,0.29793900827893843,0.8665544649912673,-1.0674408713089851,-0.03884902149956838,-0.008671850640665474,-0.028120603753651573
450361000000,258,450361000000,FR_wheel_link,-0.29589138837522594,0.3822086050112525,0.5245593504156959,0.03868945781596044,0.00869747127543436,0.028297323174470167
450362000000,259,450362000000,FR_wheel_link,0.298659584732882,0.8643400928162724,-1.0676866450103095,-0.03881890968576404,-0.008675940674359001,-0.028111517353941032
450363000000,260,450363000000,FR_wheel_link,-0.29590419494713655,0.3835923923652395,0.5233012733546422,0.03866063568244341,0.008723797074854375,0.028284961148321804
450364000000,261,450364000000,FR_wheel_link,0.2992732073795691,0.8623924471590934,-1.0683061910904759,-0.038802527124809194,-0.00868518656291898,-0.02810101980502283
450365000000,262,450365000000,FR_wheel_link,-0.29597600207709757,0.38498233991928305,0.5223652977878364,0.0386417965164413,0.008747806983106352,0.028276441613418617
450366000000,263,450366000000,FR_wheel_link,0.2997955790016644,0.8606210056359257,-1.0691496196244314,-0.03879449971449391,-0.008697691291345217,-0.028088819281371084
450367000000,264,450367000000,FR_wheel_link,-0.29607566813273833,0.3863803866737476,0.5216091842562995,0.0386286401997607,0.008770338800712908,0.028270030835292507
450368000000,265,450368000000,FR_wheel_link,0.3002474988507596,0.858961464305277,-1.0701201371490183,-0.03879132101886716,-0.0087121594224088,-0.02807507534860605
450369000000,266,450369000000,FR_wheel_link,-0.29618704001767626,0.38778672352002386,0.5209444661991885,0.03861848377630198,0.008792020391575534,0.028264710556937037
450370000000,267,450370000000,FR_wheel_link,0.3006478586594939,0.8573712867873684,-1.0711581742494312,-0.03879081605298698,-0.008727754006826818,-0.028060099230537577
450371000000,268,450371000000,FR_wheel_link,-0.29630276726132704,0.3892001738489374,0.5203200387681997,0.03860974632367267,0.008813274201506412,0.028259908126672353
450372000000,269,450372000000,FR_wheel_link,0.30101151217684735,0.8558237584072617,-1.0722287708221412,-0.03879169767535064,-0.00874395976929164,-0.028044209485844154
450373000000,270,450373000000,FR_wheel_link,-0.29641127274187756,0.39063322559562685,0.5196709423273406,0.03860106299325891,0.008834695794229443,0.028255362685528054
450374000000,271,450374000000,FR_wheel_link,0.30134420560459707,0.8542994308430975,-1.0733014497212259,-0.038792913487806974,-0.008760443247698561,-0.028027449163946644
450375000000,272,450375000000,FR_wheel_link,-0.29651344155323534,0.3920744722658037,0.5190016322056211,0.03859207887360719,0.00885617669778034,0.028250723257155753
450376000000,273,450376000000,FR_wheel_link,0.30164477583846494,0.8527964493577038,-1.074367071326152,-0.0387941752593199,-0.008777106717472704,-0.028009814020893566
450377000000,274,450377000000,FR_wheel_link,-0.2966150966206869,0.3935062038459637,0.518345596442225,0.038583063400814306,0.008877368692289,0.028245753408573108
450378000000,275,450378000000,FR_wheel_link,0.3019354178819432,0.8512999047978902,-1.0754246553091027,-0.038795338525585886,-0.008793775869342694,-0.02799197067231799
450379000000,276,450379000000,FR_wheel_link,-0.2967184478206889,0.3949343696699677,0.5176893168713976,0.038573883474516055,0.008898531898688293,0.028240633667520196
450379000000,277,450380000000,FR_wheel_link,0.30221668715862027,0.849810489327966,-1.0764759579549756,-0.03879643910657694,-0.0088104383694117,-0.02797394667301433
450381000000,278,450381000000,FR_wheel_link,-0.2968242003018852,0.3963604483285657,0.5170291864489149,0.03856451450380588,0.008919744605696247,0.028235421290206272
450382000000,279,450382000000,FR_wheel_link,0.3024902934085116,0.8483270272460558,-1.0775216298657762,-0.03879748234719593,-0.008827084789417173,-0.02795578690083141
450383000000,280,450383000000,FR_wheel_link,-0.2969323821724472,0.3977847164922878,0.5163646856531132,0.038554971240107726,0.008941023105409113,0.028230135624067686
450384000000,281,450384000000,FR_wheel_link,0.3027578048761656,0.8468480915219858,-1.0785621301581176,-0.038798471063358875,-0.00884371150956225,-0.027937524438411673
450385000000,282,450385000000,FR_wheel_link,-0.2970426896604039,0.3992072414640183,0.5156959988854202,0.03854527761675652,0.008962364186277601,0.02822478384578465
450386000000,283,450386000000,FR_wheel_link,0.3030204303587259,0.8453723813757282,-1.079597875943992,-0.038799409036602915,-0.00886031851642441,-0.027919178417428855
450387000000,284,450387000000,FR_wheel_link,-0.29715466831789067,0.400628134890509,0.5150232738880012,0.03853545553769882,0.008983760273470911,0.02821936902978662
450388000000,285,450388000000,FR_wheel_link,0.30303023604432694,0.8427986471376814,-1.0796576924672863,-0.03876055042043788,-0.008869354146146584,-0.02786786977171764
450389000000,286,450389000000,FR_wheel_link,-0.29695663676283046,0.40238930098438314,0.5135849737649605,0.0384979463708382,0.009000560668188707,0.028196653169620934
450390000000,287,450390000000,FR_wheel_link,0.25630058728628646,0.9075508386994933,-1.048835314972359,-0.03820747460816706,-0.008721971874268179,-0.027729690014989896
450391000000,288,450391000000,FR_wheel_link,-0.27841402624596506,0.39880532917817724,0.48521275859166146,0.037061685468004944,0.008586510401748989,0.027076853330914617
450392000000,289,450392000000,FR_wheel_link,0.24441146154018747,0.8764944213803483,-1.0152383377670322,-0.03693733366128591,-0.008479369072676105,-0.02662066943528513
450393000000,290,450393000000,FR_wheel_link,-0.265542230578691,0.3982672438347482,0.46413035067252545,0.03632463105244488,0.00843839280383047,0.02654867676548347
450394000000,291,450394000000,FR_wheel_link,0.24822021508266373,0.8561050707031742,-1.0054587975625615,-0.03647911432682011,-0.008383950674420573,-0.026340819676046727
450395000000,292,450395000000,FR_wheel_link,-0.25975409522169735,0.40150509985739957,0.4523264492997022,0.03609971086540849,0.008456897577550703,0.026425041018820945
450396000000,293,450396000000,FR_wheel_link,0.25500942862000575,0.8423157070534397,-1.0058075752708215,-0.03637431966243739,-0.008367182896957174,-0.02629352274087933
450397000000,294,450397000000,FR_wheel_link,-0.25756557729220664,0.40541663368993874,0.4467566323356568,0.036103891388882675,0.008518713287067806,0.026458489159235515
450398000000,295,450398000000,FR_wheel_link,0.2598655250468063,0.8352273635868119,-1.0090787398324825,-0.03640379336508757,-0.008384813930171419,-0.02631404836615391
450399000000,296,450399000000,FR_wheel_link,0.2687917470730721,-0.5822779843355628,0.7257547842484281,0.05245423852378854,-0.0004859508619744877,-0.017469037421084545
450400000000,297,450400000000,FR_wheel_link,-0.5172199961769048,0.7474167685971553,-0.6412465104734335,-0.015391574483881192,-0.006898565065054354,0.0011874458492555477
450401000000,298,450401000000,FR_wheel_link,-0.06971032222835721,-0.11177819370482006,0.1098178974193716,0.009458129830766654,-0.0009099512810403875,-0.004185697015550222
450402000000,299,450402000000,FR_wheel_link,-0.16424898437645874,1.3434215429765424,-1.1301585924239426,-0.008337645153961805,0.00389752347996157,0.0050603612528520945
450403000000,300,450403000000,FR_wheel_link,-0.018023118416628164,-0.11754288296994365,0.12904497682828905,0.007349530097313455,-0.0013370665705709594,-0.004007512524184905
450404000000,301,450404000000,FR_wheel_link,-0.2048039039224267,1.1096588840907475,-0.7109660828864681,-0.0064330016825069405,-0.0002868915315908074,0.0036308834127546066
450405000000,302,450405000000,FR_wheel_link,0.0026678460607626195,0.0011701396901629688,0.00020747057569720233,4.762744087141189e-07,1.5007252268176525e-05,-3.0339812506085072e-05
450406000000,303,450406000000,FR_wheel_link,-0.04691388908735011,1.3523096792839948,-0.6453604653244664,0.005024583967175134,-0.0014064420052502813,-0.00201239378459797
450407000000,304,450407000000,FR_wheel_link,-0.004894608352244961,0.012491332168242145,-0.03483451848857932,0.0002125527107080787,0.0006249176469361931,-3.627229303426717e-05
450408000000,305,450408000000,FR_wheel_link,0.07009322920831632,0.7489602577810839,-0.3856734473779996,-0.000699072226936855,-0.0004464060364697044,-0.0015110106068700656
450409000000,306,450409000000,FR_wheel_link,0.0059688626459088985,-0.0006769668408439496,-0.0003964049977913757,1.6713202877431137e-05,-3.3716429535670006e-05,-0.00014411523039041928
450410000000,307,450410000000,FR_wheel_link,-0.0317431048936302,1.838576023670623,-0.8433793001172513,0.0010300852251323126,0.0006322837813473361,0.0031720347741008063
450411000000,308,450411000000,FR_wheel_link,0.010278282704518131,-0.0003566542099721753,-0.02423250913345936,-0.00046416041907246735,0.0003035524865803564,-0.0002557713496643732
450412000000,309,450412000000,FR_wheel_link,0.15564841745107397,0.19843940571836693,-0.24825985422728666,-0.009099797316355985,-0.001683391124373736,-0.010822244824239277
450413000000,310,450413000000,FR_wheel_link,-0.23102168294712427,0.3975008859775838,0.2767186003764326,0.030285855383718863,0.009532376990567991,0.024039026830185006
450414000000,311,450414000000,FR_wheel_link,0.4380932483807989,0.8445667733479052,-1.2338403254825947,-0.043227260327914324,-0.009678738720105605,-0.03324027968956231
450415000000,312,450415000000,FR_wheel_link,-0.4023869762787172,0.4144026184244634,0.5926658761879379,0.042618412005196955,0.0032813594362886586,0.02496359410150318
450416000000,313,450416000000,FR_wheel_link,-2.309855609321308,-24.48862145534366,4.216562316199085,-0.8696057881168459,0.14826623371170355,0.24565284185104222
450417000000,314,450417000000,FR_wheel_link,0.20706305696345365,-1.0585050354783814,0.7033765272868676,-0.0008360715636089098,-0.004830090394063722,-0.013014091144351115
450418000000,315,450418000000,FR_wheel_link,-1.5362099557100495,-25.706606763903853,9.142733291745907,-0.5167498240412913,0.06856173761597001,0.13516318349673762
450419000000,316,450419000000,FR_wheel_link,-0.08680161826965371,-0.13500100237023113,-0.09697624267717321,-0.015372518631816186,0.004480844626013819,0.007922486052199394
450420000000,317,450420000000,FR_wheel_link,0.19083776481401787,-0.5844444081057658,0.7820179878963862,0.02421464018722603,-0.008550850012772174,-0.018603483720428846
450421000000,318,450421000000,FR_wheel_link,-2.088060358212803,-30.367831360716437,12.117231681094784,-0.4691638798375661,0.10194757564787488,0.188322000311546
450422000000,319,450422000000,FR_wheel_link,-0.12276839739376245,0.030617586487257462,-0.13435571058301427,-0.013811890102812608,0.00751104985307593,0.013740565544146337
450423000000,320,450423000000,FR_wheel_link,0.2053469584928249,-0.6112234627613669,0.8156866312140478,0.025498136294665363,-0.008697005694470938,-0.01950570007958456
450424000000,321,450424000000,FR_wheel_link,-2.335555681130454,-29.13356483628331,11.87723937669813,-0.4244235167717643,0.11845782338743281,0.21561701153485813
450425000000,322,450425000000,FR_wheel_link,-0.1377994213484135,-0.033726821575975556,-0.09232599635176204,-0.010444529043688547,0.008369730727011965,0.014040315006805791
450426000000,323,450426000000,FR_wheel_link,0.19733348829631658,-0.5902333501671974,0.7851100621892658,0.024858992373102566,-0.00851240814449539,-0.019135190308608944
450427000000,324,450427000000,FR_wheel_link,-2.412367891249244,-29.18648753905516,12.085421870761929,-0.40512977572620923,0.12345125971908161,0.22347243536302566
450428000000,325,450428000000,FR_wheel_link,-0.1436958817461258,-0.023222526582783377,-0.09185223125204493,-0.009699709152024708,0.00882415293936402,0.014702566843540264
450429000000,326,450429000000,FR_wheel_link,0.19795787616156552,-0.5907125705407402,0.7857861264827499,0.024983273781351487,-0.008623260262169611,-0.019328763323450092
450430000000,327,450430000000,FR_wheel_link,-2.439735512946065,-28.968723706615435,12.078276722748003,-0.39296689221475434,0.12540506981612215,0.22633414305458568
450431000000,328,450431000000,FR_wheel_link,-0.14454700817884886,-0.031138313521737276,-0.08454052355369088,-0.009290555514901851,0.008787725198175417,0.014733107813604623
450432000000,329,450432000000,FR_wheel_link,0.196412397358696,-0.5860597798070949,0.7804641066016558,0.02489092272121301,-0.008652353379996704,-0.019323746084064463
450433000000,330,450433000000,FR_wheel_link,-2.4358667288407814,-28.88971671877222,12.103414453369043,-0.3857288361940153,0.1253258284453682,0.22598229851081997
450434000000,331,450434000000,FR_wheel_link,-0.14386319298987818,-0.03550407199727348,-0.08151632008271625,-0.009163143356371193,0.008702362068390418,0.014622696928050313
450435000000,332,450435000000,FR_wheel_link,0.19533449393910962,-0.5821698513086033,0.7770137001764634,0.024810418026207072,-0.00867768854705835,-0.019305001949861286
450436000000,333,450436000000,FR_wheel_link,-2.4234614793262494,-28.82061027889274,12.119051668013691,-0.3802848947158908,0.12468439671562787,0.22474769386123983
450437000000,334,450437000000,FR_wheel_link,-0.1429189702136359,-0.038722488251432506,-0.08133317132382768,-0.00913207815971898,0.008598117719376045,0.014486032939767256
450438000000,335,450438000000,FR_wheel_link,0.19489826111987202,-0.5798230880272685,0.7760583532427175,0.024783978356635684,-0.008709039612273971,-0.019307049721350136
450439000000,336,450439000000,FR_wheel_link,-2.4107909203852906,-28.76505315721991,12.134215968574772,-0.3756214250813859,0.1239802880037284,0.22346575053353365
450440000000,337,450440000000,FR_wheel_link,-0.14198023107268315,-0.040990364306247126,-0.08178743491180372,-0.009167784132487686,0.008510966878992611,0.014354221843642193
450441000000,338,450441000000,FR_wheel_link,0.19482449396412277,-0.5781957953311996,0.7763409674496305,0.02478194825742994,-0.008739330097258373,-0.019314724871809064
450442000000,339,450442000000,FR_wheel_link,-2.4001003407896366,-28.71937977705528,12.151694009222407,-0.37125640973295476,0.12338340717078176,0.2223867693444396
450443000000,340,450443000000,FR_wheel_link,-0.14118987121738838,-0.04290835339597593,-0.08232013632064096,-0.009230587893157576,0.008439034181683019,0.014236585739588407
450444000000,341,450444000000,FR_wheel_link,0.19495190298048068,-0.576875997539352,0.7772050625566168,0.024789140028153727,-0.008768170441725183,-0.01932322745779487
450445000000,342,450445000000,FR_wheel_link,-2.3902669743837106,-28.6808563972857,12.170579890563593,-0.36711124932786576,0.12282201343036538,0.2213800893823232
450446000000,343,450446000000,FR_wheel_link,-0.14054102830714593,-0.044182243786274264,-0.08288261362239138,-0.009308646868105548,0.008387365046268696,0.014148331068532104
450447000000,344,450447000000,FR_wheel_link,0.1952907737163134,-0.5759744719681957,0.7787287620287418,0.02481165232156005,-0.008799393596263801,-0.01933979006378155
450448000000,345,450448000000,FR_wheel_link,-2.382035030978843,-28.645306952781414,12.191161826774156,-0.3629424577973528,0.1223558222062008,0.22053384676539906
450449000000,346,450449000000,FR_wheel_link,-0.14001479715099333,-0.045243725380476475,-0.08342649841658883,-0.009386004824211314,0.008345799950333029,0.01407734938301293
450450000000,347,450450000000,FR_wheel_link,0.19572904506990757,-0.5752316029845606,0.7805191499112478,0.024840210835689644,-0.008830457634680794,-0.01935869717147248
450451000000,348,450451000000,FR_wheel_link,-2.3747956886203188,-28.611810819936718,12.213296723311972,-0.35872521539162394,0.12195207727948901,0.2197906712702386
450452000000,349,450452000000,FR_wheel_link,-0.13956107037687793,-0.04620382048090656,-0.08393512315886198,-0.009459112114733064,0.008309698082476278,0.014015523610911448
450453000000,350,450453000000,FR_wheel_link,0.19621003045642324,-0.5745323358882247,0.7823978612573469,0.02487054023758232,-0.008860889928897622,-0.019377820953633013
450454000000,351,450454000000,FR_wheel_link,-2.367909334623011,-28.57878398637272,12.236228391136976,-0.35444872056099835,0.12157224279432774,0.2190850601709198
450455000000,352,450455000000,FR_wheel_link,-0.1391441298597688,-0.04706910467910805,-0.08442140717965259,-0.009529201213216158,0.008276909019225013,0.013959283298032338
450456000000,353,450456000000,FR_wheel_link,0.19672309667756005,-0.57388198856529,0.784357800782895,0.024903094230364888,-0.008891399694344286,-0.019398020204663018
450457000000,354,450457000000,FR_wheel_link,-2.36108804174206,-28.545709973485287,12.259569626186977,-0.35012372246945406,0.1211982088961951,0.21838699758471775
450458000000,355,450458000000,FR_wheel_link,-0.1387286657980559,-0.0479056552719996,-0.08483328288979974,-0.009595113090220084,0.008245553327124596,0.013905086651203272
450459000000,356,450459000000,FR_wheel_link,0.1972288560120639,-0.5731874924336662,0.7862664047240314,0.02493408736386673,-0.008921142107073744,-0.019416861431649158
450460000000,357,450460000000,FR_wheel_link,-2.354295564678936,-28.512595138619563,12.283273403438145,-0.34576022224058367,0.12082825393259297,0.21769386286706888
450461000000,358,450461000000,FR_wheel_link,-0.13814810233236294,-0.04923733487575328,-0.08464702577279137,-0.009651783025085008,0.008208595708417317,0.013838797702844829
450462000000,359,450462000000,FR_wheel_link,0.1973562059599331,-0.5711680519490182,0.7864511952141998,0.024911271188873887,-0.008930490780651367,-0.01939349666452061
450463000000,360,450463000000,FR_wheel_link,-4.735368839075424,-20.569513339227402,4.589061020508405,-0.6329799592407467,0.237567457677948,0.43193739234681705
