%time,field.header.seq,field.header.stamp,field.header.frame_id,field.wrench.force.x,field.wrench.force.y,field.wrench.force.z,field.wrench.torque.x,field.wrench.torque.y,field.wrench.torque.z
450113000000,0,450103000000,FL_wheel_link,0.0749105798485125,-1.091022954034871,0.9289992597714196,0.010177479079584896,-0.008241452489611457,-0.0052869568931625
450113000000,1,450104000000,FL_wheel_link,5.027468463401512,-19.832992030928,4.25842120523042,-0.6238143297203524,-0.25646942204592604,-0.46263154231676085
450113000000,2,450105000000,FL_wheel_link,0.07484829567348956,-1.0910901374112625,0.9288583476716494,0.010178612041525368,-0.008242277345325984,-0.005281147874643384
450113000000,3,450106000000,FL_wheel_link,5.0271237765117185,-19.833186456221434,4.256548997444469,-0.6240340891307015,-0.256447573608207,-0.46260016299944395
450113000000,4,450107000000,FL_wheel_link,0.07478606611750563,-1.09115729736487,0.9287173454009205,0.01017973496590091,-0.008243103507031137,-0.005275343519357307
450113000000,5,450108000000,FL_wheel_link,5.026779086219677,-19.833381571801674,4.254676880121071,-0.6242538715255919,-0.2564257297043846,-0.4625687878339916
450113000000,6,450109000000,FL_wheel_link,0.07472384916684184,-1.0912244088243301,0.9285762395543676,0.010180848439399547,-0.008243927949324985,-0.005269539135562427
450113000000,7,450110000000,FL_wheel_link,5.026443464658378,-19.833579798842617,4.252804464778327,-0.624473830817074,-0.256404363042738,-0.4625382569984005
450113000000,8,450111000000,FL_wheel_link,0.07466156623715167,-1.0912914865976469,0.9284350591710954,0.01018195233557529,-0.008244748568167395,-0.005263728081258832
450113000000,9,450112000000,FL_wheel_link,5.026132796553151,-19.833796193158786,4.250929263245155,-0.624694996246767,-0.2563843111212899,-0.4625100550501797
450113000000,10,450113000000,FL_wheel_link,0.07459913629039432,-1.0913580837154904,0.9282935492573019,0.010183050217456054,-0.008245561014140297,-0.00525790067480178
450114000000,11,450114000000,FL_wheel_link,5.025817880633245,-19.83400979534003,4.24905402620431,-0.6249160096189367,-0.2563640544637614,-0.4624814755478401
450115000000,12,450115000000,FL_wheel_link,0.07453652652509117,-1.091424387607684,0.9281517255880662,0.010184140354587446,-0.008246357358208946,-0.005252048835790592
450116000000,13,450116000000,FL_wheel_link,5.025496696244441,-19.834222064219,4.2471789113820035,-0.6251369291019934,-0.2563435005292884,-0.4624523454531501
450117000000,14,450117000000,FL_wheel_link,0.0744736313116892,-1.0914903431045349,0.9280094423578186,0.010185213245551371,-0.00824712738410017,-0.005246159408328917
450118000000,15,450118000000,FL_wheel_link,5.025169420332277,-19.834431334615196,4.2453029539699685,-0.625357777955504,-0.2563226333792092,-0.46242265446082603
450119000000,16,450119000000,FL_wheel_link,0.07441044621886232,-1.091555993360202,0.9278667913431895,0.010186271413855726,-0.00824787094888993,-0.005240232878231927
450120000000,17,450120000000,FL_wheel_link,5.024837211927593,-19.834637197619923,4.243426229023416,-0.6255785307217459,-0.2563015017644297,-0.4623924970426505
450121000000,18,450121000000,FL_wheel_link,0.07434715532781329,-1.0916213775668622,0.9277239916462304,0.010187321047912775,-0.00824860121060482,-0.005234290086343134
450122000000,19,450122000000,FL_wheel_link,5.024494675817778,-19.83484646961212,4.241550900424303,-0.6257992834520715,-0.25627992376696745,-0.4623614800785288
450123000000,20,450123000000,FL_wheel_link,0.07428354503546135,-1.0916861764162178,0.9275803094998041,0.010188328735447233,-0.008249295705497312,-0.005228299658626365
450124000000,21,450124000000,FL_wheel_link,5.024143130635077,-19.83505292869563,4.239673226435696,-0.6260201258989332,-0.2562578914731311,-0.46232964472757165
450125000000,22,450125000000,FL_wheel_link,0.0742194907186401,-1.0917504971299246,0.9274357961722408,0.010189299228500669,-0.008249947055068624,-0.005222249506203345
450126000000,23,450126000000,FL_wheel_link,5.0237944842554105,-19.835246963826563,4.2377909252171655,-0.62624084415397,-0.25623586647737967,-0.4622979227186615
450127000000,24,450127000000,FL_wheel_link,0.07415552326364228,-1.0918149895406237,0.9272918768379409,0.010190296687465157,-0.00825060615044654,-0.005216212115451275
450128000000,25,450128000000,FL_wheel_link,5.023453237052242,-19.835437756665588,4.235911469186271,-0.6264610838370022,-0.2562142104802604,-0.46226686462767796
450129000000,26,450129000000,FL_wheel_link,0.07409167831000182,-1.0918798292974117,0.9271485500349834,0.010191316044441498,-0.008251280079416069,-0.005210194108490703
450130000000,27,450130000000,FL_wheel_link,5.023141347690333,-19.83562444374084,4.234042076499195,-0.6266799834090966,-0.2561940703106296,-0.46223849687485286
450131000000,28,450131000000,FL_wheel_link,0.07402760475999724,-1.091944629395499,0.9270058115861414,0.010192307879613876,-0.008251976122822928,-0.005204190238273597
450132000000,29,450132000000,FL_wheel_link,5.022868918853116,-19.835810516528827,4.232183399010341,-0.6268976397395191,-0.256175991836351,-0.46221377605637387
450133000000,30,450133000000,FL_wheel_link,0.07396303718075134,-1.092009857416955,0.9268635109741886,0.010193234672186814,-0.00825268538530365,-0.005198177713573631
450134000000,31,450134000000,FL_wheel_link,5.022606757866782,-19.836006745066896,4.230328813052122,-0.6271153633304588,-0.2561585266754412,-0.46219008923597005
450135000000,32,450135000000,FL_wheel_link,0.07389792978002861,-1.0920759752010978,0.9267207763211748,0.010194081487169259,-0.008253369793181888,-0.0051921139797149385
450136000000,33,450136000000,FL_wheel_link,5.022343786102945,-19.836208105873997,4.228474414212059,-0.6273333352291576,-0.2561410515746397,-0.4621663634565241
450137000000,34,450137000000,FL_wheel_link,0.07383224572942973,-1.0921427525831648,0.9265773932199787,0.010194844103408499,-0.008254015755275576,-0.005185987366077126
450138000000,35,450138000000,FL_wheel_link,5.022073569855108,-19.836416907055902,4.226618152983718,-0.6275519073352258,-0.25612321613569927,-0.4621419882815737
450139000000,36,450139000000,FL_wheel_link,0.07376602285407437,-1.09220965327269,0.9264331654145764,0.010195529902581728,-0.008254617632675166,-0.005179797288637254
450140000000,37,450140000000,FL_wheel_link,5.02179177306291,-19.836630628060874,4.224759326149631,-0.62777102498753,-0.25610478307570395,-0.4621165492176532
450141000000,38,450141000000,FL_wheel_link,0.07369931336481236,-1.0922761932147174,0.9262880383797081,0.010196151879281669,-0.008255175291960714,-0.005173548303992909
450142000000,39,450142000000,FL_wheel_link,5.021405967603507,-19.836788304562297,4.2229043367932695,-0.6279869480636044,-0.25608092832952756,-0.4620814714347551
450143000000,40,450143000000,FL_wheel_link,0.07363247962243379,-1.0923440477267854,0.9261426874690637,0.010196728918876746,-0.00825568557768206,-0.005167257856835001
450144000000,41,450144000000,FL_wheel_link,5.021018816051643,-19.836950694978295,4.221047325383344,-0.6282033618408507,-0.2560569576586327,-0.46204622325069944
450145000000,42,450145000000,FL_wheel_link,0.07356551866336712,-1.0924121333482346,0.9259973392816432,0.010197270792346134,-0.008256178914742103,-0.0051609559395767455
450146000000,43,450146000000,FL_wheel_link,5.020639162068638,-19.837111081735348,4.219188116519338,-0.6284199422926772,-0.2560332679792756,-0.46201155290116225
450147000000,44,450147000000,FL_wheel_link,0.07349887089022561,-1.0924807299182886,0.9258528099145866,0.010197829617973256,-0.008256699181771436,-0.005154699561816589
450148000000,45,450148000000,FL_wheel_link,5.020269166072873,-19.837274656035703,4.217330946496823,-0.6286364843342471,-0.25601004944769595,-0.4619777418229448
450149000000,46,450149000000,FL_wheel_link,0.07343268880287437,-1.0925498203952384,0.9257091005140947,0.010198415118227088,-0.008257260124138374,-0.005148505405059825
450150000000,47,450150000000,FL_wheel_link,5.019908712409241,-19.837445050917342,4.2154764597873635,-0.6288530935948695,-0.2559873349687481,-0.4619448208905093
450151000000,48,450151000000,FL_wheel_link,0.07336696165337381,-1.0926191598690995,0.9255658995202155,0.01019901944667922,-0.008257859575283593,-0.005142369466541674
450152000000,49,450152000000,FL_wheel_link,5.019566280723756,-19.837643251832276,4.2136212839581075,-0.6290712097534265,-0.25596556797744807,-0.46191357996755555
450153000000,50,450153000000,FL_wheel_link,0.073301710349272,-1.0926872684740896,0.925422486450393,0.010199640103052245,-0.008258495154652054,-0.005136293021961577
450154000000,51,450154000000,FL_wheel_link,5.0192331414820375,-19.837832287052137,4.211765763479331,-0.6292888686149724,-0.2559442534864574,-0.4618831624368695
450155000000,52,450155000000,FL_wheel_link,0.07323697783621615,-1.0927553723779768,0.9252796013861423,0.010200298436960705,-0.008259171245500019,-0.005130277236115619
450156000000,53,450156000000,FL_wheel_link,5.0189023282788465,-19.838024496360635,4.20991381134215,-0.6295062830879572,-0.2559231331274364,-0.461853036012194
450157000000,54,450157000000,FL_wheel_link,0.07317241156184116,-1.0928233586193496,0.9251366369644056,0.0102009584648011,-0.008259858478521882,-0.005124278611843592
450158000000,55,450158000000,FL_wheel_link,5.018571251851927,-19.838217156349277,4.208062607589949,-0.6297236268498755,-0.25590202651552535,-0.4618229133457878
450159000000,56,450159000000,FL_wheel_link,0.07310785927948148,-1.0928912150107413,0.9249934718620065,0.01020160944759481,-0.008260544492311554,-0.005118279424215555
450160000000,57,450160000000,FL_wheel_link,5.0182407727896505,-19.83840809792112,4.20621094382553,-0.6299409286963015,-0.25588093849837495,-0.46179283166279844
450161000000,58,450161000000,FL_wheel_link,0.07304334478399879,-1.0929590535194136,0.9248503112641653,0.010202258928267444,-0.008261231923611756,-0.005112283756284432
450162000000,59,450162000000,FL_wheel_link,5.017966027542022,-19.83863830366526,4.204350789245789,-0.6301611076272089,-0.25586277742655156,-0.4617679452648151
450163000000,60,450163000000,FL_wheel_link,0.07297876685455007,-1.0930262425809671,0.9247067543104664,0.010202925540542317,-0.008261914688970485,-0.005106273869453454
450164000000,61,450164000000,FL_wheel_link,5.017690662810496,-19.838865197475773,4.202490586647249,-0.6303810951610245,-0.2558446057891058,-0.4617430215166072
450165000000,62,450165000000,FL_wheel_link,0.07291401365438487,-1.0930928720805024,0.9245628690475397,0.01020359922244749,-0.00826258316225491,-0.005100238871361151
450166000000,63,450166000000,FL_wheel_link,5.0174062376693165,-19.839089446469874,4.200631380075235,-0.6306008136358381,-0.25582602241457497,-0.46171732045589886
450167000000,64,450167000000,FL_wheel_link,0.07284885664498546,-1.093158912256492,0.9244183021897265,0.010204255593796594,-0.008263214973935805,-0.005094149334254969
450168000000,65,450168000000,FL_wheel_link,5.017112239185134,-19.839308795098717,4.198771109051747,-0.6308203789964547,-0.25580695701692185,-0.4616907488625221
450169000000,66,450169000000,FL_wheel_link,0.07278323781052368,-1.0932244272183256,0.924273117414631,0.010204891878298138,-0.008263805376018887,-0.005087999907799929
450170000000,67,450170000000,FL_wheel_link,5.01681035652721,-19.83952229376411,4.1969093749701285,-0.6310397938680764,-0.2557874693746489,-0.46166343310564717
450171000000,68,450171000000,FL_wheel_link,0.07271722542331904,-1.093289558781361,0.9241275651288976,0.01020551700039698,-0.008264361079300614,-0.005081800944480893
450172000000,69,450172000000,FL_wheel_link,5.016502102517114,-19.839731062670154,4.195046963447897,-0.6312590337451227,-0.25576764017542863,-0.4616355151434762
450173000000,70,450173000000,FL_wheel_link,0.07265089455133836,-1.0933544040404242,0.9239817948924219,0.010206136906394868,-0.008264889109881473,-0.005075562761829638
450174000000,71,450174000000,FL_wheel_link,5.016189114061149,-19.839935791914012,4.193184319968736,-0.6314780875496959,-0.2557475539649492,-0.46160714570420197
450175000000,72,450175000000,FL_wheel_link,0.07258432886820912,-1.0934190475868253,0.9238359264942229,0.010206756387688809,-0.008265397014818753,-0.005069296276310435
450176000000,73,450176000000,FL_wheel_link,5.015873208556434,-19.84013703437443,4.191321758991897,-0.6316969512155152,-0.2557273028762287,-0.4615784903382147
450177000000,74,450177000000,FL_wheel_link,0.07251762232841469,-1.0934835741033906,0.9236900781243391,0.010207380126586896,-0.008265893002684757,-0.005063013373984589
450178000000,75,450178000000,FL_wheel_link,5.015549771273679,-19.840340638676242,4.189461089533381,-0.6319157148200321,-0.2557067283205973,-0.4615492093966358
450179000000,76,450179000000,FL_wheel_link,0.0724506032259855,-1.0935477301327954,0.9235435722942587,0.010207978779653395,-0.008266358769527062,-0.005056687742045985
450180000000,77,450180000000,FL_wheel_link,5.01522840518871,-19.840534888608865,4.187597166675849,-0.632134358882512,-0.2556861601501738,-0.46152001023216666
450181000000,78,450181000000,FL_wheel_link,0.07238371282374621,-1.0936120022106777,0.9233974515829746,0.01020859728712812,-0.00826683360447047,-0.0050503766161570365
450182000000,79,450182000000,FL_wheel_link,5.014911912286179,-19.840727003546903,4.18573439591598,-0.6323527748544597,-0.2556658130880577,-0.46149122514952673
450183000000,80,450183000000,FL_wheel_link,0.07231711259096661,-1.0936764821619807,0.9232518642640619,0.010209242715316114,-0.008267331176911454,-0.0050441000070824684
450184000000,81,450184000000,FL_wheel_link,5.014597837000345,-19.840921828308037,4.183874369469543,-0.6325710272583233,-0.25564562465749613,-0.46146269698552994
450185000000,82,450185000000,FL_wheel_link,0.072250692861336,-1.0937409999094452,0.9231063885436441,0.010209894678157036,-0.008267841152289204,-0.005037843126255394
450186000000,83,450186000000,FL_wheel_link,5.0142862980150396,-19.84111693905669,4.1820151766645335,-0.6327892000363986,-0.2556255707329168,-0.4614344049112522
450187000000,84,450187000000,FL_wheel_link,0.07218444214605074,-1.0938055624801688,0.9229610117587381,0.01021055008412592,-0.008268362715181738,-0.0050316050504307765
450188000000,85,450188000000,FL_wheel_link,5.0139777603369176,-19.841312153990533,4.180156573800978,-0.6330073125992467,-0.25560566741540425,-0.4614063834799228
450189000000,86,450189000000,FL_wheel_link,0.07211837553598968,-1.093870203986058,0.9228157875528846,0.010211210064311822,-0.008268897396925788,-0.005025388179146117
450190000000,87,450190000000,FL_wheel_link,5.01367177509373,-19.841508378623452,4.178298870576306,-0.6332253772621076,-0.2555859009704584,-0.4613786015190657
450191000000,88,450191000000,FL_wheel_link,0.07205246922380697,-1.093934906290676,0.922670665368151,0.0102118717505396,-0.008269443194568998,-0.0050191896688104275
450192000000,89,450192000000,FL_wheel_link,5.013367942417413,-19.841705529092494,4.176441887147538,-0.6334434091542895,-0.25556625003249783,-0.4613510215425817
450193000000,90,450193000000,FL_wheel_link,0.07198669422386952,-1.0939996567737007,0.9225256099364527,0.01021253327243821,-0.008269997861969745,-0.005013006199787441
450194000000,91,450194000000,FL_wheel_link,5.01306628498456,-19.84190312719135,4.174585399756414,-0.6336614093733376,-0.25554670931357804,-0.46132363875454135
450195000000,92,450195000000,FL_wheel_link,0.0719210528064755,-1.0940644649890714,0.9223806533461363,0.010213195817514446,-0.008270561779473105,-0.005006838310653803
450196000000,93,450196000000,FL_wheel_link,5.012766282060212,-19.842101659911744,4.172729636253591,-0.633879377333599,-0.25552725915096064,-0.4612964128964287
450197000000,94,450197000000,FL_wheel_link,0.071855520358985,-1.0941293054039063,0.9222357502580225,0.010213857410167067,-0.008271132814105442,-0.005000682886581859
450198000000,95,450198000000,FL_wheel_link,5.012467534442977,-19.84230089610476,4.170874444902871,-0.6340973172990947,-0.2555078780047632,-0.46126930623180656
450199000000,96,450199000000,FL_wheel_link,0.07179007456791164,-1.0941941605191892,0.9220908739475527,0.010214516882387127,-0.008271709116694103,-0.004994537205048371
450200000000,97,450200000000,FL_wheel_link,5.012172539436613,-19.842498942745937,4.169020154623378,-0.6343150916850966,-0.25548869238786326,-0.4612425454476596
450201000000,98,450201000000,FL_wheel_link,0.07172467345677135,-1.0942591470183356,0.9219460983058649,0.010215172345985485,-0.008272290049876759,-0.004988398367788429
450202000000,99,450202000000,FL_wheel_link,5.011878965409169,-19.842698250856603,4.167166734596067,-0.6345328355944306,-0.25546958721620755,-0.46121592213890866
450203000000,100,450203000000,FL_wheel_link,0.07165929679522379,-1.0943242031155382,0.9218013307441515,0.010215821141555323,-0.00827287283560572,-0.004982263037126817
450204000000,101,450204000000,FL_wheel_link,5.011585709096742,-19.842898575965233,4.165313629843089,-0.6347505982525049,-0.2554504990033487,-0.4611893280138108
450205000000,102,450205000000,FL_wheel_link,0.07159395525720914,-1.0943892711455283,0.9216565465563243,0.010216464561772746,-0.008273457030085266,-0.004976131545095796
450206000000,103,450206000000,FL_wheel_link,5.011292881797214,-19.843099209295957,4.16346077060889,-0.6349683492100842,-0.2554314316610057,-0.4611627711709692
450207000000,104,450207000000,FL_wheel_link,0.07152875257954219,-1.0944544305274237,0.9215116695851697,0.010217104416927374,-0.00827404796376714,-0.004970013245650881
450208000000,105,450208000000,FL_wheel_link,5.010999133538968,-19.843302866413147,4.161608709458415,-0.6351861635904577,-0.2554123488854294,-0.4611361633538547
450209000000,106,450209000000,FL_wheel_link,0.07146356129452217,-1.0945194667264022,0.9213664700076319,0.010217725801066705,-0.008274634503691997,-0.004963891180038389
450210000000,107,450210000000,FL_wheel_link,5.010708849602719,-19.84350283238261,4.159754977084252,-0.6354039757587677,-0.2553933918436368,-0.4611098171908052
450211000000,108,450211000000,FL_wheel_link,0.07139857203756544,-1.0945846096353062,0.9212215168862036,0.010218354930982628,-0.008275234793564522,-0.0049577914781251285
450212000000,109,450212000000,FL_wheel_link,5.010420525580149,-19.843704354621043,4.157902553101214,-0.6356217249339603,-0.25537454938681164,-0.46108366474061285
450213000000,110,450213000000,FL_wheel_link,0.07133372499678159,-1.0946497690170864,0.9210766278267395,0.01021898508233996,-0.008275843671619815,-0.004951706531549781
450214000000,111,450214000000,FL_wheel_link,5.010132547072295,-19.84390720974269,4.156051006487956,-0.6358394423738423,-0.25535574351313467,-0.4610575631722546
450215000000,112,450215000000,FL_wheel_link,0.07126893325840984,-1.0947148645176128,0.9209316413700613,0.010219608687119824,-0.008276453921038545,-0.004945625782895927
450216000000,113,450216000000,FL_wheel_link,5.0098450010855355,-19.844109698770193,4.1541994768963875,-0.6360571362267681,-0.2553369585000338,-0.4610314989849318
450217000000,114,450217000000,FL_wheel_link,0.07120418902298134,-1.094779919456794,0.9207866186440361,0.010220228099842795,-0.008277065501431407,-0.004939549112962742
450218000000,115,450218000000,FL_wheel_link,5.009557814646396,-19.844311985338074,4.152348179610244,-0.6362747922127756,-0.25531819176683623,-0.46100546664439784
450219000000,116,450219000000,FL_wheel_link,0.07113948547195066,-1.0948449433503071,0.9206415848077463,0.010220844610797702,-0.008277678230462876,-0.00493347617249937
450220000000,117,450220000000,FL_wheel_link,5.009270746994833,-19.844514231981826,4.150497254122282,-0.6364924033090094,-0.25529943353562656,-0.46097944675781116
450221000000,118,450221000000,FL_wheel_link,0.07107480904901793,-1.0949099314478243,0.9204965323248567,0.010221458059334498,-0.008278291209186016,-0.004927405556731828
450222000000,119,450222000000,FL_wheel_link,5.008983809708,-19.844716218287285,4.148646644245681,-0.6367099646418626,-0.25528068196003717,-0.4609534377500978
450223000000,120,450223000000,FL_wheel_link,0.07101015822462123,-1.0949748903459802,0.9203514770247797,0.010222069274523139,-0.008278904548039331,-0.004921337334684634
450224000000,121,450224000000,FL_wheel_link,5.008697109602161,-19.844917890804098,4.146796389523234,-0.6369274695185887,-0.2552619416188613,-0.4609274484182848
450225000000,122,450225000000,FL_wheel_link,0.0709455375296258,-1.0950398291363137,0.9202064380489933,0.010222679259233395,-0.008279518804080932,-0.0049152722410442775
450226000000,123,450226000000,FL_wheel_link,5.00841073623027,-19.845119304252833,4.144946562233192,-0.6371449129992451,-0.2552432175513699,-0.4609014874219642
450227000000,124,450227000000,FL_wheel_link,0.07088095151408995,-1.0951047536836782,0.9200614259608306,0.010223288606512561,-0.008280134459710606,-0.004909210921253479
450228000000,125,450228000000,FL_wheel_link,5.008124760372865,-19.845320489363182,4.1430971942540715,-0.6373622933224823,-0.25522451341103697,-0.4608755612689462
450229000000,126,450229000000,FL_wheel_link,0.07081640585230574,-1.0951696687722512,0.9199164489255647,0.010223897791100892,-0.008280752020155244,-0.004903154091836738
450230000000,127,450230000000,FL_wheel_link,5.007838535534857,-19.84552127178465,4.141248097083818,-0.6375796225112739,-0.25520579699154694,-0.4608496120059667
450231000000,128,450231000000,FL_wheel_link,0.07075191343516972,-1.0952346232278731,0.9197715145779628,0.01022450817881894,-0.008281371331779811,-0.0048971018855334765
450232000000,129,450232000000,FL_wheel_link,5.007552950656449,-19.845721804056286,4.13939949073605,-0.63779688449359,-0.2551871118364651,-0.46082371865443494
450233000000,130,450233000000,FL_wheel_link,0.07068747606152066,-1.0952995849549427,0.9196266400650478,0.010225119593051226,-0.008281993699227518,-0.004891055888684459
450234000000,131,450234000000,FL_wheel_link,5.007267503054729,-19.84592367056926,4.13755180268441,-0.6380141184339054,-0.25516842580946464,-0.4607978276794607
450235000000,132,450235000000,FL_wheel_link,0.0706231142799916,-1.0953643110492481,0.919481782104628,0.01022573150648944,-0.008282622662131894,-0.004885021808602502
450236000000,133,450236000000,FL_wheel_link,5.006982890317642,-19.846125204293987,4.1357047740957205,-0.6382312602487958,-0.2551497811699515,-0.46077201011353447
450237000000,134,450237000000,FL_wheel_link,0.07055884167889444,-1.0954289016583219,0.9193369627413782,0.01022634572689267,-0.008283258004705916,-0.00487899928351354
450238000000,135,450238000000,FL_wheel_link,5.006699166072546,-19.846326227152797,4.133858389617605,-0.6384483004982774,-0.2551311879325763,-0.4607462789456891
450239000000,136,450239000000,FL_wheel_link,0.07049463594547332,-1.0954934633095652,0.9191921791214755,0.010226961057523078,-0.008283897248855964,-0.004872984299874653
450240000000,137,450240000000,FL_wheel_link,5.00641611573401,-19.846527066370633,4.132012573748573,-0.6386652663058008,-0.2551126323131572,-0.46072061166475115
450241000000,138,450241000000,FL_wheel_link,0.07043048157576262,-1.0955580122181796,0.9190474283216368,0.010227576379208226,-0.008284539403581412,-0.004866975232080648
450242000000,139,450242000000,FL_wheel_link,5.0061338672034,-19.846727646776188,4.130167229493568,-0.6388821657567721,-0.25509411679359356,-0.4606950156996101
450243000000,140,450243000000,FL_wheel_link,0.07036638361408519,-1.0956225660703125,0.9189027332333184,0.010228192387791912,-0.008285185017015166,-0.004860972829899738
450244000000,141,450244000000,FL_wheel_link,5.005852525273434,-19.84692811150378,4.128322425851605,-0.6390989992040024,-0.25507564701301044,-0.46066950094992054
450245000000,142,450245000000,FL_wheel_link,0.07030234840166079,-1.0956871330279354,0.9187581040308693,0.010228809487203555,-0.008285834616261442,-0.00485497785254811
450246000000,143,450246000000,FL_wheel_link,5.005572113009282,-19.84712858822561,4.126478211105881,-0.6393157679498633,-0.2550572252545322,-0.46064407071364877
450247000000,144,450247000000,FL_wheel_link,0.07023837841839806,-1.0957517135618504,0.918613537902447,0.010229427530424662,-0.00828648834664167,-0.004848990521446212
450248000000,145,450248000000,FL_wheel_link,5.005292643889666,-19.84732910400841,4.1246345767505375,-0.6395324742685141,-0.25503885238294133,-0.4606187264270839
450249000000,146,450249000000,FL_wheel_link,0.07017447507324899,-1.0958163070870257,0.9184690317664824,0.010230046335886714,-0.008287146266019124,-0.004843010940032377
450250000000,147,450250000000,FL_wheel_link,5.005014115718857,-19.847529677622347,4.122791512745186,-0.639749120170884,-0.2550205284311552,-0.4605934680577774
450251000000,148,450251000000,FL_wheel_link,0.07011063868841297,-1.0958809124575415,0.9183245823437524,0.01023066571025073,-0.008287808350469156,-0.004837039095447002
450252000000,149,450252000000,FL_wheel_link,5.00473650288807,-19.84773032708307,4.1209490104130095,-0.6399657074609518,-0.2550022523090855,-0.460568293507165
450253000000,150,450253000000,FL_wheel_link,0.07004686821011097,-1.0959455277062566,0.9181801852720031,0.010231285414853478,-0.008288474470384843,-0.004831074819225323
450254000000,151,450254000000,FL_wheel_link,5.004459771171494,-19.847931052508685,4.119107055458075,-0.6401822376515127,-0.2549840223181404,-0.4605431997064229
450255000000,152,450255000000,FL_wheel_link,0.06998316194221424,-1.09601015085297,0.9180358366787554,0.01023190524037569,-0.008289144456946793,-0.0048251178811480125
450256000000,153,450256000000,FL_wheel_link,5.004183885901353,-19.848131844844332,4.11726563416582,-0.6403987117448975,-0.25496583664671346,-0.4605181834466797
450257000000,154,450257000000,FL_wheel_link,0.06991951805417936,-1.0960747802252992,0.9178915337027904,0.010232525035243656,-0.008289818143069533,-0.004819168048046916
450258000000,155,450258000000,FL_wheel_link,5.003908814295705,-19.848332692951264,4.115424736371435,-0.6406151302626105,-0.2549476935674655,-0.4604932416755208
450259000000,156,450259000000,FL_wheel_link,0.06985593476766808,-1.0961394144372705,0.9177472742575894,0.010233144696295014,-0.00829049537550762,-0.004813225101744908
450260000000,157,450260000000,FL_wheel_link,5.0036363995366635,-19.84853491771437,4.113584087930518,-0.6408315890370402,-0.25492968896508045,-0.46046854520874686
450261000000,158,450261000000,FL_wheel_link,0.06979240860908367,-1.096204019276547,0.917603045017983,0.010233764808331205,-0.008291176193666773,-0.004807288774501893
450262000000,159,450262000000,FL_wheel_link,5.0033662411317446,-19.84873816924407,4.111743731742388,-0.6410480646660107,-0.25491180347810377,-0.4604440584420189
450263000000,160,450263000000,FL_wheel_link,0.06972893182496077,-1.0962685810455652,0.917458832929433,0.010234385403636791,-0.00829185992467468,-0.004801357959488087
450264000000,161,450264000000,FL_wheel_link,5.003073000771812,-19.848952075808835,4.109898726035005,-0.6412656262788995,-0.25489273426032316,-0.4604174610851709
450265000000,162,450265000000,FL_wheel_link,0.0696657727619742,-1.0963325334611964,0.9173141138788319,0.010235029071738927,-0.008292539826522161,-0.004795439488048696
450266000000,163,450266000000,FL_wheel_link,5.002700900834901,-19.849168490200483,4.108041851567392,-0.6414847029709021,-0.25486955418792157,-0.4603835732480918
450267000000,164,450267000000,FL_wheel_link,0.06960363329231004,-1.0963951315774163,0.9171685415505997,0.010235759379325035,-0.008293218870712897,-0.004789572073315328
450268000000,165,450268000000,FL_wheel_link,5.002344671354086,-19.849353028437946,4.1061827218888105,-0.6417023388900225,-0.25484706764059023,-0.4603510049753098
450269000000,166,450269000000,FL_wheel_link,0.06954232117782855,-1.0964576105186874,0.9170244593370973,0.010236595005786263,-0.008293954871556646,-0.004783798982541037
450270000000,167,450270000000,FL_wheel_link,5.002000769137482,-19.849532384800607,4.104329911801048,-0.6419190051275069,-0.2548252409241584,-0.46031959070410916
450271000000,168,450271000000,FL_wheel_link,0.0694816210828438,-1.096520332038274,0.9168815260824357,0.010237505325111383,-0.008294742424346434,-0.004778101222890879
450272000000,169,450272000000,FL_wheel_link,5.001663034210985,-19.849714045895706,4.102482768193346,-0.6421351576800423,-0.25480379719207114,-0.46028880919004445
450273000000,170,450273000000,FL_wheel_link,0.0694213078063233,-1.0965831811527655,0.9167389504842748,0.010238447673577589,-0.008295561260689185,-0.004772447413401927
450274000000,171,450274000000,FL_wheel_link,5.001339324937307,-19.84988944493435,4.100636048016327,-0.6423509507011079,-0.2547829925995804,-0.4602592256511622
450275000000,172,450275000000,FL_wheel_link,0.06936174232392267,-1.0966466004774522,0.9165974652094597,0.010239448442697509,-0.008296442838171617,-0.004766883252269608
450276000000,173,450276000000,FL_wheel_link,5.001034865722482,-19.850063442738676,4.098792373672833,-0.642566355239091,-0.254763123386866,-0.4602313495586774
450277000000,174,450277000000,FL_wheel_link,0.06930316159603742,-1.0967107999547765,0.9164573865359178,0.010240517295237075,-0.008297407470767201,-0.004761438712658075
450278000000,175,450278000000,FL_wheel_link,5.0007442366138175,-19.85024543472098,4.096954555584483,-0.6427815316639709,-0.2547440253142035,-0.4602048059669476
450279000000,176,450279000000,FL_wheel_link,0.06924533787053547,-1.096775461329606,0.9163179376433818,0.010241615402060922,-0.00829843272191472,-0.004756082595080615
450279000000,177,450280000000,FL_wheel_link,5.0004639844455,-19.85043313968912,4.095119578121554,-0.642996687272765,-0.25472549698301755,-0.4601792534650582
450281000000,178,450281000000,FL_wheel_link,0.06918809891075763,-1.0968404228573818,0.9161787761445245,0.010242722595873483,-0.008299502579978276,-0.004750793037851187
450282000000,179,450282000000,FL_wheel_link,5.000192306213517,-19.850624850410597,4.093285893331833,-0.6432119045181682,-0.254707424845049,-0.460154504755342
450283000000,180,450283000000,FL_wheel_link,0.06913133720832856,-1.0969056238716344,0.9160398123755039,0.010243831896085064,-0.008300607770332327,-0.004745557451567173
450284000000,181,450284000000,FL_wheel_link,4.999926533632771,-19.8508208637594,4.091453314091078,-0.6434272179872464,-0.25468967951056937,-0.46013032326151543
450285000000,182,450285000000,FL_wheel_link,0.06907491166562263,-1.0969709607078457,0.9159008783520708,0.01024493461276715,-0.00830173630517508,-0.004740358879975664
450286000000,183,450286000000,FL_wheel_link,4.9996736597683356,-19.85101472702908,4.08962282213204,-0.643642172356066,-0.25467262077149205,-0.4601073494132967
450287000000,184,450287000000,FL_wheel_link,0.06901863068896386,-1.097036841204522,0.9157620629059431,0.010246018131022194,-0.008302880537728458,-0.004735180130940073
450288000000,185,450288000000,FL_wheel_link,4.9994417950923244,-19.851204790403646,4.087796930611608,-0.643856397428556,-0.2546566946766914,-0.460086357432876
450289000000,186,450289000000,FL_wheel_link,0.06896215804154138,-1.097103821063664,0.915623346626634,0.01024705098550508,-0.008304025264340244,-0.0047299890664218025
450290000000,187,450290000000,FL_wheel_link,4.999190474666206,-19.85141014755673,4.085970603482352,-0.6440715034298832,-0.2546397937480781,-0.4600636099973437
450291000000,188,450291000000,FL_wheel_link,0.06890564095012047,-1.0971706384012447,0.9154837832095482,0.010248032276560827,-0.008305153617282256,-0.00472478221862343
450292000000,189,450292000000,FL_wheel_link,4.998898132172653,-19.851546227274213,4.084152949587909,-0.6442821432566187,-0.2546206651679044,-0.46003695338937306
450293000000,190,450293000000,FL_wheel_link,0.06884914622063744,-1.0972402737825246,0.9153455362931434,0.010248971840731461,-0.008306289802789324,-0.0047195851405143685
450294000000,191,450294000000,FL_wheel_link,4.998605282014213,-19.851710664940313,4.082338543681003,-0.6444939447989021,-0.254601569212676,-0.46001031916782614
450295000000,192,450295000000,FL_wheel_link,0.06879258137191302,-1.0973105284691893,0.9152069400209043,0.010249840934546903,-0.008307418275066465,-0.004714383435566008
450296000000,193,450296000000,FL_wheel_link,4.998319372954444,-19.85188000073026,4.080520561238605,-0.6447064229134362,-0.25458274264882985,-0.4599842330438704
450297000000,194,450297000000,FL_wheel_link,0.06873634502634005,-1.0973813400184553,0.9150686622523029,0.010250691375705298,-0.008308571670097438,-0.004709224404468359
450298000000,195,450298000000,FL_wheel_link,4.99804223401627,-19.85205546581505,4.078702646060787,-0.6449192289269755,-0.2545643446535292,-0.45995893040278724
450299000000,196,450299000000,FL_wheel_link,0.06868053859980869,-1.097452578031948,0.9149307816468388,0.010251539172423297,-0.00830975849257167,-0.004704119027460451
450300000000,197,450300000000,FL_wheel_link,4.997797764384015,-19.85227370263815,4.076880420110198,-0.6451346816228483,-0.2545476971985341,-0.45993671258195984
450301000000,198,450301000000,FL_wheel_link,0.06862500959855096,-1.0975225246795,0.9147922126622007,0.010252382129558967,-0.008310962701961421,-0.004699044380011914
450302000000,199,450302000000,FL_wheel_link,4.997568796862252,-19.852500496953443,4.0750540895389795,-0.6453509792688917,-0.2545318647447984,-0.4599159390282341
450303000000,200,450303000000,FL_wheel_link,0.06856966258236807,-1.0975914639985636,0.9146532225072102,0.010253236642781006,-0.008312176385289268,-0.0046939859055047635
450304000000,201,450304000000,FL_wheel_link,4.997342554058935,-19.852728679705947,4.073227419294759,-0.6455673402974135,-0.25451624132640394,-0.4598954876631503
450305000000,202,450305000000,FL_wheel_link,0.0685141414908145,-1.097659633276332,0.9145136048048982,0.010254083107807593,-0.00831337151834259,-0.004688900281680616
450306000000,203,450306000000,FL_wheel_link,4.997120065764718,-19.852962872080052,4.071398775072858,-0.6457841803527831,-0.25450087355641404,-0.45987544782136275
450307000000,204,450307000000,FL_wheel_link,0.06845815031041824,-1.0977268913565899,0.9143730855010277,0.010254906756128836,-0.00831452584565489,-0.004683753454967046
450308000000,205,450308000000,FL_wheel_link,4.996894131015317,-19.853185111621546,4.069569490174662,-0.6460004417900314,-0.25448533341530316,-0.4598550924343066
450309000000,206,450309000000,FL_wheel_link,0.06840156788888666,-1.0977938965319665,0.9142321263690733,0.01025570705425529,-0.008315635996840291,-0.004678536750647778
450310000000,207,450310000000,FL_wheel_link,4.996695444799775,-19.85337841897109,4.0677496829888975,-0.6462141251791006,-0.25447118261128854,-0.4598372114158126
450311000000,208,450311000000,FL_wheel_link,0.06834394412228127,-1.097861887615819,0.9140917426998645,0.010256444867197002,-0.008316714513994653,-0.004673241712597186
450312000000,209,450312000000,FL_wheel_link,4.996496100543396,-19.853580582152,4.065936731490277,-0.6464275242457975,-0.25445707969058173,-0.4598193535355787
450313000000,210,450313000000,FL_wheel_link,0.06828520062559171,-1.0979303381047048,0.9139506283997332,0.010257082544975496,-0.008317730108929194,-0.004667836556875778
450314000000,211,450314000000,FL_wheel_link,4.996283042776893,-19.853791506592664,4.064120422061928,-0.6466417689271338,-0.25444224893724965,-0.4598002151917397
450315000000,212,450315000000,FL_wheel_link,0.06822573963694707,-1.0979986942048714,0.9138085844921761,0.010257649461140673,-0.008318688864605335,-0.004662347972129532
450316000000,213,450316000000,FL_wheel_link,4.996063503223087,-19.854000494956566,4.062300551312451,-0.6468563125953188,-0.25442703474044703,-0.4597804289742847
450317000000,214,450317000000,FL_wheel_link,0.06816583405528812,-1.0980669879114506,0.9136661291237134,0.010258177849280868,-0.008319610951948454,-0.004656807974226471
450318000000,215,450318000000,FL_wheel_link,5.776734909522002,-25.782640593762547,2.584721284102865,-1.189761624856811,-0.2865527727529763,-0.5256669606289129
450319000000,216,450319000000,FL_wheel_link,0.004951369619266276,-1.4949736109651972,1.0388452559406032,-0.06666772338326432,-0.025243669205278336,-0.019623343060490787
450320000000,217,450320000000,FL_wheel_link,3.796964225277839,-36.48656314273204,0.1957344330661179,-2.0101587443131583,-0.20487255007481373,-0.36145021590568194
450321000000,218,450321000000,FL_wheel_link,-0.04110309958890705,-0.5628771811111628,-0.6104066187305272,-0.09221271202515158,-0.01745637613295367,-0.008226708770743336
450322000000,219,450322000000,FL_wheel_link,2.459534067778794,-18.19618422015742,-3.63850945074923,-1.3803046159479022,-0.11814141926884054,-0.21828560561819402
450323000000,220,450323000000,FL_wheel_link,0.07371211506631672,-0.1435405820283783,-0.5137532387937647,-0.0613069009498325,-0.006003732559242928,-0.002456422828093145
450324000000,221,450324000000,FL_wheel_link,3.5555696906533023,-20.663997320654783,-0.2777754276095133,-1.1563929872640475,-0.1783571492710204,-0.3256145829245485
450325000000,222,450325000000,FL_wheel_link,0.011931775089605384,-0.2990181241483335,-0.5333130790627417,-0.060262113203048126,-0.010782106401926728,-0.007831598758282597
450326000000,223,450326000000,FL_wheel_link,3.9362958778836643,-17.64403161489596,-4.288323743345494,-1.4020537838162208,-0.18965714925360924,-0.35150017145788093
450327000000,224,450327000000,FL_wheel_link,0.0783257252583436,-0.103408109240051,-0.4209987726364334,-0.04445928948035199,-0.006151424308345959,-0.004908469749846948
450328000000,225,450328000000,FL_wheel_link,3.0713000691714147,-28.896560702289197,7.190529781552798,-0.9166649904936647,-0.1459796734714144,-0.2776943876298628
450329000000,226,450329000000,FL_wheel_link,0.12297590220863062,-0.19042756905011332,-0.06337230886230359,-0.017527457907071584,-0.006165349392217927,-0.010562177141420758
450330000000,227,450330000000,FL_wheel_link,1.050112189278377,-22.17736653709039,10.061185455769278,-0.25303783718733064,-0.054510395234232525,-0.09877939182282784
450331000000,228,450331000000,FL_wheel_link,0.050033447571936215,-0.017254067257977627,-0.030234188651589403,-0.006271811214698486,-0.0008237991168776302,-0.002696209552495836
450332000000,229,450332000000,FL_wheel_link,-1.4603288230288867,-7.205686604335571,-2.754420913990449,-0.6603659071425058,0.09054474940945939,0.152238992232291
450333000000,230,450333000000,FL_wheel_link,-0.19923500612652847,-0.5891741990697328,0.397667455651439,-0.001115694315863325,0.0035903701877417937,0.01783512518205434
450334000000,231,450334000000,FL_wheel_link,0.7008955475328249,-17.718763885034846,2.7100632418932387,-0.6856110319017119,-0.02728340265714414,-0.054916719264967245
450335000000,232,450335000000,FL_wheel_link,-0.20676238445771272,-1.0207850846177078,0.8820772067261384,0.008898076528320016,0.004718801318929662,0.018464128853619356
450336000000,233,450336000000,FL_wheel_link,1.3641485895918626,-18.36498090183485,4.091155424901824,-0.5756294312487824,-0.06438823146487602,-0.11981035695217605
450337000000,234,450337000000,FL_wheel_link,-0.13887188932937033,-0.9627226584663191,0.8592184429266635,0.011079681496530464,0.003652126135124606,0.013981173328346289
450338000000,235,450338000000,FL_wheel_link,2.025478790489809,-18.312209062208378,4.405446998743687,-0.5380772815916729,-0.10186332397135076,-0.18478982912511738
450339000000,236,450339000000,FL_wheel_link,-0.09659475199753083,-0.9627990894943649,0.8701973105427973,0.011839440306464485,0.002612310058176621,0.011158493831240731
450340000000,237,450340000000,FL_wheel_link,3.545907763694396,-17.6472465987033,4.095275208984625,-0.5298572326869818,-0.17288311353901148,-0.3178245235940134
450341000000,238,450341000000,FL_wheel_link,-0.05509248582905606,-1.056883912244928,0.9785233760470439,0.014638165148537392,-0.0013623197806513967,0.006266867975310326
450342000000,239,450342000000,FL_wheel_link,4.257592779463001,-18.59162168559733,4.475795316246512,-0.5383349007873212,-0.21327699441641979,-0.3871643437889387
450343000000,240,450343000000,FL_wheel_link,-0.02243387540747249,-1.0905938800334467,0.9967039367249004,0.014952323162971948,-0.003864613502867006,0.0028794132000852382
450344000000,241,450344000000,FL_wheel_link,4.672242092299383,-19.036829614630996,4.559746289195242,-0.5520169119635775,-0.23665964840538503,-0.4274504887517469
450345000000,242,450345000000,FL_wheel_link,0.0021199642578067926,-1.1000043086913514,0.986595658739382,0.014146386037701023,-0.005394978911983146,0.0006024463978042074
450346000000,243,450346000000,FL_wheel_link,4.926692817287013,-19.282755474919778,4.536073413149687,-0.5668734515114398,-0.2508414742935801,-0.4520305350117846
450347000000,244,450347000000,FL_wheel_link,0.018900035221485725,-1.1001554916814846,0.9700594382542179,0.012990525108354651,-0.006261397870832458,-0.0008406385099104498
450348000000,245,450348000000,FL_wheel_link,5.0785583850416565,-19.42805044815815,4.481330910745777,-0.5799607354214281,-0.259171672770555,-0.4665792453503637
450349000000,246,450349000000,FL_wheel_link,0.029528094712318723,-1.0974228892340079,0.9546780757390002,0.011872456402728219,-0.006706880846796681,-0.0017032441899796878
450350000000,247,450350000000,FL_wheel_link,5.164595434569548,-19.516710124872024,4.427078686101181,-0.5901821270655532,-0.2637869086412586,-0.4747211426544328
450351000000,248,450351000000,FL_wheel_link,0.03582065711883009,-1.094285907489888,0.9427602132202051,0.010946596702355413,-0.006906735083658738,-0.0021917173677809443
450352000000,249,450352000000,FL_wheel_link,5.21052154172099,-19.570869042686073,4.384924852186805,-0.5974033469944316,-0.26617424898100184,-0.47898812658492473
450353000000,250,450353000000,FL_wheel_link,0.039258540843605645,-1.0915408697336577,0.9344484768363034,0.010243280209153265,-0.006971893398753147,-0.0024500872243678677
450354000000,251,450354000000,FL_wheel_link,5.232775021869136,-19.602711178694282,4.356993586497333,-0.6019916223016553,-0.2672736553632583,-0.48099037413859813
450355000000,252,450355000000,FL_wheel_link,0.04093486440608049,-1.0892829563260267,0.9290583592240786,0.009738634067003137,-0.006968403385452726,-0.0025723357741887043
450356000000,253,450356000000,FL_wheel_link,5.241494646707663,-19.61931990162694,4.34145298510259,-0.6044830768178939,-0.26765643984579257,-0.48171431346999466
450357000000,254,450357000000,FL_wheel_link,0.04153896393607644,-1.0874517278666336,0.9258546401231883,0.009394017972761407,-0.006935816034044995,-0.0026176923227347443
450358000000,255,450358000000,FL_wheel_link,5.2428051691785305,-19.6255551291472,4.335633476628317,-0.6053999562563557,-0.2676610760792624,-0.48175040218454185
450359000000,256,450359000000,FL_wheel_link,0.041525031824983294,-1.08591072339083,0.9241700399920089,0.009167235775828125,-0.006891353471655573,-0.0026203428183839417
450360000000,257,450360000000,FL_wheel_link,5.24010101074498,-19.624646666448903,4.336789533897858,-0.6051959451139868,-0.2674699259814234,-0.48142145853169743
450361000000,258,450361000000,FL_wheel_link,0.04117131517732516,-1.0845386652092661,0.9234707503171388,0.009022629725141338,-0.00684320275221502,-0.002599780975037651
450362000000,259,450362000000,FL_wheel_link,5.2352756529765525,-19.618814659225162,4.3426429062399015,-0.6042268907289603,-0.2671813462311797,-0.480904733367772
450363000000,260,450363000000,FL_wheel_link,0.04064146119129785,-1.0832513000756736,0.9233771195016988,0.008932716444428135,-0.006794753991534737,-0.00256704146009844
450364000000,261,450364000000,FL_wheel_link,5.229378800750583,-19.60965346178145,4.351500092726069,-0.6027562458365419,-0.26684761129322343,-0.480296585782235
450365000000,262,450365000000,FL_wheel_link,0.0400281385969004,-1.0819986096250418,0.9236367149729295,0.00887764316525321,-0.006747169083333513,-0.002528295985116801
450366000000,263,450366000000,FL_wheel_link,5.22299094918694,-19.598318241540177,4.362186686678565,-0.6009704237839972,-0.2664962040694804,-0.4796490906889125
450367000000,264,450367000000,FL_wheel_link,0.039381676887963485,-1.0807552973854355,0.9240905323755633,0.008843758004883857,-0.00670068931078321,-0.002486970111257522
450368000000,265,450368000000,FL_wheel_link,5.216433272886709,-19.585638146337764,4.373930724200551,-0.5989963349291934,-0.2661414758090339,-0.47899032927516805
450369000000,266,450369000000,FL_wheel_link,0.03872799875633352,-1.0795113863392545,0.9246432919653526,0.008822055504987368,-0.006655242558561448,-0.002444948418266385
450370000000,267,450370000000,FL_wheel_link,5.209882477085986,-19.57219475478632,4.38624790349824,-0.5969172984916702,-0.265790825431914,-0.4783353243712142
450371000000,268,450371000000,FL_wheel_link,0.038079422385786627,-1.07826509913272,0.9252407601915492,0.008806822851340768,-0.006610690559263293,-0.002403245305708887
450372000000,269,450372000000,FL_wheel_link,5.203433066518593,-19.558381610867993,4.398847628700735,-0.5947859758218853,-0.2654479049563522,-0.4776918464059233
450373000000,270,450373000000,FL_wheel_link,0.037450551256687,-1.0770078095996753,0.9258359916179467,0.008794083070326782,-0.006566603483886815,-0.002362426377042976
450374000000,271,450374000000,FL_wheel_link,5.197157473875462,-19.54441051938266,4.411521789704777,-0.5926362398847033,-0.26511585591384,-0.47706615220575216
450375000000,272,450375000000,FL_wheel_link,0.03684001896760368,-1.075743852922993,0.9264141027847919,0.0087816801088583,-0.006523082917618409,-0.0023227639161891
450376000000,273,450376000000,FL_wheel_link,5.191147733145302,-19.530461039841047,4.424196901500143,-0.5904856880762144,-0.264799422690083,-0.4764668250154131
450377000000,274,450377000000,FL_wheel_link,0.03623769915085238,-1.0744851554167056,0.9269783994176155,0.008768618616238198,-0.00648026905582818,-0.002284054660392659
450378000000,275,450378000000,FL_wheel_link,5.185293669000702,-19.516664830913477,4.436821371969072,-0.5883478695857005,-0.26449159662198957,-0.475882430319578
450379000000,276,450379000000,FL_wheel_link,0.03564483348793063,-1.073233269330905,0.9275326244995445,0.008754658765261308,-0.00643806671039982,-0.00224645939151438
450379000000,277,450380000000,FL_wheel_link,5.1796000521856,-19.503047747462915,4.449398163477492,-0.5862240602192105,-0.2641925866930316,-0.4753133922380073
450381000000,278,450381000000,FL_wheel_link,0.03506041137958754,-1.0719886967746002,0.9280785727534437,0.0087397055019465,-0.006396377354986633,-0.0022099034459763752
450382000000,279,450382000000,FL_wheel_link,5.17405072710711,-19.489605834292878,4.461929175425909,-0.5841140370714684,-0.2639014575742156,-0.474758120906934
450383000000,280,450383000000,FL_wheel_link,0.034482906233736496,-1.0707511146362703,0.9286174415148165,0.008723786660682369,-0.006355106015405186,-0.0021742366425562755
450384000000,281,450384000000,FL_wheel_link,5.16862346712113,-19.476317758523056,4.474418027484947,-0.5820164196081228,-0.26361697047501687,-0.4742144669581174
450385000000,282,450385000000,FL_wheel_link,0.033910815671840955,-1.0695196608737285,0.9291501556630226,0.008706998360132697,-0.00631416249868085,-0.0021392917279384727
450386000000,283,450386000000,FL_wheel_link,5.163295516398176,-19.463153960300033,4.486869348406807,-0.5799292373264305,-0.26333788034658656,-0.47368024942004266
450387000000,284,450387000000,FL_wheel_link,0.03334282321347498,-1.0682932148806343,0.9296774218194207,0.008689463570656612,-0.006273463253437803,-0.00210490843368807
450388000000,285,450388000000,FL_wheel_link,5.1469588018060275,-19.42167770782338,4.4984393321461,-0.5764706388995126,-0.26249536029358594,-0.4721399707097609
450389000000,286,450389000000,FL_wheel_link,0.03289375490455941,-1.0694786917338686,0.9311240719737692,0.008688512123437941,-0.006223330730600331,-0.0020572502827920316
450390000000,287,450390000000,FL_wheel_link,6.7068907932069814,-21.934423862713,4.091325023430565,-0.7560334026921981,-0.34958249737390223,-0.6179360805893046
450391000000,288,450391000000,FL_wheel_link,0.04125545559518476,-1.064976974241387,0.9125690187852272,0.009236497069323873,-0.0062944740491728485,-0.001395533181866895
450392000000,289,450392000000,FL_wheel_link,6.466658560828487,-21.081602120228133,3.9800302551775726,-0.7220581049916935,-0.3374172360920512,-0.5958172943187161
450393000000,290,450393000000,FL_wheel_link,0.03377613529543752,-1.0259549541085953,0.8952038185208336,0.010145784721284985,-0.0054280868166371714,-0.0001543343791278335
450394000000,291,450394000000,FL_wheel_link,6.2351508595654535,-20.589269953593185,3.967664316837746,-0.697361769256167,-0.3250268968596136,-0.5739134165820937
450395000000,292,450395000000,FL_wheel_link,0.024297795486583965,-1.0053860543461686,0.8932657969053731,0.011047639478536415,-0.004634470660306305,0.001032916414520889
450396000000,293,450396000000,FL_wheel_link,6.0247428461335515,-20.225070267115637,4.002271047970118,-0.6742882862358371,-0.3136088074197429,-0.5539449688502008
450397000000,294,450397000000,FL_wheel_link,0.015967645719521615,-0.9951180598909544,0.8973037469510913,0.011843102772262746,-0.0040323776638256335,0.001962640960625064
450398000000,295,450398000000,FL_wheel_link,5.901506783054116,-20.030819928002273,4.040990128631883,-0.6598673339947316,-0.3069504654674752,-0.5421725675598289
450399000000,296,450399000000,FL_wheel_link,0.5353892424838224,0.024355059084275137,0.5153253412038974,0.028858957779553635,-0.015254486706728762,-0.04015449087100164
450400000000,297,450400000000,FL_wheel_link,5.57109003652406,-5.694160607256679,3.997642019886573,0.1253460676184322,-0.32346993246416555,-0.5571092981731557
450401000000,298,450401000000,FL_wheel_link,0.19269866475774824,0.10979806645180601,0.12019559350292316,0.012940853524349122,-0.014558665671706,-0.02762568228304047
450402000000,299,450402000000,FL_wheel_link,2.30500750689921,-13.624095726777941,7.756886920220067,0.02814742726122025,-0.1247580364717082,-0.2236264310192897
450403000000,300,450403000000,FL_wheel_link,0.12500800292114275,0.09158799936162092,0.04229964590344627,0.0063602919226211935,-0.008478304274382906,-0.015431224396815744
450404000000,301,450404000000,FL_wheel_link,2.805194509385928,-13.081693410332374,6.707531905581193,-0.06030330004783541,-0.1588005176308447,-0.2718507933379613
450405000000,302,450405000000,FL_wheel_link,0.027726672999690203,-0.03384645164597405,-0.026607796204846865,-0.004895744088465356,-0.001273988298855929,-0.001994313635586142
450406000000,303,450406000000,FL_wheel_link,0.9856341312807813,-18.968391951632203,11.923921091352195,0.08632707512996239,-0.056440617886925296,-0.09620551092650631
450407000000,304,450407000000,FL_wheel_link,-0.014718066742959711,-0.04379877057137806,0.022346568397738097,-0.0019703097846052566,0.001098614094472061,0.0008120192858191893
450408000000,305,450408000000,FL_wheel_link,0.11380678513339669,-11.223609854245051,5.819977778587249,-0.07259869331094858,-0.0030823440397127104,-0.005880722793060802
450409000000,306,450409000000,FL_wheel_link,0.005595203447021822,-0.02297118050910823,-0.011843572220992245,-0.0023471958968936764,-1.5755396281487823e-05,1.3924090112920365e-05
450410000000,307,450410000000,FL_wheel_link,0.03258534402314269,-25.43986814583589,14.582954541570022,-0.03926172680821267,-0.00272725895086395,-0.0029365190787883264
450411000000,308,450411000000,FL_wheel_link,-0.038970614528532975,0.007486056115053439,-0.014762724633646678,-0.001733120596071784,0.0029040973873032277,0.004134686263660147
450412000000,309,450412000000,FL_wheel_link,1.9713733296148395,-7.8501359610528505,0.7855300578166036,-0.3572229692500758,-0.09971530675282426,-0.17614534126116246
450413000000,310,450413000000,FL_wheel_link,-0.15415038304278011,-0.7367179899042355,0.8994514046253402,0.0219586649478366,0.006914884161855376,0.016426643130385093
450414000000,311,450414000000,FL_wheel_link,4.5710820286588945,-20.8597984854667,5.302123729928217,-0.574120869057909,-0.22896567811861684,-0.41103335495956567
450415000000,312,450415000000,FL_wheel_link,-0.1502528543829389,-0.931536289872518,0.6864794547352352,0.020522611807121,-0.008319018666532656,0.0029286490267899277
450416000000,313,450416000000,FL_wheel_link,-2.2848946015211475,-13.220957969814618,-2.754856460693121,-0.9756606915575377,0.1489151823095179,0.23915424492268206
450417000000,314,450417000000,FL_wheel_link,0.28348676907497444,0.1243052877186628,0.071339992461173,0.011484864925170547,-0.009553037869762325,-0.016914007821047912
450418000000,315,450418000000,FL_wheel_link,-0.31404332176245603,1.1179820126188793,-1.0648017812840629,-0.020749871172975647,0.006131248508020892,0.02191127043140111
450419000000,316,450419000000,FL_wheel_link,-0.0013453232577003934,0.014108241814298284,0.03598906339742534,0.00043780777373568703,0.0002236051729113324,0.0005594493896700365
450420000000,317,450420000000,FL_wheel_link,0.17845251588510178,0.27108001888928696,0.22954195457699744,0.024249333772892616,-0.008955621531574984,-0.0165206649136758
450421000000,318,450421000000,FL_wheel_link,-0.2780353425514254,1.4373320998564312,-1.3251169542219272,-0.025674100200281824,0.009694379238486516,0.022459066251858555
450422000000,319,450422000000,FL_wheel_link,0.02280507009624172,0.010940970902808047,0.061464234007279114,0.0013166279703275907,-0.0005913213777586679,-0.0007359503051266095
450423000000,320,450423000000,FL_wheel_link,0.19270585049282973,0.2678592573230345,0.26034744616946764,0.025531132488527196,-0.009119387852685549,-0.01737064237426258
450424000000,321,450424000000,FL_wheel_link,-0.20613631710289834,1.422510553650749,-1.2617078315053338,-0.02462762003593504,0.009258305600389668,0.01953416325196269
450425000000,322,450425000000,FL_wheel_link,0.01702999838381137,0.006734640772040404,0.026406214706426633,0.0005748398219241265,-2.023985843721091e-06,-0.00039764978310908694
450426000000,323,450426000000,FL_wheel_link,0.18444100014323084,0.25999515669469336,0.24688752667977282,0.02489198103190789,-0.008885285572482828,-0.01699268956263492
450427000000,324,450427000000,FL_wheel_link,-0.18867153091484307,1.4456431934317915,-1.281921271916228,-0.024905441759006768,0.009385046318502498,0.018810185155321898
450428000000,325,450428000000,FL_wheel_link,0.018172355028281097,0.004300226611756573,0.024535837160354564,0.0006062325043406901,1.9095538259544808e-05,-0.0004679920005680085
450429000000,326,450429000000,FL_wheel_link,0.18460957001273492,0.2613596589034944,0.2438399943905227,0.025016757584366705,-0.008973626696290444,-0.017128295187806973
450430000000,327,450430000000,FL_wheel_link,-0.18235467784129356,1.4412611155634816,-1.2837949334830716,-0.02484538200300286,0.009510550183973216,0.01846399661578945
450431000000,328,450431000000,FL_wheel_link,0.019864340510784163,0.004983276183473882,0.02157116114319479,0.0004929558682162111,-9.333768793062598e-05,-0.0005618096547824711
450432000000,329,450432000000,FL_wheel_link,0.18279577746157455,0.2617555719177958,0.23863828325803077,0.0249247574120802,-0.008982835167626976,-0.017093471923846484
450433000000,330,450433000000,FL_wheel_link,-0.181251093455956,1.4396851247949998,-1.287538621714413,-0.024772708476129716,0.009538445430426869,0.01829621679710591
450434000000,331,450434000000,FL_wheel_link,0.02033245764500535,0.004937446570393915,0.02038415054190947,0.00043743979930998454,-0.00014019006425749236,-0.0005870601205374391
450435000000,332,450435000000,FL_wheel_link,0.18156156804588078,0.26252163297406717,0.23457093478775196,0.024844508745864285,-0.008996034722340786,-0.017056320941364597
450436000000,333,450436000000,FL_wheel_link,-0.18144061165080758,1.4368626287754573,-1.2896992814547925,-0.024709529808162125,0.009519753228049703,0.018194056413983143
450437000000,334,450437000000,FL_wheel_link,0.01989756450065333,0.004580881854862067,0.019133054992793084,0.00039835015181382795,-0.00014602417663847769,-0.000578231868171153
450438000000,335,450438000000,FL_wheel_link,0.18105740378942964,0.2638138710499223,0.23195958199927896,0.02481827830166663,-0.009022695973359189,-0.017047416669687596
450439000000,336,450439000000,FL_wheel_link,-0.18233450970231185,1.4339640272392145,-1.2924175621124836,-0.024696926307468437,0.009501236146828802,0.018139590442811732
450440000000,337,450440000000,FL_wheel_link,0.01932216175637734,0.004168844663104968,0.018548192311319038,0.0003796074981432703,-0.00013758223526823008,-0.0005596960108474202
450441000000,338,450441000000,FL_wheel_link,0.18096495606435506,0.26524405903069437,0.23030556341310443,0.024816395918046404,-0.009052130542450278,-0.017048859577740657
450442000000,339,450442000000,FL_wheel_link,-0.18326714843602004,1.4312545980965665,-1.2951727186977104,-0.024700544229990327,0.00949271562158699,0.01810537463070934
450443000000,340,450443000000,FL_wheel_link,0.01881093951020719,0.003891037693411048,0.01821882824152936,0.00036367032072255037,-0.00012794397665650097,-0.0005429147960213523
450444000000,341,450444000000,FL_wheel_link,0.18109268995786348,0.2666854752351561,0.22917217309627444,0.024823690122963853,-0.009081623535906976,-0.017053143534299195
450445000000,342,450445000000,FL_wheel_link,-0.1843197935871639,1.4286943592169878,-1.298189316071058,-0.024723579193504073,0.009489685513774788,0.01808101974619717
450446000000,343,450446000000,FL_wheel_link,0.018373020128786027,0.003607881908237527,0.01824372139013977,0.0003573364438411188,-0.00011688520446150769,-0.0005221988945863632
450447000000,344,450447000000,FL_wheel_link,0.18143736202503008,0.26821929047781545,0.2284726293042756,0.024846284575989117,-0.009114478398197713,-0.017065758135615387
450448000000,345,450448000000,FL_wheel_link,-0.18527639326933282,1.4263078248705001,-1.3013265641873186,-0.024760609043432382,0.009495295681197575,0.01806279848393327
450449000000,346,450449000000,FL_wheel_link,0.018011827774094512,0.0033815633784839497,0.018320283933856794,0.0003533847662689472,-0.00010763470965796399,-0.0005045109671475028
450450000000,347,450450000000,FL_wheel_link,0.18188025917157402,0.269759600550206,0.22803152849140468,0.024874906116219862,-0.009147350850135674,-0.01708068512769283
450451000000,348,450451000000,FL_wheel_link,-0.18610143524511033,1.4240921150769443,-1.304488217324936,-0.024802841841717226,0.009505492461482294,0.01804508261325874
450452000000,349,450452000000,FL_wheel_link,0.017683167912384293,0.003183965192267616,0.018412344397075044,0.000349982907338861,-9.901304933843198e-05,-0.00048816325389566795
450453000000,350,450453000000,FL_wheel_link,0.18236268146384058,0.27128443186326934,0.22772187566905797,0.024905285783845297,-0.009179477772859507,-0.017095655804021323
450454000000,351,450454000000,FL_wheel_link,-0.18686149639228702,1.4219468480130786,-1.3076516393657391,-0.02484782017665254,0.009518553627841703,0.018027548463789057
450455000000,352,450455000000,FL_wheel_link,0.017381140690710922,0.003005200597979997,0.01851448023352088,0.00034729864212931745,-9.110878128411478e-05,-0.00047310759868174487
450456000000,353,450456000000,FL_wheel_link,0.18287406117230937,0.2728145870188244,0.22749526402143283,0.024937884805088902,-0.009211591890120045,-0.017111426044348687
450457000000,354,450457000000,FL_wheel_link,-0.18760524753434768,1.4198206099353703,-1.3108291006671136,-0.024895127697870455,0.009533688426711902,0.018010788485889398
450458000000,355,450458000000,FL_wheel_link,0.01711438878769139,0.0028518041606718373,0.018650006665532952,0.0003467478293282949,-8.423539389608983e-05,-0.0004600482724506108
450459000000,356,450459000000,FL_wheel_link,0.18337560284991167,0.2743220021181297,0.2272767167412959,0.024968918490428076,-0.009242726865564863,-0.01712571250573633
450460000000,357,450460000000,FL_wheel_link,-0.18830737162683128,1.4177287927087583,-1.3139944492792826,-0.02494206067169832,0.009549248768598391,0.017992735267965784
450461000000,358,450461000000,FL_wheel_link,0.01697903148275251,0.002785140102756027,0.018996130126348466,0.0003528101663641068,-8.071484535518467e-05,-0.0004541702086517558
450462000000,359,450462000000,FL_wheel_link,0.1835038448687588,0.27516801352478065,0.22670696598448864,0.02494607339366205,-0.009251598047968995,-0.017101163975288474
450463000000,360,450463000000,FL_wheel_link,-0.3714399827473318,0.7097345089827694,-1.278000998230912,-0.04190967192527381,0.012488648924323952,0.029482969161786297
450464000000,361,450464000000,FL_wheel_link,0.3775392511063279,0.419569155683656,0.619622886535708,0.044833145907454755,-0.013826008711844142,-0.029147310450719156
450465000000,362,450465000000,FL_wheel_link,-0.17918663803458312,1.4228404574541955,-1.3322984041314254,-0.027009836922411774,0.011444713928753675,0.01818621610692696
