%time,field.header.seq,field.header.stamp,field.header.frame_id,field.name0,field.name1,field.name2,field.name3,field.position0,field.position1,field.position2,field.position3,field.velocity0,field.velocity1,field.velocity2,field.velocity3,field.effort0,field.effort1,field.effort2,field.effort3
450113000000,155816,450103000000,,BL_TO_BASELINK,BR_TO_BASELINK,FL_TO_BASELINK,FR_TO_BASELINK,1.1744155236238658,1.0704596221757328,-1.0776986072456527,-1.1816515182437062,5.21265865034079e-05,0.10002438743885028,-0.0004934681943080804,-0.00031158842021569017,0.0,0.0,0.0,0.0
450113000000,155817,450104000000,,BL_TO_BASELINK,BR_TO_BASELINK,FL_TO_BASELINK,FR_TO_BASELINK,1.1744154525531432,1.070459336428808,-1.0778407581986613,-1.181651267926802,-4.033769250556818e-05,-0.00017799643378806074,-0.09253216779984794,0.004593344442111118,0.0,0.0,0.0,0.0
450113000000,155818,450105000000,,BL_TO_BASELINK,BR_TO_BASELINK,FL_TO_BASELINK,FR_TO_BASELINK,1.1744155316276306,1.0706064540625837,-1.0778414788919193,-1.1816517458202638,5.212945749460268e-05,0.10001465515588433,-0.000493464880523993,-0.00031159286645983386,0.0,0.0,0.0,0.0
450113000000,155819,450106000000,,BL_TO_BASELINK,BR_TO_BASELINK,FL_TO_BASELINK,FR_TO_BASELINK,1.17441546057087,1.0706061683905927,-1.0779835913177465,-1.181651495558505,-4.0335488234927164e-05,-0.00017797868872528044,-0.09252140020524138,0.0045928293874098955,0.0,0.0,0.0,0.0
450113000000,155820,450107000000,,BL_TO_BASELINK,BR_TO_BASELINK,FL_TO_BASELINK,FR_TO_BASELINK,1.1744155396332703,1.0707532473882884,-1.077984311875685,-1.181651973363218,5.213233041643367e-05,0.10000492383942834,-0.000493461584037222,-0.0003115973220976717,0.0,0.0,0.0,0.0
450113000000,155821,450108000000,,BL_TO_BASELINK,BR_TO_BASELINK,FL_TO_BASELINK,FR_TO_BASELINK,1.174415468590456,1.070752961791146,-1.0781263858043104,-1.1816517231565289,-4.033328877590947e-05,-0.0001779609933748108,-0.09251065571982077,0.00459230974942957,0.0,0.0,0.0,0.0
450113000000,155822,450109000000,,BL_TO_BASELINK,BR_TO_BASELINK,FL_TO_BASELINK,FR_TO_BASELINK,1.1744155476407734,1.0709000021673845,-1.0781271062269724,-1.1816522008725343,5.213520774104835e-05,0.09999519592969303,-0.0004934583228941164,-0.0003116018020175443,0.0,0.0,0.0,0.0
450113000000,155823,450110000000,,BL_TO_BASELINK,BR_TO_BASELINK,FL_TO_BASELINK,FR_TO_BASELINK,1.1744154766118857,1.0708997166450018,-1.0782691416842454,-1.1816519507208287,-4.033127863770081e-05,-0.00017794389511294195,-0.09249994935597355,0.004591811249528378,0.0,0.0,0.0,0.0
450113000000,155824,450111000000,,BL_TO_BASELINK,BR_TO_BASELINK,FL_TO_BASELINK,FR_TO_BASELINK,1.1744155556501132,1.0710467184142631,-1.0782698619716218,-1.181652428348098,5.213807660972569e-05,0.09998546989702312,-0.000493455028505313,-0.0003116062280636919,0.0,0.0,0.0,0.0
450113000000,155825,450112000000,,BL_TO_BASELINK,BR_TO_BASELINK,FL_TO_BASELINK,FR_TO_BASELINK,1.1744154846351256,1.0710464329665301,-1.0784118589833707,-1.1816521782512597,-4.033011454524643e-05,-0.0001779291036166919,-0.09248926532952854,0.004591426201892096,0.0,0.0,0.0,0.0
450113000000,155826,450113000000,,BL_TO_BASELINK,BR_TO_BASELINK,FL_TO_BASELINK,FR_TO_BASELINK,1.1744155636612454,1.0711933961517355,-1.0784125791354011,-1.1816526557896863,5.2140917625932703e-05,0.09997574928306152,-0.0004934516087196986,-0.0003116104881578513,0.0,0.0,0.0,0.0
450114000000,155827,450114000000,,BL_TO_BASELINK,BR_TO_BASELINK,FL_TO_BASELINK,FR_TO_BASELINK,1.1744154926601578,1.0711931107786201,-1.078554537682857,-1.1816524057476725,-4.0328929742559916e-05,-0.0001779143519980847,-0.09247858260194709,0.004591025071778922,0.0,0.0,0.0,0.0
450115000000,155828,450115000000,,BL_TO_BASELINK,BR_TO_BASELINK,FL_TO_BASELINK,FR_TO_BASELINK,1.1744155716741682,1.0713400354058278,-1.0785552576996142,-1.1816528831972848,5.214376457359643e-05,0.09996605183992284,-0.0004934482763893355,-0.00031161478455685176,0.0,0.0,0.0,0.0
450116000000,155829,450116000000,,BL_TO_BASELINK,BR_TO_BASELINK,FL_TO_BASELINK,FR_TO_BASELINK,1.1744155006869663,1.0713397501072643,-1.07869717776469,-1.1816526332100041,-4.03277113151454e-05,-0.00017789968534289574,-0.09246791580828492,0.004590598008391025,0.0,0.0,0.0,0.0
450117000000,155830,450117000000,,BL_TO_BASELINK,BR_TO_BASELINK,FL_TO_BASELINK,FR_TO_BASELINK,1.1744155796888887,1.0714866362099906,-1.0786978976463502,-1.1816531105709283,5.2146634849925544e-05,0.09995638561666562,-0.000493445139242002,-0.000311619222318843,0.0,0.0,0.0,0.0
450118000000,155831,450118000000,,BL_TO_BASELINK,BR_TO_BASELINK,FL_TO_BASELINK,FR_TO_BASELINK,1.1744155087155352,1.0714863509858388,-1.0788397792099733,-1.1816528606381809,-4.0326502854654e-05,-0.0001778851574819884,-0.09245726265379098,0.0045901479492792205,0.0,0.0,0.0,0.0
450119000000,155832,450119000000,,BL_TO_BASELINK,BR_TO_BASELINK,FL_TO_BASELINK,FR_TO_BASELINK,1.1744155877053934,1.0716331985952277,-1.0788404989567315,-1.1816533379105643,5.2149537609895436e-05,0.09994675383429086,-0.0004934422516603837,-0.00031162385345290256,0.0,0.0,0.0,0.0
450120000000,155833,450120000000,,BL_TO_BASELINK,BR_TO_BASELINK,FL_TO_BASELINK,FR_TO_BASELINK,1.1744155167462758,1.0716329134468499,-1.078982341840943,-1.181653088034139,-4.0325316722399085e-05,-0.00017787075010631398,-0.0924466140792278,0.00458968089393582,0.0,0.0,0.0,0.0
450121000000,155834,450121000000,,BL_TO_BASELINK,BR_TO_BASELINK,FL_TO_BASELINK,FR_TO_BASELINK,1.1744155957241018,1.0717797226093362,-1.0789830614530675,-1.1816535652181912,5.215247255084543e-05,0.09993715358546548,-0.0004934396060903151,-0.0003116286736165458,0.0,0.0,0.0,0.0
450122000000,155835,450122000000,,BL_TO_BASELINK,BR_TO_BASELINK,FL_TO_BASELINK,FR_TO_BASELINK,1.1744155247797137,1.0717794375384875,-1.0791248654611874,-1.1816533154004203,-4.032401297243693e-05,-0.00017785646619093015,-0.0924360169679139,0.004589164549915141,0.0,0.0,0.0,0.0
450123000000,155836,450123000000,,BL_TO_BASELINK,BR_TO_BASELINK,FL_TO_BASELINK,FR_TO_BASELINK,1.1744156037455573,1.0719262083194971,-1.0791255849390513,-1.1816537924964505,5.215544348409484e-05,0.09992759192746312,-0.0004934372390208303,-0.00031163371899135817,0.0,0.0,0.0,0.0
450124000000,155837,450124000000,,BL_TO_BASELINK,BR_TO_BASELINK,FL_TO_BASELINK,FR_TO_BASELINK,1.174415532815833,1.0719259233259306,-1.0792673500598813,-1.1816535427369868,-4.0322733099909525e-05,-0.00017784248662260776,-0.09242547092097116,0.004588609496351856,0.0,0.0,0.0,0.0
450125000000,155838,450125000000,,BL_TO_BASELINK,BR_TO_BASELINK,FL_TO_BASELINK,FR_TO_BASELINK,1.174415611769727,1.0720726557560285,-1.0792680694037067,-1.1816540197451921,5.2158463986734516e-05,0.0999180805306411,-0.0004934352470343656,-0.0003116390652825943,0.0,0.0,0.0,0.0
450126000000,155839,450126000000,,BL_TO_BASELINK,BR_TO_BASELINK,FL_TO_BASELINK,FR_TO_BASELINK,1.1744155408545796,1.0720723708394155,-1.0794097956153497,-1.1816537700435639,-4.032168550812537e-05,-0.00017782870523815747,-0.09241488720297603,0.004588079815835033,0.0,0.0,0.0,0.0
450127000000,155840,450127000000,,BL_TO_BASELINK,BR_TO_BASELINK,FL_TO_BASELINK,FR_TO_BASELINK,1.1744156197965303,1.072219064930553,-1.0794105148252093,-1.181654246964003,5.2161521198357264e-05,0.09990860209491681,-0.0004934335243652194,-0.00031164461035544655,0.0,0.0,0.0,0.0
450128000000,155841,450128000000,,BL_TO_BASELINK,BR_TO_BASELINK,FL_TO_BASELINK,FR_TO_BASELINK,1.174415548895988,1.072218780090977,-1.0795522021352397,-1.1816539973203497,-4.032064826773457e-05,-0.00017781485174284822,-0.09240429074758781,0.0045875659040190905,0.0,0.0,0.0,0.0
450129000000,155842,450129000000,,BL_TO_BASELINK,BR_TO_BASELINK,FL_TO_BASELINK,FR_TO_BASELINK,1.1744156278260016,1.0723654358834915,-1.0795529212112527,-1.1816544741530706,5.216457225035165e-05,0.09989912561167824,-0.0004934317808742358,-0.0003116501028935098,0.0,0.0,0.0,0.0
450130000000,155843,450130000000,,BL_TO_BASELINK,BR_TO_BASELINK,FL_TO_BASELINK,FR_TO_BASELINK,1.1744155569400716,1.0723651511209473,-1.0796945696737001,-1.1816542245674588,-4.032554945021527e-05,-0.0001778125469771713,-0.09239398993603203,0.004587358206729966,0.0,0.0,0.0,0.0
450131000000,155844,450131000000,,BL_TO_BASELINK,BR_TO_BASELINK,FL_TO_BASELINK,FR_TO_BASELINK,1.1744156358580824,1.0725117686134773,-1.0796952886155164,-1.1816547013120848,5.216753744714808e-05,0.09988959349862671,-0.0004934294873506426,-0.00031165505018878464,0.0,0.0,0.0,0.0
450132000000,155845,450132000000,,BL_TO_BASELINK,BR_TO_BASELINK,FL_TO_BASELINK,FR_TO_BASELINK,1.1744155649867025,1.0725114839276966,-1.0798368983559392,-1.1816544517842775,-4.033642311510738e-05,-0.00017782220547873234,-0.09238413284844826,0.004587427467788591,0.0,0.0,0.0,0.0
450133000000,155846,450133000000,,BL_TO_BASELINK,BR_TO_BASELINK,FL_TO_BASELINK,FR_TO_BASELINK,1.174415643892596,1.0726580630922111,-1.0798376171629087,-1.1816549284401603,5.217036096935579e-05,0.09987997018078526,-0.0004934262807995415,-0.00031165912219926345,0.0,0.0,0.0,0.0
450134000000,155847,450134000000,,BL_TO_BASELINK,BR_TO_BASELINK,FL_TO_BASELINK,FR_TO_BASELINK,1.1744155730356152,1.072657778482613,-1.0799791883785623,-1.181654678969549,-4.034697946230653e-05,-0.00017783199885880452,-0.0923745653397513,0.004587411592965933,0.0,0.0,0.0,0.0
450135000000,155848,450135000000,,BL_TO_BASELINK,BR_TO_BASELINK,FL_TO_BASELINK,FR_TO_BASELINK,1.1744156519293503,1.0728043193308707,-1.07997990705047,-1.181655155536438,5.217309717796964e-05,0.09987029250156165,-0.000493422515634237,-0.00031166267734207553,0.0,0.0,0.0,0.0
450136000000,155849,450136000000,,BL_TO_BASELINK,BR_TO_BASELINK,FL_TO_BASELINK,FR_TO_BASELINK,1.1744155810865662,1.072804034796679,-1.0801214399193757,-1.1816549061221195,-4.0356936169633206e-05,-0.00017784111708656763,-0.09236525441364078,0.004587263681650605,0.0,0.0,0.0,0.0
450137000000,155850,450137000000,,BL_TO_BASELINK,BR_TO_BASELINK,FL_TO_BASELINK,FR_TO_BASELINK,1.1744156599681324,1.0729505373411152,-1.0801221584561915,-1.181655382599974,5.2175807141327524e-05,0.09986059578086853,-0.000493418583593204,-0.0003116660813392777,0.0,0.0,0.0,0.0
450138000000,155851,450138000000,,BL_TO_BASELINK,BR_TO_BASELINK,FL_TO_BASELINK,FR_TO_BASELINK,1.1744155891393495,1.0729502528816015,-1.0802636531153045,-1.1816551332410619,-4.036671624484123e-05,-0.00017785034684245082,-0.09235613980218685,0.0045870284839605105,0.0,0.0,0.0,0.0
450139000000,155852,450139000000,,BL_TO_BASELINK,BR_TO_BASELINK,FL_TO_BASELINK,FR_TO_BASELINK,1.174415668008769,1.0730967171392374,-1.0802643715171758,-1.181655609630024,5.217853508574649e-05,0.09985090466198922,-0.0004934147646840359,-0.00031166959975707786,0.0,0.0,0.0,0.0
450140000000,155853,450140000000,,BL_TO_BASELINK,BR_TO_BASELINK,FL_TO_BASELINK,FR_TO_BASELINK,1.1744155971938346,1.0730964327538297,-1.0804058280405986,-1.1816553603257915,-4.0376980891383696e-05,-0.00017786089313593517,-0.09234716407872946,0.004586765246866867,0.0,0.0,0.0,0.0
450141000000,155854,450141000000,,BL_TO_BASELINK,BR_TO_BASELINK,FL_TO_BASELINK,FR_TO_BASELINK,1.1744156760511393,1.0732428587361929,-1.0804065463077261,-1.1816558366260672,5.218130801267623e-05,0.0998412345350938,-0.0004934112300412977,-0.0003116733932338814,0.0,0.0,0.0,0.0
450142000000,155855,450142000000,,BL_TO_BASELINK,BR_TO_BASELINK,FL_TO_BASELINK,FR_TO_BASELINK,1.1744156052499486,1.073242574424504,-1.0805479647105187,-1.1816555873759924,-4.0381327839664194e-05,-0.0001778580380082731,-0.09233815018698842,0.004585846042363825,0.0,0.0,0.0,0.0
450143000000,155856,450143000000,,BL_TO_BASELINK,BR_TO_BASELINK,FL_TO_BASELINK,FR_TO_BASELINK,1.1744156840952877,1.0733889621607142,-1.0805486828437374,-1.1816560635884628,5.218426105237789e-05,0.09983162470703803,-0.0004934087561287784,-0.0003116782713620536,0.0,0.0,0.0,0.0
450144000000,155857,450144000000,,BL_TO_BASELINK,BR_TO_BASELINK,FL_TO_BASELINK,FR_TO_BASELINK,1.1744156133077022,1.0733886779222432,-1.0806900632256866,-1.1816558143919185,-4.038582356556686e-05,-0.00017785559707829413,-0.09232923251176742,0.004584911205983547,0.0,0.0,0.0,0.0
450145000000,155858,450145000000,,BL_TO_BASELINK,BR_TO_BASELINK,FL_TO_BASELINK,FR_TO_BASELINK,1.174415692141145,1.073535027426538,-1.0806907812253836,-1.181656290516992,5.2187291731203844e-05,0.09982202079797095,-0.000493406699851151,-0.00031168360347095386,0.0,0.0,0.0,0.0
450146000000,155859,450146000000,,BL_TO_BASELINK,BR_TO_BASELINK,FL_TO_BASELINK,FR_TO_BASELINK,1.1744156213670705,1.0735347432609332,-1.080832123670092,-1.181656041373552,-4.039052497882556e-05,-0.00017785333744889387,-0.09232032154924145,0.004584009947418893,0.0,0.0,0.0,0.0
450147000000,155860,450147000000,,BL_TO_BASELINK,BR_TO_BASELINK,FL_TO_BASELINK,FR_TO_BASELINK,1.174415700188625,1.0736810545260527,-1.0808328415363064,-1.1816565174112998,5.219033691263725e-05,0.09981239231450278,-0.0004934046668518197,-0.0003116890034599029,0.0,0.0,0.0,0.0
450148000000,155861,450148000000,,BL_TO_BASELINK,BR_TO_BASELINK,FL_TO_BASELINK,FR_TO_BASELINK,1.1744156294280685,1.073680770433307,-1.0809741461295097,-1.1816562683210412,-4.039524435121844e-05,-0.00017785089595574732,-0.09231139103843039,0.004583145994987735,0.0,0.0,0.0,0.0
450149000000,155862,450149000000,,BL_TO_BASELINK,BR_TO_BASELINK,FL_TO_BASELINK,FR_TO_BASELINK,1.174415708237726,1.0738270434654265,-1.080974863862206,-1.1816567442714332,5.219335330933911e-05,0.09980271894988738,-0.0004934023881204008,-0.00031169421793290214,0.0,0.0,0.0,0.0
450150000000,155863,450150000000,,BL_TO_BASELINK,BR_TO_BASELINK,FL_TO_BASELINK,FR_TO_BASELINK,1.1744156374907089,1.0738267594456072,-1.0811161306964383,-1.1816564952345425,-4.040017037445359e-05,-0.00017784881139071979,-0.09230244841460933,0.004582341965612309,0.0,0.0,0.0,0.0
450151000000,155864,450151000000,,BL_TO_BASELINK,BR_TO_BASELINK,FL_TO_BASELINK,FR_TO_BASELINK,1.1744157162884568,1.0739729942525562,-1.0811168482955278,-1.1816569710974898,5.219632491201137e-05,0.09979299800174961,-0.0004933997752143149,-0.0003116991578502315,0.0,0.0,0.0,0.0
450152000000,155865,450152000000,,BL_TO_BASELINK,BR_TO_BASELINK,FL_TO_BASELINK,FR_TO_BASELINK,1.1744156455550039,1.0739727103057133,-1.081258077449549,-1.1816567221141279,-4.040812850424763e-05,-0.0001778537494353874,-0.09229347702643094,0.004581935917988833,0.0,0.0,0.0,0.0
450153000000,155866,450153000000,,BL_TO_BASELINK,BR_TO_BASELINK,FL_TO_BASELINK,FR_TO_BASELINK,1.1744157243408155,1.07411890688891,-1.081258794914893,-1.1816571978895078,5.2199251323443996e-05,0.09978323747120108,-0.0004933968420535381,-0.00031170382766667476,0.0,0.0,0.0,0.0
450154000000,155867,450154000000,,BL_TO_BASELINK,BR_TO_BASELINK,FL_TO_BASELINK,FR_TO_BASELINK,1.1744156536210122,1.0741186230153401,-1.0813999863540147,-1.181656948960077,-4.041608920226508e-05,-0.00017785837917355662,-0.09228442179682668,0.00458157632017292,0.0,0.0,0.0,0.0
450155000000,155868,450155000000,,BL_TO_BASELINK,BR_TO_BASELINK,FL_TO_BASELINK,FR_TO_BASELINK,1.1744157323948397,1.0742647813404806,-1.0814007036852544,-1.1816574246476002,5.220213934033907e-05,0.09977345202192377,-0.0004933936571853703,-0.00031170826162125326,0.0,0.0,0.0,0.0
450156000000,155869,450156000000,,BL_TO_BASELINK,BR_TO_BASELINK,FL_TO_BASELINK,FR_TO_BASELINK,1.1744156616887853,1.074264497540507,-1.0815418574101194,-1.1816571757725782,-4.0423882113317655e-05,-0.0001778626934870256,-0.09227535345018029,0.0045812185606899855,0.0,0.0,0.0,0.0
450157000000,155870,450157000000,,BL_TO_BASELINK,BR_TO_BASELINK,FL_TO_BASELINK,FR_TO_BASELINK,1.1744157404506108,1.0744106176164605,-1.0815425746071732,-1.1816576513721628,5.220499733060019e-05,0.09976364916708332,-0.0004933902822089747,-0.00031171251917882364,0.0,0.0,0.0,0.0
450158000000,155871,450158000000,,BL_TO_BASELINK,BR_TO_BASELINK,FL_TO_BASELINK,FR_TO_BASELINK,1.1744156697583144,1.074410333890099,-1.0816836906376004,-1.1816574025516067,-4.043163989454063e-05,-0.00017786699441213472,-0.09226630037688696,0.004580855039546784,0.0,0.0,0.0,0.0
450159000000,155872,450159000000,,BL_TO_BASELINK,BR_TO_BASELINK,FL_TO_BASELINK,FR_TO_BASELINK,1.1744157485081326,1.0745564157264136,-1.0816844077004397,-1.181657878063226,5.220784553366248e-05,0.09975384389138316,-0.0004933868561263349,-0.00031171671969886655,0.0,0.0,0.0,0.0
450160000000,155873,450160000000,,BL_TO_BASELINK,BR_TO_BASELINK,FL_TO_BASELINK,FR_TO_BASELINK,1.1744156778295762,1.0745561320735808,-1.0818254860542176,-1.181657629297045,-4.0439367725964015e-05,-0.00017787122185895093,-0.09225725370957986,0.004580488870656742,0.0,0.0,0.0,0.0
450161000000,155874,450161000000,,BL_TO_BASELINK,BR_TO_BASELINK,FL_TO_BASELINK,FR_TO_BASELINK,1.1744157565673845,1.0747021756810522,-1.0818262029828478,-1.1816581047206993,5.221069486777835e-05,0.09974404258368255,-0.0004933834497311204,-0.00031172092305913057,0.0,0.0,0.0,0.0
450162000000,155875,450162000000,,BL_TO_BASELINK,BR_TO_BASELINK,FL_TO_BASELINK,FR_TO_BASELINK,1.1744156859025594,1.0747018921016984,-1.0819672436801806,-1.1816578560088624,-4.04468909556005e-05,-0.00017787643855763507,-0.09224813813822652,0.004580290648610805,0.0,0.0,0.0,0.0
450163000000,155876,450163000000,,BL_TO_BASELINK,BR_TO_BASELINK,FL_TO_BASELINK,FR_TO_BASELINK,1.174415764628316,1.0748478975100824,-1.0819679604744419,-1.181658331344317,5.221348815683674e-05,0.0997342514211681,-0.0004933797814786686,-0.0003117247986161656,0.0,0.0,0.0,0.0
450164000000,155877,450164000000,,BL_TO_BASELINK,BR_TO_BASELINK,FL_TO_BASELINK,FR_TO_BASELINK,1.1744156939772648,1.0748476140043461,-1.0821089634474816,-1.1816580826869778,-4.045468812059749e-05,-0.00017788232219702327,-0.09223898223654137,0.004580117510150292,0.0,0.0,0.0,0.0
450165000000,155878,450165000000,,BL_TO_BASELINK,BR_TO_BASELINK,FL_TO_BASELINK,FR_TO_BASELINK,1.1744157726909599,1.0749935812472309,-1.0821096801073935,-1.181658557934183,5.221627581472599e-05,0.09972449530893933,-0.0004933761677520243,-0.00031172864108567483,0.0,0.0,0.0,0.0
450166000000,155879,450166000000,,BL_TO_BASELINK,BR_TO_BASELINK,FL_TO_BASELINK,FR_TO_BASELINK,1.1744157020537145,1.074993297815201,-1.0822506452932306,-1.1816583093314321,-4.046244469518151e-05,-0.00017788832605079852,-0.09222982472702475,0.004579913199951782,0.0,0.0,0.0,0.0
450167000000,155880,450167000000,,BL_TO_BASELINK,BR_TO_BASELINK,FL_TO_BASELINK,FR_TO_BASELINK,1.1744157807553668,1.0751392269406148,-1.0822513618190168,-1.1816587844905282,5.2219089466482016e-05,0.09971478819285037,-0.0004933728029265574,-0.000311732643813456,0.0,0.0,0.0,0.0
450168000000,155881,450168000000,,BL_TO_BASELINK,BR_TO_BASELINK,FL_TO_BASELINK,FR_TO_BASELINK,1.1744157101319024,1.0751389435821865,-1.0823922891620992,-1.1816585359421872,-4.047024773653346e-05,-0.00017789460854854972,-0.0922206777854536,0.004579677405186736,0.0,0.0,0.0,0.0
450169000000,155882,450169000000,,BL_TO_BASELINK,BR_TO_BASELINK,FL_TO_BASELINK,FR_TO_BASELINK,1.1744157888215438,1.0752848346329724,-1.0823930055540263,-1.1816590110133678,5.222194915571743e-05,0.09970513719914115,-0.0004933698064991179,-0.00031173692283736204,0.0,0.0,0.0,0.0
450170000000,155883,450170000000,,BL_TO_BASELINK,BR_TO_BASELINK,FL_TO_BASELINK,FR_TO_BASELINK,1.1744157182118213,1.0752845513479965,-1.082533895003147,-1.181658762519195,-4.047811324921213e-05,-0.00017790112560439608,-0.09221153108490254,0.004579417829408815,0.0,0.0,0.0,0.0
450171000000,155884,450171000000,,BL_TO_BASELINK,BR_TO_BASELINK,FL_TO_BASELINK,FR_TO_BASELINK,1.1744157968894848,1.075430404365198,-1.0825346112614955,-1.1816592375026715,5.222485884969624e-05,0.09969553882589723,-0.0004933671908449386,-0.00031174149701885395,0.0,0.0,0.0,0.0
450172000000,155885,450172000000,,BL_TO_BASELINK,BR_TO_BASELINK,FL_TO_BASELINK,FR_TO_BASELINK,1.1744157262934758,1.0754301211535662,-1.0826754627768782,-1.1816589890624893,-4.048601793711637e-05,-0.00017790779487569103,-0.09220237705347425,0.0045791397661388705,0.0,0.0,0.0,0.0
450173000000,155886,450173000000,,BL_TO_BASELINK,BR_TO_BASELINK,FL_TO_BASELINK,FR_TO_BASELINK,1.174415804959196,1.075575936180293,-1.082676178901938,-1.181659463958475,5.222781219097611e-05,0.0996859840635316,-0.0004933649026803294,-0.0003117463267504478,0.0,0.0,0.0,0.0
450174000000,155887,450174000000,,BL_TO_BASELINK,BR_TO_BASELINK,FL_TO_BASELINK,FR_TO_BASELINK,1.174415734376879,1.0755756530419074,-1.0828169924575572,-1.1816592155721395,-4.049394869608258e-05,-0.00017791455526749989,-0.09219321077440863,0.004578848926681943,0.0,0.0,0.0,0.0
450175000000,155888,450175000000,,BL_TO_BASELINK,BR_TO_BASELINK,FL_TO_BASELINK,FR_TO_BASELINK,1.1744158130306843,1.075721430119649,-1.082817708449591,-1.181659690380819,5.22308001078553e-05,0.09967646327816077,-0.0004933628734483178,-0.00031175135688964184,0.0,0.0,0.0,0.0
450176000000,155889,450176000000,,BL_TO_BASELINK,BR_TO_BASELINK,FL_TO_BASELINK,FR_TO_BASELINK,1.1744157424620418,1.0757211470544332,-1.0829584840322273,-1.1816594420482271,-4.050189388328518e-05,-0.00017792134471861232,-0.09218402797254877,0.004578551529153152,0.0,0.0,0.0,0.0
450177000000,155890,450177000000,,BL_TO_BASELINK,BR_TO_BASELINK,FL_TO_BASELINK,FR_TO_BASELINK,1.174415821104069,1.0758668863831256,-1.0829591998923966,-1.1816599167704052,5.223381292569079e-05,0.09966696698423352,-0.0004933610324520041,-0.00031175652871493625,0.0,0.0,0.0,0.0
450178000000,155891,450178000000,,BL_TO_BASELINK,BR_TO_BASELINK,FL_TO_BASELINK,FR_TO_BASELINK,1.174415750549053,1.0758666033908648,-1.0830999375790142,-1.1816596684913536,-4.0509836572444335e-05,-0.00017792837955547813,-0.09217487552408113,0.004578224797552308,0.0,0.0,0.0,0.0
450179000000,155892,450179000000,,BL_TO_BASELINK,BR_TO_BASELINK,FL_TO_BASELINK,FR_TO_BASELINK,1.1744158291793898,1.076012305110261,-1.0831006533080973,-1.1816601431275702,5.2236850870093776e-05,0.0996575048025751,-0.0004933594030019639,-0.00031176185470904727,0.0,0.0,0.0,0.0
450180000000,155893,450180000000,,BL_TO_BASELINK,BR_TO_BASELINK,FL_TO_BASELINK,FR_TO_BASELINK,1.1744157586379007,1.0760120221905751,-1.0832413531386447,-1.18165989490159,-4.0517896212954874e-05,-0.00017793545542169747,-0.09216569376696537,0.004577913743272689,0.0,0.0,0.0,0.0
450181000000,155894,450181000000,,BL_TO_BASELINK,BR_TO_BASELINK,FL_TO_BASELINK,FR_TO_BASELINK,1.174415837256566,1.0761576863389042,-1.0832420687368245,-1.1816603694519587,5.223991335891187e-05,0.09964807149025262,-0.0004933579701678625,-0.0003117673114022834,0.0,0.0,0.0,0.0
450182000000,155895,450182000000,,BL_TO_BASELINK,BR_TO_BASELINK,FL_TO_BASELINK,FR_TO_BASELINK,1.17441576672862,1.0761574034918109,-1.0833827307340957,-1.1816601212791262,-4.052590268382311e-05,-0.0001779422281816337,-0.0921564682545178,0.00457762304729184,0.0,0.0,0.0,0.0
450183000000,155896,450183000000,,BL_TO_BASELINK,BR_TO_BASELINK,FL_TO_BASELINK,FR_TO_BASELINK,1.1744158453356217,1.0763030301065841,-1.083383446201502,-1.18166059574372,5.224297648819681e-05,0.09963864333627483,-0.000493356556571449,-0.00031177275789463776,0.0,0.0,0.0,0.0
450184000000,155897,450184000000,,BL_TO_BASELINK,BR_TO_BASELINK,FL_TO_BASELINK,FR_TO_BASELINK,1.174415774821254,1.0763027473321722,-1.08352407040495,-1.1816603476242316,-4.0533818955613976e-05,-0.00017794879326188395,-0.09214723176568795,0.0045773383557421235,0.0,0.0,0.0,0.0
450185000000,155898,450185000000,,BL_TO_BASELINK,BR_TO_BASELINK,FL_TO_BASELINK,FR_TO_BASELINK,1.1744158534166003,1.0764483364493138,-1.083524785741698,-1.1816608220031073,5.224602891887309e-05,0.09962921067628142,-0.0004933550819447505,-0.0003117781361886979,0.0,0.0,0.0,0.0
450186000000,155899,450186000000,,BL_TO_BASELINK,BR_TO_BASELINK,FL_TO_BASELINK,FR_TO_BASELINK,1.174415782915811,1.0764480537475585,-1.0836653721922893,-1.1816605739369912,-4.054171116866373e-05,-0.00017795526923045785,-0.09213799467642642,0.00457706099220178,0.0,0.0,0.0,0.0
450187000000,155900,450187000000,,BL_TO_BASELINK,BR_TO_BASELINK,FL_TO_BASELINK,FR_TO_BASELINK,1.1744158614995017,1.0765936053859466,-1.0836660873984076,-1.1816610482301577,5.224907258970235e-05,0.09961977305675354,-0.0004933535554899754,-0.00031178345758493126,0.0,0.0,0.0,0.0
450188000000,155901,450188000000,,BL_TO_BASELINK,BR_TO_BASELINK,FL_TO_BASELINK,FR_TO_BASELINK,1.1744157910122874,1.0765933227568123,-1.083806636134323,-1.1816608002174265,-4.054958391688096e-05,-0.00017796164859192748,-0.09212875727447914,0.004576792479498305,0.0,0.0,0.0,0.0
450189000000,155902,450189000000,,BL_TO_BASELINK,BR_TO_BASELINK,FL_TO_BASELINK,FR_TO_BASELINK,1.1744158695843216,1.0767388369301996,-1.083807351209817,-1.1816612744248802,5.2252107816307125e-05,0.0996103286406754,-0.0004933519747246373,-0.0003117887230429453,0.0,0.0,0.0,0.0
450190000000,155903,450190000000,,BL_TO_BASELINK,BR_TO_BASELINK,FL_TO_BASELINK,FR_TO_BASELINK,1.1744157991106894,1.0767385543736685,-1.0839478622705236,-1.181661026465565,-4.055742816182206e-05,-0.00017796793875980016,-0.09211952442384078,0.004576530185934201,0.0,0.0,0.0,0.0
450191000000,155904,450191000000,,BL_TO_BASELINK,BR_TO_BASELINK,FL_TO_BASELINK,FR_TO_BASELINK,1.1744158776710618,1.0768840310963528,-1.0839485772154038,-1.181661500587306,5.2255134195815234e-05,0.09960087627925701,-0.0004933503349849461,-0.0003117939312839921,0.0,0.0,0.0,0.0
450192000000,155905,450192000000,,BL_TO_BASELINK,BR_TO_BASELINK,FL_TO_BASELINK,FR_TO_BASELINK,1.1744158072109903,1.0768837486123237,-1.084089050648311,-1.1816612526813284,-4.056525131148486e-05,-0.00017797416637758273,-0.09211029959747775,0.004576272518143638,0.0,0.0,0.0,0.0
450193000000,155906,450193000000,,BL_TO_BASELINK,BR_TO_BASELINK,FL_TO_BASELINK,FR_TO_BASELINK,1.1744158857597,1.077029187897403,-1.0840897654625916,-1.181661726717362,5.225815295474556e-05,0.09959141664296425,-0.0004933486441177568,-0.0003117990900594128,0.0,0.0,0.0,0.0
450194000000,155907,450194000000,,BL_TO_BASELINK,BR_TO_BASELINK,FL_TO_BASELINK,FR_TO_BASELINK,1.174415815313175,1.077028905485812,-1.0842302013074239,-1.1816614788646849,-4.057305854429649e-05,-0.00017798033094003352,-0.09210108107606274,0.004576019974522734,0.0,0.0,0.0,0.0
450195000000,155908,450195000000,,BL_TO_BASELINK,BR_TO_BASELINK,FL_TO_BASELINK,FR_TO_BASELINK,1.174415893850223,1.0771743073456692,-1.084230915991112,-1.1816619528150127,5.2261165270586774e-05,0.0995819503246567,-0.0004933469095255577,-0.0003118042057041262,0.0,0.0,0.0,0.0
450196000000,155909,450196000000,,BL_TO_BASELINK,BR_TO_BASELINK,FL_TO_BASELINK,FR_TO_BASELINK,1.1744158234172444,1.0771740250064772,-1.0843713142847573,-1.1816617050156353,-4.0580843771967356e-05,-0.00017798644055287,-0.09209187120338103,0.004575770239012317,0.0,0.0,0.0,0.0
450197000000,155910,450197000000,,BL_TO_BASELINK,BR_TO_BASELINK,FL_TO_BASELINK,FR_TO_BASELINK,1.174415901942628,1.077319389455469,-1.0843720288378762,-1.18166217888027,5.2264171869119413e-05,0.09957247814162777,-0.0004933451367838473,-0.00031180928337207897,0.0,0.0,0.0,0.0
450198000000,155911,450198000000,,BL_TO_BASELINK,BR_TO_BASELINK,FL_TO_BASELINK,FR_TO_BASELINK,1.1744158315231852,1.0773191071886261,-1.0845123896155187,-1.1816619311341743,-4.0588613700563714e-05,-0.0001779925171936647,-0.09208267151401117,0.004575522024257261,0.0,0.0,0.0,0.0
450199000000,155912,450199000000,,BL_TO_BASELINK,BR_TO_BASELINK,FL_TO_BASELINK,FR_TO_BASELINK,1.1744159100369087,1.077464434241235,-1.0845131040380984,-1.1816624049131352,5.226717453757357e-05,0.09956300182833501,-0.000493343339038374,-0.0003118143339621571,0.0,0.0,0.0,0.0
450200000000,155913,450200000000,,BL_TO_BASELINK,BR_TO_BASELINK,FL_TO_BASELINK,FR_TO_BASELINK,1.1744158396309947,1.0774641520466863,-1.0846534273324515,-1.181662157220286,-4.059638565493545e-05,-0.0001779986291453456,-0.09207350058783273,0.004575273238383082,0.0,0.0,0.0,0.0
450201000000,155914,450201000000,,BL_TO_BASELINK,BR_TO_BASELINK,FL_TO_BASELINK,FR_TO_BASELINK,1.1744159181330511,1.0776094417148903,-1.0846541416244815,-1.1816626309135554,5.227016820453373e-05,0.09955351966628324,-0.0004933414873346392,-0.00031181932516898686,0.0,0.0,0.0,0.0
450202000000,155915,450202000000,,BL_TO_BASELINK,BR_TO_BASELINK,FL_TO_BASELINK,FR_TO_BASELINK,1.1744158477406463,1.0776091595925434,-1.0847944274791121,-1.1816623832738804,-4.060415087515229e-05,-0.00017800477237962797,-0.09206435756438248,0.004575020727599001,0.0,0.0,0.0,0.0
450203000000,155916,450203000000,,BL_TO_BASELINK,BR_TO_BASELINK,FL_TO_BASELINK,FR_TO_BASELINK,1.1744159262310374,1.0777544118948867,-1.084795141640635,-1.1816628568814798,5.227315587348624e-05,0.09954403318765451,-0.0004933396002752416,-0.0003118242766525295,0.0,0.0,0.0,0.0
450204000000,155917,450204000000,,BL_TO_BASELINK,BR_TO_BASELINK,FL_TO_BASELINK,FR_TO_BASELINK,1.1744158558521187,1.0777541298446316,-1.0849353900966712,-1.1816626092948814,-4.061191365917899e-05,-0.00017801093248542843,-0.09205523291107964,0.004574765739514264,0.0,0.0,0.0,0.0
450205000000,155918,450205000000,,BL_TO_BASELINK,BR_TO_BASELINK,FL_TO_BASELINK,FR_TO_BASELINK,1.174415934330849,1.0778993447992864,-1.0849361041277454,-1.1816630828168497,5.2276142857278496e-05,0.09953454556938653,-0.0004933377118921944,-0.00031182922047207073,0.0,0.0,0.0,0.0
450206000000,155919,450206000000,,BL_TO_BASELINK,BR_TO_BASELINK,FL_TO_BASELINK,FR_TO_BASELINK,1.1744158639652227,1.0778990628204248,-1.0850763154399612,-1.1816628352825518,-4.061967201361705e-05,-0.00017801709109148411,-0.09204612075741993,0.004574509549281111,0.0,0.0,0.0,0.0
450207000000,155920,450207000000,,BL_TO_BASELINK,BR_TO_BASELINK,FL_TO_BASELINK,FR_TO_BASELINK,1.174415942432364,1.0780442405505175,-1.0850770293411962,-1.181663308719319,5.2279131038363014e-05,0.0995250584754871,-0.0004933358362382845,-0.0003118341676639422,0.0,0.0,0.0,0.0
450208000000,155921,450208000000,,BL_TO_BASELINK,BR_TO_BASELINK,FL_TO_BASELINK,FR_TO_BASELINK,1.1744158720799929,1.078043958642879,-1.085217203591947,-1.181663061237181,-4.0627425477515744e-05,-0.00017802335651095902,-0.09203704753261983,0.0045742435451414515,0.0,0.0,0.0,0.0
450209000000,155922,450209000000,,BL_TO_BASELINK,BR_TO_BASELINK,FL_TO_BASELINK,FR_TO_BASELINK,1.174415950535562,1.0781890991913556,-1.085217917363524,-1.1816635345888713,5.228212361798462e-05,0.09951558196864868,-0.0004933340124141164,-0.000311839141697301,0.0,0.0,0.0,0.0
450210000000,155923,450210000000,,BL_TO_BASELINK,BR_TO_BASELINK,FL_TO_BASELINK,FR_TO_BASELINK,1.1744158801964,1.0781888173547483,-1.0853580545901433,-1.181663287158683,-4.063522448240209e-05,-0.0001780295916148228,-0.09202797247087185,0.0045739902990064585,0.0,0.0,0.0,0.0
450211000000,155924,450211000000,,BL_TO_BASELINK,BR_TO_BASELINK,FL_TO_BASELINK,FR_TO_BASELINK,1.174415958640397,1.0783339207349858,-1.0853587682320747,-1.1816637604253089,5.22851222559545e-05,0.09950611378631449,-0.0004933322435653198,-0.00031184414175704916,0.0,0.0,0.0,0.0
450212000000,155925,450212000000,,BL_TO_BASELINK,BR_TO_BASELINK,FL_TO_BASELINK,FR_TO_BASELINK,1.1744158883144582,1.0783336389694274,-1.085498868466063,-1.1816635130471456,-4.064297180787074e-05,-0.00017803570334360558,-0.09201890001525201,0.0045737405136765386,0.0,0.0,0.0,0.0
450213000000,155926,450213000000,,BL_TO_BASELINK,BR_TO_BASELINK,FL_TO_BASELINK,FR_TO_BASELINK,1.1744159667468885,1.078478705206038,-1.0854995819784197,-1.1816639862287497,5.2288118957154184e-05,0.09949664686789285,-0.0004933304721323681,-0.0003118491254687286,0.0,0.0,0.0,0.0
450214000000,155927,450214000000,,BL_TO_BASELINK,BR_TO_BASELINK,FL_TO_BASELINK,FR_TO_BASELINK,1.1744158964341729,1.0784784235115055,-1.0856396452521668,-1.1816637389026265,-4.065069217215611e-05,-0.00017804179661859432,-0.09200984190968005,0.00457348817533651,0.0,0.0,0.0,0.0
450215000000,155928,450215000000,,BL_TO_BASELINK,BR_TO_BASELINK,FL_TO_BASELINK,FR_TO_BASELINK,1.1744159748550418,1.0786234526256768,-1.0856403586350147,-1.1816642119992533,5.229111528131519e-05,0.09948718244510685,-0.0004933287089497265,-0.00031185410494651705,0.0,0.0,0.0,0.0
450216000000,155929,450216000000,,BL_TO_BASELINK,BR_TO_BASELINK,FL_TO_BASELINK,FR_TO_BASELINK,1.1744159045555316,1.078623171002092,-1.0857803849748837,-1.1816639647251037,-4.0658414642423535e-05,-0.0001780479018395134,-0.09200079527022695,0.0045732351334703825,0.0,0.0,0.0,0.0
450217000000,155930,450217000000,,BL_TO_BASELINK,BR_TO_BASELINK,FL_TO_BASELINK,FR_TO_BASELINK,1.1744159829648444,1.0787681630096717,-1.085781098228269,-1.1816644377367869,5.2294114765753796e-05,0.09947772223037518,-0.0004933269761342174,-0.00031185909963231395,0.0,0.0,0.0,0.0
450218000000,155931,450218000000,,BL_TO_BASELINK,BR_TO_BASELINK,FL_TO_BASELINK,FR_TO_BASELINK,1.1744159126785325,1.078767881456974,-1.0859210876576313,-1.1816641905145655,-4.066613233851685e-05,-0.00017805400218971063,-0.09199175730519521,0.004572981304444168,0.0,0.0,0.0,0.0
450219000000,155932,450219000000,,BL_TO_BASELINK,BR_TO_BASELINK,FL_TO_BASELINK,FR_TO_BASELINK,1.1744159910762901,1.078912836375177,-1.0859218007816072,-1.1816646634413441,5.229711793733327e-05,0.09946826588069774,-0.0004933252755635054,-0.000311864112252383,0.0,0.0,0.0,0.0
450220000000,155933,450220000000,,BL_TO_BASELINK,BR_TO_BASELINK,FL_TO_BASELINK,FR_TO_BASELINK,1.174415920803166,1.0789125548933134,-1.0860617533237669,-1.1816644162710102,-4.0673842657337755e-05,-0.00017806009882419954,-0.091982727720245,0.004572725867123276,0.0,0.0,0.0,0.0
450221000000,155934,450221000000,,BL_TO_BASELINK,BR_TO_BASELINK,FL_TO_BASELINK,FR_TO_BASELINK,1.1744159991893772,1.079057472740673,-1.0860624663184009,-1.1816648891129322,5.2300124800945536e-05,0.09945881316241274,-0.0004933236067046765,-0.00031186914302352986,0.0,0.0,0.0,0.0
450222000000,155935,450222000000,,BL_TO_BASELINK,BR_TO_BASELINK,FL_TO_BASELINK,FR_TO_BASELINK,1.1744159289294283,1.0790571913295794,-1.0862023819964168,-1.181664641994434,-4.068154838136884e-05,-0.00017806619217106134,-0.09197370510530002,0.004572469201239368,0.0,0.0,0.0,0.0
450223000000,155936,450223000000,,BL_TO_BASELINK,BR_TO_BASELINK,FL_TO_BASELINK,FR_TO_BASELINK,1.1744160073040995,1.079202072124656,-1.0862030948617765,-1.1816651147515458,5.230313543044818e-05,0.09944936396369439,-0.000493321969678509,-0.00031187419206641503,0.0,0.0,0.0,0.0
450224000000,155937,450224000000,,BL_TO_BASELINK,BR_TO_BASELINK,FL_TO_BASELINK,FR_TO_BASELINK,1.174415937057315,1.0792017907842721,-1.086342973698681,-1.1816648676848374,-4.06892483606619e-05,-0.0001780722741395388,-0.09196468775259053,0.004572211885306064,0.0,0.0,0.0,0.0
450225000000,155938,450225000000,,BL_TO_BASELINK,BR_TO_BASELINK,FL_TO_BASELINK,FR_TO_BASELINK,1.1744160154204515,1.0793466345459537,-1.0863436864348337,-1.1816653403571866,5.2306149393686885e-05,0.09943991781498418,-0.0004933203611876338,-0.0003118792564984485,0.0,0.0,0.0,0.0
450226000000,155939,450226000000,,BL_TO_BASELINK,BR_TO_BASELINK,FL_TO_BASELINK,FR_TO_BASELINK,1.1744159451868228,1.0793463532762244,-1.086483528454206,-1.1816650933422261,-4.0696940383187774e-05,-0.00017807833750615315,-0.09195567464878786,0.004571954293771691,0.0,0.0,0.0,0.0
450227000000,155940,450227000000,,BL_TO_BASELINK,BR_TO_BASELINK,FL_TO_BASELINK,FR_TO_BASELINK,1.1744160235384289,1.0794911600237702,-1.0864842410612194,-1.1816655659298592,5.23091659897848e-05,0.09943047411415679,-0.0004933187762531377,-0.00031188433202479493,0.0,0.0,0.0,0.0
450228000000,155941,450228000000,,BL_TO_BASELINK,BR_TO_BASELINK,FL_TO_BASELINK,FR_TO_BASELINK,1.1744159533179452,1.0794908788246422,-1.0866240462873282,-1.1816653189666084,-4.070462170988748e-05,-0.00017808437290039308,-0.09194666492978573,0.00457169665093464,0.0,0.0,0.0,0.0
450229000000,155942,450229000000,,BL_TO_BASELINK,BR_TO_BASELINK,FL_TO_BASELINK,FR_TO_BASELINK,1.1744160316580299,1.079635648577388,-1.0866247587652733,-1.1816657914695696,5.231218461513448e-05,0.09942103233236915,-0.0004933172105608397,-0.0003118894149720039,0.0,0.0,0.0,0.0
450230000000,155943,450230000000,,BL_TO_BASELINK,BR_TO_BASELINK,FL_TO_BASELINK,FR_TO_BASELINK,1.1744159614506842,1.079635367448808,-1.0867645272229876,-1.181665544557993,-4.071199612913634e-05,-0.0001780898073231521,-0.0919376490779666,0.004571423134284734,0.0,0.0,0.0,0.0
450231000000,155944,450231000000,,BL_TO_BASELINK,BR_TO_BASELINK,FL_TO_BASELINK,FR_TO_BASELINK,1.1744160397792518,1.0797801002275325,-1.0867652395719372,-1.1816660169763358,5.231520660955308e-05,0.09941159362420388,-0.0004933156732948793,-0.0003118945140886953,0.0,0.0,0.0,0.0
450232000000,155945,450232000000,,BL_TO_BASELINK,BR_TO_BASELINK,FL_TO_BASELINK,FR_TO_BASELINK,1.1744159695850334,1.079779819169449,-1.0869049712868932,-1.1816657701164033,-4.071934337245009e-05,-0.0001780951730556285,-0.09192863455734196,0.004571149835594576,0.0,0.0,0.0,0.0
450233000000,155946,450233000000,,BL_TO_BASELINK,BR_TO_BASELINK,FL_TO_BASELINK,FR_TO_BASELINK,1.1744160479020929,1.079924514994273,-1.086905683506922,-1.181666242450179,5.231823048195555e-05,0.09940215659766874,-0.0004933141539701924,-0.0003118996192903595,0.0,0.0,0.0,0.0
450234000000,155947,450234000000,,BL_TO_BASELINK,BR_TO_BASELINK,FL_TO_BASELINK,FR_TO_BASELINK,1.1744159777209981,1.0799242340066382,-1.087045378505616,-1.1816659956418594,-4.072767960084517e-05,-0.0001781022783796729,-0.09191963278959964,0.004570922871162349,0.0,0.0,0.0,0.0
450235000000,155948,450235000000,,BL_TO_BASELINK,BR_TO_BASELINK,FL_TO_BASELINK,FR_TO_BASELINK,1.1744160560265504,1.0800688928943174,-1.0870460905967807,-1.1816664678911053,5.232125542651428e-05,0.09939271742262253,-0.0004933126398774662,-0.0003119047243123618,0.0,0.0,0.0,0.0
450236000000,155949,450236000000,,BL_TO_BASELINK,BR_TO_BASELINK,FL_TO_BASELINK,FR_TO_BASELINK,1.1744159858585812,1.0800686119771292,-1.087185748895429,-1.1816662211344289,-4.0736454636709774e-05,-0.00017811013127404934,-0.09191063101517652,0.004570720017574366,0.0,0.0,0.0,0.0
450237000000,155950,450237000000,,BL_TO_BASELINK,BR_TO_BASELINK,FL_TO_BASELINK,FR_TO_BASELINK,1.1744160641526298,1.0802132339389336,-1.0871864608577475,-1.1816666932991575,5.2324278995409534e-05,0.09938327544402317,-0.0004933111164905496,-0.0003119098161573769,0.0,0.0,0.0,0.0
450238000000,155951,450238000000,,BL_TO_BASELINK,BR_TO_BASELINK,FL_TO_BASELINK,FR_TO_BASELINK,1.1744159939977932,1.0802129530921958,-1.0873260824728277,-1.1816664465941589,-4.074520999650111e-05,-0.00017811793068148868,-0.09190162746138815,0.004570519424289175,0.0,0.0,0.0,0.0
450239000000,155952,450239000000,,BL_TO_BASELINK,BR_TO_BASELINK,FL_TO_BASELINK,FR_TO_BASELINK,1.1744160722803372,1.0803575381411177,-1.0873267943063247,-1.1816669186743827,5.2327300378449126e-05,0.09937383151485697,-0.0004933095816022012,-0.0003119148911482905,0.0,0.0,0.0,0.0
450240000000,155953,450240000000,,BL_TO_BASELINK,BR_TO_BASELINK,FL_TO_BASELINK,FR_TO_BASELINK,1.1744160021386314,1.0803572573647982,-1.0874663792598902,-1.1816666720210538,-4.0753953545510924e-05,-0.00017812570025595165,-0.09189262663288011,0.004570319891368177,0.0,0.0,0.0,0.0
450241000000,155954,450241000000,,BL_TO_BASELINK,BR_TO_BASELINK,FL_TO_BASELINK,FR_TO_BASELINK,1.1744160804096735,1.0805018055164002,-1.0874670909646085,-1.1816671440168012,5.2330320579364875e-05,0.09936438655111941,-0.0004933080426806347,-0.00031191995492228786,0.0,0.0,0.0,0.0
450242000000,155955,450242000000,,BL_TO_BASELINK,BR_TO_BASELINK,FL_TO_BASELINK,FR_TO_BASELINK,1.1744160102810897,1.0805015248104528,-1.0876066392815034,-1.1816668974151154,-4.0762689868877044e-05,-0.0001781334420461883,-0.09188362855224733,0.004570121962954185,0.0,0.0,0.0,0.0
450243000000,155956,450243000000,,BL_TO_BASELINK,BR_TO_BASELINK,FL_TO_BASELINK,FR_TO_BASELINK,1.1744160885406334,1.0806460360813928,-1.087607350857489,-1.1816673693264148,5.233334017573643e-05,0.09935494095913261,-0.0004933065037039802,-0.0003119250102911475,0.0,0.0,0.0,0.0
450244000000,155957,450244000000,,BL_TO_BASELINK,BR_TO_BASELINK,FL_TO_BASELINK,FR_TO_BASELINK,1.1744160184251662,1.0806457554457713,-1.087746862564213,-1.181667122776343,-4.0771416030857544e-05,-0.00017814114770564604,-0.09187463285901441,0.004569925898973204,0.0,0.0,0.0,0.0
450245000000,155958,450245000000,,BL_TO_BASELINK,BR_TO_BASELINK,FL_TO_BASELINK,FR_TO_BASELINK,1.1744160966732142,1.0807902298537808,-1.0877475740115194,-1.181667594603228,5.233635894244526e-05,0.09934549458099266,-0.0004933049631730413,-0.0003119300557129223,0.0,0.0,0.0,0.0
450246000000,155959,450246000000,,BL_TO_BASELINK,BR_TO_BASELINK,FL_TO_BASELINK,FR_TO_BASELINK,1.1744160265708548,1.080789949288441,-1.0878870491357375,-1.1816673481047495,-4.078012980444218e-05,-0.0001781488140902565,-0.09186563989065441,0.004569731626785756,0.0,0.0,0.0,0.0
450247000000,155960,450247000000,,BL_TO_BASELINK,BR_TO_BASELINK,FL_TO_BASELINK,FR_TO_BASELINK,1.1744161048074115,1.0809343868517232,-1.0878877604544144,-1.1816678198472506,5.233937658112586e-05,0.09933604726751477,-0.0004933034192173488,-0.00031193508947922194,0.0,0.0,0.0,0.0
450248000000,155961,450248000000,,BL_TO_BASELINK,BR_TO_BASELINK,FL_TO_BASELINK,FR_TO_BASELINK,1.1744160347181545,1.0809341063566151,-1.0880271990243173,-1.1816675734003415,-4.078883109100151e-05,-0.00017815644163836353,-0.09185665005094544,0.004569539119596573,0.0,0.0,0.0,0.0
450249000000,155962,450249000000,,BL_TO_BASELINK,BR_TO_BASELINK,FL_TO_BASELINK,FR_TO_BASELINK,1.1744161129432227,1.0810785070933076,-1.0880279102144197,-1.1816680450584922,5.2342393005042065e-05,0.09932659900430588,-0.0004933018713603882,-0.0003119401111227396,0.0,0.0,0.0,0.0
450250000000,155963,450250000000,,BL_TO_BASELINK,BR_TO_BASELINK,FL_TO_BASELINK,FR_TO_BASELINK,1.174416042867061,1.081078226668387,-1.0881673122583226,-1.1816677986631303,-4.079751987862146e-05,-0.00017816403115131219,-0.09184766371626421,0.004569348306621396,0.0,0.0,0.0,0.0
450251000000,155964,450251000000,,BL_TO_BASELINK,BR_TO_BASELINK,FL_TO_BASELINK,FR_TO_BASELINK,1.174416121080645,1.0812225905964752,-1.088168023319902,-1.1816682702369645,5.2345408244759695e-05,0.09931714983131462,-0.00049330031984849,-0.00031194512087224374,0.0,0.0,0.0,0.0
450252000000,155965,450252000000,,BL_TO_BASELINK,BR_TO_BASELINK,FL_TO_BASELINK,FR_TO_BASELINK,1.1744160510175714,1.0812223102416958,-1.0883073888660917,-1.1816680238931214,-4.080619621658205e-05,-0.00017817158410804446,-0.09183868129368003,0.004569159038538294,0.0,0.0,0.0,0.0
450253000000,155966,450253000000,,BL_TO_BASELINK,BR_TO_BASELINK,FL_TO_BASELINK,FR_TO_BASELINK,1.174416129219673,1.081366637379051,-1.0883080997991978,-1.1816684953826693,5.234842241604032e-05,0.099307699841184,-0.0004932987654850673,-0.0003119501194796398,0.0,0.0,0.0,0.0
450254000000,155967,450254000000,,BL_TO_BASELINK,BR_TO_BASELINK,FL_TO_BASELINK,FR_TO_BASELINK,1.1744160591696806,1.081366357094363,-1.0884474288758152,-1.1816682490903228,-4.081486046840499e-05,-0.00017817910247109464,-0.09182970312364659,0.004568971161268566,0.0,0.0,0.0,0.0
450255000000,155968,450255000000,,BL_TO_BASELINK,BR_TO_BASELINK,FL_TO_BASELINK,FR_TO_BASELINK,1.1744161373603044,1.081510647458753,-1.0884481396804997,-1.1816687204956162,5.235143570311157e-05,0.09929824917170756,-0.0004932972095274615,-0.0003119551080865354,0.0,0.0,0.0,0.0
450256000000,155969,450256000000,,BL_TO_BASELINK,BR_TO_BASELINK,FL_TO_BASELINK,FR_TO_BASELINK,1.1744160673233859,1.0815103672441104,-1.088587432315471,-1.1816684742547388,-4.0823513045573634e-05,-0.0001781865880049749,-0.09182072943228577,0.004568784539606081,0.0,0.0,0.0,0.0
450257000000,155970,450257000000,,BL_TO_BASELINK,BR_TO_BASELINK,FL_TO_BASELINK,FR_TO_BASELINK,1.1744161455025344,1.0816546208532314,-1.0885881429917852,-1.1816689455758116,5.235444831244024e-05,0.09928879797502171,-0.0004932956533791055,-0.0003119600879460324,0.0,0.0,0.0,0.0
450258000000,155971,450258000000,,BL_TO_BASELINK,BR_TO_BASELINK,FL_TO_BASELINK,FR_TO_BASELINK,1.174416075478681,1.0816543407085826,-1.0887273992127948,-1.1816686993863765,-4.083215428164061e-05,-0.00017819404210555473,-0.09181176035011485,0.004568599057096397,0.0,0.0,0.0,0.0
450259000000,155972,450259000000,,BL_TO_BASELINK,BR_TO_BASELINK,FL_TO_BASELINK,FR_TO_BASELINK,1.1744161536463604,1.08179855758012,-1.0887281097607886,-1.1816691706232607,5.235746043964068e-05,0.09927934639712342,-0.0004932940983735298,-0.00031196506023355164,0.0,0.0,0.0,0.0
450260000000,155973,450260000000,,BL_TO_BASELINK,BR_TO_BASELINK,FL_TO_BASELINK,FR_TO_BASELINK,1.174416083635565,1.0817982775054151,-1.0888673295953026,-1.1816689244852379,-4.084085809798882e-05,-0.00017820161867543316,-0.09180279456051366,0.004568420930773767,0.0,0.0,0.0,0.0
450261000000,155974,450261000000,,BL_TO_BASELINK,BR_TO_BASELINK,FL_TO_BASELINK,FR_TO_BASELINK,1.1744161617917745,1.0819424576570649,-1.0888680400150221,-1.1816693956379583,5.2360470122234104e-05,0.09926989442961409,-0.0004932925343838143,-0.00031197001341444486,0.0,0.0,0.0,0.0
450262000000,155975,450262000000,,BL_TO_BASELINK,BR_TO_BASELINK,FL_TO_BASELINK,FR_TO_BASELINK,1.17441609179403,1.0819421776522633,-1.0890072234869344,-1.181669149551328,-4.0849613765228665e-05,-0.00017820929786215717,-0.09179383066576555,0.004568249001133819,0.0,0.0,0.0,0.0
450263000000,155976,450263000000,,BL_TO_BASELINK,BR_TO_BASELINK,FL_TO_BASELINK,FR_TO_BASELINK,1.174416169938775,1.0820863211019036,-1.0890079337784186,-1.181669620619906,5.236347739071695e-05,0.09926044305592398,-0.0004932909637513083,-0.00031197494792462033,0.0,0.0,0.0,0.0
450264000000,155977,450264000000,,BL_TO_BASELINK,BR_TO_BASELINK,FL_TO_BASELINK,FR_TO_BASELINK,1.1744160999540778,1.0820860411669697,-1.0891470809090578,-1.1816693745846516,-4.085621909633019e-05,-0.00017821244258207913,-0.09178466169544516,0.0045679628651802764,0.0,0.0,0.0,0.0
450265000000,155978,450265000000,,BL_TO_BASELINK,BR_TO_BASELINK,FL_TO_BASELINK,FR_TO_BASELINK,1.174416178087422,1.0822301479646024,-1.089147791072758,-1.181669845569492,5.236654654727779e-05,0.09925102922074212,-0.0004932897910580186,-0.00031198026642751536,0.0,0.0,0.0,0.0
450266000000,155979,450266000000,,BL_TO_BASELINK,BR_TO_BASELINK,FL_TO_BASELINK,FR_TO_BASELINK,1.1744161081158344,1.0822298680997458,-1.0892869017908886,-1.1816695995858586,-4.0856444633301237e-05,-0.00017820196631478102,-0.09177487044147975,0.0045673509990370315,0.0,0.0,0.0,0.0
450267000000,155980,450267000000,,BL_TO_BASELINK,BR_TO_BASELINK,FL_TO_BASELINK,FR_TO_BASELINK,1.1744161862379672,1.0823739383279314,-1.0892876118279542,-1.1816700704880878,5.2369827259930724e-05,0.09924173019687715,-0.0004932899429482204,-0.0003119868833753106,0.0,0.0,0.0,0.0
450268000000,155981,450268000000,,BL_TO_BASELINK,BR_TO_BASELINK,FL_TO_BASELINK,FR_TO_BASELINK,1.174416116279711,1.0823736585339656,-1.0894266858973456,-1.1816698245570043,-4.0856718404404246e-05,-0.00017819074206461283,-0.09176480873510297,0.004566838864879054,0.0,0.0,0.0,0.0
450269000000,155982,450269000000,,BL_TO_BASELINK,BR_TO_BASELINK,FL_TO_BASELINK,FR_TO_BASELINK,1.1744161943906297,1.0825176921609332,-1.0894273958076912,-1.181670295376608,5.237316870861791e-05,0.09923246807947647,-0.0004932904897768584,-0.00031199383047304796,0.0,0.0,0.0,0.0
450270000000,155983,450270000000,,BL_TO_BASELINK,BR_TO_BASELINK,FL_TO_BASELINK,FR_TO_BASELINK,1.1744161244459272,1.0825174124386399,-1.089566433148276,-1.1816700494991181,-4.0856827854707234e-05,-0.00017817874651011173,-0.09175458624255363,0.004566386830665313,0.0,0.0,0.0,0.0
450271000000,155984,450271000000,,BL_TO_BASELINK,BR_TO_BASELINK,FL_TO_BASELINK,FR_TO_BASELINK,1.1744162025457232,1.082661409634956,-1.0895671429327454,-1.181670520236647,5.2376484319049954e-05,0.099223190683582,-0.000493290872680005,-0.0003120006034962597,0.0,0.0,0.0,0.0
450272000000,155985,450272000000,,BL_TO_BASELINK,BR_TO_BASELINK,FL_TO_BASELINK,FR_TO_BASELINK,1.1744161326146507,1.0826611299845696,-1.0897061436314566,-1.1816702744131993,-4.085678438169038e-05,-0.00017816631202154792,-0.09174429794649014,0.004565960401577973,0.0,0.0,0.0,0.0
450273000000,155986,450273000000,,BL_TO_BASELINK,BR_TO_BASELINK,FL_TO_BASELINK,FR_TO_BASELINK,1.1744162107034066,1.0828050909265317,-1.089706853290842,-1.181670745069149,5.237975816928947e-05,0.09921389836295223,-0.0004932910126577844,-0.00031200712067713104,0.0,0.0,0.0,0.0
450274000000,155987,450274000000,,BL_TO_BASELINK,BR_TO_BASELINK,FL_TO_BASELINK,FR_TO_BASELINK,1.1744161407859446,1.0828048113479314,-1.0898458174589933,-1.1816704992997096,-4.085679473551235e-05,-0.00017815352182055932,-0.09173392768822786,0.00456559492691188,0.0,0.0,0.0,0.0
450275000000,155988,450275000000,,BL_TO_BASELINK,BR_TO_BASELINK,FL_TO_BASELINK,FR_TO_BASELINK,1.174416218863641,1.0829487360807573,-1.0898465269932913,-1.181670969874002,5.238298983289286e-05,0.09920458897120138,-0.0004932909034254043,-0.0003120133630502772,0.0,0.0,0.0,0.0
450276000000,155989,450276000000,,BL_TO_BASELINK,BR_TO_BASELINK,FL_TO_BASELINK,FR_TO_BASELINK,1.1744161489598497,1.0829484565741154,-1.0899854547203276,-1.181670724158943,-4.0856782139261916e-05,-0.00017814014905714187,-0.09172346925859053,0.004565304064424222,0.0,0.0,0.0,0.0
450277000000,155990,450277000000,,BL_TO_BASELINK,BR_TO_BASELINK,FL_TO_BASELINK,FR_TO_BASELINK,1.174416227026457,1.0830923451240073,-1.0899861641293835,-1.1816711946513898,5.238615765343346e-05,0.0991952383687378,-0.0004932903785354256,-0.00031201919915424536,0.0,0.0,0.0,0.0
450278000000,155991,450278000000,,BL_TO_BASELINK,BR_TO_BASELINK,FL_TO_BASELINK,FR_TO_BASELINK,1.1744161571364398,1.083092065689633,-1.0901250555251654,-1.1816709489912993,-4.085661445151628e-05,-0.00017812625298983809,-0.09171298354343771,0.004565055354995094,0.0,0.0,0.0,0.0
450279000000,155992,450279000000,,BL_TO_BASELINK,BR_TO_BASELINK,FL_TO_BASELINK,FR_TO_BASELINK,1.1744162351919272,1.083235918085247,-1.0901257648088585,-1.1816714194017477,5.2389252773552e-05,0.09918583781499447,-0.0004932893721620382,-0.00031202459342597605,0.0,0.0,0.0,0.0
450280000000,155993,450280000000,,BL_TO_BASELINK,BR_TO_BASELINK,FL_TO_BASELINK,FR_TO_BASELINK,1.1744161653157263,1.0832356387232434,-1.0902646199808839,-1.1816711737969108,-4.085637119956298e-05,-0.00017811208700733994,-0.09170250697251447,0.004564835167651243,0.0,0.0,0.0,0.0
450281000000,155994,450281000000,,BL_TO_BASELINK,BR_TO_BASELINK,FL_TO_BASELINK,FR_TO_BASELINK,1.1744162433600627,1.0833794549709568,-1.0902653291390205,-1.1816716441251884,5.2392290395983365e-05,0.09917639610583576,-0.0004932879824768657,-0.00031202964119453336,0.0,0.0,0.0,0.0
450282000000,155995,450282000000,,BL_TO_BASELINK,BR_TO_BASELINK,FL_TO_BASELINK,FR_TO_BASELINK,1.1744161734976961,1.0833791756813378,-1.0904041481769386,-1.1816713985757428,-4.0856098800341745e-05,-0.0001780977706016193,-0.09169205180807224,0.004564637325301768,0.0,0.0,0.0,0.0
450283000000,155996,450283000000,,BL_TO_BASELINK,BR_TO_BASELINK,FL_TO_BASELINK,FR_TO_BASELINK,1.1744162515308512,1.0835229557770791,-1.0904048572093235,-1.1816718688216934,5.2395286204307e-05,0.09916692187890999,-0.0004932863096314757,-0.0003120344360108135,0.0,0.0,0.0,0.0
450284000000,155997,450284000000,,BL_TO_BASELINK,BR_TO_BASELINK,FL_TO_BASELINK,FR_TO_BASELINK,1.174416181682326,1.083522676559845,-1.090543640188944,-1.1816716233277376,-4.085579678114043e-05,-0.00017808337433185273,-0.0916816291329698,0.00456445125435527,0.0,0.0,0.0,0.0
450285000000,155998,450285000000,,BL_TO_BASELINK,BR_TO_BASELINK,FL_TO_BASELINK,FR_TO_BASELINK,1.1744162597042838,1.0836664205009336,-1.09054434909544,-1.1816720934912546,5.23982525172384e-05,0.09915742297609831,-0.000493284434532712,-0.00031203905345383864,0.0,0.0,0.0,0.0
450286000000,155999,450286000000,,BL_TO_BASELINK,BR_TO_BASELINK,FL_TO_BASELINK,FR_TO_BASELINK,1.1744161898695076,1.0836661413557147,-1.0906830961905403,-1.1816718480524413,-4.085543999200747e-05,-0.00017806897799828997,-0.09167131020084317,0.004564251874808169,0.0,0.0,0.0,0.0
450287000000,156000,450287000000,,BL_TO_BASELINK,BR_TO_BASELINK,FL_TO_BASELINK,FR_TO_BASELINK,1.1744162678802619,1.0838098491830017,-1.0906838049711798,-1.181672318133514,5.2401177723988834e-05,0.09914789731662835,-0.0004932822965279526,-0.00031204341922218964,0.0,0.0,0.0,0.0
450288000000,156001,450288000000,,BL_TO_BASELINK,BR_TO_BASELINK,FL_TO_BASELINK,FR_TO_BASELINK,1.1744161980590713,1.083809570109178,-1.0908225164281031,-1.181672072749203,-4.0854969637384164e-05,-0.00017805475602101356,-0.09166123241152403,0.0045639944954294215,0.0,0.0,0.0,0.0
450289000000,156002,450289000000,,BL_TO_BASELINK,BR_TO_BASELINK,FL_TO_BASELINK,FR_TO_BASELINK,1.1744162760586088,1.0839532418867384,-1.0908232250829357,-1.181672542747771,5.240403506843322e-05,0.09913833803263519,-0.0004932797483643211,-0.00031204737012901357,0.0,0.0,0.0,0.0
450290000000,156003,450290000000,,BL_TO_BASELINK,BR_TO_BASELINK,FL_TO_BASELINK,FR_TO_BASELINK,1.174416206250842,1.0839529628836777,-1.090961901100659,-1.1816722974172835,-4.0854210790086665e-05,-0.00017804015420939956,-0.09165125109933095,0.00456367903063374,0.0,0.0,0.0,0.0
450291000000,156004,450291000000,,BL_TO_BASELINK,BR_TO_BASELINK,FL_TO_BASELINK,FR_TO_BASELINK,1.1744162842392116,1.08409659866986,-1.0909626096300329,-1.181672767333649,5.240691129307362e-05,0.09912878579778556,-0.0004932773181402922,-0.00031205144399727713,0.0,0.0,0.0,0.0
450292000000,156005,450292000000,,BL_TO_BASELINK,BR_TO_BASELINK,FL_TO_BASELINK,FR_TO_BASELINK,1.1744162144447623,1.0840963197371662,-1.0911012502749617,-1.1816725220565072,-4.084991653229009e-05,-0.00017801711425814715,-0.09164148791163604,0.004562883477006202,0.0,0.0,0.0,0.0
450293000000,156006,450293000000,,BL_TO_BASELINK,BR_TO_BASELINK,FL_TO_BASELINK,FR_TO_BASELINK,1.1744162924219763,1.0842399195073034,-1.0911019586788644,-1.1816729918907445,5.240982833717989e-05,0.0991192243944092,-0.0004932750907871292,-0.00031205573097919936,0.0,0.0,0.0,0.0
450294000000,156007,450294000000,,BL_TO_BASELINK,BR_TO_BASELINK,FL_TO_BASELINK,FR_TO_BASELINK,1.1744162226406667,1.0842396406442818,-1.0912405642383138,-1.181672746666245,-4.08456161412607e-05,-0.00017799448680780317,-0.09163194479155962,0.004562046651625094,0.0,0.0,0.0,0.0
450295000000,156008,450295000000,,BL_TO_BASELINK,BR_TO_BASELINK,FL_TO_BASELINK,FR_TO_BASELINK,1.174416300606783,1.0843832044559694,-1.091241272517145,-1.181673216418706,5.2412750646400885e-05,0.09910962540724003,-0.0004932728143113227,-0.0003120600488881395,0.0,0.0,0.0,0.0
450296000000,156009,450296000000,,BL_TO_BASELINK,BR_TO_BASELINK,FL_TO_BASELINK,FR_TO_BASELINK,1.1744162308384283,1.0843829256619344,-1.0913798431820432,-1.181672971246071,-4.08414997683515e-05,-0.00017797217007198968,-0.09162249968380584,0.0045612221505638845,0.0,0.0,0.0,0.0
450297000000,156010,450297000000,,BL_TO_BASELINK,BR_TO_BASELINK,FL_TO_BASELINK,FR_TO_BASELINK,1.1744163087934458,1.084526453501855,-1.0913805513357495,-1.1816734409167662,5.24156691458777e-05,0.09909999108231746,-0.0004932704443975228,-0.0003120643332653675,0.0,0.0,0.0,0.0
450298000000,156011,450298000000,,BL_TO_BASELINK,BR_TO_BASELINK,FL_TO_BASELINK,FR_TO_BASELINK,1.174416239038,1.084526174776606,-1.0915190872288676,-1.1816731957958382,-4.0837441019021814e-05,-0.00017794987604099338,-0.09161310135631483,0.004560420065681227,0.0,0.0,0.0,0.0
450299000000,156012,450299000000,,BL_TO_BASELINK,BR_TO_BASELINK,FL_TO_BASELINK,FR_TO_BASELINK,1.1744163169819073,1.0846696666320979,-1.0915197952573283,-1.181673665384702,5.241856345377521e-05,0.0990903142090255,-0.0004932678584324349,-0.00031206846524604176,0.0,0.0,0.0,0.0
450300000000,156013,450300000000,,BL_TO_BASELINK,BR_TO_BASELINK,FL_TO_BASELINK,FR_TO_BASELINK,1.1744162472393667,1.0846693879756044,-1.0916582964759964,-1.1816734203155352,-4.083571073034559e-05,-0.00017793318379306922,-0.09160369672959448,0.00455992214278042,0.0,0.0,0.0,0.0
450301000000,156014,450301000000,,BL_TO_BASELINK,BR_TO_BASELINK,FL_TO_BASELINK,FR_TO_BASELINK,1.1744163251721362,1.0848128438468745,-1.0916590043790446,-1.1816738898224184,5.242140806922119e-05,0.09908060510901248,-0.0004932649451298426,-0.000312072311595836,0.0,0.0,0.0,0.0
450302000000,156015,450302000000,,BL_TO_BASELINK,BR_TO_BASELINK,FL_TO_BASELINK,FR_TO_BASELINK,1.174416255442563,1.0848125652593321,-1.0917974708717697,-1.1816736448052625,-4.0835097188191005e-05,-0.00017791905798881374,-0.09159422891696209,0.004559579505541554,0.0,0.0,0.0,0.0
450303000000,156016,450303000000,,BL_TO_BASELINK,BR_TO_BASELINK,FL_TO_BASELINK,FR_TO_BASELINK,1.1744163333641469,1.0849559851169746,-1.091798178649091,-1.181674114229902,5.242422423139964e-05,0.09907089517756223,-0.0004932618844053008,-0.0003120759948595578,0.0,0.0,0.0,0.0
450304000000,156017,450304000000,,BL_TO_BASELINK,BR_TO_BASELINK,FL_TO_BASELINK,FR_TO_BASELINK,1.1744162636476299,1.0849557065987048,-1.0919366103243942,-1.1816738692651354,-4.083470077240192e-05,-0.00017790559428497443,-0.09158473347389062,0.004559259874574506,0.0,0.0,0.0,0.0
450305000000,156018,450305000000,,BL_TO_BASELINK,BR_TO_BASELINK,FL_TO_BASELINK,FR_TO_BASELINK,1.1744163415580102,1.0850990904407265,-1.0919373179758676,-1.181674338607423,5.2427034394085525e-05,0.09906120627823861,-0.0004932588427751239,-0.0003120796514474791,0.0,0.0,0.0,0.0
450306000000,156019,450306000000,,BL_TO_BASELINK,BR_TO_BASELINK,FL_TO_BASELINK,FR_TO_BASELINK,1.1744162718545743,1.0850988119918146,-1.0920757147559446,-1.1816740936951087,-4.0834773816333936e-05,-0.00017789351845885065,-0.0915752443613618,0.004558967982421613,0.0,0.0,0.0,0.0
450307000000,156020,450307000000,,BL_TO_BASELINK,BR_TO_BASELINK,FL_TO_BASELINK,FR_TO_BASELINK,1.1744163497537503,1.0852421598377475,-1.0920764222816146,-1.1816745629550462,5.242985685017382e-05,0.09905155809497743,-0.0004932559602051773,-0.0003120833908607859,0.0,0.0,0.0,0.0
450308000000,156021,450308000000,,BL_TO_BASELINK,BR_TO_BASELINK,FL_TO_BASELINK,FR_TO_BASELINK,1.1744162800633795,1.085241881458133,-1.092214784078486,-1.1816743180950189,-4.083479661284861e-05,-0.000177881590931947,-0.09156580408504669,0.004558627750628624,0.0,0.0,0.0,0.0
450309000000,156022,450309000000,,BL_TO_BASELINK,BR_TO_BASELINK,FL_TO_BASELINK,FR_TO_BASELINK,1.174416357951353,1.085385193328861,-1.0922154914784272,-1.1816747872726365,5.243270639029157e-05,0.09904195863606116,-0.0004932533339435385,-0.00031208728901169214,0.0,0.0,0.0,0.0
450310000000,156023,450310000000,,BL_TO_BASELINK,BR_TO_BASELINK,FL_TO_BASELINK,FR_TO_BASELINK,1.174416288273994,1.0853849150183414,-1.0923538182546864,-1.181674542464588,-4.083854416145338e-05,-0.00017787646248734745,-0.091556767223375,0.004558280869015809,0.0,0.0,0.0,0.0
450311000000,156024,450311000000,,BL_TO_BASELINK,BR_TO_BASELINK,FL_TO_BASELINK,FR_TO_BASELINK,1.1744163661506901,1.0855281909079038,-1.0923545255285347,-1.1816750115594665,5.2435494771026214e-05,0.0990323464038949,-0.0004932503875157632,-0.00031209078380135813,0.0,0.0,0.0,0.0
450312000000,156025,450312000000,,BL_TO_BASELINK,BR_TO_BASELINK,FL_TO_BASELINK,FR_TO_BASELINK,1.1744162964861564,1.085527912665781,-1.092492817440684,-1.1816747668025673,-4.0843891001514365e-05,-0.00017787485052497137,-0.09154809052211704,0.004557856414999201,0.0,0.0,0.0,0.0
450313000000,156026,450313000000,,BL_TO_BASELINK,BR_TO_BASELINK,FL_TO_BASELINK,FR_TO_BASELINK,1.1744163743515834,1.0856711526394696,-1.0924935245886314,-1.1816752358147617,5.243824698590582e-05,0.0990227236559173,-0.00049324724765034,-0.0003120940589557211,0.0,0.0,0.0,0.0
450314000000,156027,450314000000,,BL_TO_BASELINK,BR_TO_BASELINK,FL_TO_BASELINK,FR_TO_BASELINK,1.1744163046996121,1.0856708744647792,-1.0926317817834548,-1.181674991107796,-4.0849400846511286e-05,-0.00017787404023583003,-0.09153958688522192,0.0045573626987497964,0.0,0.0,0.0,0.0
450315000000,156028,450315000000,,BL_TO_BASELINK,BR_TO_BASELINK,FL_TO_BASELINK,FR_TO_BASELINK,1.1744163825538143,1.0858140785705102,-1.0926324888058527,-1.1816754600375763,5.244103364971525e-05,0.09901312593736952,-0.0004932443489342048,-0.00031209754428650205,0.0,0.0,0.0,0.0
450316000000,156029,450316000000,,BL_TO_BASELINK,BR_TO_BASELINK,FL_TO_BASELINK,FR_TO_BASELINK,1.1744163129142438,1.0858138004626587,-1.0927707113303526,-1.1816752153797605,-4.085501892015647e-05,-0.0001778736729605504,-0.09153117774855402,0.00455682812890916,0.0,0.0,0.0,0.0
450317000000,156030,450317000000,,BL_TO_BASELINK,BR_TO_BASELINK,FL_TO_BASELINK,FR_TO_BASELINK,1.1744163907572522,1.0859569687199224,-1.092771418227425,-1.181675684227324,5.244386707001225e-05,0.09900355798504129,-0.0004932417634411004,-0.00031210130441351736,0.0,0.0,0.0,0.0
450318000000,156031,450318000000,,BL_TO_BASELINK,BR_TO_BASELINK,FL_TO_BASELINK,FR_TO_BASELINK,1.1746162521229513,1.0861564368014678,-1.0927837546398305,-1.1814751491928739,0.19985945878060166,0.19967586299931872,0.028438027291339457,0.17904004312911442,0.0,0.0,0.0,0.0
