%time,field.header.seq,field.header.stamp,field.header.frame_id,field.wrench.force.x,field.wrench.force.y,field.wrench.force.z,field.wrench.torque.x,field.wrench.torque.y,field.wrench.torque.z
450113000000,0,450103000000,BL_wheel_link,-0.2853880743164316,-0.8919626667690481,-1.039911216183783,0.0387054560480822,0.00829628623307299,-0.02819482730622544
450113000000,1,450104000000,BL_wheel_link,0.2884581589441689,-0.35880022390046723,0.5128358869879666,-0.038705646347279014,-0.008295827165760003,0.02819366933365277
450113000000,2,450105000000,BL_wheel_link,-0.2854217160998607,-0.8918729342638596,-1.0398595332183993,0.03870324007827093,0.008296710976018206,-0.02819610077923144
450113000000,3,450106000000,BL_wheel_link,0.2884901588637644,-0.3588905336276702,0.5127851813724495,-0.03870342809589965,-0.008296248567642665,0.0281949463214986
450113000000,4,450107000000,BL_wheel_link,-0.28545534794740957,-0.8917831752980068,-1.0398078046887427,0.03870102256609643,0.008297135075046473,-0.028197373107165555
450113000000,5,450108000000,BL_wheel_link,0.2885221280719322,-0.3589808459494321,0.5127344118744354,-0.03870120843031831,-0.008296668542116794,0.028196221542702717
450113000000,6,450109000000,BL_wheel_link,-0.2854889699191486,-0.8916933774251721,-1.0397560108388697,0.03869880275896629,0.008297558261302844,-0.02819864411507659
450113000000,7,450110000000,BL_wheel_link,0.28855385565378244,-0.3590710357756711,0.5126837216105534,-0.03869899035474052,-0.008297089018253155,0.028197493988637932
450113000000,8,450111000000,BL_wheel_link,-0.2855224976074915,-0.8916036970640031,-1.0397042714870448,0.03869658515592511,0.008297981713857717,-0.028199912782155896
450113000000,9,450112000000,BL_wheel_link,0.28858489659204467,-0.35916121653819744,0.5126328232305299,-0.03869677476343011,-0.008297511622151876,0.02819876228852628
450113000000,10,450113000000,BL_wheel_link,-0.28555569933299046,-0.8915142523151364,-1.0396525249590902,0.03869436825425336,0.008298405111628753,-0.028201171681695374
450114000000,11,450114000000,BL_wheel_link,0.28861597647216997,-0.3592513646685859,0.5125818676511614,-0.038694552553786746,-0.008297927056880091,0.028200023871033354
450115000000,12,450115000000,BL_wheel_link,-0.2855887180992592,-0.891424798398893,-1.0396005547848859,0.03869214398906462,0.008298826528038641,-0.02820242316442145
450116000000,13,450116000000,BL_wheel_link,0.28864713339454623,-0.35934150780558766,0.5125308736766021,-0.03869232395935425,-0.008298330870806402,0.028201276917930326
450117000000,14,450117000000,BL_wheel_link,-0.28562163057051826,-0.8913351871430953,-1.0395482415374653,0.03868990736487125,0.008299243982418693,-0.028203667822033568
450118000000,15,450118000000,BL_wheel_link,0.2886783177195082,-0.3594317143212038,0.5124795382232528,-0.03869008444026867,-0.008298731562794117,0.028202524299189128
450119000000,16,450119000000,BL_wheel_link,-0.2856545190781431,-0.8912454120283403,-1.0394956403065863,0.038687660160242526,0.008299657611522597,-0.028204908937267067
450120000000,17,450120000000,BL_wheel_link,0.2887095186084078,-0.3595219854572076,0.5124278476991456,-0.03868783541034325,-0.008299133365435996,0.028203768809824736
450121000000,18,450121000000,BL_wheel_link,-0.28568742947594056,-0.891155513098193,-1.039442831014447,0.03868540575081357,0.008300068698098531,-0.028206149301905004
450122000000,19,450122000000,BL_wheel_link,0.28874091058989926,-0.3596122003041425,0.5123765315272607,-0.03868558425350262,-0.008299501986460145,0.02820499524550198
450123000000,20,450123000000,BL_wheel_link,-0.2857202000523728,-0.8910651772550501,-1.0393893106560326,0.03868312529972754,0.008300472084124088,-0.028207376856239138
450124000000,21,450124000000,BL_wheel_link,0.28877228002458133,-0.35970255096182363,0.5123245588168944,-0.038683312235802327,-0.008299863006422135,0.028206209489280865
450125000000,22,450125000000,BL_wheel_link,-0.28575291774166944,-0.8909744743879932,-1.0393352182889255,0.038680823357978546,0.00830086812752113,-0.028208596270580283
450126000000,23,450126000000,BL_wheel_link,0.2888033582160616,-0.35979315427118064,0.5122710667357094,-0.038681016230626857,-0.008300272242052483,0.028207439378672806
450127000000,24,450127000000,BL_wheel_link,-0.28578587024241636,-0.8908840228171921,-1.0392815244204998,0.03867853652878902,0.008301267182441155,-0.02820983009485171
450128000000,25,450128000000,BL_wheel_link,0.28883443334968617,-0.35988346802924764,0.5122182426014275,-0.038678736344786656,-0.008300688268975473,0.028208676529288438
450129000000,26,450129000000,BL_wheel_link,-0.285818874576735,-0.8907939554086154,-1.0392283020223545,0.03867626765122049,0.008301671003303732,-0.02821107238177223
450130000000,27,450130000000,BL_wheel_link,0.28886548426868147,-0.35997272656432644,0.5121681594616332,-0.03867651771097261,-0.008301111790159396,0.028209933571108237
450131000000,28,450131000000,BL_wheel_link,-0.28585191510427127,-0.8907051698412366,-1.0391768165655095,0.038674061327025507,0.008302088889642737,-0.028212335617862964
450132000000,29,450132000000,BL_wheel_link,0.2888963426249669,-0.3600607324542497,0.5121212634435375,-0.0386743685815305,-0.008301539104761226,0.028211208562096295
450133000000,30,450133000000,BL_wheel_link,-0.2858847516064068,-0.8906179634349749,-1.0391273269133245,0.0386719260944858,0.008302523390960886,-0.028213613367838068
450134000000,31,450134000000,BL_wheel_link,0.28892720064934463,-0.3601484294415696,0.5120755947005283,-0.03867224493868709,-0.008301944662591359,0.028212479724972647
450135000000,32,450135000000,BL_wheel_link,-0.2859171636553702,-0.8905311906991344,-1.039078167256974,0.038669801021371,0.00830296059966408,-0.02821487783071504
450136000000,33,450136000000,BL_wheel_link,0.28895805921116174,-0.36023620417002955,0.5120298884631141,-0.03867012113774145,-0.008302341533572958,0.02821374693598424
450137000000,34,450137000000,BL_wheel_link,-0.2859493945454231,-0.890444421606316,-1.0390289550147367,0.03866767159776118,0.008303395673427093,-0.02821613257572756
450138000000,35,450138000000,BL_wheel_link,0.2889889385222876,-0.36032437180189514,0.5119834133372718,-0.038667985607412594,-0.008302733702512896,0.02821501095236388
450139000000,36,450139000000,BL_wheel_link,-0.2859816224393277,-0.8903573127477941,-1.0389793768536268,0.038665526277037156,0.008303824585850017,-0.02821737991256824
450140000000,37,450140000000,BL_wheel_link,0.2890198766701063,-0.3604130059879176,0.5119358973399345,-0.03866583167310874,-0.008303123046358716,0.028216271084336966
450141000000,38,450141000000,BL_wheel_link,-0.28601396981904426,-0.8902696869882516,-1.038929287558508,0.038663359971971296,0.0083042453649861,-0.02821862256175137
450142000000,39,450142000000,BL_wheel_link,0.2890530334994915,-0.36050230484629797,0.5118871482219414,-0.038663623379410636,-0.008303488443161132,0.028217521068701363
450143000000,40,450143000000,BL_wheel_link,-0.28604721835632807,-0.8901803492146726,-1.038877776524823,0.03866113834109068,0.008304651012479364,-0.02821987425694106
450144000000,41,450144000000,BL_wheel_link,0.2890860725627541,-0.3605919654316128,0.5118374682530764,-0.038661407621736546,-0.008303871138668737,0.028218779140015287
450145000000,42,450145000000,BL_wheel_link,-0.2860811492108101,-0.890090463560766,-1.0388262125917773,0.03865891119643417,0.00830505158484905,-0.02822114351381084
450146000000,43,450146000000,BL_wheel_link,0.2891188604196065,-0.36068186193286883,0.5117868375743087,-0.03865918668166983,-0.008304293438902604,0.028220056334599525
450147000000,44,450147000000,BL_wheel_link,-0.2861155428603653,-0.8900006728849258,-1.0387751965644139,0.038656703011786045,0.008305456027317045,-0.028222432494995026
450148000000,45,450148000000,BL_wheel_link,0.28915157780758133,-0.36077168614905664,0.5117365222385198,-0.03865698264738574,-0.008304729676646685,0.02822134685457036
450149000000,46,450149000000,BL_wheel_link,-0.28615012739040513,-0.8899111553553855,-1.0387247408984728,0.03865451551659928,0.008305866427169356,-0.028223733043205704
450150000000,47,450150000000,BL_wheel_link,0.2891842504045912,-0.360861386641192,0.5116868061388352,-0.03865479841564377,-0.008305166616003836,0.02822264467873465
450151000000,48,450151000000,BL_wheel_link,-0.28618472041258797,-0.8898218940814335,-1.0386746811912164,0.03865234314464782,0.008306281712171829,-0.02822503739078926
450152000000,49,450152000000,BL_wheel_link,0.28921656787363953,-0.36095145938853285,0.5116368215447009,-0.03865262985737182,-0.008305606652730623,0.028223953012659314
450153000000,50,450153000000,BL_wheel_link,-0.2862192094531764,-0.889732762462086,-1.038624779892823,0.03865017735016611,0.008306697541566028,-0.02822633883865801
450154000000,51,450154000000,BL_wheel_link,0.28924862219329245,-0.3610411892452348,0.5115869691351947,-0.038650457242323334,-0.008306056840637831,0.0282252588166004
450155000000,52,450155000000,BL_wheel_link,-0.2862535785235625,-0.889643927152022,-1.0385751391991473,0.03864802331102566,0.008307118280191862,-0.028227640586063665
450156000000,53,450156000000,BL_wheel_link,0.28928076210150455,-0.36113058127143316,0.5115381811818124,-0.03864830019932992,-0.008306482516449283,0.028226555123840372
450157000000,54,450157000000,BL_wheel_link,-0.28628774397122797,-0.889555140858539,-1.0385254065922913,0.038645867016397245,0.008307539481722194,-0.028228934542384506
450158000000,55,450158000000,BL_wheel_link,0.2893128987142411,-0.3612198739976381,0.5114895999609201,-0.038646143547882136,-0.008306898593052366,0.028227845233758236
450159000000,56,450159000000,BL_wheel_link,-0.2863217826788127,-0.8894663348397246,-1.0384755438098647,0.03864370644493858,0.00830795976266072,-0.028230222702712634
450160000000,57,450160000000,BL_wheel_link,0.28934496827304457,-0.361309169921546,0.5114408146866718,-0.03864398241852327,-0.008307318848220039,0.028229134995661563
450161000000,58,450161000000,BL_wheel_link,-0.2863557947991768,-0.8893775651009974,-1.0384256835506729,0.03864154636182615,0.008308380089299882,-0.028231510242892294
450162000000,59,450162000000,BL_wheel_link,0.2893754004234639,-0.36139850465044704,0.5113912375238356,-0.03864181811640165,-0.008307747496908548,0.0282304128310459
450163000000,60,450163000000,BL_wheel_link,-0.28638912301378733,-0.8892891708052744,-1.0383756422807306,0.038639382196062146,0.008308800318939002,-0.028232775870759213
450164000000,61,450164000000,BL_wheel_link,0.2894057962107931,-0.3614876949523172,0.5113417640363771,-0.03863964786865784,-0.008308167214696165,0.02823168157149103
450165000000,62,450165000000,BL_wheel_link,-0.2864220791092605,-0.8892009476072973,-1.0383253919891595,0.03863721248840931,0.008309219648206214,-0.02823402993718176
450166000000,63,450166000000,BL_wheel_link,0.28943635565534814,-0.36157676635235003,0.5112925734514152,-0.03863747222900173,-0.008308563547397908,0.028232935454238762
450167000000,64,450167000000,BL_wheel_link,-0.2864547799660034,-0.8891125665958307,-1.0382746295669938,0.03863502489994822,0.008309633796303317,-0.028235271532745607
450168000000,65,450168000000,BL_wheel_link,0.2894669864483389,-0.36166588585643816,0.5112430226899751,-0.03863528121799055,-0.008308951214479039,0.028234178991503642
450169000000,66,450169000000,BL_wheel_link,-0.286487381405879,-0.8890239620763006,-1.0382233996245294,0.038632820361954964,0.008310042192562093,-0.028236505874323064
450170000000,67,450170000000,BL_wheel_link,0.2894976488037387,-0.3617551016286894,0.5111929287614884,-0.0386330746375039,-0.008309340281177847,0.028235417658296846
450171000000,68,450171000000,BL_wheel_link,-0.28651999353722385,-0.88893518802215,-1.0381718629781476,0.03863060458516221,0.008310446175181094,-0.028237738338214066
450172000000,69,450172000000,BL_wheel_link,0.28952836212192157,-0.36184437909254213,0.5111424768505706,-0.03863085795654265,-0.008309730674825266,0.028236653577646292
450173000000,70,450173000000,BL_wheel_link,-0.2865526470423815,-0.8888462920853812,-1.038120118671652,0.03862838119241725,0.008310846858051169,-0.028238970862040653
450174000000,71,450174000000,BL_wheel_link,0.2895591235040325,-0.36193369063916897,0.5110917814619219,-0.03862863468584782,-0.008310123119763162,0.028237888356402358
450175000000,72,450175000000,BL_wheel_link,-0.2865853476987596,-0.8887573289005098,-1.038068254461019,0.03862615347769708,0.008311245363456989,-0.02824020448341291
450176000000,73,450176000000,BL_wheel_link,0.2895899196059724,-0.3620230119775788,0.5110409285257431,-0.03862640771747671,-0.008310518963826487,0.028239123620261562
450177000000,74,450177000000,BL_wheel_link,-0.2866180952207096,-0.8886683590697666,-1.0380163593067926,0.03862392482509179,0.008311642875546305,-0.028241440107442745
450178000000,75,450178000000,BL_wheel_link,0.2896209068130991,-0.3621122580470817,0.5109905170483554,-0.03862418336852043,-0.008310889920567603,0.028240347286121955
450179000000,76,450179000000,BL_wheel_link,-0.28665070829387446,-0.8885791774451095,-1.0379640347175028,0.03862168043179189,0.008312035376876902,-0.028242666759436263
450180000000,77,450180000000,BL_wheel_link,0.2896516804948553,-0.362201669969865,0.5109390216582592,-0.03862194118355241,-0.00831129476349236,0.028241581313726873
450181000000,78,450181000000,BL_wheel_link,-0.28668342910174377,-0.8884902185090481,-1.037911977911119,0.038619446696024906,0.008312430271904222,-0.02824390214223646
450182000000,79,450182000000,BL_wheel_link,0.2896824214139618,-0.3622909970114387,0.5108876609319152,-0.03861970642444445,-0.008311711655236457,0.02824282374834255
450183000000,80,450183000000,BL_wheel_link,-0.28671621341087367,-0.8884015318293598,-1.0378602549412677,0.03861722631694014,0.008312829046799123,-0.02824514499799701
450184000000,81,450184000000,BL_wheel_link,0.28971323498161244,-0.36238014330634694,0.5108369694067285,-0.03861748537586711,-0.008312118247416907,0.02824406514811031
450185000000,82,450185000000,BL_wheel_link,-0.2867489379901889,-0.888312948206494,-1.0378085970006299,0.038615009117530255,0.008313229111043265,-0.028246387036928614
450186000000,83,450186000000,BL_wheel_link,0.2897440163227432,-0.36246921029526963,0.5107864357420726,-0.03861526797530339,-0.00831252456776075,0.02824530674677539
450187000000,84,450187000000,BL_wheel_link,-0.28678162606693064,-0.8882244540067529,-1.0377570117203538,0.03861279520131742,0.008313630329681253,-0.02824762890980193
450188000000,85,450188000000,BL_wheel_link,0.2897747465689102,-0.36255821950850947,0.5107359783077802,-0.038613053482055834,-0.008312933522982388,0.02824654985308537
450189000000,86,450189000000,BL_wheel_link,-0.2868143035617626,-0.8881360574438274,-1.0377055343771655,0.038610585787893635,0.008314032981308039,-0.028248871775017226
450190000000,87,450190000000,BL_wheel_link,0.2898054482490085,-0.36264716136423447,0.5106856838895967,-0.03861084333438675,-0.008313341868627377,0.02824779342751095
450191000000,88,450191000000,BL_wheel_link,-0.28684696381388436,-0.8880477302845062,-1.0376541307439036,0.03860837952246558,0.008314436667702322,-0.02825011481657636
450192000000,89,450192000000,BL_wheel_link,0.28983611821383837,-0.3627360501675702,0.5106355030488917,-0.03860863635733866,-0.008313749700164916,0.028249037137609536
450193000000,90,450193000000,BL_wheel_link,-0.2868796075047196,-0.8879594553532418,-1.0376027816626185,0.03860617560706999,0.008314841088765216,-0.028251357739256265
450194000000,91,450194000000,BL_wheel_link,0.28986674629140036,-0.36282490269241846,0.5105853625233193,-0.038606431462265174,-0.008314159191577507,0.028250281778356135
450195000000,92,450195000000,BL_wheel_link,-0.2869122468292296,-0.8878712407110532,-1.0375515047883452,0.03860397469156575,0.008315246392868065,-0.02825260120040299
450196000000,93,450196000000,BL_wheel_link,0.2898973524131702,-0.3629137096831075,0.5105353274882083,-0.03860422951320352,-0.008314567750372504,0.02825152639650461
450197000000,94,450197000000,BL_wheel_link,-0.2869448729498797,-0.8877830651643798,-1.0375002671372706,0.038601775527447375,0.00831565221514512,-0.028253844470951875
450198000000,95,450198000000,BL_wheel_link,0.2899279351344629,-0.36300248097730514,0.5104853567715127,-0.03860202942860959,-0.008314975509855735,0.02825277068672192
450199000000,96,450199000000,BL_wheel_link,-0.2869774852690332,-0.8876949162563645,-1.037449050650448,0.038599577416126615,0.008316058306620362,-0.028255087327925567
450200000000,97,450200000000,BL_wheel_link,0.2899584561429605,-0.36309110861152555,0.510435608057585,-0.03859983312611374,-0.0083153838610574,0.028254014636697307
450201000000,98,450201000000,BL_wheel_link,-0.2870100745295999,-0.8876068875004862,-1.0373979641578557,0.03859738423873595,0.008316465651376583,-0.028256330802896013
450202000000,99,450202000000,BL_wheel_link,0.28998897130534596,-0.36317969566763586,0.5103859902048604,-0.03859764058656434,-0.008315790712255976,0.028255258838372592
450203000000,100,450203000000,BL_wheel_link,-0.2870426368559093,-0.8875189167900887,-1.0373469296292082,0.03859519306501184,0.008316873407195382,-0.028257573709873925
450204000000,101,450204000000,BL_wheel_link,0.290019473363167,-0.3632682987832819,0.5103363302835562,-0.03859544855467054,-0.00831619784601521,0.028256503400521073
450205000000,102,450205000000,BL_wheel_link,-0.28707518954532163,-0.8874309592448142,-1.0372959003751538,0.0385930022168162,0.008317281071879836,-0.028258816120871368
450206000000,103,450206000000,BL_wheel_link,0.290049952929047,-0.3633569020303783,0.51028662458707,-0.038593256403282296,-0.008316605714929728,0.02825774800355817
450207000000,104,450207000000,BL_wheel_link,-0.2871077451265014,-0.8873430079691829,-1.0372448772558034,0.038590811678251714,0.008317688625789221,-0.028260058470355676
450208000000,105,450208000000,BL_wheel_link,0.29008045210326006,-0.36344547269270816,0.5102370954846569,-0.038591066115884476,-0.008317002715691196,0.02825898723073083
450209000000,106,450209000000,BL_wheel_link,-0.2871402065347106,-0.8872549891310523,-1.0371936710284284,0.038588614730064044,0.008318094306053427,-0.028261295689384604
450210000000,107,450210000000,BL_wheel_link,0.29011078131394,-0.3635341188550534,0.5101869936166218,-0.03858886746023777,-0.008317418701151366,0.028260232282363212
450211000000,108,450211000000,BL_wheel_link,-0.2871727126652775,-0.8871671177402887,-1.0371426406041409,0.03858642492481675,0.008318501857454063,-0.028262537350677696
450212000000,109,450212000000,BL_wheel_link,0.29014111576777,-0.36362268111713136,0.5101371644454415,-0.03858667508371612,-0.00831783110506563,0.028261477135121508
450213000000,110,450213000000,BL_wheel_link,-0.2872051929232676,-0.8870793073228757,-1.037091644339449,0.038584236967093434,0.008318910042930842,-0.028263778901897435
450214000000,111,450214000000,BL_wheel_link,0.29017145446874915,-0.3637111811871057,0.5100875159290157,-0.038584485379672455,-0.008318237411581223,0.02826271909615827
450215000000,112,450215000000,BL_wheel_link,-0.28723762211195003,-0.88699148674519,-1.0370405806898186,0.038582046920912605,0.008319317655834855,-0.028265018019428465
450216000000,113,450216000000,BL_wheel_link,0.29020175370511475,-0.3637996700676017,0.5100377921405744,-0.03858229392848011,-0.008318644348444157,0.028263960047210133
450217000000,114,450217000000,BL_wheel_link,-0.2872700337309266,-0.8869036705003808,-1.0369894908176638,0.038579856229220603,0.008319724949692669,-0.028266256346278974
450218000000,115,450218000000,BL_wheel_link,0.2902320279995315,-0.3638881421976557,0.5099880376069343,-0.03858010192532031,-0.008319051539446795,0.028265200367677566
450219000000,116,450219000000,BL_wheel_link,-0.2873024384186614,-0.8868158612248873,-1.0369383872970848,0.03857766531765623,0.008320132007812907,-0.02826749435214732
450220000000,117,450220000000,BL_wheel_link,0.29026228919853564,-0.36397659292297413,0.5099382861839664,-0.03857790996354122,-0.008319458021477162,0.028266439849570776
450221000000,118,450221000000,BL_wheel_link,-0.28733483558649076,-0.8867280534096628,-1.0368872641959181,0.03857547393526116,0.008320538743640022,-0.028268731901580038
450222000000,119,450222000000,BL_wheel_link,0.2902925351049239,-0.3640650265227145,0.509888516701964,-0.03857571776276959,-0.00831986461055638,0.02826767884124997
450223000000,120,450223000000,BL_wheel_link,-0.28736722960076394,-0.8866402530570421,-1.0368361323361934,0.038573282472739785,0.008320945252382013,-0.028269969273918935
450224000000,121,450224000000,BL_wheel_link,0.29032276687933845,-0.3641534414620787,0.5098387352231667,-0.038573525616478505,-0.008320271665971308,0.028268917660219616
450225000000,122,450225000000,BL_wheel_link,-0.2873996231578487,-0.8865524685104805,-1.036785004357309,0.03857109140465866,0.00832135167382526,-0.02827120671943082
450226000000,123,450226000000,BL_wheel_link,0.29035298721792163,-0.364241833709055,0.509788959803949,-0.03857133396692121,-0.008320679089249544,0.028270156427869928
450227000000,124,450227000000,BL_wheel_link,-0.2874320157889131,-0.8864647054657242,-1.0367338875900796,0.03856890101212736,0.008321758104289418,-0.028272444310085378
450228000000,125,450228000000,BL_wheel_link,0.2903831969605975,-0.36433020178916925,0.509739197961451,-0.03856914303742738,-0.008321086913490419,0.028271395253176013
450229000000,126,450229000000,BL_wheel_link,-0.28746440695166864,-0.8863769681011731,-1.036682787358544,0.038566711504166414,0.008322164622105499,-0.028273682092075755
450230000000,127,450230000000,BL_wheel_link,0.2904133962072911,-0.36441855684071023,0.5096894076349487,-0.038566951459718786,-0.008321494601552903,0.028272633311575576
450231000000,128,450231000000,BL_wheel_link,-0.28749678897850434,-0.8862892310984762,-1.036631661016695,0.0385645213824453,0.008322570984773058,-0.028274919359080115
450232000000,129,450232000000,BL_wheel_link,0.29044358287042193,-0.3645068852048453,0.5096396372385662,-0.038564760959109365,-0.008321903191095926,0.028273871800053887
450233000000,130,450233000000,BL_wheel_link,-0.2875291741833406,-0.8862015291399703,-1.036580565690577,0.038562332702911706,0.008322977609787839,-0.02827615717689276
450234000000,131,450234000000,BL_wheel_link,0.2904738085234298,-0.36459524968584,0.5095898808017868,-0.03856257457930634,-0.008322314535784577,0.028275114484281726
450235000000,132,450235000000,BL_wheel_link,-0.2875616079388632,-0.8861138783781987,-1.0365295758050341,0.038560148170776,0.008323384879932573,-0.028277397784067782
450236000000,133,450236000000,BL_wheel_link,0.2905040257609002,-0.3646835729704242,0.509540183696183,-0.038560389958288935,-0.008322726500401516,0.028276357723701757
450237000000,134,450237000000,BL_wheel_link,-0.2875940529660828,-0.8860262612101079,-1.0364786343593573,0.038557965811156864,0.00832379258588337,-0.028278639308796996
450238000000,135,450238000000,BL_wheel_link,0.290534224701423,-0.3647718243208786,0.5094905943302704,-0.038558206661573176,-0.008323136765675886,0.02827759953487018
450239000000,136,450239000000,BL_wheel_link,-0.2876264802072767,-0.8859386658524625,-1.036427698367231,0.03855578402046318,0.008324200451104925,-0.028279880269797532
450240000000,137,450240000000,BL_wheel_link,0.290564410515768,-0.364860030957399,0.509441067518064,-0.0385560245789375,-0.008323546316057114,0.02827884076826526
450241000000,138,450241000000,BL_wheel_link,-0.28765889491801117,-0.8858510971014891,-1.036376777131187,0.03855360307196929,0.008324608475928634,-0.028281120940590425
450242000000,139,450242000000,BL_wheel_link,0.2905945786780035,-0.36494820656842003,0.5093915635932839,-0.03855384346568732,-0.008323956635279019,0.028280082234430515
450243000000,140,450243000000,BL_wheel_link,-0.2876913053802971,-0.8857635663667802,-1.036325889885582,0.0385514236656847,0.008325016826239824,-0.02828236186007208
450244000000,141,450244000000,BL_wheel_link,0.2906247319989223,-0.3650363501127583,0.5093420974416937,-0.03855166382744161,-0.00832436771854062,0.028281324165435145
450245000000,142,450245000000,BL_wheel_link,-0.28772371286018184,-0.8856760792564936,-1.0362750443305568,0.038549246095135145,0.008325425592205303,-0.02828360317712001
450246000000,143,450246000000,BL_wheel_link,0.29065487262293765,-0.3651244592903961,0.5092926832935691,-0.03854948594937312,-0.008324779220370605,0.028282566493313514
450247000000,144,450247000000,BL_wheel_link,-0.2877561152029806,-0.8855886359355898,-1.036224239171274,0.038547070319349605,0.008325834774824528,-0.028284844804722063
450248000000,145,450248000000,BL_wheel_link,0.29068499971795814,-0.3652125342905376,0.5092433203457247,-0.03854730979666438,-0.008325191090041378,0.02828380917054018
450249000000,146,450249000000,BL_wheel_link,-0.2877885112422619,-0.8855012358110188,-1.036173472782572,0.03854489628222492,0.008326244363773206,-0.02828608668511815
450250000000,147,450250000000,BL_wheel_link,0.2907151126246609,-0.36530057548175693,0.5091940071355009,-0.038545135316422514,-0.008325603277924311,0.02828505214511085
450251000000,148,450251000000,BL_wheel_link,-0.2878209003938846,-0.8854138775460413,-1.0361227430962308,0.03854272390710337,0.008326654338888297,-0.028287328772105567
450252000000,149,450252000000,BL_wheel_link,0.29074521114969754,-0.3653885833069637,0.5091447423766567,-0.03854296244766001,-0.008326015696692127,0.02828629534578098
450253000000,150,450253000000,BL_wheel_link,-0.2878532822338897,-0.8853265589918216,-1.0360720471373508,0.038540553081310915,0.008327064666598426,-0.02828857101176969
450254000000,151,450254000000,BL_wheel_link,0.29077529499982385,-0.36547655865521167,0.5090955228371661,-0.03854079109453638,-0.008326428309647717,0.02828753871738778
450255000000,152,450255000000,BL_wheel_link,-0.28788565673475414,-0.8852392780213844,-1.036021382209867,0.0385383837005939,0.008327475312996406,-0.028289813367334254
450256000000,153,450256000000,BL_wheel_link,0.2908053639880544,-0.3655645024640607,0.5090463450166596,-0.03853862116477554,-0.008326841110025723,0.028288782224002964
450257000000,154,450257000000,BL_wheel_link,-0.2879180241472674,-0.8851520328693623,-1.0359707462150551,0.03853621568290844,0.008327886249433652,-0.028291055819951567
450258000000,155,450258000000,BL_wheel_link,0.29083541812550673,-0.36565241550295097,0.508997206137512,-0.038536452586150606,-0.008327254096166976,0.028290025841244393
450259000000,156,450259000000,BL_wheel_link,-0.2879503847972643,-0.8850648221411643,-1.0359201375535305,0.03853404896501127,0.00832829745273449,-0.028292298360437274
450260000000,157,450260000000,BL_wheel_link,0.29086540585510706,-0.36574030240703614,0.5089480789753491,-0.03853428543136014,-0.008327667845392538,0.028291269486671385
450261000000,158,450261000000,BL_wheel_link,-0.28798272047762735,-0.884977660523905,-1.0358695583105035,0.038531883704059335,0.008328708995486546,-0.028293540509017275
450262000000,159,450262000000,BL_wheel_link,0.2908953360938402,-0.3658281557750022,0.5088989772681277,-0.03853211945898917,-0.008328081683002836,0.028292512698738292
450263000000,160,450263000000,BL_wheel_link,-0.2880150209518614,-0.8848905471981287,-1.0358189963705369,0.03852971950131619,0.008329120798299554,-0.02829478186086235
450264000000,161,450264000000,BL_wheel_link,0.29092547983905936,-0.3659169253842836,0.5088480958386022,-0.03852992320343783,-0.008328487468005533,0.028293750315785713
450265000000,162,450265000000,BL_wheel_link,-0.28804733907325686,-0.8848025736667215,-1.0357672987398219,0.03852751527430779,0.008329523039036366,-0.02829601101952043
450266000000,163,450266000000,BL_wheel_link,0.2909565679817492,-0.3660079402506167,0.5087924416289646,-0.03852763245162368,-0.00832888157707458,0.028294973393084358
450267000000,164,450267000000,BL_wheel_link,-0.2880801015268579,-0.8847121177466906,-1.035712642251745,0.03852520613485087,0.008329899887011778,-0.02829722171768516
450268000000,165,450268000000,BL_wheel_link,0.29098705865133945,-0.36609817011641993,0.5087366449415904,-0.03852532280849146,-0.008329316730517306,0.028296194780665414
450269000000,166,450269000000,BL_wheel_link,-0.28811335739058064,-0.8846218806011606,-1.035658487406481,0.03852291825352007,0.008330282728394452,-0.02829845874226347
450270000000,167,450270000000,BL_wheel_link,0.2910176037260038,-0.3661876893997197,0.508682619101777,-0.038523046718559835,-0.008329746650055878,0.0282974201560898
450271000000,168,450271000000,BL_wheel_link,-0.2881466474285964,-0.8845321609235509,-1.035604941110649,0.03852065529164824,0.008330673953807918,-0.0282997066063297
450272000000,169,450272000000,BL_wheel_link,0.2910483038638271,-0.36627673482035744,0.5086301511500194,-0.038520799781730584,-0.008330156602663228,0.028298643559458044
450273000000,170,450273000000,BL_wheel_link,-0.28817971050969593,-0.8844428278506916,-1.0355516574375914,0.03851840407822237,0.008331070051981459,-0.02830095184073016
450274000000,171,450274000000,BL_wheel_link,0.2910787807724548,-0.3663656206724472,0.5085776704791352,-0.038518560861312987,-0.008330599624513012,0.028299884638413333
450275000000,172,450275000000,BL_wheel_link,-0.28821272880051485,-0.884354243367394,-1.0354992034285986,0.03851618592931268,0.00833147688980431,-0.02830220832310399
450276000000,173,450276000000,BL_wheel_link,0.29110908637204347,-0.3664541959526766,0.5085258920906826,-0.03851634790949949,-0.008331069436141852,0.02830114662141803
450277000000,174,450277000000,BL_wheel_link,-0.2882457263863529,-0.8842665283415183,-1.0354477860382947,0.03851400866309639,0.008331897199478482,-0.02830347880653119
450278000000,175,450278000000,BL_wheel_link,0.291139434681412,-0.36654232951914206,0.5084757350917598,-0.03851417231148427,-0.008331525842246217,0.028302413213994786
450279000000,176,450279000000,BL_wheel_link,-0.28827852441927826,-0.8841793307572926,-1.0353968828295328,0.038511852403808354,0.00833232560556656,-0.028304749419614746
450279000000,177,450280000000,BL_wheel_link,0.29116971490521315,-0.36663020889093056,0.5084264129122094,-0.038512015992974,-0.008331975113912028,0.028303680989057205
450281000000,178,450281000000,BL_wheel_link,-0.2883111396200173,-0.884092451534525,-1.035346268591309,0.03850970822665667,0.008332759053801325,-0.028306017361640772
450282000000,179,450282000000,BL_wheel_link,0.2911998751744945,-0.36671794414093994,0.508377480875576,-0.038509869972722675,-0.008332423402644834,0.028304950049119204
450283000000,180,450283000000,BL_wheel_link,-0.28834363848106953,-0.8840057899096321,-1.0352958677617545,0.03850757290540562,0.00833319610772788,-0.028307283665450555
450284000000,181,450284000000,BL_wheel_link,0.29122994930687546,-0.36680557178386825,0.508328876441712,-0.038507731783642654,-0.008332866967986458,0.02830621795273591
450285000000,182,450285000000,BL_wheel_link,-0.28837604332465927,-0.8839192258518964,-1.0352455474683662,0.03850544116014484,0.008333634890255206,-0.028308547197823487
450286000000,183,450286000000,BL_wheel_link,0.2912598164556924,-0.36689273197733335,0.5082811059381329,-0.038505605984846265,-0.008333307645070676,0.028307482298858412
450287000000,184,450287000000,BL_wheel_link,-0.28840832380804593,-0.883832999843746,-1.035195585233922,0.038503322511576746,0.00833407759743867,-0.02830981017000382
450288000000,185,450288000000,BL_wheel_link,0.2912894337409458,-0.36697903784741864,0.5082350736953495,-0.038503507260832646,-0.008333739122119719,0.02830874122487724
450289000000,186,450289000000,BL_wheel_link,-0.28844034400694646,-0.8837474551627076,-1.0351463130177134,0.03850122819291168,0.008334526911930292,-0.028311071733814572
450290000000,187,450290000000,BL_wheel_link,0.29131947795373325,-0.3670661301082876,0.5081881846954971,-0.038501403636314636,-0.008334157589987677,0.028310004211141288
450291000000,188,450291000000,BL_wheel_link,-0.28847232377998683,-0.8836614565890129,-1.0350964762777268,0.03849911228881551,0.008334969767873264,-0.02831232339168443
450292000000,189,450292000000,BL_wheel_link,0.2913506985071633,-0.367152255973751,0.5081425575545012,-0.038499292362343306,-0.008334590630164082,0.028311270615905267
450293000000,190,450293000000,BL_wheel_link,-0.2885049525562012,-0.8835756706330954,-1.03504744899505,0.03849702334821921,0.00833542013719435,-0.028313603966402423
450294000000,191,450294000000,BL_wheel_link,0.2913821783886493,-0.36723889777192315,0.5080972000488285,-0.03849721127845073,-0.008335010441206903,0.028312551063083304
450295000000,192,450295000000,BL_wheel_link,-0.2885378821838696,-0.8834895868961207,-1.0349984584782528,0.038494932226207985,0.008335867766779453,-0.028314889382101405
450296000000,193,450296000000,BL_wheel_link,0.2914133575501378,-0.36732598211321543,0.5080505566974824,-0.03849512034769364,-0.008335465115646003,0.02831384810932559
450297000000,194,450297000000,BL_wheel_link,-0.28857111464842544,-0.8834035160453481,-1.0349498270279582,0.038492852831655676,0.00833631765363717,-0.02831618608177758
450298000000,195,450298000000,BL_wheel_link,0.29144437029657716,-0.36741314967939837,0.5080037789100575,-0.03849303690773295,-0.008335932784939167,0.028315154714505797
450299000000,196,450299000000,BL_wheel_link,-0.28860450059483056,-0.8833175447403276,-1.0349015304396805,0.03849078536191586,0.008336770899092181,-0.028317489688138926
450300000000,197,450300000000,BL_wheel_link,0.29147451050578305,-0.3675007474910042,0.507956441575414,-0.038490964029618116,-0.008336395649850056,0.02831646056348041
450301000000,198,450301000000,BL_wheel_link,-0.28863757162644726,-0.883231535260794,-1.034853006769682,0.03848871049349059,0.00833722164383783,-0.028318778961892905
450302000000,199,450302000000,BL_wheel_link,0.2915040493898627,-0.367588336572331,0.5079085496289739,-0.03848887721415014,-0.008336858525681149,0.028317754918535564
450303000000,200,450303000000,BL_wheel_link,-0.2886702911671245,-0.8831455477893402,-1.0348041979435236,0.03848662728711294,0.008337670790381684,-0.02832005456158155
450304000000,201,450304000000,BL_wheel_link,0.2915334130530904,-0.3676756660420533,0.5078609888263179,-0.03848678421823027,-0.008337297926192148,0.028319029301584513
450305000000,202,450305000000,BL_wheel_link,-0.28870264884879926,-0.8830594452620621,-1.0347548921634016,0.03848452738989309,0.008338115938516326,-0.028321313819572116
450306000000,203,450306000000,BL_wheel_link,0.29156250514863397,-0.3677629210277165,0.5078133296871129,-0.038484680127741665,-0.008337717456045092,0.028320284679467032
450307000000,204,450307000000,BL_wheel_link,-0.2887346462213523,-0.8829731638768382,-1.0347049888385542,0.038482406442604734,0.008338554881892614,-0.028322555654798538
450308000000,205,450308000000,BL_wheel_link,0.29159153877040916,-0.3678499077048202,0.5077656628097643,-0.03848256163530545,-0.008338131496789953,0.02832152701807829
450309000000,206,450309000000,BL_wheel_link,-0.28876646403239137,-0.8828869016504504,-1.0346548570063523,0.0384802772252173,0.008338990585747216,-0.028323790631512157
450310000000,207,450310000000,BL_wheel_link,0.29162043782661784,-0.3679352570803514,0.5077209721817383,-0.038480486858697,-0.008338555549098688,0.028322774140998524
450311000000,208,450311000000,BL_wheel_link,-0.28879821243754616,-0.8828020663894763,-1.0346064611061347,0.03847820964069193,0.008339440408364847,-0.028325044736729962
450312000000,209,450312000000,BL_wheel_link,0.2916497500579343,-0.36802039669509784,0.5076778024267731,-0.03847844768532463,-0.008338954318634727,0.028324025107933175
450313000000,210,450313000000,BL_wheel_link,-0.2888297344123553,-0.8827176250445367,-1.0345584548982178,0.038476153232909746,0.008339890844194175,-0.028326293575973226
450314000000,211,450314000000,BL_wheel_link,0.29167919554843197,-0.3681062850623712,0.5076331852234919,-0.03847638944079397,-0.00833935810092213,0.02832528039246564
450315000000,212,450315000000,BL_wheel_link,-0.2888612592199605,-0.8826328427131345,-1.0345100465712103,0.03847407962087782,0.008340334193028659,-0.02832753556481759
450316000000,213,450316000000,BL_wheel_link,0.29170855987002253,-0.3681925504057795,0.5075873373684695,-0.0384743092593704,-0.008339776723133786,0.028326537423783126
450317000000,214,450317000000,BL_wheel_link,-0.2888929372530207,-0.882547806426656,-1.0344614281733973,0.038471996655465045,0.008340772859046327,-0.028328779026526613
450318000000,215,450318000000,BL_wheel_link,0.21106385718193937,-0.7013976256054056,-0.0981994161300707,-0.09210011225165632,-0.012868775832896058,0.030889152968745722
450319000000,216,450319000000,BL_wheel_link,0.10472433287000728,-1.1048009725756445,-1.3594731262236408,-0.01330650851581878,0.012599699211380854,-0.010912891129190203
450320000000,217,450320000000,BL_wheel_link,0.2244265853165607,-0.887682190783566,-0.608407273718348,-0.0955386616613303,-0.002312741469084536,0.018549920595293718
450321000000,218,450321000000,BL_wheel_link,0.17911700438996164,-0.1795067432901682,-0.37437210478034216,0.008216400302266242,0.011272312368804249,-0.008565431089709247
450322000000,219,450322000000,BL_wheel_link,-0.027143390386371355,-0.7185985383759178,-1.286218416816189,0.0058707426400638005,-0.004712648549644676,0.003929006039035092
450323000000,220,450323000000,BL_wheel_link,0.06067681217625914,0.07337046283535265,-0.030864286263101122,-0.004800909629938879,0.004664603097306918,-0.007793052349688571
450324000000,221,450324000000,BL_wheel_link,0.10696720358506584,-0.6694889388254288,-0.6224915198380397,-0.010875904610522989,-0.007021492200483425,0.016999779621245607
450325000000,222,450325000000,BL_wheel_link,-0.013924791504550813,0.14232238170037909,0.09886968042907533,-0.004427393810341656,0.0061239202078427896,-0.008862052556574171
450326000000,223,450326000000,BL_wheel_link,-0.22168024214730414,-0.45929097543076314,-1.0270156815073899,-0.000555429836856204,-0.007158146525830466,-3.466021469383959e-05
450327000000,224,450327000000,BL_wheel_link,-0.008535692742841253,0.16237326286539172,0.12881148787274202,-0.007336122202812226,0.0034277547948453864,-0.007271384985030458
450328000000,225,450328000000,BL_wheel_link,-0.37414246713193694,-1.5016121098410857,-1.3463562466572132,0.007376660733925396,-0.008471098662694172,-0.0010529224106203936
450329000000,226,450329000000,BL_wheel_link,-0.013464898978283422,0.0033462456394091522,-0.010332023168431716,0.00014076588948390832,-6.845273843307294e-05,-0.00030064977939419925
450330000000,227,450330000000,BL_wheel_link,-0.16722361392645718,-1.4434406770370163,-0.7970212231801675,0.005306925471678713,-0.0002021807486400787,-0.0056018026995054
450331000000,228,450331000000,BL_wheel_link,-0.04753183192147319,0.011135379254763274,0.003979809908047389,-0.0001375279320650581,-0.0003425231522313641,-0.0020177176746785405
450332000000,229,450332000000,BL_wheel_link,-0.3005311107983383,0.4267554954989186,0.19574101515031478,-0.02815324053910474,-0.0005888728434373828,-0.01955614066996033
450333000000,230,450333000000,BL_wheel_link,0.15634770996405117,-0.7043148308794622,-0.6486687349999541,0.02409935350438284,0.006145452980745054,-0.005327019112743152
450334000000,231,450334000000,BL_wheel_link,0.30341449650302316,-0.41720309598622013,0.11842959887634162,-0.03117496593285985,-0.005949806294812074,0.019612547485041487
450335000000,232,450335000000,BL_wheel_link,-0.20238759228836928,-0.8585489628376116,-0.9981765255577286,0.03681149250217501,0.007986325326521828,-0.023538584612517895
450336000000,233,450336000000,BL_wheel_link,0.3798767217016799,-0.43362666392996907,0.33250021394638724,-0.03537784358642171,-0.0064834964135511205,0.02579723878722236
450337000000,234,450337000000,BL_wheel_link,-0.27864944898531474,-0.7784006955394985,-0.9272010929437273,0.034360710319617155,0.007045446722123277,-0.025721969800477914
450338000000,235,450338000000,BL_wheel_link,0.38392706677422794,-0.4382974576512827,0.38137540752727445,-0.034657169057276116,-0.006090005839172046,0.027241507967419573
450339000000,236,450339000000,BL_wheel_link,-0.3237594205881362,-0.7674488442680432,-0.9189895709421787,0.0342205747385221,0.006818105967179686,-0.027719027522104665
450340000000,237,450340000000,BL_wheel_link,0.30665488369344246,-0.3516995946484576,0.45367979207243436,-0.03641611913521196,-0.009634604150621558,0.02836348123181836
450341000000,238,450341000000,BL_wheel_link,-0.32009383013638304,-0.8760422469382781,-1.0302275377811647,0.03850315612500895,0.007949374497545816,-0.02945637411645956
450342000000,239,450342000000,BL_wheel_link,0.3183207688764781,-0.338384313831861,0.547751083638991,-0.03913972361859842,-0.008831025261245852,0.029138706544964033
450343000000,240,450343000000,BL_wheel_link,-0.302778412425494,-0.9164807990904164,-1.0573993286224006,0.039696792595046354,0.008378766280809361,-0.029482783145554275
450344000000,241,450344000000,BL_wheel_link,0.31530071510185753,-0.33254960608701395,0.5757994593215011,-0.039876032655727735,-0.008364563743955439,0.029156666842280767
450345000000,242,450345000000,BL_wheel_link,-0.2880842575954595,-0.9313667039679621,-1.0586949076334766,0.03987892382521149,0.008500166394113806,-0.029168070811557437
450346000000,243,450346000000,BL_wheel_link,0.3079859433737545,-0.3309840765798356,0.5768634447581509,-0.03988052151446007,-0.008114266704000932,0.02896974042320322
450347000000,244,450347000000,BL_wheel_link,-0.27939156244705254,-0.9336648108640158,-1.0511054768524375,0.03968512138917499,0.008480313640411656,-0.02887438074889604
450348000000,245,450348000000,BL_wheel_link,0.3004859770625382,-0.33152634935797254,0.5677558313462184,-0.039641299606173686,-0.007999682522837922,0.028766459181148656
450349000000,246,450349000000,BL_wheel_link,-0.2754232548119366,-0.9306348698725246,-1.0417250528573576,0.039393179764558056,0.00840597368294442,-0.028675074112722777
450350000000,247,450350000000,BL_wheel_link,0.29425199992058043,-0.3328623809877427,0.5562105613444178,-0.03936118424574273,-0.007962486209365315,0.028605980082107258
450351000000,248,450351000000,BL_wheel_link,-0.27430745866281653,-0.9261331550271039,-1.0332896245268457,0.03911861380803899,0.00832053156466686,-0.028561942923577752
450352000000,249,450352000000,BL_wheel_link,0.28957501790841933,-0.3341875696413157,0.5457237132439225,-0.039119167659707896,-0.007961228939503148,0.02849592298000678
450353000000,250,450353000000,BL_wheel_link,-0.27462791020453087,-0.9219518040484476,-1.0265524220675544,0.0388991355901282,0.008242534560854638,-0.02851005099245112
450354000000,251,450354000000,BL_wheel_link,0.286290357140976,-0.335139090291128,0.5374690750983331,-0.038935940966697814,-0.007972001413752967,0.028427693569181893
450355000000,252,450355000000,BL_wheel_link,-0.2754430490041759,-0.9188088153726169,-1.0214329689973816,0.0387380243407258,0.008177930268151853,-0.028495181117238477
450356000000,253,450356000000,BL_wheel_link,0.28408342483550797,-0.33560673308716177,0.5315109869467529,-0.038807179639390794,-0.007982545464081949,0.02838881431217069
450357000000,254,450357000000,BL_wheel_link,-0.2761580274759248,-0.916901772934508,-1.0176563577268767,0.03862824005861621,0.008127999033435154,-0.02849694134769739
450358000000,255,450358000000,BL_wheel_link,0.28265491721057834,-0.3356017309571147,0.5275332710744697,-0.03872264184007932,-0.0079877439399866,0.02836916598494794
450359000000,256,450359000000,BL_wheel_link,-0.27666525341714626,-0.9160092055632172,-1.014836692155901,0.038556257467813916,0.008089618180211129,-0.02850781535527627
450360000000,257,450360000000,BL_wheel_link,0.28175872852973,-0.335206444213846,0.5250653363918035,-0.03867026846872856,-0.007986601277904478,0.028361352942719402
450361000000,258,450361000000,BL_wheel_link,-0.27693897510513416,-0.9158871414326689,-1.0126526269724612,0.03851023917287349,0.00805961542327503,-0.028522897500911783
450362000000,259,450362000000,BL_wheel_link,0.281208622409006,-0.33451480847744935,0.5236656005831244,-0.0386396307353078,-0.007979779991955784,0.02836028263240354
450363000000,260,450363000000,BL_wheel_link,-0.27701280359990715,-0.9163039457815879,-1.0108641354619132,0.038480927945615376,0.008035236337618734,-0.028539672198679256
450364000000,261,450364000000,BL_wheel_link,0.28087344278843723,-0.33361155316607216,0.5229804767020481,-0.03862288785361936,-0.007968494093009428,0.028362745813738568
450365000000,262,450365000000,BL_wheel_link,-0.27693840262123137,-0.9170726001512374,-1.0093070608839518,0.038461749091639456,0.008014389522221941,-0.028556991335842642
450366000000,263,450366000000,BL_wheel_link,0.2806653700193274,-0.33256465093936505,0.5227508175128268,-0.03861460312384944,-0.00795396796153099,0.028366854044358656
450367000000,264,450367000000,BL_wheel_link,-0.27676520941303684,-0.9180558626706541,-1.007876458806446,0.038448346069069564,0.007995618790414081,-0.028574410331880337
450368000000,265,450368000000,BL_wheel_link,0.28052806849183576,-0.33142469542194164,0.5227981212948765,-0.03861122666202918,-0.00793722087620142,0.028371572475998627
450369000000,266,450369000000,BL_wheel_link,-0.2765326345232769,-0.9191598542537595,-1.006509186753936,0.03843799745311758,0.00797797685904155,-0.028591806011217812
450370000000,267,450370000000,BL_wheel_link,0.2804268547932954,-0.33022730044220144,0.523005401945411,-0.03861055551923562,-0.007919018307429459,0.028376382352356518
450371000000,268,450371000000,BL_wheel_link,-0.27626875566291215,-0.920324140884257,-1.005169544320103,0.0384290976972292,0.007960884322700815,-0.028609177929731715
450372000000,269,450372000000,BL_wheel_link,0.2803413095844971,-0.32899639578889145,0.5232993188050014,-0.03861128575661511,-0.007899897062624882,0.02838105690498329
450373000000,270,450373000000,BL_wheel_link,-0.27600159787768724,-0.92150328400882,-1.0038255868031905,0.03842029825136962,0.007943803701456108,-0.028626922246844145
450374000000,271,450374000000,BL_wheel_link,0.28025705200559686,-0.3277475204629277,0.5236295630236816,-0.03861238511536807,-0.00788013461567927,0.028385334348227105
450375000000,272,450375000000,BL_wheel_link,-0.27573193678982766,-0.9226811099027015,-1.0024707782203641,0.03841123394282319,0.007926641786805045,-0.02864467334006063
450376000000,273,450376000000,BL_wheel_link,0.28016751595922,-0.32648699115630275,0.5239783533744756,-0.03861355675591822,-0.007859809881855218,0.028389134574742875
450377000000,274,450377000000,BL_wheel_link,-0.275449757145202,-0.9238605735007953,-1.0011135383645424,0.038402142478650064,0.007909525995765821,-0.02866192028612355
450378000000,275,450378000000,BL_wheel_link,0.28007253478644345,-0.3252272995334797,0.524321413949616,-0.03861463400302847,-0.007839373725835982,0.028392765966813522
450379000000,276,450379000000,BL_wheel_link,-0.27516938745348096,-0.9250296849607751,-0.9997519361985708,0.03839288747917618,0.007892357532002469,-0.028679043581307913
450379000000,277,450380000000,BL_wheel_link,0.27997177637633774,-0.3239688279551172,0.5246584171179464,-0.03861564856887055,-0.007818847670493298,0.02839624746654597
450381000000,278,450381000000,BL_wheel_link,-0.2748951074138799,-0.9261851650230892,-0.9983858914866689,0.03838344302175003,0.007875108634289463,-0.02869615845050637
450382000000,279,450382000000,BL_wheel_link,0.2798656738366915,-0.3227121453408448,0.5249886270997175,-0.038616604480899076,-0.0077982616198037,0.02839960703497921
450383000000,280,450383000000,BL_wheel_link,-0.2746275306271563,-0.9273271610475365,-0.9970158669758901,0.03837382332410213,0.007857777494997184,-0.028713292667982983
450384000000,281,450384000000,BL_wheel_link,0.27975499320442254,-0.32145741490498647,0.5253120573207749,-0.03861750423406924,-0.007777635650763567,0.028402867191478193
450385000000,282,450385000000,BL_wheel_link,-0.2743660091309466,-0.9284570163384991,-0.995642339488051,0.038364052164585445,0.007840370215754544,-0.02873044660858141
450386000000,283,450386000000,BL_wheel_link,0.27964058354285964,-0.32020444784688445,0.5256293121722533,-0.03861835160260109,-0.007756980111846554,0.028406042785473384
450387000000,284,450387000000,BL_wheel_link,-0.2741095669799,-0.9295763335505319,-0.9942656448781304,0.038354151443360476,0.00782289392014732,-0.02874761383362662
450388000000,285,450388000000,BL_wheel_link,0.27961908890387693,-0.3183849562301471,0.5262362117884564,-0.03859759350722524,-0.007728205663938515,0.02838811084683654
450389000000,286,450389000000,BL_wheel_link,-0.2737609741447361,-0.9306638073177527,-0.9926901761087394,0.03833472869744845,0.007803082796295619,-0.028757724872896517
450390000000,287,450390000000,BL_wheel_link,0.2228476620734876,-0.3653852070655959,0.43695445565292873,-0.03798035841774992,-0.007740583196656889,0.028098402478162345
450391000000,288,450391000000,BL_wheel_link,-0.2483968913872845,-0.9159027940067047,-0.9484999070466196,0.0368359726349665,0.007509633168285456,-0.027509037274270114
450392000000,289,450392000000,BL_wheel_link,0.21678083865440947,-0.3481038266664022,0.42993310565190285,-0.036727269985018664,-0.007355937831709262,0.027080191142961847
450393000000,290,450393000000,BL_wheel_link,-0.23574329109240913,-0.9109840802886122,-0.9253661223378468,0.03611229296599674,0.007349917382914543,-0.026996229670312896
450394000000,291,450394000000,BL_wheel_link,0.2189418349716857,-0.3399882176109066,0.42963091572021744,-0.0362731157064234,-0.007284994000841473,0.026792165374300025
450395000000,292,450395000000,BL_wheel_link,-0.23203753503222904,-0.9122365314375729,-0.9168885999319386,0.035890884357253544,0.007276989388358026,-0.026932386612779795
450396000000,293,450396000000,BL_wheel_link,0.22419654486014304,-0.3334944035504075,0.43559254653839097,-0.03616939822328724,-0.0072751206342433206,0.02674625532067751
450397000000,294,450397000000,BL_wheel_link,-0.2313551676230146,-0.9163019350802291,-0.915081445003724,0.03589663723008335,0.007252622504530957,-0.027021368471329067
450398000000,295,450398000000,BL_wheel_link,0.2281913987851545,-0.3294334589736155,0.44120342611537455,-0.036199282629646584,-0.007274210803447415,0.026780794847196126
450399000000,296,450399000000,BL_wheel_link,3.1952871351388294,24.994091762643205,0.11174749548776308,0.642186065038501,-0.09989239078757386,0.34334208395995586
450400000000,297,450400000000,BL_wheel_link,5.201517001571057,9.263152600258172,-0.05876847427872701,0.3143413938373267,-0.14253941742399162,0.5420744415472832
450401000000,298,450401000000,BL_wheel_link,4.310828031556813,8.717242317131063,-1.074226923432971,0.3479314057548345,-0.12559544533557948,0.451812556140372
450402000000,299,450402000000,BL_wheel_link,3.5452267948607084,4.806603219080202,-0.763014993088116,0.22734204534964403,-0.10834968485550468,0.38299232468245203
450403000000,300,450403000000,BL_wheel_link,2.2779132254209853,5.604510179021474,-0.5080271186299884,0.20843596073356274,-0.06536511569327061,0.23678405828479096
450404000000,301,450404000000,BL_wheel_link,2.686875502566748,2.3396023618951127,-0.47826443612667435,0.12836233217701984,-0.07662046786922054,0.2820047673199467
450405000000,302,450405000000,BL_wheel_link,0.0610995681448132,-0.017307629614739733,0.007764575473621061,0.000768511059919727,-0.001924682495631267,0.0065228868229693935
450406000000,303,450406000000,BL_wheel_link,1.6618651501657442,4.667592618436682,0.12523236775994603,0.11510151616732103,-0.046842760384151666,0.1721489472093815
450407000000,304,450407000000,BL_wheel_link,0.7336141875877318,0.7745138382928533,-0.1471478895032105,0.036983022868793076,-0.02233823786940259,0.07856192330424946
450408000000,305,450408000000,BL_wheel_link,0.0632988722233078,-0.8231351959258796,-0.28019583376262797,0.0011973543880717875,-0.0003590937814270561,0.001085679542469415
450409000000,306,450409000000,BL_wheel_link,-0.008717479161917008,-0.009309485659855541,0.007328492009255287,1.8685677290129496e-05,0.0003051644346909491,-0.0010512425569637392
450410000000,307,450410000000,BL_wheel_link,-0.04511168913125731,-1.8215949165171694,-0.6530176993465288,0.0012895446575541148,0.0012975197317233085,-0.004624720895561557
450411000000,308,450411000000,BL_wheel_link,0.015230303630184867,-0.0027274254849822123,0.02140584953475461,-0.0007233720930616292,-2.445790497664798e-06,0.00015699767101603598
450412000000,309,450412000000,BL_wheel_link,0.029271048910906764,-0.1952012858454268,-0.04497571525600886,-0.009051418995810545,-0.004113168057898854,0.008693639901671886
450413000000,310,450413000000,BL_wheel_link,-0.3117109017118816,-0.7152421305313099,-0.7699269509315058,0.030112971209957644,0.005472597024949534,-0.02692063466948899
450414000000,311,450414000000,BL_wheel_link,0.32925459144757946,-0.3602011634464913,0.554147989697351,-0.04298380403454151,-0.009761649673700423,0.03264983254161379
450415000000,312,450415000000,BL_wheel_link,-1.302053807594643,6.519053945721556,-3.395446348329666,0.5172430718092021,0.0441708870622558,-0.14343990786769928
450416000000,313,450416000000,BL_wheel_link,-0.4091383050719293,0.682183679328707,0.2121309300223346,-0.026855085445624212,-0.004661742578634045,-0.02338673780437678
450417000000,314,450417000000,BL_wheel_link,0.9807816270890781,14.069261257095208,0.8324021489397363,0.2866556750796758,-0.01724775069651388,0.07604093492107955
450418000000,315,450418000000,BL_wheel_link,-2.0807797160374437,12.525128735952102,6.199955298352455,-0.2642310402771243,0.062922847696199,-0.21955581668904517
450419000000,316,450419000000,BL_wheel_link,-0.10789943415454734,-0.130405143089487,0.062414288835853544,-0.00763342547405745,0.0035049762291236024,-0.011510921568766935
450420000000,317,450420000000,BL_wheel_link,2.115322551591887,12.237933706582115,0.40125249999583446,0.28329816848565437,-0.054267044136918574,0.20565402233997307
450421000000,318,450421000000,BL_wheel_link,-1.4569908626151644,16.931280182828583,7.676088496044026,-0.29209656771218767,0.039774787825000706,-0.14639270391062095
450422000000,319,450422000000,BL_wheel_link,-0.10076140283757648,-0.09851709121019221,0.08660905145405998,-0.00992584684309246,0.0032583280455597548,-0.011246344166325039
450423000000,320,450423000000,BL_wheel_link,2.239400153741797,12.575811833218292,0.5164951624408713,0.27848607747624105,-0.058197829261822924,0.2190811531245297
450424000000,321,450424000000,BL_wheel_link,-1.2504373854049315,16.471886294090186,7.445858950142956,-0.2850135974736556,0.03245593225729736,-0.12395438729597429
450425000000,322,450425000000,BL_wheel_link,-0.08779036131850074,-0.11872548440986995,0.06990964162458933,-0.008722821681070107,0.0026793527358104836,-0.009383853687180414
450426000000,323,450426000000,BL_wheel_link,2.365030755036703,12.486742306958115,0.41252393083288674,0.28760228388157405,-0.06213953105966346,0.23293709806314145
450427000000,324,450427000000,BL_wheel_link,-1.1050969280890233,16.85747359787793,7.4578619133256705,-0.275858171029101,0.027592391599456305,-0.10798814371488642
450428000000,325,450428000000,BL_wheel_link,-0.08300217608802951,-0.11339976333282094,0.0679642162512258,-0.00846140509338633,0.00252194784906722,-0.008913667667657579
450429000000,326,450429000000,BL_wheel_link,2.4427434528390193,12.645076808387763,0.368745334196971,0.2968088948882056,-0.0643718930859466,0.24108298700351707
450430000000,327,450430000000,BL_wheel_link,-1.0218645711891805,16.885838974517643,7.374385974644944,-0.26702685096857853,0.02497155352884218,-0.09918860497172693
450431000000,328,450431000000,BL_wheel_link,-0.07897543553423339,-0.11599258871012282,0.06460021758821849,-0.007958597416151828,0.0023593125381753018,-0.00836716992383639
450432000000,329,450432000000,BL_wheel_link,2.4970522185916395,12.703204451579193,0.318569994853814,0.3041206154251563,-0.06595430547006109,0.2468588331069636
450433000000,330,450433000000,BL_wheel_link,-0.9735997535250404,16.974343848441702,7.33363156342588,-0.26059012175870433,0.02352039709433223,-0.09418135984942108
450434000000,331,450434000000,BL_wheel_link,-0.07646906817860079,-0.1187519558884953,0.06215283879398854,-0.00759394829239864,0.0022646200715131163,-0.008022908587451024
450435000000,332,450435000000,BL_wheel_link,2.5293952453125996,12.73723847566735,0.2791236134366707,0.3096163235045177,-0.06688263470766832,0.2502972964198965
450436000000,333,450436000000,BL_wheel_link,-0.9428814484411248,17.02676444362805,7.294228647209044,-0.25511724313150036,0.022635909727126095,-0.09103000170139793
450437000000,334,450437000000,BL_wheel_link,-0.07480366911993352,-0.12014705371654702,0.06056563084841897,-0.0073771967624111125,0.0022030813378787774,-0.00781786866931549
450438000000,335,450438000000,BL_wheel_link,2.5532462018609925,12.776247136757457,0.24826661733479455,0.31428341052270026,-0.06755196214123053,0.2528133763204848
450439000000,336,450439000000,BL_wheel_link,-0.9212010364465691,17.057941120931257,7.257612482558041,-0.25044887095224505,0.022018486929126727,-0.08881541826113139
450440000000,337,450440000000,BL_wheel_link,-0.07373327883825168,-0.12116694769483632,0.05966735607374652,-0.007251991150350635,0.0021653095742936663,-0.0076894855357423535
450441000000,338,450441000000,BL_wheel_link,2.5706107020442617,12.811315667309108,0.22342008920321665,0.3181638966609123,-0.06803170814143956,0.2546421068118656
450442000000,339,450442000000,BL_wheel_link,-0.9055985918921943,17.078641908988242,7.225676946150226,-0.24655923873177596,0.021573172420798176,-0.08722751371225622
450443000000,340,450443000000,BL_wheel_link,-0.0731127731589467,-0.12220760474889884,0.05921230718358211,-0.007177448147084707,0.0021405305589183763,-0.007610997288889492
450444000000,341,450444000000,BL_wheel_link,2.583216554502731,12.840791071474642,0.20224936816316325,0.32147629796602767,-0.06837378961620551,0.25597050244351627
450445000000,342,450445000000,BL_wheel_link,-0.8940500439794752,17.091953995902344,7.196613366407725,-0.24317111617181172,0.021239725448343898,-0.08605175079686092
450446000000,343,450446000000,BL_wheel_link,-0.07274002813793004,-0.12295372248804415,0.05916838203004475,-0.007141745776551233,0.0021266991336118322,-0.00756616714165039
450447000000,344,450447000000,BL_wheel_link,2.5936540657032436,12.871173259353856,0.1836240419407058,0.3245219059249461,-0.06865114647283707,0.2570658034932918
450448000000,345,450448000000,BL_wheel_link,-0.8847371024047814,17.10027265293923,7.169304952443978,-0.2401051079891356,0.02096287056894286,-0.08509883010282855
450449000000,346,450449000000,BL_wheel_link,-0.07249349939561676,-0.12363064408067968,0.05930660346474407,-0.007129732587003548,0.0021171140816341424,-0.00753593461115548
450450000000,347,450450000000,BL_wheel_link,2.602843935573002,12.900459569511955,0.16647783629766547,0.32736644059475417,-0.06889333832721396,0.25803114459996457
450451000000,348,450451000000,BL_wheel_link,-0.8766565906523962,17.107003938389987,7.143580371255556,-0.2372549086726247,0.020715977748999602,-0.08426779239031255
450452000000,349,450452000000,BL_wheel_link,-0.07231399029210123,-0.12433021105257833,0.05952892546736348,-0.007129868742540049,0.0021094318321109736,-0.0075127022560663465
450453000000,350,450453000000,BL_wheel_link,2.6113106175700582,12.928381546874874,0.15009012318634615,0.330085180424049,-0.0691158130558727,0.258922680997995
450454000000,351,450454000000,BL_wheel_link,-0.869038811392721,17.112999419544852,7.118598954460087,-0.23450633679862978,0.02047866010365798,-0.08347984182458128
450455000000,352,450455000000,BL_wheel_link,-0.07216743935829245,-0.12499607528405195,0.05980238866596022,-0.007137363232609928,0.002102842905372723,-0.007493285891081585
450456000000,353,450456000000,BL_wheel_link,2.6195961392458442,12.95626564602531,0.13407761089985268,0.3327581262303799,-0.06933350108845666,0.2597958925134378
450457000000,354,450457000000,BL_wheel_link,-0.8614971714898347,17.118504639570695,7.093891710373249,-0.2318016883723179,0.02024085050390677,-0.08269555377307594
450458000000,355,450458000000,BL_wheel_link,-0.0720288965743695,-0.1250922242585013,0.060232205864788814,-0.00714902263193164,0.0020968951979538878,-0.00747575859557807
450459000000,356,450459000000,BL_wheel_link,2.6276751840804464,12.98298581663401,0.11811974710625955,0.33539217032406055,-0.06954613274567306,0.2606494994721861
450460000000,357,450460000000,BL_wheel_link,-0.8541639077026161,17.124547632129524,7.069781207602153,-0.2291463265317737,0.02000725345840226,-0.0819314769683178
450461000000,358,450461000000,BL_wheel_link,-0.07181179903297734,-0.12262481646560208,0.061124001630462936,-0.007163564733684308,0.0020915367131963706,-0.007453058795878194
450462000000,359,450462000000,BL_wheel_link,2.6290481261137697,12.978575764620897,0.10291824307739904,0.33710551884511736,-0.06958178756503679,0.26083730684200823
