%time,field.header.seq,field.header.stamp,field.header.frame_id,field.name0,field.name1,field.name2,field.name3,field.position0,field.position1,field.position2,field.position3,field.velocity0,field.velocity1,field.velocity2,field.velocity3,field.effort0,field.effort1,field.effort2,field.effort3
339602000000,2266,339600000000,,BL_TO_BASELINK,BR_TO_BASELINK,FL_TO_BASELINK,FR_TO_BASELINK,0.38879071016540667,0.1774407780949394,-0.18247268724333576,-0.39375325824285845,-9.558161626690986e-06,-3.8166567106583116e-05,-0.019216434375646612,3.36748797113498e-05,0.0,0.0,0.0,0.0
339624000000,2267,339620000000,,BL_TO_BASELINK,BR_TO_BASELINK,FL_TO_BASELINK,FR_TO_BASELINK,0.3887907259843111,0.17757328085735669,-0.18260721127080703,-0.39375333949575,-9.551248225466227e-06,-3.8136747281583214e-05,-0.01921968580482141,3.365045731004539e-05,0.0,0.0,0.0,0.0
339644000000,2268,339640000000,,BL_TO_BASELINK,BR_TO_BASELINK,FL_TO_BASELINK,FR_TO_BASELINK,0.3887907419934935,0.17770586083274065,-0.18274173530540416,-0.3937534217691576,-9.542367646745917e-06,-3.809937576906321e-05,-0.019222383880769862,3.3617184076526266e-05,0.0,0.0,0.0,0.0
339660000000,2269,339660000000,,BL_TO_BASELINK,BR_TO_BASELINK,FL_TO_BASELINK,FR_TO_BASELINK,0.38879075833773946,0.17783854208448258,-0.18287623543798048,-0.3937535058455426,-9.531477776525063e-06,-3.805429553572354e-05,-0.01922452057548333,3.357485921868207e-05,0.0,0.0,0.0,0.0
339682000000,2270,339680000000,,BL_TO_BASELINK,BR_TO_BASELINK,FL_TO_BASELINK,FR_TO_BASELINK,0.38879077517157246,0.17797135043394086,-0.1830106871374726,-0.3937535925607971,-9.518511906286484e-06,-3.8001256259192e-05,-0.019226087079904034,3.352317279383711e-05,0.0,0.0,0.0,0.0
339701000000,2271,339700000000,,BL_TO_BASELINK,BR_TO_BASELINK,FL_TO_BASELINK,FR_TO_BASELINK,0.3887907926544161,0.17810431230441992,-0.18314506341090997,-0.393753682776226,-9.503236336999565e-06,-3.79393607707109e-05,-0.01922684698643152,3.346112812069833e-05,0.0,0.0,0.0,0.0
339721000000,2272,339720000000,,BL_TO_BASELINK,BR_TO_BASELINK,FL_TO_BASELINK,FR_TO_BASELINK,0.38879081095504553,0.17823745646444955,-0.18327933488502524,-0.39375377740397255,-9.485542677633782e-06,-3.786820993845891e-05,-0.019226851188756555,3.3388185480221974e-05,0.0,0.0,0.0,0.0
339740000000,2273,339740000000,,BL_TO_BASELINK,BR_TO_BASELINK,FL_TO_BASELINK,FR_TO_BASELINK,0.38879083025528427,0.17837081324337856,-0.18341347095125737,-0.3937538774266107,-9.465258778380836e-06,-3.7787159440362886e-05,-0.01922606682256585,3.330354009890846e-05,0.0,0.0,0.0,0.0
339760000000,2274,339760000000,,BL_TO_BASELINK,BR_TO_BASELINK,FL_TO_BASELINK,FR_TO_BASELINK,0.38879085075296427,0.17850441563312103,-0.1835474382677651,-0.3937539839133768,-9.442155824891316e-06,-3.769535007863527e-05,-0.019224415015751825,3.3206140990445915e-05,0.0,0.0,0.0,0.0
339780000000,2275,339780000000,,BL_TO_BASELINK,BR_TO_BASELINK,FL_TO_BASELINK,FR_TO_BASELINK,0.3887908726650231,0.1786382997740681,-0.18368120024984602,-0.3937540980370331,-9.415965305425468e-06,-3.759177629549665e-05,-0.0192218048939918,3.309475138793885e-05,0.0,0.0,0.0,0.0
339800000000,2276,339800000000,,BL_TO_BASELINK,BR_TO_BASELINK,FL_TO_BASELINK,FR_TO_BASELINK,0.38879089623090923,0.17877250556870017,-0.18381471639448677,-0.3937542210924523,-9.386366234020657e-06,-3.7475237922151086e-05,-0.019218114402724674,3.2967896110027393e-05,0.0,0.0,0.0,0.0
339821000000,2277,339820000000,,BL_TO_BASELINK,BR_TO_BASELINK,FL_TO_BASELINK,FR_TO_BASELINK,0.3887909080652845,0.17890940367772945,-0.18393360644287515,-0.393790915340551,-1.7955283476235595e-05,-6.017422743451531e-05,-0.00011335793255464605,-0.023172142227618545,0.0,0.0,0.0,0.0
339840000000,2278,339840000000,,BL_TO_BASELINK,BR_TO_BASELINK,FL_TO_BASELINK,FR_TO_BASELINK,0.38879086242986194,0.17907068256147518,-0.18411719391217218,-0.3937768641287933,1.0362824582476823e-05,0.01990952391792967,-0.00010098196769239148,-6.422492120221682e-05,0.0,0.0,0.0,0.0
339861000000,2279,339860000000,,BL_TO_BASELINK,BR_TO_BASELINK,FL_TO_BASELINK,FR_TO_BASELINK,0.38879088704592757,0.17920734104778013,-0.18425344500720442,-0.3937769945922316,9.991919716071523e-06,0.019597737500880497,-9.763714423102927e-05,-6.193627587656493e-05,0.0,0.0,0.0,0.0
339880000000,2280,339880000000,,BL_TO_BASELINK,BR_TO_BASELINK,FL_TO_BASELINK,FR_TO_BASELINK,0.38879091082115735,0.179341944930985,-0.18438727820584955,-0.3937771190719861,9.955320764882397e-06,0.01957175006626665,-9.729070508393903e-05,-6.170721887775212e-05,0.0,0.0,0.0,0.0
339900000000,2281,339900000000,,BL_TO_BASELINK,BR_TO_BASELINK,FL_TO_BASELINK,FR_TO_BASELINK,0.38879093406236365,0.1794763488207396,-0.18452105139200015,-0.39377724053994,9.943856165067766e-06,0.019572280190635033,-9.717985597365066e-05,-6.16338366606576e-05,0.0,0.0,0.0,0.0
339920000000,2282,339920000000,,BL_TO_BASELINK,BR_TO_BASELINK,FL_TO_BASELINK,FR_TO_BASELINK,0.3971900396749044,0.1874660926518148,-0.1770407281593922,-0.38579777509673985,0.5999264535394482,0.5673012537127626,0.5662416189225495,0.5667374948189571,0.0,0.0,0.0,0.0
339941000000,2283,339940000000,,BL_TO_BASELINK,BR_TO_BASELINK,FL_TO_BASELINK,FR_TO_BASELINK,0.4091898310043325,0.1996064461084952,-0.16528561474886683,-0.3738993047228609,0.5999866075077753,0.5884447511403753,0.5797317952899121,0.6001114524430251,0.0,0.0,0.0,0.0
339960000000,2284,339960000000,,BL_TO_BASELINK,BR_TO_BASELINK,FL_TO_BASELINK,FR_TO_BASELINK,0.421189795030922,0.21172606146662165,-0.1533987425059662,-0.36189910223179567,0.5999854889043368,0.5855358889031202,0.5812418187341364,0.6001139526775738,0.0,0.0,0.0,0.0
339980000000,2285,339980000000,,BL_TO_BASELINK,BR_TO_BASELINK,FL_TO_BASELINK,FR_TO_BASELINK,0.4333922674494852,0.22383006030904617,-0.14137231646824056,-0.3498991198878576,0.6133321015800108,0.6238170495630254,0.6109452449214565,0.5994205379702703,0.0,0.0,0.0,0.0
340000000000,2286,340000000000,,BL_TO_BASELINK,BR_TO_BASELINK,FL_TO_BASELINK,FR_TO_BASELINK,0.4454472179891047,0.23585635534815452,-0.12937048188481004,-0.33818535384219484,0.5738511443318378,0.5999443357156733,0.5995978619965862,0.5733457712652464,0.0,0.0,0.0,0.0
340020000000,2287,340020000000,,BL_TO_BASELINK,BR_TO_BASELINK,FL_TO_BASELINK,FR_TO_BASELINK,0.45756666640352694,0.2478577973305649,-0.11742919319520873,-0.32665924103285526,0.5840970412371222,0.5997201615509226,0.5997136762261447,0.5663743771622951,0.0,0.0,0.0,0.0
340042000000,2288,340040000000,,BL_TO_BASELINK,BR_TO_BASELINK,FL_TO_BASELINK,FR_TO_BASELINK,0.4696938517894047,0.25985641326416253,-0.1054306149587454,-0.3148195495237802,0.6302390923601556,0.6001366684265392,0.6002469967396123,0.614862943606199,0.0,0.0,0.0,0.0
340063000000,2289,340060000000,,BL_TO_BASELINK,BR_TO_BASELINK,FL_TO_BASELINK,FR_TO_BASELINK,0.4818706163573534,0.2718567343157483,-0.09341648642445133,-0.3032585279187501,0.575080895760835,0.5994153609130165,0.5992755471080246,0.5678271851489994,0.0,0.0,0.0,0.0
340095000000,2290,340080000000,,BL_TO_BASELINK,BR_TO_BASELINK,FL_TO_BASELINK,FR_TO_BASELINK,0.4932810147030162,0.28238594284161334,-0.08276700340698984,-0.2921595279476161,0.5997295803450376,0.5333310337153632,0.3784281270162423,0.6010549175110963,0.0,0.0,0.0,0.0
340106000000,2291,340100000000,,BL_TO_BASELINK,BR_TO_BASELINK,FL_TO_BASELINK,FR_TO_BASELINK,0.504961200931092,0.29390186029891296,-0.07251373401356354,-0.2818523886159223,0.596874631225758,0.540996078962415,0.24000189286098567,0.6004584368627495,0.0,0.0,0.0,0.0
340126000000,2292,340120000000,,BL_TO_BASELINK,BR_TO_BASELINK,FL_TO_BASELINK,FR_TO_BASELINK,0.5165676409684385,0.30534239727760326,-0.061807540502011094,-0.2715354516559163,0.5999992650910451,0.6000004013533504,0.5999998765098342,0.6000001893383116,0.0,0.0,0.0,0.0
340144000000,2293,340140000000,,BL_TO_BASELINK,BR_TO_BASELINK,FL_TO_BASELINK,FR_TO_BASELINK,0.5281189001823909,0.3168406166314348,-0.051507142099670666,-0.2612464811468831,0.5143568110034797,0.5995021643581974,0.5987139964137584,0.3094742114543595,0.0,0.0,0.0,0.0
340160000000,2294,340160000000,,BL_TO_BASELINK,BR_TO_BASELINK,FL_TO_BASELINK,FR_TO_BASELINK,0.5397303792730144,0.3283021652652218,-0.040979308751844634,-0.2510062382880065,0.6000000422122382,0.600000013922027,0.5999999781915698,0.600000030830923,0.0,0.0,0.0,0.0
340180000000,2295,340180000000,,BL_TO_BASELINK,BR_TO_BASELINK,FL_TO_BASELINK,FR_TO_BASELINK,0.5512505047901897,0.33972202028287324,-0.030884906318982885,-0.24040787263549745,0.5194213807080966,0.5307130378394129,0.6009146516403447,0.6008160758371567,0.0,0.0,0.0,0.0
340202000000,2296,340200000000,,BL_TO_BASELINK,BR_TO_BASELINK,FL_TO_BASELINK,FR_TO_BASELINK,0.5628855012115324,0.3512387186446997,-0.020286674817750594,-0.23007675397202831,0.599994542400952,0.5742268151165337,0.33084901168261505,0.5706151059741964,0.0,0.0,0.0,0.0
340222000000,2297,340220000000,,BL_TO_BASELINK,BR_TO_BASELINK,FL_TO_BASELINK,FR_TO_BASELINK,0.5743170006787572,0.3629303660711649,-0.009682516771694516,-0.21957838445799815,0.5999083024197429,0.5728194314598465,0.6003456857420304,0.6002923010452336,0.0,0.0,0.0,0.0
340240000000,2298,340240000000,,BL_TO_BASELINK,BR_TO_BASELINK,FL_TO_BASELINK,FR_TO_BASELINK,0.586062482640564,0.3744911013928194,0.00033078448412204864,-0.2092354291438001,0.6173199494095287,0.5396511941682967,0.27320481306514965,0.600271396546272,0.0,0.0,0.0,0.0
340264000000,2299,340260000000,,BL_TO_BASELINK,BR_TO_BASELINK,FL_TO_BASELINK,FR_TO_BASELINK,0.5975830857588162,0.3858682442416086,0.010459916130170832,-0.1992450699370849,0.5307287689950854,0.6005415610928052,0.6002626741735178,0.5815248156570186,0.0,0.0,0.0,0.0
340281000000,2300,340280000000,,BL_TO_BASELINK,BR_TO_BASELINK,FL_TO_BASELINK,FR_TO_BASELINK,0.6092054461760155,0.39744762291888946,0.02077120033640778,-0.18900355505049138,0.5996701249074938,0.5988914822488584,0.5578959385993929,0.33675123634059045,0.0,0.0,0.0,0.0
340301000000,2301,340300000000,,BL_TO_BASELINK,BR_TO_BASELINK,FL_TO_BASELINK,FR_TO_BASELINK,0.620561664536619,0.4088465030788715,0.03142524183487261,-0.1780288294015797,0.5625764185538817,0.6004868490272435,0.6003893080207134,0.6003839629974558,0.0,0.0,0.0,0.0
340330000000,2302,340320000000,,BL_TO_BASELINK,BR_TO_BASELINK,FL_TO_BASELINK,FR_TO_BASELINK,0.6319250352949686,0.42063899569087315,0.04201539531573317,-0.16778071941686434,0.5151901597434125,0.6059890876722422,0.7135254288197319,0.308069467989418,0.0,0.0,0.0,0.0
340345000000,2303,340340000000,,BL_TO_BASELINK,BR_TO_BASELINK,FL_TO_BASELINK,FR_TO_BASELINK,0.6433860564343394,0.4322900213768843,0.052637983465833926,-0.15773439496836428,0.5997119374517771,0.5992263366603655,0.598433531212573,0.4101700325226871,0.0,0.0,0.0,0.0
340363000000,2304,340360000000,,BL_TO_BASELINK,BR_TO_BASELINK,FL_TO_BASELINK,FR_TO_BASELINK,0.6549746706106943,0.4435940375591505,0.06258067671830858,-0.1469508284007608,0.5997528852764891,0.5214769285308398,0.3367739704000968,0.6008242508933477,0.0,0.0,0.0,0.0
340379000000,2305,340380000000,,BL_TO_BASELINK,BR_TO_BASELINK,FL_TO_BASELINK,FR_TO_BASELINK,0.6667271261360757,0.4550594900156053,0.07249737311477578,-0.1359011623386932,0.5999716629805775,0.5999078239188064,0.5998290535574143,0.5895779432719028,0.0,0.0,0.0,0.0
340400000000,2306,340400000000,,BL_TO_BASELINK,BR_TO_BASELINK,FL_TO_BASELINK,FR_TO_BASELINK,0.6782717869147596,0.46643104106587074,0.08294072654152362,-0.12549879067810465,0.5467567883216957,0.5980801644633569,0.5588650166705407,0.31934004937467253,0.0,0.0,0.0,0.0
340420000000,2307,340420000000,,BL_TO_BASELINK,BR_TO_BASELINK,FL_TO_BASELINK,FR_TO_BASELINK,0.6900766986055684,0.4780446431206382,0.09314647990075908,-0.11542174054203258,0.6060967271912061,0.5991709109609438,0.5989097759402954,0.47616949119398244,0.0,0.0,0.0,0.0
340440000000,2308,340440000000,,BL_TO_BASELINK,BR_TO_BASELINK,FL_TO_BASELINK,FR_TO_BASELINK,0.7017758970381838,0.48947330210167284,0.10282903673679833,-0.10484588480140644,0.5998085713504591,0.5528237877237938,0.33829490763479464,0.6007001607633825,0.0,0.0,0.0,0.0
340460000000,2309,340460000000,,BL_TO_BASELINK,BR_TO_BASELINK,FL_TO_BASELINK,FR_TO_BASELINK,0.7134363680102034,0.5009758759381571,0.11325848647723546,-0.09408771291578066,0.5999999662378084,0.6000000322164033,0.5999996963512062,0.6000001306547662,0.0,0.0,0.0,0.0
340481000000,2310,340480000000,,BL_TO_BASELINK,BR_TO_BASELINK,FL_TO_BASELINK,FR_TO_BASELINK,0.7249910407124709,0.5126384199988099,0.12358603772369392,-0.08398885619737229,0.5998304711864961,0.5994295115731909,0.5989278771705837,0.46326973877932176,0.0,0.0,0.0,0.0
340502000000,2311,340500000000,,BL_TO_BASELINK,BR_TO_BASELINK,FL_TO_BASELINK,FR_TO_BASELINK,0.7366447388956248,0.5240809242668476,0.13393185784949146,-0.07332226020919297,0.6000000601451945,0.5999999477323726,0.5999999285242298,0.6000000740400021,0.0,0.0,0.0,0.0
340522000000,2312,340520000000,,BL_TO_BASELINK,BR_TO_BASELINK,FL_TO_BASELINK,FR_TO_BASELINK,0.7479926553643308,0.5358933276724676,0.1443355380152198,-0.06348088806747576,0.5315297437945277,0.598695202590899,0.5979370827593113,0.30006630180530613,0.0,0.0,0.0,0.0
340548000000,2313,340540000000,,BL_TO_BASELINK,BR_TO_BASELINK,FL_TO_BASELINK,FR_TO_BASELINK,0.7594942771855324,0.547517586820339,0.15504489401281418,-0.05344302651695365,0.5999427756442951,0.5886502731156158,0.600271082819714,0.6001824450422015,0.0,0.0,0.0,0.0
340561000000,2314,340560000000,,BL_TO_BASELINK,BR_TO_BASELINK,FL_TO_BASELINK,FR_TO_BASELINK,0.7711547396634497,0.5592921476994892,0.16537371893341657,-0.043624354721917946,0.48610290147868745,0.6016760110768147,0.601369595411795,0.6011323942958832,0.0,0.0,0.0,0.0
340580000000,2315,340580000000,,BL_TO_BASELINK,BR_TO_BASELINK,FL_TO_BASELINK,FR_TO_BASELINK,0.7825101050275514,0.5712089450540523,0.17575263063985336,-0.033752043151260125,0.5018480106756384,0.5993238132083402,0.5985079602018337,0.3089789918290073,0.0,0.0,0.0,0.0
340600000000,2316,340600000000,,BL_TO_BASELINK,BR_TO_BASELINK,FL_TO_BASELINK,FR_TO_BASELINK,0.7942308368093665,0.5829993404244567,0.18669785601210798,-0.023604085745934533,0.5999991384586044,0.5999999192265852,0.6000000390819796,0.6000002795559302,0.0,0.0,0.0,0.0
340623000000,2317,340620000000,,BL_TO_BASELINK,BR_TO_BASELINK,FL_TO_BASELINK,FR_TO_BASELINK,0.805592604595307,0.5949919981311416,0.19744866881485912,-0.013721057614461962,0.5999990984880769,0.599999961380477,0.5999999748068119,0.6000005187822822,0.0,0.0,0.0,0.0
340640000000,2318,340640000000,,BL_TO_BASELINK,BR_TO_BASELINK,FL_TO_BASELINK,FR_TO_BASELINK,0.8170777113195324,0.6068159670779396,0.2081007085980433,-0.003328663158746359,0.5995420996824015,0.5987559758299503,0.3399645608992472,0.6020504540575845,0.0,0.0,0.0,0.0
340660000000,2319,340660000000,,BL_TO_BASELINK,BR_TO_BASELINK,FL_TO_BASELINK,FR_TO_BASELINK,0.8287188675657289,0.6184047555815511,0.21852785813307918,0.007088613899631113,0.5446007445264304,0.5648321512509871,0.5994210017874266,0.5618176585477596,0.0,0.0,0.0,0.0
340680000000,2320,340680000000,,BL_TO_BASELINK,BR_TO_BASELINK,FL_TO_BASELINK,FR_TO_BASELINK,0.840491959289249,0.6300009687325581,0.2287603234931117,0.01762746567580198,0.5983729795667193,0.5965751045714178,0.21243054889412338,0.6067996999567828,0.0,0.0,0.0,0.0
340706000000,2321,340700000000,,BL_TO_BASELINK,BR_TO_BASELINK,FL_TO_BASELINK,FR_TO_BASELINK,0.8520907570105152,0.6416020177453303,0.23890660209030568,0.027612816269975582,0.5998591694323692,0.6425704053972598,0.3932366096443323,0.6005257816733673,0.0,0.0,0.0,0.0
340720000000,2322,340720000000,,BL_TO_BASELINK,BR_TO_BASELINK,FL_TO_BASELINK,FR_TO_BASELINK,0.863988098636475,0.653344333110847,0.24909930553134174,0.037654076236547596,0.6000005647912783,0.5999992255318801,0.6000007157645709,0.5999990791770099,0.0,0.0,0.0,0.0
340740000000,2323,340740000000,,BL_TO_BASELINK,BR_TO_BASELINK,FL_TO_BASELINK,FR_TO_BASELINK,0.875671339709089,0.6648321342732952,0.25934094894339577,0.04763651167005367,0.5997483537676072,0.599063004500864,0.4240108093249321,0.6010301230093372,0.0,0.0,0.0,0.0
340760000000,2324,340760000000,,BL_TO_BASELINK,BR_TO_BASELINK,FL_TO_BASELINK,FR_TO_BASELINK,0.8873477668406293,0.6766201724167731,0.2695569153954054,0.05743158327685638,0.5995302399045135,0.5984382413385889,0.3144764729421249,0.3391451993879913,0.0,0.0,0.0,0.0
340780000000,2325,340780000000,,BL_TO_BASELINK,BR_TO_BASELINK,FL_TO_BASELINK,FR_TO_BASELINK,0.8990694920344122,0.6885807865780853,0.2797242688009254,0.06716638364949468,0.5998763376061697,0.6426399965152624,0.4057851823878459,0.6004442877613532,0.0,0.0,0.0,0.0
340800000000,2326,340800000000,,BL_TO_BASELINK,BR_TO_BASELINK,FL_TO_BASELINK,FR_TO_BASELINK,0.9108506719779088,0.7003114406776003,0.29011350331259145,0.07735187643193786,0.5590624231555898,0.5906028612408609,0.5985444178688417,0.5756501577402608,0.0,0.0,0.0,0.0
340819000000,2327,340820000000,,BL_TO_BASELINK,BR_TO_BASELINK,FL_TO_BASELINK,FR_TO_BASELINK,0.9227071042530044,0.7120701112114878,0.2999354030420047,0.08723848082934538,0.5519872349741518,0.5353109704627708,0.600887963260408,0.6007399028796893,0.0,0.0,0.0,0.0
340841000000,2328,340840000000,,BL_TO_BASELINK,BR_TO_BASELINK,FL_TO_BASELINK,FR_TO_BASELINK,0.934348547609531,0.7238761517481489,0.31057158301726595,0.09760962983434673,0.5998046776022772,0.599457579464011,0.5989588367085055,0.4111890709288316,0.0,0.0,0.0,0.0
340860000000,2329,340860000000,,BL_TO_BASELINK,BR_TO_BASELINK,FL_TO_BASELINK,FR_TO_BASELINK,0.9461549381380747,0.7358295637149723,0.32069506096037514,0.10760323275651729,0.5840451518797064,0.5977708512806673,0.5972999070565176,0.3488400619195808,0.0,0.0,0.0,0.0
340881000000,2330,340880000000,,BL_TO_BASELINK,BR_TO_BASELINK,FL_TO_BASELINK,FR_TO_BASELINK,0.9582067729719581,0.7477682541433808,0.330381765719606,0.11794827217591308,0.5999998074902783,0.6000001839159242,0.5999992558826467,0.6000010348425603,0.0,0.0,0.0,0.0
340900000000,2331,340900000000,,BL_TO_BASELINK,BR_TO_BASELINK,FL_TO_BASELINK,FR_TO_BASELINK,0.9701847962824752,0.7596363610918972,0.3403648973956894,0.12803643095415929,0.6003147176584449,0.6312848017576235,0.597029989055019,0.3518664335411743,0.0,0.0,0.0,0.0
340921000000,2332,340920000000,,BL_TO_BASELINK,BR_TO_BASELINK,FL_TO_BASELINK,FR_TO_BASELINK,0.9822192783563146,0.771603251274569,0.34968177501074305,0.13803145279358287,0.6000000395897206,0.6000000059478823,0.600000017997231,0.6000000970883235,0.0,0.0,0.0,0.0
340940000000,2333,340940000000,,BL_TO_BASELINK,BR_TO_BASELINK,FL_TO_BASELINK,FR_TO_BASELINK,0.9940912627254646,0.7832019824327503,0.3599041450634939,0.14818941338165903,0.5995826024822721,0.5990678632989453,0.598204795443717,0.3326229461650053,0.0,0.0,0.0,0.0
340960000000,2334,340960000000,,BL_TO_BASELINK,BR_TO_BASELINK,FL_TO_BASELINK,FR_TO_BASELINK,1.005898954871741,0.7947934314670304,0.3699296741038385,0.15892997717608548,0.5975200973014271,0.5676835730458769,0.6008612439509282,0.6007325731489684,0.0,0.0,0.0,0.0
340979000000,2335,340980000000,,BL_TO_BASELINK,BR_TO_BASELINK,FL_TO_BASELINK,FR_TO_BASELINK,1.0179966886205705,0.8064694486988282,0.379563311764068,0.16906938596363386,0.6618727435515126,0.5954303638248042,0.5583895772160977,0.41955577847834724,0.0,0.0,0.0,0.0
341000000000,2336,341000000000,,BL_TO_BASELINK,BR_TO_BASELINK,FL_TO_BASELINK,FR_TO_BASELINK,1.0299761059694168,0.8181347895138718,0.3898244048380697,0.17951252577796506,0.5998915889036265,0.5405637552780062,0.6004529024686287,0.6004225486337618,0.0,0.0,0.0,0.0
341006000000,2337,341020000000,,BL_TO_BASELINK,BR_TO_BASELINK,FL_TO_BASELINK,FR_TO_BASELINK,1.0419813699646383,0.8296330708479243,0.39978332762586444,0.1903782818811388,0.5997390772099142,0.5990807064379293,0.42473104700157455,0.5680503611916103,0.0,0.0,0.0,0.0
341039000000,2338,341040000000,,BL_TO_BASELINK,BR_TO_BASELINK,FL_TO_BASELINK,FR_TO_BASELINK,1.0539079902534692,0.8411979545962627,0.40968288651163487,0.2012532657508599,0.6000001337912071,0.5999992314275713,0.6000009062736723,0.599999560831546,0.0,0.0,0.0,0.0
341059000000,2339,341060000000,,BL_TO_BASELINK,BR_TO_BASELINK,FL_TO_BASELINK,FR_TO_BASELINK,1.0657451215520313,0.8530316577420347,0.4201371688711477,0.21171934297362505,0.555883715832023,0.6222545908366484,0.6017213613971415,0.6012479479476052,0.0,0.0,0.0,0.0
341080000000,2340,341080000000,,BL_TO_BASELINK,BR_TO_BASELINK,FL_TO_BASELINK,FR_TO_BASELINK,1.077471265092992,0.8647532212590692,0.4308731583032337,0.22203342072277454,0.5998629910802007,0.5467836106342423,0.6001362162064603,0.5872376843494963,0.0,0.0,0.0,0.0
341098000000,2341,341100000000,,BL_TO_BASELINK,BR_TO_BASELINK,FL_TO_BASELINK,FR_TO_BASELINK,1.0894285836452422,0.8766514079039114,0.44107642404715985,0.23204209389465813,0.6170833463210124,0.5968284765629441,0.5964989150891226,0.49251678596124393,0.0,0.0,0.0,0.0
341120000000,2342,341120000000,,BL_TO_BASELINK,BR_TO_BASELINK,FL_TO_BASELINK,FR_TO_BASELINK,1.1012542747512217,0.8886479643162577,0.4512651564416661,0.2422800922509616,0.599999999620167,0.6000000170389286,0.5999996692269776,0.6000005145423442,0.0,0.0,0.0,0.0
341139000000,2343,341140000000,,BL_TO_BASELINK,BR_TO_BASELINK,FL_TO_BASELINK,FR_TO_BASELINK,1.1129498964996696,0.9005245732249252,0.4615765821298119,0.25230583033729737,0.6000000005809458,0.5999999986314926,0.5999999573357907,0.6000000803051814,0.0,0.0,0.0,0.0
341158000000,2344,341160000000,,BL_TO_BASELINK,BR_TO_BASELINK,FL_TO_BASELINK,FR_TO_BASELINK,1.124698638591651,0.9123682658798113,0.4718728644251664,0.2626812655233053,0.5873000273229277,0.5959398060301273,0.5989217576165813,0.5777314333122007,0.0,0.0,0.0,0.0
341181000000,2345,341180000000,,BL_TO_BASELINK,BR_TO_BASELINK,FL_TO_BASELINK,FR_TO_BASELINK,1.1364660222792367,0.9241807432278293,0.48240744966650784,0.2727852097481316,0.6000036346394978,0.6104211058129796,0.5982962834130489,0.5634302672479509,0.0,0.0,0.0,0.0
341200000000,2346,341200000000,,BL_TO_BASELINK,BR_TO_BASELINK,FL_TO_BASELINK,FR_TO_BASELINK,1.1483891502187005,0.9359800517619306,0.492979396822248,0.283137151762511,0.5244968486647413,0.6094267435580418,0.665187901642949,0.5980088951004298,0.0,0.0,0.0,0.0
341220000000,2347,341220000000,,BL_TO_BASELINK,BR_TO_BASELINK,FL_TO_BASELINK,FR_TO_BASELINK,1.1603660537302414,0.9476703393102239,0.503308493356097,0.2935849231144987,0.6022901149788704,0.6070132414418282,0.29398555539345694,0.324575527376236,0.0,0.0,0.0,0.0
341239000000,2348,341240000000,,BL_TO_BASELINK,BR_TO_BASELINK,FL_TO_BASELINK,FR_TO_BASELINK,1.171848655840778,0.9597192627789033,0.5143075096411867,0.3036521078905601,0.5999224042451407,0.566177473396221,0.6003390066575454,0.6002764648845181,0.0,0.0,0.0,0.0
341265000000,2349,341260000000,,BL_TO_BASELINK,BR_TO_BASELINK,FL_TO_BASELINK,FR_TO_BASELINK,1.1835142625148292,0.971672618085746,0.5247333349450933,0.31399454547934713,0.5999993663251059,0.5999998789039089,0.5999999968899195,0.6000001610760293,0.0,0.0,0.0,0.0
341288000000,2350,341280000000,,BL_TO_BASELINK,BR_TO_BASELINK,FL_TO_BASELINK,FR_TO_BASELINK,1.1952901737780932,0.9836324730488082,0.5351860401676545,0.32398875902188173,0.5808770202077573,0.6604648755479734,0.3272482543956402,0.3027787855968187,0.0,0.0,0.0,0.0
341293000000,2351,341300000000,,BL_TO_BASELINK,BR_TO_BASELINK,FL_TO_BASELINK,FR_TO_BASELINK,1.2068234291393312,0.9958084278958275,0.5461187056616685,0.333687460764569,0.5340482321868388,0.6334399207576387,0.5743233778685108,0.29639510619259873,0.0,0.0,0.0,0.0
341293000000,2352,341320000000,,BL_TO_BASELINK,BR_TO_BASELINK,FL_TO_BASELINK,FR_TO_BASELINK,1.2186160503087269,1.0078921046888452,0.5568787462649389,0.3438312374382235,0.5999996658950565,0.5999998632583017,0.5999998963124388,0.6000007111390819,0.0,0.0,0.0,0.0
341328000000,2353,341340000000,,BL_TO_BASELINK,BR_TO_BASELINK,FL_TO_BASELINK,FR_TO_BASELINK,1.2303229884472096,1.0199022989534088,0.5673426853763273,0.35378094980824937,0.5999435537238061,0.5766330115103977,0.6002534274248836,0.6002007834920247,0.0,0.0,0.0,0.0
341356000000,2354,341360000000,,BL_TO_BASELINK,BR_TO_BASELINK,FL_TO_BASELINK,FR_TO_BASELINK,1.242019474433186,1.0319085532244596,0.5778713862879075,0.36399511903448456,0.6000580065688433,0.6417384887642585,0.5797214409872279,0.5997703564885042,0.0,0.0,0.0,0.0
341379000000,2355,341380000000,,BL_TO_BASELINK,BR_TO_BASELINK,FL_TO_BASELINK,FR_TO_BASELINK,1.2538031322859107,1.0439020516948734,0.5880268499478634,0.37439882163200355,0.5996494351262471,0.5991688910487378,0.5984166965208804,0.36172467030351224,0.0,0.0,0.0,0.0
341389000000,2356,341400000000,,BL_TO_BASELINK,BR_TO_BASELINK,FL_TO_BASELINK,FR_TO_BASELINK,1.2656700116434711,1.0558432980698917,0.5983887252951483,0.3851676245142297,0.5998199208964103,0.6018202728223845,0.40046586488601577,0.6006617095605487,0.0,0.0,0.0,0.0
341420000000,2357,341420000000,,BL_TO_BASELINK,BR_TO_BASELINK,FL_TO_BASELINK,FR_TO_BASELINK,1.2775684726078822,1.067983155120329,0.6088963294834171,0.39483741484682255,0.5977218109218698,0.5945370788320369,0.33887849353494665,0.3664309783859998,0.0,0.0,0.0,0.0
341443000000,2358,341440000000,,BL_TO_BASELINK,BR_TO_BASELINK,FL_TO_BASELINK,FR_TO_BASELINK,1.2893746173450626,1.0800270181326193,0.6195774463903225,0.4046790365432358,0.5999551102820223,0.5846767423101934,0.6002177738674761,0.600164332812601,0.0,0.0,0.0,0.0
341461000000,2359,341460000000,,BL_TO_BASELINK,BR_TO_BASELINK,FL_TO_BASELINK,FR_TO_BASELINK,1.3012353137509054,1.092358627626127,0.6303486962918967,0.4142306278876715,0.6000002660026507,0.6000000962640355,0.6000002432573472,0.5999995874461116,0.0,0.0,0.0,0.0
341482000000,2360,341480000000,,BL_TO_BASELINK,BR_TO_BASELINK,FL_TO_BASELINK,FR_TO_BASELINK,1.3132406777316339,1.1044392770808935,0.6406212636412425,0.4243746320226913,0.5997787737515893,0.5992702007129657,0.42836929152136605,0.6009456547489886,0.0,0.0,0.0,0.0
341502000000,2361,341500000000,,BL_TO_BASELINK,BR_TO_BASELINK,FL_TO_BASELINK,FR_TO_BASELINK,1.3251371683338222,1.1166362358933224,0.6512771700684334,0.43399343805038804,0.5997941789761044,0.5993158634567197,0.461026656261345,0.6008565116703892,0.0,0.0,0.0,0.0
341520000000,2362,341520000000,,BL_TO_BASELINK,BR_TO_BASELINK,FL_TO_BASELINK,FR_TO_BASELINK,1.3372059712274638,1.1286913513164771,0.6617825461013069,0.443747442021623,0.6004303798889665,0.6015739991293327,0.4071972290435467,0.31704026770431204,0.0,0.0,0.0,0.0
341540000000,2363,341540000000,,BL_TO_BASELINK,BR_TO_BASELINK,FL_TO_BASELINK,FR_TO_BASELINK,1.3493316373651565,1.1404756301668755,0.6718484225804993,0.45426345251712874,0.5997785840277456,0.5992379604767999,0.4593934124620439,0.6008798364164073,0.0,0.0,0.0,0.0
341560000000,2364,341560000000,,BL_TO_BASELINK,BR_TO_BASELINK,FL_TO_BASELINK,FR_TO_BASELINK,1.3614642032497706,1.1523265633813118,0.6825515509750053,0.46430392269019194,0.598729027854817,0.5976504165141505,0.45208071767185243,0.3562806033708004,0.0,0.0,0.0,0.0
341580000000,2365,341580000000,,BL_TO_BASELINK,BR_TO_BASELINK,FL_TO_BASELINK,FR_TO_BASELINK,1.3734088959225712,1.1641387644353038,0.6932480973181416,0.47505970963534505,0.5999999864499075,0.6000000993479214,0.6000016557325298,0.6000004899601814,0.0,0.0,0.0,0.0
341600000000,2366,341600000000,,BL_TO_BASELINK,BR_TO_BASELINK,FL_TO_BASELINK,FR_TO_BASELINK,1.3854803272289482,1.1760110042977683,0.7035550345321653,0.48572076783949303,0.6007507680863884,0.602231668244485,0.4470515360384481,0.5978365292487908,0.0,0.0,0.0,0.0
341620000000,2367,341620000000,,BL_TO_BASELINK,BR_TO_BASELINK,FL_TO_BASELINK,FR_TO_BASELINK,1.3975382379067316,1.1875093895217512,0.7141192243954135,0.4967801095752744,0.5999999226640345,0.5999994036618542,0.600003193737684,0.5999987056276618,0.0,0.0,0.0,0.0
341640000000,2368,341640000000,,BL_TO_BASELINK,BR_TO_BASELINK,FL_TO_BASELINK,FR_TO_BASELINK,1.4096875920826513,1.1991796784899034,0.724234625777588,0.5070322151342763,0.6518135022138449,0.5612515818355885,0.29285920131772825,0.6009267879874158,0.0,0.0,0.0,0.0
341660000000,2369,341660000000,,BL_TO_BASELINK,BR_TO_BASELINK,FL_TO_BASELINK,FR_TO_BASELINK,1.4224245762600507,1.2108446687317018,0.7339171731723608,0.5172833408720372,0.6000006504646012,0.5999998361237793,0.599999744247012,0.6000004583143939,0.0,0.0,0.0,0.0
341680000000,2370,341680000000,,BL_TO_BASELINK,BR_TO_BASELINK,FL_TO_BASELINK,FR_TO_BASELINK,1.4347092296200614,1.2232322660920039,0.7437327181388182,0.5271751728528997,0.5966575181059406,0.6000251623230497,0.6000205674738972,0.6000197872506272,0.0,0.0,0.0,0.0
341700000000,2371,341700000000,,BL_TO_BASELINK,BR_TO_BASELINK,FL_TO_BASELINK,FR_TO_BASELINK,1.4466728599751075,1.2354235988975857,0.754222573237807,0.5372104272772358,0.5999134663673005,0.6954942366127381,0.41697982658053356,0.37800874241335103,0.0,0.0,0.0,0.0
341728000000,2372,341720000000,,BL_TO_BASELINK,BR_TO_BASELINK,FL_TO_BASELINK,FR_TO_BASELINK,1.4586184327838163,1.247701809155914,0.7649369119252283,0.5475018221251968,0.5954116307956356,0.5982695025584741,0.5978288755361231,0.3948129324997317,0.0,0.0,0.0,0.0
341728000000,2373,341740000000,,BL_TO_BASELINK,BR_TO_BASELINK,FL_TO_BASELINK,FR_TO_BASELINK,1.470717541338475,1.2597438421716118,0.7751263238159369,0.5577307769990281,0.5998325650833047,0.42843396540894835,0.29424616477367016,0.5956980502882735,0.0,0.0,0.0,0.0
341760000000,2374,341760000000,,BL_TO_BASELINK,BR_TO_BASELINK,FL_TO_BASELINK,FR_TO_BASELINK,1.4827767932031302,1.2718551887421201,0.7855015078229348,0.5677110855327765,0.6007889027616273,0.6012721344073997,0.6016982111927587,0.45788630945258946,0.0,0.0,0.0,0.0
341780000000,2375,341780000000,,BL_TO_BASELINK,BR_TO_BASELINK,FL_TO_BASELINK,FR_TO_BASELINK,1.494847353604471,1.2838399612449454,0.7957304457304462,0.5779215792048218,0.6210814568281509,0.6394446655441661,0.5949919585062623,0.5124420047810063,0.0,0.0,0.0,0.0
341800000000,2376,341800000000,,BL_TO_BASELINK,BR_TO_BASELINK,FL_TO_BASELINK,FR_TO_BASELINK,1.5068914013710009,1.2960533742004952,0.8065094475142125,0.5881154940471811,0.5997724397045361,0.5992184816309529,0.4817788155067597,0.6009624758241301,0.0,0.0,0.0,0.0
341822000000,2377,341820000000,,BL_TO_BASELINK,BR_TO_BASELINK,FL_TO_BASELINK,FR_TO_BASELINK,1.5189706647091707,1.3079355193367528,0.8167383020625723,0.5987388942016256,0.6040182496276303,0.585160232262677,0.5999109013597198,0.5956143157900834,0.0,0.0,0.0,0.0
341840000000,2378,341840000000,,BL_TO_BASELINK,BR_TO_BASELINK,FL_TO_BASELINK,FR_TO_BASELINK,1.5307873156023684,1.3200514703320136,0.8274346749492114,0.6087212566953752,0.600196430853138,0.6260104314138091,0.5983435985914299,0.574260840311439,0.0,0.0,0.0,0.0
341859000000,2379,341860000000,,BL_TO_BASELINK,BR_TO_BASELINK,FL_TO_BASELINK,FR_TO_BASELINK,1.5426300913042148,1.3321826917062705,0.8379856160115482,0.6191351365293949,0.5999636115553607,0.6619861200036803,0.43813331820477097,0.5568822984816404,0.0,0.0,0.0,0.0
341886000000,2380,341880000000,,BL_TO_BASELINK,BR_TO_BASELINK,FL_TO_BASELINK,FR_TO_BASELINK,1.5559882841926074,1.3452967251314298,0.8468102150247274,0.6279405947980061,0.5997091812122463,0.5990278962528452,0.46734929770982514,0.49886517898619775,0.0,0.0,0.0,0.0
341900000000,2381,341900000000,,BL_TO_BASELINK,BR_TO_BASELINK,FL_TO_BASELINK,FR_TO_BASELINK,1.56793108753884,1.3571320508123534,0.8573238602378392,0.63874147925186,0.5679653173387054,0.6011426747224378,0.6008801209142796,0.6010017340806335,0.0,0.0,0.0,0.0
341925000000,2382,341920000000,,BL_TO_BASELINK,BR_TO_BASELINK,FL_TO_BASELINK,FR_TO_BASELINK,1.580177318871181,1.3692968077218888,0.8677489474325251,0.6490228986879512,0.6000648409709016,0.6345635223165491,0.5966767543886384,0.5505354902179315,0.0,0.0,0.0,0.0
341948000000,2383,341940000000,,BL_TO_BASELINK,BR_TO_BASELINK,FL_TO_BASELINK,FR_TO_BASELINK,1.5928722080990996,1.3817596708061881,0.8774019200015415,0.6592062741496845,0.6201330307067997,0.5978730468027835,0.5671252835753818,0.5997787640774727,0.0,0.0,0.0,0.0
341962000000,2384,341960000000,,BL_TO_BASELINK,BR_TO_BASELINK,FL_TO_BASELINK,FR_TO_BASELINK,1.604984309867544,1.3938558592966048,0.8878887437555685,0.6694935231133092,0.6000003713075298,0.5999998771033414,0.5999999921898668,0.5999999761911041,0.0,0.0,0.0,0.0
341980000000,2385,341980000000,,BL_TO_BASELINK,BR_TO_BASELINK,FL_TO_BASELINK,FR_TO_BASELINK,1.617205117368682,1.4060561722535878,0.898566620824969,0.6795495012892863,0.6008527775320532,0.646760155718058,0.4599175938602905,0.42773589150151325,0.0,0.0,0.0,0.0
342000000000,2386,342000000000,,BL_TO_BASELINK,BR_TO_BASELINK,FL_TO_BASELINK,FR_TO_BASELINK,1.6301511429912594,1.41896618402449,0.9085314482048155,0.6890439191521933,0.5712974743433329,0.5938876804720745,0.6101102101113371,0.6140683419703907,0.0,0.0,0.0,0.0
342020000000,2387,342020000000,,BL_TO_BASELINK,BR_TO_BASELINK,FL_TO_BASELINK,FR_TO_BASELINK,1.6419775022546723,1.431049576766653,0.9195438294871989,0.699672793309368,0.5185786993655495,0.5576705082155686,0.6578087866545477,0.6071939846306171,0.0,0.0,0.0,0.0
342040000000,2388,342040000000,,BL_TO_BASELINK,BR_TO_BASELINK,FL_TO_BASELINK,FR_TO_BASELINK,1.6536620547718055,1.4430885044811879,0.9306003560617624,0.7105066971239529,0.5999085589409323,0.5996746728899806,0.5514738608738654,0.6003855468717247,0.0,0.0,0.0,0.0
342060000000,2389,342060000000,,BL_TO_BASELINK,BR_TO_BASELINK,FL_TO_BASELINK,FR_TO_BASELINK,1.6656598489273264,1.4550812000730096,0.9418153894665533,0.7219972626825282,0.5999561237076642,0.5998516385401303,0.5546025276439162,0.6001784967228926,0.0,0.0,0.0,0.0
342080000000,2390,342080000000,,BL_TO_BASELINK,BR_TO_BASELINK,FL_TO_BASELINK,FR_TO_BASELINK,1.677658746389902,1.467076162604286,0.9527883870035883,0.7333544342532603,0.5998294814092537,0.5993805866268427,0.49116447221742016,0.6006424325137227,0.0,0.0,0.0,0.0
342087000000,2391,342100000000,,BL_TO_BASELINK,BR_TO_BASELINK,FL_TO_BASELINK,FR_TO_BASELINK,1.6896590962951725,1.479078474278424,0.9637768184651581,0.7444116931305267,0.5991817699488734,0.5986645907339451,0.4602047016606233,0.6035832872318802,0.0,0.0,0.0,0.0
342120000000,2392,342120000000,,BL_TO_BASELINK,BR_TO_BASELINK,FL_TO_BASELINK,FR_TO_BASELINK,1.7016586030225733,1.491076533035411,0.9748992138646146,0.7554606571036997,0.5998251677726523,0.5994553681969037,0.5285133878894877,0.5333409482798609,0.0,0.0,0.0,0.0
342141000000,2393,342140000000,,BL_TO_BASELINK,BR_TO_BASELINK,FL_TO_BASELINK,FR_TO_BASELINK,1.7136564949198378,1.5030698448158244,0.9859134314589229,0.7666039857081675,0.5998537415624214,0.5995133980781897,0.5273270254996705,0.552139035136711,0.0,0.0,0.0,0.0
342161000000,2394,342160000000,,BL_TO_BASELINK,BR_TO_BASELINK,FL_TO_BASELINK,FR_TO_BASELINK,1.7256545472688352,1.5150634169725476,0.9969894027651787,0.7778028835896285,0.599847017803615,0.5994578815749738,0.5441863938681208,0.5600551037020578,0.0,0.0,0.0,0.0
342180000000,2395,342180000000,,BL_TO_BASELINK,BR_TO_BASELINK,FL_TO_BASELINK,FR_TO_BASELINK,1.737658210952258,1.5270738838283053,1.0081286521182626,0.7889049096942751,0.5999021760201242,0.5996671781307845,0.599408221639081,0.5431002066589963,0.0,0.0,0.0,0.0
342200000000,2396,342200000000,,BL_TO_BASELINK,BR_TO_BASELINK,FL_TO_BASELINK,FR_TO_BASELINK,1.749668997390181,1.539100303761086,1.0193682555917363,0.7996462786803464,0.5999999551126387,0.5999999382983625,0.600000009766303,0.6000019752760846,0.0,0.0,0.0,0.0
342226000000,2397,342220000000,,BL_TO_BASELINK,BR_TO_BASELINK,FL_TO_BASELINK,FR_TO_BASELINK,1.7616664057788398,1.5510913424164174,1.0301708257440145,0.8106578714442803,0.5995306301618126,0.5990053007399347,0.3237612205737208,0.6019963767777741,0.0,0.0,0.0,0.0
342243000000,2398,342240000000,,BL_TO_BASELINK,BR_TO_BASELINK,FL_TO_BASELINK,FR_TO_BASELINK,1.773664922693074,1.5630864505204913,1.041149227318698,0.8221121389145187,0.599999999986621,0.600000000609294,0.6000000075109999,0.5999999906288727,0.0,0.0,0.0,0.0
342261000000,2399,342260000000,,BL_TO_BASELINK,BR_TO_BASELINK,FL_TO_BASELINK,FR_TO_BASELINK,1.7930823061173573,1.5807814796009625,1.051318300093894,0.8335780060632114,0.6636447529795144,0.6974013522179789,0.5972757940256677,0.598081411600621,0.0,0.0,0.0,0.0
342287000000,2400,342280000000,,BL_TO_BASELINK,BR_TO_BASELINK,FL_TO_BASELINK,FR_TO_BASELINK,1.8056372205387277,1.5945116248790852,1.0633022165411914,0.845566981654498,0.7159386930280934,0.7763309245372709,0.5963608023463872,0.5975504041156234,0.0,0.0,0.0,0.0
342301000000,2401,342300000000,,BL_TO_BASELINK,BR_TO_BASELINK,FL_TO_BASELINK,FR_TO_BASELINK,1.8189474793421692,1.6081133809880246,1.0752829865356812,0.8575539438472859,0.7368054283519815,0.7561363398470755,0.5979018278491951,0.5985870299902971,0.0,0.0,0.0,0.0
342320000000,2402,342320000000,,BL_TO_BASELINK,BR_TO_BASELINK,FL_TO_BASELINK,FR_TO_BASELINK,1.8323495062182644,1.621687489911551,1.0872627764935903,0.8695401741918669,0.7416419250320164,0.7586904690019919,0.5977727530794161,0.5984886498269089,0.0,0.0,0.0,0.0
342340000000,2403,342340000000,,BL_TO_BASELINK,BR_TO_BASELINK,FL_TO_BASELINK,FR_TO_BASELINK,1.8457712476235635,1.6352792083414105,1.099242118461805,0.8815261104121683,0.7418985838092578,0.7591435588001816,0.5979105005675779,0.5985866777771742,0.0,0.0,0.0,0.0
342360000000,2404,342360000000,,BL_TO_BASELINK,BR_TO_BASELINK,FL_TO_BASELINK,FR_TO_BASELINK,1.8591761764455939,1.6488550468311356,1.11122284523646,0.8935129751879449,0.7387580177272527,0.755786688740032,0.5981496513712741,0.5987394006041613,0.0,0.0,0.0,0.0
342380000000,2405,342380000000,,BL_TO_BASELINK,BR_TO_BASELINK,FL_TO_BASELINK,FR_TO_BASELINK,1.8717247426774275,1.6609526716827485,1.1226868393937295,0.9032372640251509,0.5999309844851608,0.5996890557483914,0.5994812536157331,0.5047357203024144,0.0,0.0,0.0,0.0
342400000000,2406,342400000000,,BL_TO_BASELINK,BR_TO_BASELINK,FL_TO_BASELINK,FR_TO_BASELINK,1.8837229952237458,1.6729454401607669,1.1328412898771303,0.9147811362383615,0.5999812451873102,0.599877755997063,0.5998151032608474,0.5544473956528191,0.0,0.0,0.0,0.0
342420000000,2407,342420000000,,BL_TO_BASELINK,BR_TO_BASELINK,FL_TO_BASELINK,FR_TO_BASELINK,1.8959987248665513,1.6852150838418627,1.143887947874414,0.9263174249944948,0.6000007587969113,0.5999991046541212,0.6000004756201479,0.6000003826698506,0.0,0.0,0.0,0.0
342440000000,2408,342440000000,,BL_TO_BASELINK,BR_TO_BASELINK,FL_TO_BASELINK,FR_TO_BASELINK,1.9089761502980949,1.6977116730548252,1.155875634977929,0.9379875418003127,0.686464198020793,0.5995520946608167,0.5995688328383282,0.5996926850038038,0.0,0.0,0.0,0.0
342460000000,2409,342460000000,,BL_TO_BASELINK,BR_TO_BASELINK,FL_TO_BASELINK,FR_TO_BASELINK,1.922158973884418,1.7099029361761904,1.1678636274666765,0.9489633054500688,0.6903808475664853,0.5995181893483225,0.5995387208561779,0.5996730837560973,0.0,0.0,0.0,0.0
342481000000,2410,342480000000,,BL_TO_BASELINK,BR_TO_BASELINK,FL_TO_BASELINK,FR_TO_BASELINK,1.9354613366689364,1.7218930078951544,1.179852080582739,0.9596974305551953,0.6956115555594555,0.5994840583804988,0.5995063932200034,0.5996484399719321,0.0,0.0,0.0,0.0
342511000000,2411,342500000000,,BL_TO_BASELINK,BR_TO_BASELINK,FL_TO_BASELINK,FR_TO_BASELINK,1.9487479134074732,1.7338830958897589,1.1918405230891214,0.9704196113142407,0.6956742572060494,0.5994786009226504,0.599501272804567,0.5996434362169027,0.0,0.0,0.0,0.0
342520000000,2412,342520000000,,BL_TO_BASELINK,BR_TO_BASELINK,FL_TO_BASELINK,FR_TO_BASELINK,1.961113845700897,1.7461934586943428,1.2036169026480898,0.9817892796311813,0.6000441662031986,0.6739194216353325,0.5996091089324993,0.5997288595869597,0.0,0.0,0.0,0.0
342541000000,2413,342540000000,,BL_TO_BASELINK,BR_TO_BASELINK,FL_TO_BASELINK,FR_TO_BASELINK,1.9731141458597001,1.7583327875872463,1.215305177761664,0.9937877968657798,0.5999999998465486,0.5999999903553559,0.6000000078190884,0.6000000006087537,0.0,0.0,0.0,0.0
342565000000,2414,342560000000,,BL_TO_BASELINK,BR_TO_BASELINK,FL_TO_BASELINK,FR_TO_BASELINK,1.9851143978683208,1.7704450390875177,1.2269614675730631,1.0057703251027146,0.5996178848666095,0.5738131258408381,0.5667398124947718,0.6016130852932393,0.0,0.0,0.0,0.0
342580000000,2415,342580000000,,BL_TO_BASELINK,BR_TO_BASELINK,FL_TO_BASELINK,FR_TO_BASELINK,1.9971146783379332,1.7826390751278751,1.238667843418055,1.0177688543941388,0.6000480300587152,0.6706100506369979,0.5995964224685781,0.5997084068067138,0.0,0.0,0.0,0.0
342600000000,2416,342600000000,,BL_TO_BASELINK,BR_TO_BASELINK,FL_TO_BASELINK,FR_TO_BASELINK,2.0091147196846855,1.7952191770793675,1.2498755946048732,1.0297470483143965,0.6000393021197048,0.6864271440507538,0.59960616904064,0.5997595396718419,0.0,0.0,0.0,0.0
342623000000,2417,342620000000,,BL_TO_BASELINK,BR_TO_BASELINK,FL_TO_BASELINK,FR_TO_BASELINK,2.021114708925815,1.808706834501871,1.2603876769595157,1.0417451482229296,0.600048436339266,0.6988927788707332,0.5995307805452313,0.5997051145744554,0.0,0.0,0.0,0.0
342640000000,2418,342640000000,,BL_TO_BASELINK,BR_TO_BASELINK,FL_TO_BASELINK,FR_TO_BASELINK,2.0331146224780134,1.822082961616342,1.2709702552410524,1.0537553597783553,0.6000811113990173,0.6934687122972736,0.5993509264831401,0.5995893222589306,0.0,0.0,0.0,0.0
342661000000,2419,342660000000,,BL_TO_BASELINK,BR_TO_BASELINK,FL_TO_BASELINK,FR_TO_BASELINK,2.0451147101616165,1.835403348937529,1.2815537433398756,1.0657530009666463,0.6000483289965216,0.6977008720880247,0.5995332622059143,0.5997088728964366,0.0,0.0,0.0,0.0
342683000000,2420,342680000000,,BL_TO_BASELINK,BR_TO_BASELINK,FL_TO_BASELINK,FR_TO_BASELINK,2.057114709462862,1.848896434164267,1.2920620992350873,1.0777510908743153,0.6000504927524752,0.7003180703948654,0.5995157079178646,0.5996975384250263,0.0,0.0,0.0,0.0
342700000000,2421,342700000000,,BL_TO_BASELINK,BR_TO_BASELINK,FL_TO_BASELINK,FR_TO_BASELINK,2.0691146829812066,1.862306907744113,1.3026250642858486,1.0897494192492312,0.5969161694660159,0.6989532547484162,0.5995332983381054,0.5996599648833844,0.0,0.0,0.0,0.0
342720000000,2422,342720000000,,BL_TO_BASELINK,BR_TO_BASELINK,FL_TO_BASELINK,FR_TO_BASELINK,2.0811143608413616,1.875687012468397,1.3133000934761387,1.1017490458843886,0.6000517224186452,0.6995807746424565,0.5995102614584487,0.5996927972418256,0.0,0.0,0.0,0.0
342740000000,2423,342740000000,,BL_TO_BASELINK,BR_TO_BASELINK,FL_TO_BASELINK,FR_TO_BASELINK,2.093114332415027,1.8890987532603383,1.3238330475776472,1.1137473732446868,0.5973048610266187,0.6953988970283161,0.5995390716249602,0.5996646968342043,0.0,0.0,0.0,0.0
342761000000,2424,342761000000,,BL_TO_BASELINK,BR_TO_BASELINK,FL_TO_BASELINK,FR_TO_BASELINK,2.105714166050447,1.903036901767564,1.334803855247607,1.1263463333029646,0.5999473981253461,0.5997994667458977,0.4998560383453387,0.6001916544016351,0.0,0.0,0.0,0.0
342780000000,2425,342780000000,,BL_TO_BASELINK,BR_TO_BASELINK,FL_TO_BASELINK,FR_TO_BASELINK,2.117114188092547,1.9157787962270962,1.3448918179460918,1.1377445903074692,0.5985704711227586,0.6960049441848728,0.5995668326974556,0.5996999284981175,0.0,0.0,0.0,0.0
342800000000,2426,342800000000,,BL_TO_BASELINK,BR_TO_BASELINK,FL_TO_BASELINK,FR_TO_BASELINK,2.1291939801310136,1.928734350936761,1.3557730429423334,1.1496646387470228,0.5999523042417585,0.5998133957899927,0.5196501907564646,0.6020070164539217,0.0,0.0,0.0,0.0
342820000000,2427,342820000000,,BL_TO_BASELINK,BR_TO_BASELINK,FL_TO_BASELINK,FR_TO_BASELINK,2.1412779697881668,1.9410928110700247,1.3674976688615663,1.1615589216865727,0.5999874475530877,0.5929242826149126,0.5722902802783745,0.5867151703420604,0.0,0.0,0.0,0.0
342842000000,2428,342840000000,,BL_TO_BASELINK,BR_TO_BASELINK,FL_TO_BASELINK,FR_TO_BASELINK,2.1533042397926465,1.953271964601253,1.3793994574391606,1.17361832105603,0.5998868490878465,0.5987018539560045,0.5994699539589318,0.596905379338487,0.0,0.0,0.0,0.0
342860000000,2429,342860000000,,BL_TO_BASELINK,BR_TO_BASELINK,FL_TO_BASELINK,FR_TO_BASELINK,2.1660402598492112,1.9653073591829155,1.391354368155529,1.184784498219705,0.6864766941471432,0.5995546892324806,0.5995713862679783,0.5996958448177054,0.0,0.0,0.0,0.0
342880000000,2430,342880000000,,BL_TO_BASELINK,BR_TO_BASELINK,FL_TO_BASELINK,FR_TO_BASELINK,2.179217674703253,1.9773755918920557,1.4033440569364508,1.1956619044086363,0.692678679181154,0.5995069081128445,0.5995281593504529,0.5996657725908875,0.0,0.0,0.0,0.0
342901000000,2431,342900000000,,BL_TO_BASELINK,BR_TO_BASELINK,FL_TO_BASELINK,FR_TO_BASELINK,2.1925007236877683,1.9893656785667204,1.4153325402006827,1.2063925050185373,0.6947909842806878,0.5994877519588486,0.5995106430669851,0.5996525356471736,0.0,0.0,0.0,0.0
342920000000,2432,342920000000,,BL_TO_BASELINK,BR_TO_BASELINK,FL_TO_BASELINK,FR_TO_BASELINK,2.205753571876155,2.0013560469712743,1.4273305824368077,1.2171847493715386,0.6946461416657245,0.599485546246708,0.5995080660280993,0.5996486253477905,0.0,0.0,0.0,0.0
342954000000,2433,342940000000,,BL_TO_BASELINK,BR_TO_BASELINK,FL_TO_BASELINK,FR_TO_BASELINK,2.2190203287799584,2.0133462092144043,1.4393191092729642,1.2279104563329373,0.6949806659674205,0.59947682833704,0.5995002157701526,0.5996420208493722,0.0,0.0,0.0,0.0
342954000000,2434,342960000000,,BL_TO_BASELINK,BR_TO_BASELINK,FL_TO_BASELINK,FR_TO_BASELINK,2.2313188838628193,2.0253711858217684,1.4510275520923281,1.2395364382759393,0.6000000041454929,0.6000000070564012,0.6000000474504834,0.5999999989624729,0.0,0.0,0.0,0.0
342954000000,2436,343000000000,,BL_TO_BASELINK,BR_TO_BASELINK,FL_TO_BASELINK,FR_TO_BASELINK,2.255359968282626,2.0497018570259975,1.4742237645515566,1.2634961944488152,0.6000174480160029,0.5869664735366588,0.5720529197564385,0.5999068705440377,0.0,0.0,0.0,0.0
342954000000,2437,343020000000,,BL_TO_BASELINK,BR_TO_BASELINK,FL_TO_BASELINK,FR_TO_BASELINK,2.267461317913341,2.0623214773824383,1.4854742824258,1.2754190898478655,0.5998824892996857,0.5995954017956796,0.5123913367018076,0.5209591292577211,0.0,0.0,0.0,0.0
342954000000,2438,343040000000,,BL_TO_BASELINK,BR_TO_BASELINK,FL_TO_BASELINK,FR_TO_BASELINK,2.2793740645435125,2.0753643688514813,1.4964849847502828,1.287375766713458,0.5999982036499502,0.6408091840048371,0.5994310267814891,0.6271454236937342,0.0,0.0,0.0,0.0
342954000000,2439,343060000000,,BL_TO_BASELINK,BR_TO_BASELINK,FL_TO_BASELINK,FR_TO_BASELINK,2.2914468684934306,2.087848221577696,1.5079395876265345,1.299274850227154,0.5999915684946863,0.6160805654089425,0.6005206690530857,0.6121685482947992,0.0,0.0,0.0,0.0
343092000000,2440,343080000000,,BL_TO_BASELINK,BR_TO_BASELINK,FL_TO_BASELINK,FR_TO_BASELINK,2.30348059877174,2.10021807688814,1.5196741154329496,1.3111629860607819,0.5999968225407126,0.6228622424404602,0.6007885029740958,0.6159054486478135,0.0,0.0,0.0,0.0
343092000000,2441,343100000000,,BL_TO_BASELINK,BR_TO_BASELINK,FL_TO_BASELINK,FR_TO_BASELINK,2.3154832118270754,2.1124412314378773,1.5315207385048009,1.3230489388493982,0.597688195379685,0.6003392003675186,0.5973565674109997,0.5841895383305002,0.0,0.0,0.0,0.0
343092000000,2442,343120000000,,BL_TO_BASELINK,BR_TO_BASELINK,FL_TO_BASELINK,FR_TO_BASELINK,2.32751124635751,2.124510772570247,1.5435192604195098,1.3350564278149388,0.6000000006870974,0.5999999982298525,0.5999999986538229,0.5999999985819543,0.0,0.0,0.0,0.0
343092000000,2443,343140000000,,BL_TO_BASELINK,BR_TO_BASELINK,FL_TO_BASELINK,FR_TO_BASELINK,2.3401175967357553,2.136841188046777,1.5551587180731303,1.3464164667263203,0.5999213422266959,0.5997174399860083,0.5607775625480309,0.5199512232497041,0.0,0.0,0.0,0.0
343161000000,2444,343160000000,,BL_TO_BASELINK,BR_TO_BASELINK,FL_TO_BASELINK,FR_TO_BASELINK,2.352706445373114,2.1489840410599506,1.5672073997412674,1.357885701590928,0.6000001587854017,0.6000000081829193,0.6000000006603858,0.5999999991386844,0.0,0.0,0.0,0.0
343179000000,2445,343180000000,,BL_TO_BASELINK,BR_TO_BASELINK,FL_TO_BASELINK,FR_TO_BASELINK,2.3649493182147943,2.160983584518867,1.5792065899429746,1.3697444327060593,0.6000000529818144,0.5999999997782806,0.6000000001679251,0.6000000055175598,0.0,0.0,0.0,0.0
343201000000,2446,343200000000,,BL_TO_BASELINK,BR_TO_BASELINK,FL_TO_BASELINK,FR_TO_BASELINK,2.3772899070441547,2.1729858721792787,1.5912083993597257,1.381610966810939,0.6218886413218847,0.6006372426729457,0.6006397147503836,0.6195562492176521,0.0,0.0,0.0,0.0
343234000000,2447,343220000000,,BL_TO_BASELINK,BR_TO_BASELINK,FL_TO_BASELINK,FR_TO_BASELINK,2.389425631176014,2.1849890548598196,1.6032091015062235,1.3935404205633652,0.6195472240620162,0.5998503100883218,0.5998524489951855,0.599898489070862,0.0,0.0,0.0,0.0
343244000000,2448,343240000000,,BL_TO_BASELINK,BR_TO_BASELINK,FL_TO_BASELINK,FR_TO_BASELINK,2.4015878792381855,2.1969926442511962,1.615210537158327,1.4053901985989077,0.6199073203295702,0.5996961887927155,0.5997635075041354,0.6165638868404009,0.0,0.0,0.0,0.0
343261000000,2449,343260000000,,BL_TO_BASELINK,BR_TO_BASELINK,FL_TO_BASELINK,FR_TO_BASELINK,2.4137932271478153,2.2089589889091386,1.6272083072615144,1.417197797402216,0.5999835908972687,0.5998712082317693,0.5998202351834878,0.5402720725650091,0.0,0.0,0.0,0.0
343328000000,2450,343280000000,,BL_TO_BASELINK,BR_TO_BASELINK,FL_TO_BASELINK,FR_TO_BASELINK,2.4260958009080102,2.2209630582631235,1.6392119464193051,1.4290890969032422,0.6000000367895939,0.5999999989665042,0.5999999994085373,0.6000000089952755,0.0,0.0,0.0,0.0
343328000000,2451,343300000000,,BL_TO_BASELINK,BR_TO_BASELINK,FL_TO_BASELINK,FR_TO_BASELINK,2.438326060541609,2.2330818329789395,1.6511243650493999,1.4410247857115985,0.6000118873927618,0.6185333022383841,0.5998838449599101,0.5999255784713133,0.0,0.0,0.0,0.0
343328000000,2452,343320000000,,BL_TO_BASELINK,BR_TO_BASELINK,FL_TO_BASELINK,FR_TO_BASELINK,2.4503259936571986,2.2451282960007397,1.662956140056477,1.4529845354023045,0.5999649234471481,0.5867740619884435,0.5846117355435074,0.600169652028158,0.0,0.0,0.0,0.0
343343000000,2453,343340000000,,BL_TO_BASELINK,BR_TO_BASELINK,FL_TO_BASELINK,FR_TO_BASELINK,2.4623260241188873,2.2572540492436186,1.6748234915255615,1.4649843999718835,0.5999904770806541,0.5871651535889345,0.5801522260330266,0.6000889985427584,0.0,0.0,0.0,0.0
343361000000,2454,343360000000,,BL_TO_BASELINK,BR_TO_BASELINK,FL_TO_BASELINK,FR_TO_BASELINK,2.474326003547903,2.2693860246427953,1.6866988161029095,1.476984507178459,0.5999880464316578,0.5869477553017498,0.5805110562560052,0.6001024377922701,0.0,0.0,0.0,0.0
343382000000,2455,343380000000,,BL_TO_BASELINK,BR_TO_BASELINK,FL_TO_BASELINK,FR_TO_BASELINK,2.4863307142269253,2.2814936634024896,1.6986276743551354,1.4889830866053995,0.5999684078594049,0.5816670864763638,0.5796431856060216,0.6001833810962182,0.0,0.0,0.0,0.0
343404000000,2456,343400000000,,BL_TO_BASELINK,BR_TO_BASELINK,FL_TO_BASELINK,FR_TO_BASELINK,2.498471813158755,2.293616465678044,1.7103656074173017,1.5009342643089925,0.6000000000349682,0.6000000028861753,0.5999999813211033,0.6000000183870305,0.0,0.0,0.0,0.0
343421000000,2457,343420000000,,BL_TO_BASELINK,BR_TO_BASELINK,FL_TO_BASELINK,FR_TO_BASELINK,2.510513525909797,2.3056223615884157,1.7221902381580367,1.5129170437690815,0.5848673033534412,0.5869101058056522,0.5814965270265339,0.5848332169218675,0.0,0.0,0.0,0.0
343440000000,2458,343440000000,,BL_TO_BASELINK,BR_TO_BASELINK,FL_TO_BASELINK,FR_TO_BASELINK,2.522568968998911,2.317700327792142,1.7341426449159947,1.5248006830433907,0.6000135941940209,0.6115989245071297,0.599904429953235,0.5999185713069634,0.0,0.0,0.0,0.0
343460000000,2459,343460000000,,BL_TO_BASELINK,BR_TO_BASELINK,FL_TO_BASELINK,FR_TO_BASELINK,2.5346385569193544,2.3296187453721657,1.7460571114186187,1.5367108360243256,0.5999989869505821,0.5895042473151269,0.600707919066541,0.5899628666698284,0.0,0.0,0.0,0.0
343481000000,2460,343480000000,,BL_TO_BASELINK,BR_TO_BASELINK,FL_TO_BASELINK,FR_TO_BASELINK,2.5467833040633447,2.3416232950922087,1.7580753033371597,1.5486646335736278,0.6014692734497696,0.6001764421364404,0.6005954181327701,0.5902169776915046,0.0,0.0,0.0,0.0
343500000000,2461,343500000000,,BL_TO_BASELINK,BR_TO_BASELINK,FL_TO_BASELINK,FR_TO_BASELINK,2.558778949926655,2.353647999972864,1.7700523830968677,1.5606403706248146,0.592693929694483,0.600623094021414,0.6005632357949945,0.5940030318778335,0.0,0.0,0.0,0.0
343520000000,2462,343520000000,,BL_TO_BASELINK,BR_TO_BASELINK,FL_TO_BASELINK,FR_TO_BASELINK,2.5709825038471372,2.3657491963751394,1.7820538068071272,1.5724659013094993,0.5999999994212143,0.5999999999982525,0.6000000002015689,0.5999999952184553,0.0,0.0,0.0,0.0
343542000000,2463,343540000000,,BL_TO_BASELINK,BR_TO_BASELINK,FL_TO_BASELINK,FR_TO_BASELINK,2.583080483140666,2.3777516734822086,1.7940491899933182,1.5844228233073983,0.6830143448633769,0.5995231531913852,0.599557307262864,0.599702740705564,0.0,0.0,0.0,0.0
343564000000,2464,343560000000,,BL_TO_BASELINK,BR_TO_BASELINK,FL_TO_BASELINK,FR_TO_BASELINK,2.5954997382929346,2.389695524555231,1.8060231601207164,1.595880103271595,0.6000001104920021,0.5999999903494292,0.599999966584342,0.599999887546476,0.0,0.0,0.0,0.0
343580000000,2465,343580000000,,BL_TO_BASELINK,BR_TO_BASELINK,FL_TO_BASELINK,FR_TO_BASELINK,2.607985241512667,2.4016936727125877,1.81801844821719,1.6073159650106907,0.5999454601758281,0.5998151142381383,0.5996645399099668,0.5192401569450544,0.0,0.0,0.0,0.0
343599000000,2466,343600000000,,BL_TO_BASELINK,BR_TO_BASELINK,FL_TO_BASELINK,FR_TO_BASELINK,2.620918611675773,2.4136649087923843,1.830010570555281,1.6184718160985678,0.6000004538181909,0.60000000085473,0.5999999980439364,0.5999997505608357,0.0,0.0,0.0,0.0
343620000000,2467,343620000000,,BL_TO_BASELINK,BR_TO_BASELINK,FL_TO_BASELINK,FR_TO_BASELINK,2.633234551019642,2.4256634504724452,1.8420088080686536,1.6302376985578757,0.5961692733644787,0.5999132825753837,0.5998847019128873,0.5844406280490341,0.0,0.0,0.0,0.0
343640000000,2468,343640000000,,BL_TO_BASELINK,BR_TO_BASELINK,FL_TO_BASELINK,FR_TO_BASELINK,2.6454968113505366,2.4376755502301144,1.854020554133541,1.6420878548927762,0.5999623204694395,0.5998638536101637,0.5997561200281165,0.5389893757732753,0.0,0.0,0.0,0.0
343660000000,2469,343660000000,,BL_TO_BASELINK,BR_TO_BASELINK,FL_TO_BASELINK,FR_TO_BASELINK,2.657680147600857,2.449679830786202,1.866021694046509,1.6540445480279367,0.6000000157193964,0.599999999715851,0.5999999997603557,0.5999999989447965,0.0,0.0,0.0,0.0
343680000000,2470,343680000000,,BL_TO_BASELINK,BR_TO_BASELINK,FL_TO_BASELINK,FR_TO_BASELINK,2.669793333251441,2.461713717863102,1.8780271740582926,1.665935835994322,0.592850043833433,0.6000953228587965,0.6000500965903376,0.5880861302344502,0.0,0.0,0.0,0.0
343703000000,2471,343700000000,,BL_TO_BASELINK,BR_TO_BASELINK,FL_TO_BASELINK,FR_TO_BASELINK,2.6821220092340816,2.473720436411906,1.8900294413825645,1.6777791426255648,0.6272286256340805,0.5986401275390856,0.5990033883372484,0.6216421372557424,0.0,0.0,0.0,0.0
343724000000,2472,343720000000,,BL_TO_BASELINK,BR_TO_BASELINK,FL_TO_BASELINK,FR_TO_BASELINK,2.6942836111124056,2.4857104136959833,1.9020295879800848,1.6896787232639863,0.5990017949106667,0.5961017948037052,0.5993659974778206,0.5946764689903424,0.0,0.0,0.0,0.0
343741000000,2473,343740000000,,BL_TO_BASELINK,BR_TO_BASELINK,FL_TO_BASELINK,FR_TO_BASELINK,2.706402709121276,2.4978499710925206,1.9138287778047847,1.7016602000793455,0.5999891737178362,0.5999564876753708,0.5772158082715211,0.6000377051966722,0.0,0.0,0.0,0.0
343762000000,2474,343760000000,,BL_TO_BASELINK,BR_TO_BASELINK,FL_TO_BASELINK,FR_TO_BASELINK,2.718402606089054,2.5099758409762565,1.9256238963212695,1.7135911168400755,0.600012122746541,0.6198297668671373,0.6094805099086779,0.5999292832818784,0.0,0.0,0.0,0.0
343780000000,2475,343780000000,,BL_TO_BASELINK,BR_TO_BASELINK,FL_TO_BASELINK,FR_TO_BASELINK,2.730402612999221,2.522112551710862,1.9374756981050076,1.7255910776673513,0.6000091071043034,0.6195853637558325,0.6132435751474345,0.5999404905112061,0.0,0.0,0.0,0.0
343798000000,2476,343800000000,,BL_TO_BASELINK,BR_TO_BASELINK,FL_TO_BASELINK,FR_TO_BASELINK,2.742402586385438,2.5342449328418777,1.9493533791407884,1.73759121517549,0.6000065638700446,0.6190969976393871,0.6141773291304377,0.5999523453650502,0.0,0.0,0.0,0.0
343820000000,2477,343820000000,,BL_TO_BASELINK,BR_TO_BASELINK,FL_TO_BASELINK,FR_TO_BASELINK,2.7545524816634526,2.546456472177292,1.9613167689081514,1.7495902104248753,0.6000147716454801,0.6101695382356164,0.599882476507222,0.5999060230964973,0.0,0.0,0.0,0.0
343840000000,2478,343840000000,,BL_TO_BASELINK,BR_TO_BASELINK,FL_TO_BASELINK,FR_TO_BASELINK,2.766549002904515,2.558461103163186,1.9732207130705977,1.7613265060998753,0.6196478720418079,0.6000760990028488,0.6001118416328787,0.6087652792978401,0.0,0.0,0.0,0.0
343860000000,2479,343860000000,,BL_TO_BASELINK,BR_TO_BASELINK,FL_TO_BASELINK,FR_TO_BASELINK,2.778698466905327,2.5704608627411716,1.9852148261328075,1.7731565780484857,0.5859012661641965,0.5999709371613275,0.5999539799060235,0.5753491755798,0.0,0.0,0.0,0.0
343880000000,2480,343880000000,,BL_TO_BASELINK,BR_TO_BASELINK,FL_TO_BASELINK,FR_TO_BASELINK,2.7907957047326075,2.582463070197333,1.9972152782457862,1.7849826528675763,0.5999999775187134,0.5999999999391459,0.5999999950765468,0.600000033818065,0.0,0.0,0.0,0.0
343903000000,2481,343900000000,,BL_TO_BASELINK,BR_TO_BASELINK,FL_TO_BASELINK,FR_TO_BASELINK,2.802917838797992,2.5944646900636243,2.0092177085488956,1.7967975135958696,0.5912019750428578,0.6006736774390564,0.6005918325530984,0.5878065785742659,0.0,0.0,0.0,0.0
343920000000,2482,343920000000,,BL_TO_BASELINK,BR_TO_BASELINK,FL_TO_BASELINK,FR_TO_BASELINK,2.8149517927680865,2.606466505754698,2.0212001886118536,1.8087567094306536,0.5857280186446454,0.5998618467129676,0.5998591758760943,0.5834415010266027,0.0,0.0,0.0,0.0
343941000000,2483,343940000000,,BL_TO_BASELINK,BR_TO_BASELINK,FL_TO_BASELINK,FR_TO_BASELINK,2.827015396153868,2.618467687505021,2.0331993882713704,1.820649537332379,0.6000000033158553,0.6000000000879248,0.6000000020618576,0.5999999882367472,0.0,0.0,0.0,0.0
343960000000,2484,343960000000,,BL_TO_BASELINK,BR_TO_BASELINK,FL_TO_BASELINK,FR_TO_BASELINK,2.839277737138392,2.6305540207088054,2.0451821910756447,1.8323714789300656,0.615469523209359,0.5996835922625867,0.6102081459307632,0.5997231088049633,0.0,0.0,0.0,0.0
343981000000,2485,343980000000,,BL_TO_BASELINK,BR_TO_BASELINK,FL_TO_BASELINK,FR_TO_BASELINK,2.851349156958113,2.642554414208682,2.0571801318641914,1.8441266306251087,0.5999496296971055,0.5998099451616552,0.5996734517865651,0.5183059043791775,0.0,0.0,0.0,0.0
344000000000,2486,344000000000,,BL_TO_BASELINK,BR_TO_BASELINK,FL_TO_BASELINK,FR_TO_BASELINK,2.864644731443599,2.6545409680929275,2.0691662311838073,1.854800121938844,0.5999466325128792,0.5997753409589615,0.5996262195031336,0.5014356743708028,0.0,0.0,0.0,0.0
344020000000,2487,344020000000,,BL_TO_BASELINK,BR_TO_BASELINK,FL_TO_BASELINK,FR_TO_BASELINK,2.8780652836044887,2.6665300463025314,2.0811534092850366,1.8652700491973597,0.5999481206340064,0.5997598129593998,0.599613326835981,0.4936517921620264,0.0,0.0,0.0,0.0
344040000000,2488,344040000000,,BL_TO_BASELINK,BR_TO_BASELINK,FL_TO_BASELINK,FR_TO_BASELINK,2.8909216055014078,2.6785339998526325,2.093151750743168,1.8762080673836632,0.5999510200158066,0.599769785773998,0.5996338459612759,0.498231798538495,0.0,0.0,0.0,0.0
344061000000,2489,344060000000,,BL_TO_BASELINK,BR_TO_BASELINK,FL_TO_BASELINK,FR_TO_BASELINK,2.90335161633298,2.6905333435972416,2.105150762634935,1.8880327096968372,0.6000000371540369,0.5999999999277439,0.6000000001719752,0.5999999973776975,0.0,0.0,0.0,0.0
344080000000,2490,344080000000,,BL_TO_BASELINK,BR_TO_BASELINK,FL_TO_BASELINK,FR_TO_BASELINK,2.9155924057755644,2.7025367169512844,2.1171521245835994,1.8999574602478244,0.6640921505268146,0.599592881743855,0.5996276203545625,0.5997503609749308,0.0,0.0,0.0,0.0
344100000000,2491,344100000000,,BL_TO_BASELINK,BR_TO_BASELINK,FL_TO_BASELINK,FR_TO_BASELINK,2.9278064662004013,2.7145356656758697,2.1291515218121546,1.9117823218225816,0.6243598832611675,0.5990747541534669,0.5994748444098763,0.6210457702358271,0.0,0.0,0.0,0.0
344120000000,2492,344120000000,,BL_TO_BASELINK,BR_TO_BASELINK,FL_TO_BASELINK,FR_TO_BASELINK,2.939921866498718,2.726553559474098,2.141149064105365,1.923700585155208,0.6000000149280674,0.5999999984599168,0.5999999997254664,0.6000000036017492,0.0,0.0,0.0,0.0
344140000000,2493,344140000000,,BL_TO_BASELINK,BR_TO_BASELINK,FL_TO_BASELINK,FR_TO_BASELINK,2.952075949684893,2.7385553389085207,2.153151331692367,1.9355185897236034,0.5969259107954202,0.6023231687598426,0.6003357326866974,0.5926446860227117,0.0,0.0,0.0,0.0
344160000000,2494,344160000000,,BL_TO_BASELINK,BR_TO_BASELINK,FL_TO_BASELINK,FR_TO_BASELINK,2.9643076642968893,2.7506849805206652,2.1651534053760777,1.9473541486897972,0.6000307718243854,0.652980406815432,0.5996946214004625,0.5998071662135768,0.0,0.0,0.0,0.0
