%time,field.header.seq,field.header.stamp,field.header.frame_id,field.wrench.force.x,field.wrench.force.y,field.wrench.force.z,field.wrench.torque.x,field.wrench.torque.y,field.wrench.torque.z
339549000000,47,339545000000,FR_wheel_link,-0.10437299034388563,0.574336363436609,-1.0609486623334639,0.009607786695461713,0.006335452165404727,0.0037606914894399864
339549000000,48,339546000000,FR_wheel_link,0.02771215244840775,-0.00874227801643973,-0.06515629925126573,0.0007222852900028007,0.0006279371918082097,0.00022893296380656616
339549000000,49,339547000000,FR_wheel_link,0.10493015197690486,0.4257097069592783,-1.3407347466180417,-0.009847714485731261,-0.006692934519084391,-0.0038243530375588115
339549000000,50,339548000000,FR_wheel_link,-0.028196690075802937,0.04861438587248422,-0.036999226812871745,-0.00043154156418033675,-0.00032017895078028296,-0.00019399969005199475
339549000000,51,339549000000,FR_wheel_link,-0.10438069811436833,0.5743370144071771,-1.0609745972355642,0.009607725253163668,0.006335968998823109,0.0037607925263737473
339549000000,52,339550000000,FR_wheel_link,0.027708704845328273,-0.008739602425662907,-0.06514563281238323,0.0007222614527486348,0.0006278608369825914,0.0002289159642280457
339549000000,53,339551000000,FR_wheel_link,0.10492017013043685,0.4257135879531445,-1.3407556349911596,-0.00984816766682164,-0.006693046582413449,-0.0038240731426367447
339549000000,54,339552000000,FR_wheel_link,-0.02818606661554088,0.048605997819833366,-0.03698626265662221,-0.0004313175021141163,-0.0003201980217313579,-0.00019419008971926713
339549000000,55,339553000000,FR_wheel_link,-0.10438823623524944,0.5743383687541077,-1.0609987017714795,0.009607689594788176,0.00633645954140162,0.0037609021544603655
339549000000,56,339554000000,FR_wheel_link,0.027705303128163324,-0.008737221455264869,-0.06513577307833368,0.0007222263338916462,0.0006277926604371854,0.0002288938677573524
339549000000,57,339555000000,FR_wheel_link,0.10491151583561258,0.4257171024612771,-1.3407746346258116,-0.009848592187943815,-0.006693175305206556,-0.0038238279675413826
339549000000,58,339556000000,FR_wheel_link,-0.028175904248306988,0.048597707994419724,-0.03697386648063549,-0.00043110500107467153,-0.0003202131550562448,-0.00019436714794869445
339549000000,59,339557000000,FR_wheel_link,-0.10439560489487537,0.5743404221145572,-1.0610209861921196,0.009607679574215041,0.006336923937460832,0.003761020319985955
339549000000,60,339558000000,FR_wheel_link,0.027701947043223547,-0.008735133417446563,-0.06512671550165881,0.0007221799993551621,0.0006277326163409708,0.00022886670427215317
339549000000,61,339559000000,FR_wheel_link,0.10490418220386322,0.4257202524988848,-1.340791755839699,-0.009848988201990937,-0.006693320594523912,-0.00382361731956734
339559000000,62,339560000000,FR_wheel_link,-0.028166200313577024,0.04858951568109851,-0.036962035124824176,-0.00043090399832669985,-0.0003202243731953939,-0.000194530939448739
339559000000,63,339561000000,FR_wheel_link,-0.10440280438871323,0.5743431708338339,-1.06104145980786,0.009607695065092917,0.006337362319111777,0.003761146977540812
339561000000,64,339562000000,FR_wheel_link,0.0276986363069426,-0.008733336808913236,-0.06511845596240447,0.0007221225048952724,0.0006276806631408746,0.00022883449946442972
339561000000,65,339563000000,FR_wheel_link,0.10489816305113314,0.42572303997526545,-1.3408070078844396,-0.009849355846004455,-0.0066934823675852025,-0.003823441027945609
339561000000,66,339564000000,FR_wheel_link,-0.028156952513803676,0.04858142029082391,-0.036950765792700166,-0.0004307144377531057,-0.0003202316952429435,-0.00019468152940534263
339566000000,67,339565000000,FR_wheel_link,-0.10440983505354276,0.574346611740358,-1.0610601307379393,0.009607735952970148,0.006337774801357677,0.0037612820873956596
339566000000,68,339566000000,FR_wheel_link,0.027695370608953437,-0.00873183026895663,-0.06511099081154194,0.0007220539017159876,0.0006276367663065356,0.00022879727638027274
339566000000,69,339567000000,FR_wheel_link,0.10489345295191564,0.42572546669547906,-1.3408203990067362,-0.009849695242687742,-0.006693660553371766,-0.003823298945131989
339566000000,70,339568000000,FR_wheel_link,-0.028148158925380376,0.04857342138116863,-0.03694005598076405,-0.00043053626749377477,-0.00032023513603445094,-0.00019481897308021268
339566000000,71,339569000000,FR_wheel_link,-0.10441669718583169,0.5743507420774339,-1.0610770058332846,0.009607802135570508,0.00633816148125654,0.0037614256145458414
339566000000,72,339570000000,FR_wheel_link,0.0276921496037965,-0.008730612546448257,-0.06510431684644256,0.0007219742370485926,0.0006276008985680982,0.00022875505547572512
339566000000,73,339571000000,FR_wheel_link,0.10489004729170935,0.4257275343128549,-1.3408319364838124,-0.009850006500087211,-0.006693855092993466,-0.0038231909463113476
339566000000,74,339572000000,FR_wheel_link,-0.028139817999213,0.04856551866788515,-0.03692990348032705,-0.00043036944000561826,-0.00032023470635428856,-0.0001949433162181302
339566000000,75,339573000000,FR_wheel_link,-0.10442339095707781,0.5743555594214793,-1.0610920906766539,0.009607893522898286,0.00633852243732147,0.003761577528102132
339574000000,76,339574000000,FR_wheel_link,0.027688972959362807,-0.00872968253222972,-0.06509843136706232,0.0007218835542578861,0.0006275730394958088,0.00022870785485038333
339575000000,77,339575000000,FR_wheel_link,0.10488794228678773,0.4257292442877235,-1.3408416265236485,-0.009850289710387204,-0.006694065938735729,-0.003823116928775056
339577000000,78,339576000000,FR_wheel_link,-0.028131928472386755,0.0485577119142362,-0.03692030639665131,-0.00043021391379697844,-0.00032023041393661173,-0.00019505459571601266
339577000000,79,339577000000,FR_wheel_link,-0.10442991643557337,0.5743610617887549,-1.0611053896986509,0.009608010040742715,0.006338857732075567,0.003761737802189417
339577000000,80,339578000000,FR_wheel_link,0.027685840370605525,-0.008729039296769407,-0.06509333216117567,0.0007217818897705304,0.0006275531735672624,0.00022865568946475897
339579000000,81,339579000000,FR_wheel_link,0.10488713496775387,0.4257305978597749,-1.3408494741852726,-0.009850544948390787,-0.006694293053292127,-0.003823076811121724
339579000000,82,339580000000,FR_wheel_link,-0.028124489380500682,0.048550000973868024,-0.036911263172512976,-0.0004300696540131294,-0.00032022226388248997,-0.0001951528403174944
339580000000,83,339581000000,FR_wheel_link,-0.10443627356076315,0.574367247584148,-1.061116906168219,0.009608151629835514,0.006339167411076758,0.0037619064159258976
339581000000,84,339582000000,FR_wheel_link,0.02768275152478444,-0.008728682049525791,-0.06508901745245861,0.0007216692744606358,0.0006275412909941951,0.0002285985715169844
339581000000,85,339583000000,FR_wheel_link,0.1048876232090651,0.4257315960476255,-1.340855483454194,-0.009850772272373628,-0.006694536410420853,-0.0038230705336278134
339581000000,86,339584000000,FR_wheel_link,-0.02811750004226491,0.04854238575631959,-0.03690277257246344,-0.00042993663208384974,-0.00032021025838126725,-0.0001952380699916356
339581000000,87,339585000000,FR_wheel_link,-0.1044424621421776,0.5743741156101665,-1.06112664222634,0.009608318246213348,0.00633945150372429,0.0037620833532588803
339584000000,88,339586000000,FR_wheel_link,0.02767970622844166,-0.00872861022832547,-0.06508548609024085,0.0007215457314650827,0.0006275373862986211,0.0002285365099331609
339584000000,89,339587000000,FR_wheel_link,0.10488940565412563,0.42573223961648643,-1.3408596569878202,-0.009850971721262673,-0.006694795992253668,-0.003823098056779654
339584000000,90,339588000000,FR_wheel_link,-0.02811096005335119,0.04853486624278571,-0.036894833776112884,-0.00042981482818428644,-0.0003201943982052433,-0.00019531029749558047
339584000000,91,339589000000,FR_wheel_link,-0.10444848190189117,0.5743816651507507,-1.0611345989165977,0.009608509863189656,0.006339710024159489,0.0037622686039337247
339590000000,92,339590000000,FR_wheel_link,0.02767670424710292,-0.008728823418517734,-0.06508273728962348,0.000721411276955993,0.0006275414588366272,0.00022846951049041754
339591000000,93,339591000000,FR_wheel_link,0.10489248179141278,0.4257325291340703,-1.3408619964027988,-0.00985114331747437,-0.006695071792279899,-0.0038231593627404627
339593000000,94,339592000000,FR_wheel_link,-0.02810486931176887,0.04852744250432515,-0.03688744627570665,-0.0004297042283290835,-0.00032017468093304725,-0.00019536952670542933
339593000000,95,339593000000,FR_wheel_link,-0.10445433241138864,0.574389895821977,-1.0611407760854326,0.009608726467691316,0.0063399429691239515,0.0037624621617995393
339594000000,96,339594000000,FR_wheel_link,0.0276737454484001,-0.008729321403305517,-0.0650807708944763,0.0007212659210521559,0.0006275535135414269,0.00022839757605079957
339595000000,97,339595000000,FR_wheel_link,0.1048968518913133,0.4257324649213752,-1.3408625020651659,-0.009851287065516846,-0.006695363813036849,-0.0038232544543916414
339596000000,98,339596000000,FR_wheel_link,-0.028099227987633486,0.048520114659364774,-0.03688060994514381,-0.00042960482645990555,-0.0003201511022624262,-0.00019541575371041962
339597000000,99,339597000000,FR_wheel_link,-0.10446001316688229,0.574398807748159,-1.0611451725348044,0.009608968063874873,0.006340150320527779,0.0037626640269103136
339598000000,100,339598000000,FR_wheel_link,0.02767082970077722,-0.008730104139586104,-0.0650795871564328,0.0007211096660032627,0.0006275735593986475,0.00022832070619737137
339599000000,101,339599000000,FR_wheel_link,0.10490251704325464,0.425732047077929,-1.3408611731927629,-0.009851402951900885,-0.006695672067390307,-0.0038233833557992695
339599000000,102,339600000000,FR_wheel_link,-0.028094036528266482,0.048512882899979806,-0.036874325002666554,-0.0004295166235660802,-0.00032012365550244124,-0.00019544896664243808
339599000000,103,339601000000,FR_wheel_link,-0.10446552354112658,0.574408401427923,-1.0611477859000396,0.009609234670671929,0.006340332043503313,0.003762874204029771
339599000000,104,339602000000,FR_wheel_link,0.027667956896350963,-0.008731171746274182,-0.06507918683678211,0.0007209425081872463,0.0006276016110944642,0.0002282388976219447
339602000000,105,339603000000,FR_wheel_link,0.1049094791507177,0.42573127549460926,-1.340858007872893,-0.009851490946179934,-0.006695996578448483,-0.003823546112240141
339604000000,106,339604000000,FR_wheel_link,-0.02808929568752634,0.04850574750091858,-0.036868592017357434,-0.0004294396273382294,-0.0003200923312387254,-0.00019546914506342124
339604000000,107,339605000000,FR_wheel_link,-0.10447086277382765,0.5744186777717035,-1.0611486126603367,0.009609526322485252,0.006340488086990772,0.003763092702606915
339606000000,108,339606000000,FR_wheel_link,0.027665126998507587,-0.008732524542437888,-0.06507957123827725,0.0007207644368001928,0.0006276376880395019,0.00022815214382051091
339607000000,109,339607000000,FR_wheel_link,0.10491774091574146,0.42573014982410706,-1.3408530030004413,-0.009851551000251682,-0.006696337379138789,-0.003823742789996141
339608000000,110,339608000000,FR_wheel_link,-0.028085006492493063,0.04849870879621315,-0.036863411911964884,-0.00042937385273815725,-0.0003200571178010331,-0.0001954762605221986
339609000000,111,339609000000,FR_wheel_link,-0.10447603002081725,0.5744296381371677,-1.0611476482029607,0.009609843069611058,0.006340618384009639,0.003763319537887976
339610000000,112,339610000000,FR_wheel_link,0.027662339982495076,-0.00873416301163304,-0.0650807421287257,0.0007205754342596449,0.0006276818145852367,0.0002280604352630205
339611000000,113,339611000000,FR_wheel_link,0.10492730585609657,0.42572866949615623,-1.3408461542923975,-0.009851583048087835,-0.006696694512344427,-0.003823973476557662
339612000000,114,339612000000,FR_wheel_link,-0.02808117027866124,0.048491767228524434,-0.036858785981109254,-0.0004293193218476929,-0.00032001800109896514,-0.0001954702764073238
339612000000,115,339613000000,FR_wheel_link,-0.10448102429600221,0.5744412842672295,-1.0611448867291653,0.00961018497761911,0.006340722850906139,0.0037635547295978926
339614000000,116,339614000000,FR_wheel_link,0.027659595870177522,-0.008736087822740393,-0.06508270179882247,0.0007203754764312108,0.0006277340203162718,0.0002279637593446485
339615000000,117,339615000000,FR_wheel_link,0.10493817830761079,0.4257268337209173,-1.3408374563259262,-0.009851587006512017,-0.006697068031323029,-0.0038242382807075798
339624000000,118,339616000000,FR_wheel_link,-0.028077788643119387,0.04848492326224568,-0.036854715848515636,-0.0004292760637819426,-0.0003199749645532326,-0.00019545114781036786
339624000000,119,339617000000,FR_wheel_link,-0.10448584452369562,0.5744536183653872,-1.0611403213525,0.009610552128104095,0.006340801388317233,0.003763798303247497
339624000000,120,339618000000,FR_wheel_link,0.027656894704423358,-0.008738299814082442,-0.06508545301119208,0.0007201645320537465,0.000627794339574547,0.00022786210036376806
339624000000,121,339619000000,FR_wheel_link,0.10495036342010974,0.4257246414857457,-1.3408269024797599,-0.009851562774126599,-0.006697457999235633,-0.003824537332485099
339624000000,122,339620000000,FR_wheel_link,-0.028074863494623858,0.04847817746975476,-0.03685120351933704,-0.0004292441148938331,-0.00031992798919638427,-0.00019541882163436413
339624000000,123,339621000000,FR_wheel_link,-0.10449048949095052,0.5744666430257817,-1.0611339439939846,0.009610944617785663,0.006340853879887756,0.0037640502889607296
339624000000,124,339622000000,FR_wheel_link,0.02765423658314826,-0.00874080001152689,-0.06508899907103508,0.0007199425633883678,0.0006278628120294619,0.00022775543949824962
339624000000,125,339623000000,FR_wheel_link,0.10496386716126563,0.42572209154078555,-1.3408144849540098,-0.009851510232024385,-0.006697864489437775,-0.00382487078324021
339624000000,126,339624000000,FR_wheel_link,-0.028072397024293726,0.04847153049558487,-0.036848251347339864,-0.0004292235186170009,-0.0003198770535753492,-0.00019537323650014582
339625000000,127,339625000000,FR_wheel_link,-0.1044949578797763,0.5744803612824518,-1.0611257454393046,0.0096113625595848,0.006340880193150019,0.0037643107222699503
339626000000,128,339626000000,FR_wheel_link,0.02765162161104466,-0.00874358960985509,-0.06509334374694863,0.0007197095258916969,0.0006279394825038577,0.00022764375487158207
339627000000,129,339627000000,FR_wheel_link,0.1049786963357777,0.4257191824291533,-1.3408001948116153,-0.00985142924398621,-0.006698287585877192,-0.0038252388061084915
339628000000,130,339628000000,FR_wheel_link,-0.028070391723413548,0.04846498304596908,-0.036845862031547195,-0.0004292143251365919,-0.0003198221335099734,-0.00019531432249295655
339632000000,131,339629000000,FR_wheel_link,-0.1044992482403119,0.5744947765772095,-1.0611157153061033,0.00961180608199732,0.006340880178974418,0.003764579643658104
339632000000,132,339630000000,FR_wheel_link,0.02764904997857508,-0.008746670005946805,-0.06509849138296499,0.0007194653676646662,0.0006280244005634195,0.00022752702139092643
339632000000,133,339631000000,FR_wheel_link,0.10499485854921094,0.4257159124414721,-1.3407840218449973,-0.00985131965472621,-0.006698727381971668,-0.003825641595266666
339632000000,134,339632000000,FR_wheel_link,-0.028068850371055568,0.04845853591676906,-0.036844038667613925,-0.00042921659275368214,-0.0003197632028091458,-0.00019524200163438277
339632000000,135,339633000000,FR_wheel_link,-0.1045033590242848,0.5745098927991886,-1.0611038420618142,0.009612275329431003,0.006340853671656006,0.0037648570991998614
339632000000,136,339634000000,FR_wheel_link,0.02764652186254095,-0.008750042751063681,-0.06510444677177744,0.0007192100305543025,0.0006281176213706704,0.00022740521091502811
339632000000,137,339635000000,FR_wheel_link,0.10501236226845306,0.42571227966569525,-1.3407659547249091,-0.009851181292053326,-0.006699183982209651,-0.003826079367144807
339632000000,138,339636000000,FR_wheel_link,-0.028067776055440474,0.04845218998135821,-0.036842784681822414,-0.00042923038602186753,-0.0003197002322769098,-0.00019515618725814493
339632000000,139,339637000000,FR_wheel_link,-0.104507288540461,0.5745257142476167,-1.061090112977281,0.009612770462253986,0.006340800488719653,0.0037651431397145723
339638000000,140,339638000000,FR_wheel_link,0.02764403749442407,-0.008753709590077322,-0.06511121524124895,0.0007189434492092202,0.0006282192050370522,0.00022727829216548926
339639000000,141,339639000000,FR_wheel_link,0.10503121678839304,0.4257082819426372,-1.3407459809031128,-0.009851013965473976,-0.006699657501328495,-0.0038265523598526785
339640000000,142,339640000000,FR_wheel_link,-0.028067172151967752,0.048445946175822235,-0.03684210387340151,-0.00042925577714055977,-0.00031963319032688467,-0.00019505678420081224
339641000000,143,339641000000,FR_wheel_link,-0.1045110349938417,0.5745422456716677,-1.0610745141731814,0.009613291656863102,0.006340720430774441,0.003765437821785035
339644000000,144,339642000000,FR_wheel_link,0.027641597152434808,-0.008757672457850578,-0.06511880265200988,0.000718665551240667,0.0006283292168930966,0.00022714623061239237
339644000000,145,339643000000,FR_wheel_link,0.10505143224322196,0.42570391688196435,-1.3407240865789454,-0.009850817465448008,-0.0067001480640442234,-0.003827060833311471
339644000000,146,339644000000,FR_wheel_link,-0.028067042332368983,0.048439805523542,-0.03684200042694045,-0.00042929284603331416,-0.00031956204312538246,-0.00019494368919027318
339644000000,147,339645000000,FR_wheel_link,-0.10451459645768976,0.5745594922452628,-1.061057030552861,0.00961383910605865,0.006340613281609055,0.003765741206956512
339644000000,148,339646000000,FR_wheel_link,0.027639201141159673,-0.00876193346521886,-0.06512721538001091,0.0007183762572672661,0.0006284477276561691,0.0002270089884809122
339644000000,149,339647000000,FR_wheel_link,0.10507301962237582,0.4256991818728436,-1.3407002567758386,-0.009850591564782204,-0.00670065580602723,-0.003827605069735577
339644000000,150,339648000000,FR_wheel_link,-0.028067390586714175,0.04843376912801827,-0.03684247888732982,-0.00042934167955046464,-0.0003194867539186561,-0.000194816789854473
339649000000,151,339649000000,FR_wheel_link,-0.10451797088164473,0.5745774595767876,-1.061037645818686,0.009614413018532615,0.0063404788075976755,0.003766053362117737
339650000000,152,339650000000,FR_wheel_link,0.02763684980392253,-0.00876649490395944,-0.06513646031841488,0.0007180754812293062,0.0006285748133579817,0.00022686652499578862
339651000000,153,339651000000,FR_wheel_link,0.1050959907715695,0.4256940740652741,-1.3406744752818274,-0.00985033601783764,-0.006701180873577778,-0.0038281853736865773
339652000000,154,339652000000,FR_wheel_link,-0.028068221211668087,0.04842783817923815,-0.03684354417079604,-0.0004294023718352394,-0.00031940728331647744,-0.00019467596522913035
339653000000,155,339653000000,FR_wheel_link,-0.1045211733670962,0.5745963159958516,-1.0610160297167626,0.00961501723007059,0.006340310790814116,0.0037663791359968863
339654000000,156,339654000000,FR_wheel_link,0.027634548398752862,-0.008771468676087916,-0.06514681327501949,0.0007177598605998897,0.0006287145039331582,0.0002267162366587795
339655000000,157,339655000000,FR_wheel_link,0.10512035487203795,0.4256885366807517,-1.3406467431026097,-0.009850050404044543,-0.006701721166137129,-0.003828803132290058
339656000000,158,339656000000,FR_wheel_link,-0.02806951587156508,0.04842200449313686,-0.03684522016524316,-0.000429475626260121,-0.0003193240636632179,-0.00019452189412659505
339657000000,159,339657000000,FR_wheel_link,-0.10452420724451338,0.5746161115768277,-1.0609921109166578,0.009615653048148152,0.006340107958972792,0.0037667195006610994
339658000000,160,339658000000,FR_wheel_link,0.02763236286697275,-0.008776953491406073,-0.0651585120356655,0.0007174267312591307,0.0006288683703546363,0.0002265564970453196
339659000000,161,339659000000,FR_wheel_link,0.10514607977358645,0.42568253469544326,-1.3406169062378763,-0.00984973272895323,-0.00670227467453411,-0.003829458589112126
339660000000,162,339660000000,FR_wheel_link,-0.02807125204557424,0.048416262816605216,-0.03684756355108265,-0.00042956315592014257,-0.00031923811648238717,-0.00019435553077856878
339661000000,163,339661000000,FR_wheel_link,-0.1045270782344789,0.5746367055180954,-1.0609662811793807,0.009616317378721786,0.0063398779447031185,0.003767069100649801
339662000000,164,339662000000,FR_wheel_link,0.02763021509352908,-0.008782747524614007,-0.06517103926555651,0.0007170811292532271,0.0006290305224956603,0.00022639124955804257
339663000000,165,339663000000,FR_wheel_link,0.10517321998285462,0.4256761658477011,-1.3405850367628298,-0.009849384350436589,-0.00670284622036838,-0.0038301512581645127
339664000000,166,339664000000,FR_wheel_link,-0.028073480819483874,0.04841062948182562,-0.036850508214995255,-0.00042966289110252476,-0.0003191479582193963,-0.00019417495576373243
339665000000,167,339665000000,FR_wheel_link,-0.10452976064547052,0.5746580586254586,-1.0609384548577772,0.009617009277779419,0.006339619277347758,0.0037674279143536786
339666000000,168,339666000000,FR_wheel_link,0.02762810294071888,-0.008788839057495458,-0.06518440148896211,0.0007167240430140663,0.0006292015030736158,0.0002262208038723119
339667000000,169,339667000000,FR_wheel_link,0.10520180013005595,0.4256694230905338,-1.3405511533033612,-0.009849005450734782,-0.006703436209245789,-0.0038308814354031787
339673000000,170,339668000000,FR_wheel_link,-0.028076213730598355,0.048405105222364235,-0.03685405413450913,-0.00042977474044549106,-0.0003190533213260386,-0.00019397973515065584
339673000000,175,339673000000,FR_wheel_link,-0.10453451950778782,0.5747030369182011,-1.060876757812574,0.009618476748668052,0.006339015105060531,0.0037681732550975907
339674000000,176,339674000000,FR_wheel_link,0.027624011191665968,-0.00880195314830126,-0.06521372393635394,0.0007159742206228042,0.0006295704464077409,0.0002258637474080868
339675000000,177,339675000000,FR_wheel_link,0.10526335087135781,0.4256547677922393,-1.34047721985123,-0.009848154037278284,-0.006704671498862299,-0.003832455832462259
339676000000,178,339676000000,FR_wheel_link,-0.028083206817361827,0.04839438576200558,-0.03686299811340745,-0.00043003590008141494,-0.0003188507029761653,-0.00019354499692948008
339677000000,179,339677000000,FR_wheel_link,-0.10453658987930385,0.5747266802513712,-1.0608428524385998,0.009619253058129981,0.00633866911340014,0.003768559970853814
339678000000,180,339678000000,FR_wheel_link,0.027622037537037708,-0.008808989404330156,-0.06522971577564157,0.0007155809433242072,0.0006297685925747206,0.00022567690131251923
339678000000,181,339679000000,FR_wheel_link,0.1052963549401005,0.42564684210924597,-1.3404371104836068,-0.009847680610541453,-0.0067053170373526086,-0.0038333009569917805
339678000000,182,339680000000,FR_wheel_link,-0.028087479347385126,0.04838919560302825,-0.036868415948354605,-0.000430185604082023,-0.0003187426700741283,-0.00019330519548148883
339678000000,183,339681000000,FR_wheel_link,-0.10453845159459278,0.5747511055412086,-1.0608068761181295,0.00962005816418598,0.006338293382538086,0.003768956181599867
339678000000,184,339682000000,FR_wheel_link,0.027620113017941116,-0.008816350760054737,-0.06524661121333883,0.0007151752144559841,0.0006299760354616404,0.00022548440599607248
339683000000,185,339683000000,FR_wheel_link,0.10533086917541885,0.42563851193033786,-1.3403948716577359,-0.009847174851221564,-0.006705981465929263,-0.0038341853725590105
339684000000,186,339684000000,FR_wheel_link,-0.028092344448507903,0.04838420556420296,-0.03687449004809091,-0.00043034737986021623,-0.00031862955696096,-0.0001930497472725693
339685000000,187,339685000000,FR_wheel_link,-0.10454005655754188,0.5747762459212908,-1.0607687305611426,0.009620890765603109,0.00633788636997311,0.003769360975385458
339686000000,188,339686000000,FR_wheel_link,0.027618229906825807,-0.008824024188348075,-0.06526442266200363,0.0007147582094409008,0.0006301937024545577,0.00022528651367971576
339687000000,189,339687000000,FR_wheel_link,0.10536692859036911,0.4256297745147844,-1.340350534104227,-0.009846637151447398,-0.006706665534865863,-0.0038351097454980758
339688000000,190,339688000000,FR_wheel_link,-0.028097865498566514,0.04837948041163517,-0.03688122385309322,-0.00043052026564073683,-0.00031851059885447386,-0.0001927777880189962
339689000000,191,339689000000,FR_wheel_link,-0.10454135410389315,0.5748020368434215,-1.0607283264868088,0.009621749784095607,0.0063374466474787625,0.0037697735350552025
339690000000,192,339690000000,FR_wheel_link,0.027616384271737383,-0.008832000474069419,-0.0652831674882785,0.0007143309305057714,0.0006304224309533704,0.00022508343601170477
339691000000,193,339691000000,FR_wheel_link,0.10540456883644443,0.42562062210526536,-1.3403041174171928,-0.00984606772534918,-0.006707369884427157,-0.0038360746488679555
339692000000,194,339692000000,FR_wheel_link,-0.028103938644837723,0.04837487200368063,-0.03688858783014423,-0.0004307056564556086,-0.00031838639163258686,-0.00019248959355759953
339693000000,195,339693000000,FR_wheel_link,-0.10454241015284986,0.5748286132697485,-1.0606857616978866,0.009622638498072583,0.006336975810689774,0.003770195759892019
339694000000,196,339694000000,FR_wheel_link,0.027614596232027364,-0.008840317818872557,-0.06530286469525662,0.0007138907581228511,0.0006306609024630072,0.00022487449270408545
339695000000,197,339695000000,FR_wheel_link,0.10544378651271141,0.4256110389040408,-1.3402554802370712,-0.009845464541598202,-0.006708093774768002,-0.003837080271663061
339696000000,198,339696000000,FR_wheel_link,-0.028110559493034787,0.048370383129816216,-0.03689662594799014,-0.00043090471102312,-0.0003182574878236551,-0.00019218555513382426
339697000000,199,339697000000,FR_wheel_link,-0.10454323937614254,0.5748560127783924,-1.0606410173577507,0.00962355773739139,0.0063364736691047824,0.003770628021452548
339701000000,200,339698000000,FR_wheel_link,0.0276128647650179,-0.008848982344676133,-0.06532352238796241,0.0007134372556339242,0.0006309091048874245,0.00022465953342974416
339701000000,203,339701000000,FR_wheel_link,-0.1045438430561352,0.5748842479743652,-1.0605940532795464,0.00962450775449031,0.006335939662379519,0.0037710704228242544
339702000000,204,339702000000,FR_wheel_link,0.027611186820510437,-0.008857995073443424,-0.06534515053402996,0.0007129704184729712,0.000631167294516332,0.0002244385162340899
339703000000,205,339703000000,FR_wheel_link,0.1055270286872274,0.4255905793784888,-1.3401514042151055,-0.009844154924586191,-0.006709601362362342,-0.0038392164367299975
339704000000,206,339704000000,FR_wheel_link,-0.028125489335740543,0.048361791407124675,-0.03691475916778207,-0.0004313442063162778,-0.0003179851664127194,-0.00019152902572793575
339705000000,207,339705000000,FR_wheel_link,-0.10454421720422231,0.5749133277324519,-1.0605448286078794,0.009625488847137193,0.006335373204195579,0.003771523051523168
339706000000,208,339706000000,FR_wheel_link,0.027609561466837452,-0.008867358608702013,-0.06536776214671823,0.0007124901983139983,0.0006314357052545456,0.00022421138940449884
339707000000,209,339707000000,FR_wheel_link,0.10557110311434798,0.425579697190683,-1.3400959136382837,-0.009843447720900105,-0.006710385861070024,-0.0038403483912019844
339708000000,210,339708000000,FR_wheel_link,-0.028133820111519648,0.0483576969378866,-0.03692486725686954,-0.0004315847857993457,-0.00031784145678055405,-0.0001911759447764336
339709000000,211,339709000000,FR_wheel_link,-0.10454435640531329,0.5749432625261472,-1.0604933048145482,0.009626501438037727,0.006334773741191013,0.0037719860287612336
339709000000,212,339710000000,FR_wheel_link,0.027607989493697565,-0.008877077565588415,-0.06539137247901387,0.0007119964441757278,0.0006317145206559773,0.00022397807436928908
339710000000,213,339711000000,FR_wheel_link,0.10561684866063902,0.4255683715918195,-1.340038076646072,-0.009842704908906735,-0.0067111912977249446,-0.0038415238346845835
339712000000,214,339712000000,FR_wheel_link,-0.028142740654419542,0.04835374008588262,-0.03693568256848764,-0.00043183949039456957,-0.0003176925834407269,-0.00019080595779600692
339713000000,215,339713000000,FR_wheel_link,-0.10454425533463575,0.5749740648033091,-1.0604394442545413,0.009627546027514335,0.006334140734828038,0.0037724595051410468
339716000000,216,339714000000,FR_wheel_link,0.02760647236084486,-0.0088871576462465,-0.06541599799864015,0.000711488944202608,0.0006320039022569556,0.0002237384750620771
339716000000,218,339716000000,FR_wheel_link,-0.028152260232981823,0.04834992312650501,-0.036947216900685365,-0.0004321085575671945,-0.00031753846921155906,-0.0001904187984013589
339716000000,219,339717000000,FR_wheel_link,-0.10454390901641111,0.5750057482706442,-1.0603832085787939,0.00962862314846689,0.0063334736375163,0.0037729436474965693
339717000000,220,339718000000,FR_wheel_link,0.027605011581357083,-0.008897604929698868,-0.06544165584072333,0.0007109674648874712,0.000632304013116605,0.00022349248750343673
339719000000,221,339719000000,FR_wheel_link,0.10571346334498001,0.4255443594689398,-1.3399152060525474,-0.009841110077274685,-0.006712866298536421,-0.0038440079726035975
339721000000,222,339720000000,FR_wheel_link,-0.028162388658387747,0.048346248663204076,-0.03695948272720186,-0.00043239223650707703,-0.0003173790343462375,-0.00019001418926441888
339721000000,223,339721000000,FR_wheel_link,-0.10454331262372851,0.5750383273302675,-1.0603245577736389,0.009629733348705295,0.00633277187968073,0.0037734386298143604
339721000000,224,339722000000,FR_wheel_link,0.027603608550728843,-0.008908425613467287,-0.0654683636718495,0.000710431768067891,0.0006326150268769302,0.00022324000441281168
339721000000,225,339723000000,FR_wheel_link,0.1057643896463936,0.4255316573905575,-1.3398500900651686,-0.009840256813842457,-0.006713736548941682,-0.00384531813056196
339723000000,226,339724000000,FR_wheel_link,-0.02817313632954518,0.048342719555209406,-0.03697249282571821,-0.0004326907790204567,-0.00031721419136409435,-0.00018959183789537087
339725000000,227,339725000000,FR_wheel_link,-0.10454246131948586,0.5750718168689652,-1.0602634500705346,0.009630877186609174,0.006332034866017447,0.0037739446315508446
339726000000,228,339726000000,FR_wheel_link,0.02760226457545459,-0.008919625978673384,-0.06549613970414904,0.0007098816143546781,0.0006329371287913645,0.00022298091630055242
339727000000,229,339727000000,FR_wheel_link,0.10581710174186554,0.4255184808125789,-1.339782463480992,-0.009839365462869365,-0.006714629119462366,-0.0038466747095801702
339728000000,230,339728000000,FR_wheel_link,-0.028184514173573212,0.048339338899997836,-0.036986260317105876,-0.0004330044405076417,-0.00031704384617542935,-0.00018915143813987936
339729000000,231,339729000000,FR_wheel_link,-0.10454135011571804,0.5751062322276899,-1.0601998418933327,0.009632055236243994,0.006331261975926136,0.003774461837236323
339730000000,232,339730000000,FR_wheel_link,0.027600980941418503,-0.008931212449918098,-0.06552500277110176,0.0007093167601972018,0.00063327051401126,0.00022271511065235472
339731000000,233,339731000000,FR_wheel_link,0.1058716309080684,0.4255048216038899,-1.3397122820880414,-0.009838435358326202,-0.006715544395993515,-0.003848078519602382
339732000000,234,339732000000,FR_wheel_link,-0.028196533602854658,0.048336109978953316,-0.037000798714230385,-0.00043333348240880983,-0.0003168678991761569,-0.0001886926707471829
339733000000,235,339733000000,FR_wheel_link,-0.10453997379982961,0.5751415892087901,-1.0601336879158325,0.009633268089846273,0.006330452564049065,0.003774990436493042
339734000000,236,339734000000,FR_wheel_link,0.02759975896546679,-0.00894319165990876,-0.06555497238656052,0.0007087369557176888,0.0006336153861596668,0.0002224424715738971
339735000000,237,339735000000,FR_wheel_link,0.10592800958115271,0.42549067136707436,-1.3396395001506702,-0.009837465811310536,-0.006716482779721251,-0.0038495304004595708
339736000000,238,339736000000,FR_wheel_link,-0.028209206423593675,0.048333036161107186,-0.037016121976784735,-0.0004336781749117272,-0.0003166862466441842,-0.00018821520438221874
339737000000,239,339737000000,FR_wheel_link,-0.10453832696959596,0.5751779041592405,-1.0600649411749046,0.009634516360583803,0.006329605961445715,0.0037755306258442293
339738000000,240,339738000000,FR_wheel_link,0.027598600036293382,-0.008955570468112427,-0.06558606878905358,0.0007081419424282675,0.0006339719561103059,0.00022216287912652167
339739000000,241,339739000000,FR_wheel_link,0.10598627135579843,0.425476021363858,-1.3395640702233962,-0.009836456107829615,-0.006717444685925272,-0.0038510312219420468
339740000000,242,339740000000,FR_wheel_link,-0.028222544889167103,0.04833012097552397,-0.037032244592198005,-0.00043403879798890253,-0.0003164987813130501,-0.00018771869605667965
339741000000,243,339741000000,FR_wheel_link,-0.10453640401829882,0.5752151940056285,-1.0599935530380566,0.009635800683989792,0.006328721475726852,0.003776082608882201
339741000000,244,339742000000,FR_wheel_link,0.027597505591479908,-0.00896835598349477,-0.06561831291603372,0.0007075314520996157,0.000634340441822956,0.0002218762089735199
339743000000,245,339743000000,FR_wheel_link,0.10604645102246756,0.42546086253520976,-1.3394859431862356,-0.009835405508274619,-0.006718430544370517,-0.0038525818843792793
339744000000,246,339744000000,FR_wheel_link,-0.02823656166803861,0.04832736807735102,-0.03704918156759515,-0.00043441564181408496,-0.0003163053922727258,-0.00018720279080022782
339745000000,247,339745000000,FR_wheel_link,-0.10453419911653203,0.5752534762259387,-1.0599194731134427,0.009637121717872338,0.006327798390013838,0.0037766465956001532
339746000000,248,339746000000,FR_wheel_link,0.027596477172898173,-0.008981555581644584,-0.06565172651234868,0.0007069052070874086,0.0006347210686822507,0.00022158233242816733
339747000000,249,339747000000,FR_wheel_link,0.10610858455411497,0.42544518549349253,-1.3394050681579515,-0.00983431324712894,-0.006719440799151311,-0.0038541833187406725
339748000000,250,339748000000,FR_wheel_link,-0.028251269854340573,0.04832478122400679,-0.03706694844372154,-0.00043480900736491264,-0.0003161059650739781,-0.00018666712145134056
339749000000,251,339749000000,FR_wheel_link,-0.10453170627515285,0.5752927689480111,-1.059842649375578,0.0096384801430038,0.0063268359636301195,0.0037772228044357257
339750000000,252,339750000000,FR_wheel_link,0.027595516370127172,-0.008995176891321835,-0.06568633203510947,0.0007062629194246561,0.0006351140691515878,0.00022128111621277441
339751000000,253,339751000000,FR_wheel_link,0.10617270914606407,0.42542898049667055,-1.3393213924281262,-0.00983317853157327,-0.006720475908876576,-0.003855836487763741
339752000000,254,339752000000,FR_wheel_link,-0.02826668301717108,0.04832236438216261,-0.03708556134479926,-0.000435219206140913,-0.00031590038172235884,-0.00018611130882369953
339753000000,255,339753000000,FR_wheel_link,-0.10452891925955532,0.5753330908499255,-1.0597630279251682,0.009639876662853195,0.006325833430097325,0.003777811459980987
339754000000,256,339754000000,FR_wheel_link,0.027594624847742475,-0.009009227800577205,-0.06572215274196151,0.0007056042921837228,0.0006355196839589129,0.00022097242273401302
339755000000,257,339755000000,FR_wheel_link,0.10623886324040427,0.42541223749575174,-1.3392348615476009,-0.009832000542677497,-0.006721536347846496,-0.0038575423862942946
339756000000,258,339756000000,FR_wheel_link,-0.02828280594631394,0.04832010959579176,-0.03710503493116809,-0.0004356466896551364,-0.00031568859155709146,-0.0001855350158565612
339757000000,259,339757000000,FR_wheel_link,-0.10452583590617169,0.5753744685510153,-1.059680557129123,0.009641312144306365,0.006324790076285874,0.0037784128469965064
339758000000,260,339758000000,FR_wheel_link,0.027593803674192126,-0.009023716137296297,-0.06575921186826271,0.0007049290181599369,0.000635938164718501,0.00022065611098924368
339759000000,261,339759000000,FR_wheel_link,0.10630708524129376,0.4253949475997327,-1.339145420227836,-0.009830778457591949,-0.006722622612962361,-0.003859302048190713
339760000000,262,339760000000,FR_wheel_link,-0.02829966071750787,0.04831803064513697,-0.03712538759764359,-0.0004360916780502909,-0.0003154704031836557,-0.0001849377830244645
339761000000,263,339761000000,FR_wheel_link,-0.10452244861432328,0.575416918774773,-1.0595951783810467,0.009642787251915079,0.006323705055173714,0.003779027211644875
339762000000,264,339762000000,FR_wheel_link,0.02759305533107382,-0.009038651231044463,-0.06579753438497485,0.0007042367164893826,0.0006363697259683272,0.0002203320168358057
339763000000,265,339763000000,FR_wheel_link,0.10637741657721461,0.42537709898854137,-1.339053006856698,-0.009829511347351924,-0.006723735186868233,-0.0038611165350328153
339764000000,266,339764000000,FR_wheel_link,-0.0283172637255678,0.048316134604780646,-0.03714663832224958,-0.0004365545071961568,-0.00031524569016883736,-0.00018431920645031776
339765000000,267,339765000000,FR_wheel_link,-0.10451874969506665,0.5754604616206266,-1.0595068335885087,0.009644302782486645,0.006322577537774942,0.0037796548156890327
339766000000,268,339766000000,FR_wheel_link,0.027592382837133694,-0.009054043093089468,-0.06583714669709036,0.0007035269810658306,0.0006368145822089151,0.0002199999684659139
339767000000,269,339767000000,FR_wheel_link,0.10644989969922244,0.425358679140032,-1.3389575568899688,-0.009828198239980164,-0.006724874553799336,-0.0038629869274225364
339768000000,270,339768000000,FR_wheel_link,-0.028335629281922278,0.04831442536051564,-0.037168806735563255,-0.0004370355768465141,-0.00031501434854754767,-0.00018367888584650222
339769000000,271,339769000000,FR_wheel_link,-0.1045147302209985,0.5755051161219782,-1.0594154579181034,0.009645859496933758,0.006321406604221778,0.0037802958526004155
339770000000,272,339770000000,FR_wheel_link,0.027591787200631563,-0.009069899071854131,-0.06587807514988059,0.0007027995927181453,0.0006372730793599832,0.00021965983969811622
339770000000,273,339771000000,FR_wheel_link,0.10652457884286902,0.4253396774516891,-1.3388590138815597,-0.00982683828611162,-0.006726041296654879,-0.0038649143652882767
339770000000,274,339772000000,FR_wheel_link,-0.0283547743684324,0.04831290792996234,-0.03719191041698818,-0.000437535208466709,-0.0003147762066107595,-0.00018301633778525743
339773000000,275,339773000000,FR_wheel_link,-0.10451038242989914,0.5755509030603424,-1.059320987291633,0.009647458191486019,0.006320191341130024,0.0037809505778946327
339774000000,276,339774000000,FR_wheel_link,0.027591270348435077,-0.009086228183574407,-0.06592034716406604,0.0007020542214411986,0.0006377455111225635,0.00021931147379056638
339775000000,277,339775000000,FR_wheel_link,0.10660149918658125,0.42532008212173633,-1.338757314755431,-0.00982543053756009,-0.006727235976447916,-0.003866900013846561
339776000000,278,339776000000,FR_wheel_link,-0.028374715545681693,0.04831158714898418,-0.0372159687943708,-0.00043805377581110415,-0.00031453111699016886,-0.00018233109636644994
339777000000,279,339777000000,FR_wheel_link,-0.10450569867322983,0.5755978448396732,-1.0592233564033935,0.009649099714699651,0.006318930820323892,0.003781619263108738
339777000000,280,339778000000,FR_wheel_link,0.027590834477360944,-0.009103040007525104,-0.06596399109491904,0.0007012905074129215,0.0006382321679675222,0.00021895470415223413
339777000000,281,339779000000,FR_wheel_link,0.10668070713787194,0.42529988085187903,-1.338652393368794,-0.009823974001822942,-0.006728459163085433,-0.0038689450734858705
339780000000,282,339780000000,FR_wheel_link,-0.02839546982377546,0.04831046811873518,-0.037241002208561115,-0.0004385916715165489,-0.0003142789331814783,-0.00018162268755212292
339781000000,283,339781000000,FR_wheel_link,-0.10450067115449571,0.5756459647057799,-1.0591224978887956,0.009650784944658897,0.006317624085985372,0.0037823021886343932
339781000000,284,339782000000,FR_wheel_link,0.027590481820558586,-0.009120344406782258,-0.06600903609959234,0.0007005080785038781,0.0006387333486117616,0.0002185893586137914
339783000000,285,339783000000,FR_wheel_link,0.10676225052221712,0.4252790610290852,-1.3385441815422447,-0.009822467656057857,-0.0067297114448707064,-0.003871050782695978
339784000000,286,339784000000,FR_wheel_link,-0.028417054735439783,0.04830955610572407,-0.03726703158966973,-0.0004391492990287214,-0.0003140195035716558,-0.00018089062254642284
339785000000,287,339785000000,FR_wheel_link,-0.10449529185183389,0.5756952865877698,-1.059018342220918,0.009652514784487129,0.00631627015181482,0.003782999642962158
339786000000,288,339786000000,FR_wheel_link,0.027590214703994424,-0.009138151522065896,-0.06605551224707852,0.0006997065527046523,0.0006392493613823076,0.00021821526020911414
339787000000,289,339787000000,FR_wheel_link,0.10684617862382258,0.4252576096466019,-1.3384326089918657,-0.009820910446279923,-0.006730993428140471,-0.0038732184182200488
339788000000,290,339788000000,FR_wheel_link,-0.028439488400346408,0.0483088566218348,-0.03729407851933191,-0.0004397270733416757,-0.0003137526715354385,-0.00018013439731647823
339789000000,291,339789000000,FR_wheel_link,-0.10448955246092921,0.5757458350727263,-1.0589108176574638,0.00965429016343801,0.006314868000452492,0.00378371192232164
339790000000,292,339790000000,FR_wheel_link,0.0275900355437069,-0.009156471789610474,-0.0661034505435106,0.0006988855375659917,0.0006397805243838671,0.0002178322269625444
339791000000,293,339791000000,FR_wheel_link,0.10693254222582788,0.4252355132957542,-1.3383176032814794,-0.009819301286740809,-0.006732305737744159,-0.003875449295430207
339792000000,294,339792000000,FR_wheel_link,-0.028462789463973757,0.04830837533799582,-0.03732216522712569,-0.00044032542217962214,-0.00031347827576228606,-0.00017935349270935779
339793000000,295,339793000000,FR_wheel_link,-0.10448344442460367,0.5757976354984985,-1.0587998502865505,0.009656112039311524,0.006313416583928801,0.0037844393323635786
339794000000,296,339794000000,FR_wheel_link,0.027589946850966503,-0.009175315959605808,-0.06615288293530756,0.0006980446283592767,0.0006403271647603425,0.0002174400712799179
339795000000,297,339795000000,FR_wheel_link,0.10702139363916616,0.42521275814523557,-1.3381990897179108,-0.009817639058301589,-0.006733649016777336,-0.0038777447690531764
339796000000,298,339796000000,FR_wheel_link,-0.028486977173802906,0.048308118169795015,-0.03735131465718915,-0.0004409447860886965,-0.00031319615003142886,-0.00017854737386480628
339797000000,299,339797000000,FR_wheel_link,-0.10447695887282553,0.5758507138880277,-1.0586853638928835,0.009657981397755094,0.006311914822308368,0.003785182186620501
339798000000,300,339798000000,FR_wheel_link,0.027589951270523255,-0.009194695115635759,-0.06620384240237831,0.0006971834085884228,0.0006408896194445794,0.00021703860011280512
339799000000,301,339799000000,FR_wheel_link,0.10711278672172177,0.4251893299186617,-1.3380769913175097,-0.009815922607853836,-0.006735023926699135,-0.003880106233611898
339800000000,302,339800000000,FR_wheel_link,-0.02851207134419472,0.04830809122098125,-0.037381550470616226,-0.00044158561959665543,-0.0003129061235957485,-0.00017771549030472434
339801000000,303,339801000000,FR_wheel_link,-0.10447008667399456,0.5759050970339538,-1.0585672799783192,0.009659899254154843,0.006310361603701108,0.0037859408083894077
339802000000,304,339802000000,FR_wheel_link,0.027590051538562265,-0.009214620660661374,-0.06625636289090883,0.0006963014491635943,0.0006414682349470637,0.000216627614585629
339803000000,305,339803000000,FR_wheel_link,0.10720677692087979,0.4251652139157245,-1.3379512287734372,-0.009814150747864759,-0.006736431148418414,-0.0038825351247370396
339804000000,306,339804000000,FR_wheel_link,-0.028538092385319968,0.04830830081558177,-0.037412897044136924,-0.0004422483906660687,-0.00031260802050303734,-0.00017685727506246908
339805000000,307,339805000000,FR_wheel_link,-0.10446281840075779,0.5759608124803446,-1.0584455176843224,0.009661866652906468,0.006308755783050146,0.003786715529919463
339806000000,308,339806000000,FR_wheel_link,0.02759025051755823,-0.00923510434059565,-0.06631047940175915,0.0006953983086230629,0.0006420633678347474,0.00021620691012447926
339807000000,309,339807000000,FR_wheel_link,0.10730342129708544,0.4251403949812867,-1.3378217203642553,-0.009812322255439807,-0.0067378713819027875,-0.0038850329199026845
339808000000,310,339808000000,FR_wheel_link,-0.028565061319900158,0.04830875350658812,-0.03744537951553761,-0.0004429335815001247,-0.00031230165998464264,-0.00017597214484326283
339809000000,311,339809000000,FR_wheel_link,-0.10445514433873702,0.5760178885604407,-1.0583199937395251,0.009663884668946649,0.006307096181694097,0.0037875066930736227
339810000000,312,339810000000,FR_wheel_link,0.02759055120205864,-0.009256158243790983,-0.06636622800284335,0.000694473532372056,0.0006426753847567165,0.00021577627610900376
339811000000,313,339811000000,FR_wheel_link,0.10740277855280113,0.4251148575043117,-1.3376883818902927,-0.009810435870923466,-0.006739345346788326,-0.0038876011390183724
339812000000,314,339812000000,FR_wheel_link,-0.028592999836536744,0.04830945612804857,-0.037479023813993304,-0.0004436416886388637,-0.00031198685596123683,-0.0001750594992732232
339813000000,315,339813000000,FR_wheel_link,-0.10444705444394024,0.576076354352647,-1.058190622321982,0.009665954407276285,0.0063053815856991095,0.003788314648547898
339814000000,316,339814000000,FR_wheel_link,0.027590956683393925,-0.009277794791160322,-0.06642364581557374,0.0006935266539669937,0.0006433046634937679,0.00021533549617037362
339815000000,317,339815000000,FR_wheel_link,0.10750490909881201,0.425088585421846,-1.3375511267614983,-0.009808490299603968,-0.006740853783872216,-0.003890241346232248
339816000000,318,339816000000,FR_wheel_link,-0.028621930224315622,0.048310415699955866,-0.03751385659337316,-0.0004443732227133071,-0.00031166341673781076,-0.0001741187202637128
339817000000,319,339817000000,FR_wheel_link,-0.1044385383926981,0.5761362397842775,-1.058057315170512,0.009668077004709272,0.006303610746542616,0.0037891397578132414
339818000000,320,339818000000,FR_wheel_link,0.02759147020279767,-0.009300026776655484,-0.06648277108588824,0.0006925571925588846,0.0006439515918226933,0.00021488434747296036
339819000000,321,339819000000,FR_wheel_link,-0.2663373614708753,-2.709079961547488,2.3386764382321417,-0.1163017899980232,0.0271528387498072,0.01722599979383493
339820000000,322,339820000000,FR_wheel_link,-0.8500713626649793,-2.9539104841185257,2.5223388280112546,-0.1396277589924172,0.07265143353455737,0.04292632150648002
339821000000,323,339821000000,FR_wheel_link,-4.331627702922461,-1.0622395285832835,5.942584944190628,0.23072115518525507,0.42045221949587147,0.2311388731800654
339822000000,324,339822000000,FR_wheel_link,0.29054438660882087,-0.15878971015398083,-0.9852163433730032,-0.02732436865939154,-0.002844201396754756,-0.006671975741851772
339823000000,325,339823000000,FR_wheel_link,-0.31681269725244554,0.9464121209513849,-0.7004279305207688,0.026719464269345027,0.010241304788177238,0.010924130695898732
339824000000,326,339824000000,FR_wheel_link,0.00545208017163718,0.002840998136944145,0.0014736346174080456,-0.00010617871197280456,-0.000748765768993781,-1.3836634127433507e-05
339825000000,327,339825000000,FR_wheel_link,0.09530823589602354,0.46617829099130026,-1.22575381892906,-0.008493507581985789,-0.008349237906596639,-0.002664832437566198
339826000000,328,339826000000,FR_wheel_link,-0.03579071137409188,0.05797016619557399,-0.05500762336579154,-0.0008477229723042176,-0.0007720834714816688,-0.0001033775684760305
339827000000,329,339827000000,FR_wheel_link,-0.11110262916431694,0.5906407480548568,-1.0439208728651945,0.009794337593998679,0.005756912385182633,0.004097735979607422
339828000000,330,339828000000,FR_wheel_link,0.03314569281371515,-0.006904725404081785,-0.06191418116793261,0.000714981932045847,0.0002208927380298761,0.0001954607124025812
339829000000,331,339829000000,FR_wheel_link,0.10681006558327256,0.4244351130927548,-1.328679713836974,-0.009676766204382207,-0.006823210500334999,-0.003890224389879102
339830000000,332,339830000000,FR_wheel_link,-0.031008083651517786,0.053903704003361905,-0.041106588116433654,-0.0004500802488799605,-0.0004369455153498561,-0.00023955748983988496
339831000000,333,339831000000,FR_wheel_link,-0.10384681274859978,0.5734471503353464,-1.0597012837612478,0.009520045977889422,0.006206547425885999,0.0036769788815202114
339832000000,334,339832000000,FR_wheel_link,0.03117765218363501,-0.011609943285221367,-0.07413320931354493,0.0006480698633413045,0.0006049610116130846,0.00013271335794040324
339833000000,335,339833000000,FR_wheel_link,0.10872334327257166,0.422815850427209,-1.3345576812327797,-0.009748785967515473,-0.006724682587941662,-0.0039825301737186755
339834000000,336,339834000000,FR_wheel_link,-0.029175350859902593,0.05146166121547659,-0.038121528042301976,-0.0004095492522916906,-0.0003642585059690185,-0.00024212596645758683
339835000000,337,339835000000,FR_wheel_link,-0.10365079274630283,0.5734365738139344,-1.058477089007774,0.009557243534149312,0.0062606444183038994,0.003697188720194942
339836000000,338,339836000000,FR_wheel_link,0.029324768264289515,-0.010502080114860302,-0.07098886630553357,0.0006837461039706175,0.0006516226781938671,0.00017604253766893895
339837000000,339,339837000000,FR_wheel_link,0.10828006644516049,0.42402390758013164,-1.3366868080393943,-0.009787104433616007,-0.006732456278766017,-0.003947225035233308
339838000000,340,339838000000,FR_wheel_link,-0.029082234449262813,0.0502060380463011,-0.03726910086293255,-0.0004078883933322018,-0.00032754088811089583,-0.0002077386898563336
339839000000,341,339839000000,FR_wheel_link,-0.10397610630385042,0.5742578759022228,-1.0579114157712355,0.009593997104805694,0.006279913355470795,0.0037361986960915403
339840000000,342,339840000000,FR_wheel_link,0.028447391692298103,-0.009793834897311332,-0.06877385673373815,0.0006988467246875589,0.0006554803636320516,0.0001999611989251102
339841000000,343,339841000000,FR_wheel_link,0.10789584878887395,0.424585634030052,-1.3374780031312146,-0.009803259665598293,-0.006737491702080395,-0.003918102256417232
339842000000,344,339842000000,FR_wheel_link,-0.02891220907436864,0.04937360728067739,-0.0371266509815613,-0.0004175264736738586,-0.0003153169714089427,-0.00019065381822844896
339843000000,345,339843000000,FR_wheel_link,-0.1041710832629758,0.5749216448759872,-1.0580640561952623,0.009622987870920283,0.00629412991181186,0.0037603028978056828
339844000000,346,339844000000,FR_wheel_link,0.028079738579513434,-0.009527122708070995,-0.06763259495781,0.0006989424859031269,0.0006503612036236946,0.00020934288151343373
339845000000,347,339845000000,FR_wheel_link,0.10762698214630806,0.4247881496135715,-1.3376290106866462,-0.009807790971433453,-0.006737538876308493,-0.003900365666605273
339846000000,348,339846000000,FR_wheel_link,-0.028703235109533373,0.04884345186328454,-0.037203310322795245,-0.00042801203199586204,-0.00031315249723716054,-0.0001845992622171714
339847000000,349,339847000000,FR_wheel_link,-0.10431328573494912,0.5753865684525352,-1.0583743820212879,0.009642082078687204,0.006304297712162181,0.003773835708628494
339848000000,350,339848000000,FR_wheel_link,0.02790157309663102,-0.00943071394178218,-0.06704039861994085,0.0006955329102586949,0.0006453889976409347,0.0002125974777389572
339849000000,351,339849000000,FR_wheel_link,0.10742958133802974,0.42488970089474565,-1.3376645491231585,-0.009809695247486129,-0.006736608311275763,-0.0038904828708994496
339850000000,352,339850000000,FR_wheel_link,-0.02855445188059575,0.048539051132074885,-0.037284856867551286,-0.0004350307965066644,-0.0003134508610276747,-0.0001825181174890299
339851000000,353,339851000000,FR_wheel_link,-0.10443293682067173,0.5756830498368677,-1.058605624828656,0.009652745006378248,0.006310432683006918,0.00378134015405678
339852000000,354,339852000000,FR_wheel_link,0.02778793856802559,-0.009379171804709619,-0.06671164039349582,0.0006931729922643478,0.0006425908544552207,0.0002137457965423091
339853000000,355,339853000000,FR_wheel_link,0.10728629611743874,0.42497306842811805,-1.337749614486684,-0.009811894921602853,-0.0067362541411481215,-0.003885264228504012
339854000000,356,339854000000,FR_wheel_link,-0.02847137908526638,0.04837625990114269,-0.03731566956440028,-0.00043845092197485015,-0.0003137517825366297,-0.00018157214064004203
339855000000,357,339855000000,FR_wheel_link,-0.1045248982697572,0.5758461405750454,-1.0587468405671394,0.009657690655518029,0.006313941083964015,0.003785210889063205
339856000000,358,339856000000,FR_wheel_link,0.027702553945361485,-0.00933151988550198,-0.06650149274591377,0.0006925710701971712,0.0006413461247896569,0.00021438626081820178
339857000000,359,339857000000,FR_wheel_link,0.10718748482045067,0.42504913104455083,-1.3378811175849972,-0.009814520123183814,-0.006736614510023317,-0.0038824924269877446
339858000000,360,339858000000,FR_wheel_link,-0.02842903562920791,0.048290110226700204,-0.037303656696488545,-0.0004395078168654376,-0.0003136813761467868,-0.0001809564373982615
339859000000,361,339859000000,FR_wheel_link,-0.10458689796481246,0.5759241939117588,-1.0588270970706146,0.009659570913369183,0.006315906156369127,0.003787118402971919
339860000000,362,339860000000,FR_wheel_link,0.027639523267034855,-0.009288412187403243,-0.0663607737470847,0.0006929467794242319,0.000640913231823023,0.00021486813218079387
339861000000,363,339861000000,FR_wheel_link,0.10712042855704036,0.42510997453238725,-1.338018440463299,-0.009817038341446331,-0.006737218074997284,-0.0038808720065926575
339862000000,364,339862000000,FR_wheel_link,-0.028403901746242514,0.04824068870832086,-0.037272599422182424,-0.00043946754848209055,-0.00031346152141868916,-0.00018058387574299643
339863000000,365,339863000000,FR_wheel_link,-0.10462503414439536,0.5759565099951136,-1.0588806745336672,0.009660118519563445,0.006317153710978634,0.0037880430064042557
339864000000,366,339864000000,FR_wheel_link,0.02759642258261861,-0.009254586070816499,-0.06626572024016969,0.0006935601192393097,0.0006407542977408155,0.00021522846298423112
339865000000,367,339865000000,FR_wheel_link,0.10707314741373773,0.4251529256328988,-1.338134780445955,-0.009819109205920985,-0.006737732631012194,-0.0038797397373499364
339865000000,368,339866000000,FR_wheel_link,-0.02838360647695377,0.048208013020054195,-0.03723905755938334,-0.00043909271836162195,-0.0003132841998758729,-0.0001804549659945437
339867000000,369,339867000000,FR_wheel_link,-0.10464813448493286,0.5759679260170477,-1.0589268151269011,0.009660202105151684,0.006318128984291533,0.0037885146072924995
339868000000,370,339868000000,FR_wheel_link,0.02756887484739111,-0.009230841924628318,-0.0662010666786501,0.0006940577760660368,0.0006406239715055482,0.00021547154545619146
339869000000,371,339869000000,FR_wheel_link,0.10703707715664226,0.42518111139997294,-1.3382238452168762,-0.009820688822774636,-0.006738054114578819,-0.0038788135315796085
339870000000,372,339870000000,FR_wheel_link,-0.02836412036073424,0.04818359664871214,-0.03720975367505714,-0.00043870037551840563,-0.00031320746532156814,-0.00018052295351955695
339871000000,373,339871000000,FR_wheel_link,-0.10466337514836149,0.5759711610522263,-1.0589720340229798,0.009660156747184434,0.006319009612970232,0.003788788395794247
339872000000,374,339872000000,FR_wheel_link,0.027551749563756934,-0.009215068151265474,-0.06615598363321916,0.000694368106582467,0.0006404626668736788,0.00021561996140591954
339873000000,375,339873000000,FR_wheel_link,0.10700732517655806,0.42519949398683815,-1.3382905169081032,-0.009821886079028936,-0.006738212290891794,-0.003877999708827729
339874000000,376,339874000000,FR_wheel_link,-0.028345147813676145,0.04816413792042305,-0.03718546410530542,-0.00043836433074929943,-0.0003132107594091594,-0.0001807151068920076
339875000000,377,339875000000,FR_wheel_link,-0.10467507208417434,0.575971592308504,-1.0590166085353931,0.009660075328321137,0.006319840271862759,0.0037889743142331817
339876000000,378,339876000000,FR_wheel_link,0.027540771145656423,-0.009204492931568022,-0.06612307872486971,0.000694536626895999,0.0006402841755515275,0.00021570443501368438
339877000000,379,339877000000,FR_wheel_link,0.10698160111117472,0.4252122323320451,-1.338342170643312,-0.009822833312259574,-0.006738275906184178,-0.0038772767761542566
339878000000,380,339878000000,FR_wheel_link,-0.028327323788626044,0.048148246858106945,-0.037164859783402615,-0.00043807036711721725,-0.0003132541775965722,-0.00018096640942446724
339879000000,381,339879000000,FR_wheel_link,-0.10468522802887563,0.5759710784118158,-1.0590590716920008,0.009659973073241306,0.006320619154309697,0.003789116323495461
339880000000,382,339880000000,FR_wheel_link,0.027533087599824053,-0.009196926945602093,-0.06609770268257853,0.0006946257282742107,0.0006401136238632368,0.00021575083825984057
339881000000,383,339881000000,FR_wheel_link,0.10695903201451694,0.4252219335978803,-1.338384583886924,-0.009823628819424439,-0.006738303960532335,-0.0038766414286284644
339882000000,384,339882000000,FR_wheel_link,-0.028311042193876746,0.048135012635184084,-0.037146522595918274,-0.00043779376169755606,-0.0003133074900815336,-0.00018123360965985831
339883000000,385,339883000000,FR_wheel_link,-0.10469456924464057,0.5759702570148695,-1.0590982554022728,0.009659856086688939,0.00632133881418689,0.003789234111429084
339884000000,386,339884000000,FR_wheel_link,0.02752709395532114,-0.009191051564546228,-0.06607715959794058,0.0006946765766577343,0.0006399656208662658,0.00021577536262095185
339885000000,387,339885000000,FR_wheel_link,0.10693932958261458,0.42522992131591697,-1.3384210899915292,-0.009824328337022913,-0.006738332497736436,-0.003876090475662242
339886000000,388,339886000000,FR_wheel_link,-0.028296251533107046,0.04812358327211598,-0.03712957589506324,-0.0004375234267446727,-0.00031335606020522805,-0.00018149412701134416
339887000000,389,339887000000,FR_wheel_link,-0.1047033487018122,0.5759695756636168,-1.059133760505257,0.009659738397466772,0.006321998543403639,0.003789340872062609
339888000000,390,339888000000,FR_wheel_link,0.027522008268030442,-0.00918624019585373,-0.06605997464969546,0.0006947055176577181,0.0006398427000875908,0.0002157855814404694
339889000000,391,339889000000,FR_wheel_link,0.10692236159217056,0.4252367543346639,-1.3384531330274434,-0.009824956385138363,-0.006738378259308106,-0.003875618392053832
339890000000,392,339890000000,FR_wheel_link,-0.028282790372281527,0.04811337538217111,-0.03711369115146535,-0.000437259162572826,-0.0003133953646267152,-0.00018173816761613194
339891000000,393,339891000000,FR_wheel_link,-0.10471161938911372,0.5759693517561658,-1.0591655417138959,0.009659634699617498,0.006322600522370692,0.003789445393718057
339892000000,394,339892000000,FR_wheel_link,0.027517461825857046,-0.009182217160585898,-0.06604535088091289,0.000694717141489552,0.0006397428960334314,0.00021578467666416064
339893000000,395,339893000000,FR_wheel_link,0.106908044926363,0.4252426508311324,-1.3384812817181562,-0.009825522967167533,-0.006738448225494224,-0.003875219656903956
339894000000,396,339894000000,FR_wheel_link,-0.02827047864138176,0.048103977407602916,-0.037098787414688986,-0.000437004945226662,-0.0003134251501592352,-0.0001819618537606665
339895000000,397,339895000000,FR_wheel_link,-0.10471940915038287,0.5759698485547582,-1.0591937136020648,0.009659557367104743,0.006323148099159562,0.003789554069737816
339896000000,398,339896000000,FR_wheel_link,0.027513278607217608,-0.00917887196277241,-0.06603284999837501,0.000694711012490988,0.0006396631215060352,0.00021577370533015238
339897000000,399,339897000000,FR_wheel_link,0.10689630488637689,0.4252477004505895,-1.3385057294287714,-0.009826031848084428,-0.006738544874361135,-0.0038748898738319368
339898000000,400,339898000000,FR_wheel_link,-0.028259179745610912,0.04809512644414697,-0.037084878842596286,-0.0004367651311102396,-0.0003134464008701877,-0.00018216374983199917
339899000000,401,339899000000,FR_wheel_link,-0.10472675433248668,0.5759712663413321,-1.059218405456904,0.009659514990993118,0.0063236441888062465,0.003789671306773375
