%time,field.header.seq,field.header.stamp,field.header.frame_id,field.wrench.force.x,field.wrench.force.y,field.wrench.force.z,field.wrench.torque.x,field.wrench.torque.y,field.wrench.torque.z
339549000000,47,339545000000,BR_wheel_link,-1.0094167538851988,5.5456404319492725,21.900730230304124,-0.029364766151978215,0.09984294380177622,-0.025694701314732702
339559000000,48,339546000000,BR_wheel_link,-1.168500062413677,1.653308865611614,1.6472231734732754,0.12751987640353543,0.12197806313303525,-0.031704464581789465
339559000000,49,339547000000,BR_wheel_link,0.34209093854038974,2.156229558151794,17.379661171815982,-0.243195370808448,-0.03146920442850683,0.008235670697591848
339559000000,50,339548000000,BR_wheel_link,0.001045103133297463,-0.03746438373132311,-0.0564664163935635,-0.004454043626828961,-0.0031501503753516556,0.0007461277713649527
339559000000,51,339549000000,BR_wheel_link,-1.0093229703798774,5.546274852895055,21.90078088702561,-0.02929519545189939,0.09983170881806004,-0.025692248916181375
339559000000,52,339550000000,BR_wheel_link,-1.1683519546973438,1.653112392828282,1.6469894752442684,0.12750568162696,0.12196259840676707,-0.03170039258813396
339559000000,53,339551000000,BR_wheel_link,0.3421415678025491,2.156650652216312,17.37965523757592,-0.24314968485071073,-0.031474127286989596,0.008237495974617585
339559000000,54,339552000000,BR_wheel_link,0.0010476607567861775,-0.037470014178573735,-0.056464128847999326,-0.004454034969915304,-0.003150181959377341,0.0007459727852403876
339559000000,55,339553000000,BR_wheel_link,-1.0092356390257375,5.546902694300851,21.90083226049985,-0.029226431989601735,0.09982123749031918,-0.025689971383203416
339559000000,56,339554000000,BR_wheel_link,-1.1682031695818111,1.6529204296770106,1.6467573409709735,0.12749195258339382,0.12194703084458111,-0.03169630425265187
339559000000,57,339555000000,BR_wheel_link,0.3421912056992593,2.157068249372508,17.379645143108473,-0.24310425724068274,-0.03147894982012404,0.008239271917844541
339559000000,58,339556000000,BR_wheel_link,0.0010505544350538686,-0.03747550357226543,-0.056461685111292306,-0.004454015023824891,-0.003150236864864906,0.0007458345304919448
339559000000,59,339557000000,BR_wheel_link,-1.0091547313990872,5.547524000581126,21.900884352997945,-0.029158470332967895,0.0998115261369756,-0.025687867889062157
339559000000,60,339558000000,BR_wheel_link,-1.168053712602708,1.6527329524877166,1.6465267635180347,0.12747868679556618,0.12193136118994058,-0.03169219968188599
339559000000,61,339559000000,BR_wheel_link,0.34223984804443514,2.1574823775986096,17.37963091989981,-0.2430590856916599,-0.03148367173887593,0.008240998561266819
339559000000,62,339560000000,BR_wheel_link,0.0010537820979090143,-0.037480852358369426,-0.056459085950788364,-0.004453983819030803,-0.003150314930304189,0.0007457129031342193
339561000000,63,339561000000,BR_wheel_link,-1.0090802215941337,5.548138811496557,21.900937170186687,-0.029091305699164485,0.0998025713840451,-0.025685937671872654
339561000000,64,339562000000,BR_wheel_link,-1.167903585999125,1.652549936823859,1.6462977328316017,0.12746588181599358,0.12191558981943613,-0.031688078894410804
339561000000,65,339563000000,BR_wheel_link,0.3422874924823559,2.157893060198906,17.37961259567821,-0.24301416830725422,-0.031488292956314126,0.008242675976110034
339561000000,66,339564000000,BR_wheel_link,0.00105734198986187,-0.03748606100480487,-0.056456332152015246,-0.0044539413888715065,-0.003150416022118337,0.0007456078136012015
339566000000,67,339565000000,BR_wheel_link,-1.0090120857292557,5.548747159813663,21.900990713123225,-0.02902493397846153,0.09979437011695633,-0.025684180021910558
339566000000,68,339566000000,BR_wheel_link,-1.1677527908358605,1.652371360563475,1.6460702399252178,0.12745353543542387,0.12189971696261291,-0.031683941877808895
339566000000,69,339567000000,BR_wheel_link,0.3423341382501015,2.1583003159847554,17.379590195175304,-0.2429695035833628,-0.03149281356149984,0.00824430426384596
339566000000,70,339568000000,BR_wheel_link,0.0010612326161656214,-0.03749112995226912,-0.05645342462467135,-0.004453887767052234,-0.003150540030639062,0.0007455191856118118
339566000000,71,339569000000,BR_wheel_link,-1.008950302596651,5.549349071790396,21.901044978111617,-0.028959351676285792,0.09978691955118194,-0.025682594300358227
339566000000,72,339570000000,BR_wheel_link,-1.1676013266985086,1.652197203552015,1.6458442767177208,0.127441645643769,0.12188374266978032,-0.03167978858032409
339566000000,73,339571000000,BR_wheel_link,0.34237978502815486,2.158704160575378,17.379563741736835,-0.24292509031318574,-0.03149723369353585,0.008245883524196905
339566000000,74,339572000000,BR_wheel_link,0.0010654526656110191,-0.03749605953793792,-0.05645036436825623,-0.004453822982911168,-0.003150686863922484,0.0007454469543547938
339573000000,75,339573000000,BR_wheel_link,-1.0088948544058502,5.549944568007689,21.901099957478138,-0.028894555841593145,0.09978021731527789,-0.02568117996105725
339574000000,76,339574000000,BR_wheel_link,-1.1674491933692082,1.6520274495203084,1.6456198377842397,0.12743021078526748,0.12186766698969104,-0.031675618956355164
339575000000,77,339575000000,BR_wheel_link,0.3424244322922493,2.159104607056108,17.37953325660724,-0.2428809275012373,-0.03150155347308425,0.008247413837514522
339575000000,78,339576000000,BR_wheel_link,0.0010700010562114896,-0.03750085002893898,-0.056447152316030036,-0.004453747059800414,-0.0031508564451459683,0.0007453910657560049
339575000000,79,339577000000,BR_wheel_link,-1.0088457272775806,5.550533664928628,21.901155643641303,-0.028830544019838884,0.09977426149894998,-0.025679936563509156
339577000000,80,339578000000,BR_wheel_link,-1.1672963900121962,1.6518620846703045,1.6453969183841703,0.12741922946644227,0.1218514898874373,-0.0316714329448085
339579000000,81,339579000000,BR_wheel_link,0.3424680788685059,2.1595016663704767,17.379498758681066,-0.24283701431533136,-0.031505772955403404,0.008248895252879408
339580000000,82,339580000000,BR_wheel_link,0.0010748768834785147,-0.0375055015779369,-0.05644378933557406,-0.004453660013717201,-0.0031510487111462266,0.0007453514756877632
339580000000,83,339581000000,BR_wheel_link,-1.0088029113088817,5.551116374651072,21.901212028480717,-0.028767314253749277,0.09976905066368817,-0.025678863775097007
339584000000,84,339582000000,BR_wheel_link,-1.1671429146311776,1.651701097123172,1.6451755143164304,0.12740870049875522,0.121835211184973,-0.03166723045379467
339584000000,85,339583000000,BR_wheel_link,0.3425107227540038,2.1598953475971814,17.37946026536276,-0.24279335007857974,-0.03150989210971039,0.008250327782727404
339584000000,86,339584000000,BR_wheel_link,0.0010800794452735497,-0.03751001424563011,-0.05644027620000547,-0.004453561852395194,-0.003151263611360604,0.0007453281501386463
339584000000,87,339585000000,BR_wheel_link,-1.0087664006987016,5.551692705423854,21.901269104027083,-0.028704865054129933,0.09976458385338857,-0.025677961374443843
339584000000,88,339586000000,BR_wheel_link,-1.1669887674021133,1.6515444808720448,1.6449556248810087,0.1273986232392032,0.12181883091545445,-0.03166301145204052
339584000000,89,339587000000,BR_wheel_link,0.3425523615290331,2.160285657286621,17.379417789169654,-0.24274993425101798,-0.0315139108673804,0.008251711415399912
339584000000,90,339588000000,BR_wheel_link,0.00108560823853588,-0.03751438801420638,-0.05643661358003609,-0.004453452578448143,-0.0031515011108844003,0.0007453210653133198
339584000000,91,339589000000,BR_wheel_link,-1.0087361936100312,5.552262661668262,21.901326863924155,-0.028643195434444234,0.09976086057893578,-0.025677229246977153
339590000000,92,339590000000,BR_wheel_link,-1.1668339457157553,1.651392229588589,1.6447372476068436,0.1273889970784027,0.12180234879938835,-0.03165877583341369
339591000000,93,339591000000,BR_wheel_link,0.3425929919017926,2.160672600190958,17.379371341891332,-0.24270676646107348,-0.03151782906895443,0.008253046101391784
339591000000,94,339592000000,BR_wheel_link,0.0010914629419876286,-0.03751862273867124,-0.0564328020732914,-0.00445333218583191,-0.0031517611871914176,0.000745330207422037
339593000000,95,339593000000,BR_wheel_link,-1.0087122921765654,5.55282624335571,21.901385300048606,-0.028582304883290787,0.09975788082082487,-0.025676667386054532
339594000000,96,339594000000,BR_wheel_link,-1.1666784492461997,1.6512443432608575,1.6445203843029097,0.127379821975246,0.12178576477771184,-0.03165452355511706
339595000000,97,339595000000,BR_wheel_link,0.342632610163692,2.1610561786292513,17.379320930950584,-0.24266384647757014,-0.031521646517151045,0.008254331766994957
339596000000,98,339596000000,BR_wheel_link,0.0010976434478609657,-0.03752271822146262,-0.056428842178094095,-0.004453200662775172,-0.0031520438329495724,0.0007453555730553481
339597000000,99,339597000000,BR_wheel_link,-1.0086947025247703,5.55338344687552,21.901444406541028,-0.028522193385568283,0.09975564502925069,-0.0256762758923702
339598000000,100,339598000000,BR_wheel_link,-1.166522275828633,1.6511008225340233,1.644305035656727,0.12737109801012045,0.12176907857990237,-0.03165025452536672
339599000000,101,339599000000,BR_wheel_link,0.34267121189353283,2.161436392829352,17.37926656166875,-0.2426211742320235,-0.03152536294246578,0.008255568305395299
339599000000,102,339600000000,BR_wheel_link,0.001104149847542298,-0.03752667415914251,-0.05642473428791068,-0.0044530579904391385,-0.0031523490547489016,0.000745397168761313
339599000000,103,339601000000,BR_wheel_link,-1.008683434676805,5.553934264235892,21.90150417677898,-0.028462861421096657,0.09975415411467092,-0.025676054971870154
339599000000,104,339602000000,BR_wheel_link,-1.1663654231379623,1.6509616713041755,1.644091203983003,0.12736282558023676,0.12175228989837521,-0.03164596864906328
339603000000,105,339603000000,BR_wheel_link,0.34270879206801175,2.16181324090563,17.379208237049614,-0.24257874981616614,-0.031528978015930346,0.00825675557999933
339604000000,106,339604000000,BR_wheel_link,0.0011109824175694113,-0.037530490142406746,-0.05642047873053576,-0.0044529041426632915,-0.003152676872897303,0.000745455011380053
339605000000,107,339605000000,BR_wheel_link,-1.0086785026871692,5.554478683427695,21.90156460385341,-0.028404309941681017,0.0997534094617181,-0.025676004939717095
339606000000,108,339606000000,BR_wheel_link,-1.1662078896011752,1.650826897615892,1.643878893703675,0.12735500548403,0.12173539848561205,-0.03164166585264558
339607000000,109,339607000000,BR_wheel_link,0.3427453451416907,2.162186718625891,17.379145956667916,-0.24253657347630767,-0.03153249135823129,0.008257893426795313
339608000000,110,339608000000,BR_wheel_link,0.0011181416454972175,-0.03753416569026832,-0.05641607574970335,-0.004452739087022618,-0.003153027322415592,0.0007455291280136115
339609000000,111,339609000000,BR_wheel_link,-1.0086799245298324,5.55501668838588,21.901625681854842,-0.028346540407420042,0.09975341291792875,-0.025676126216416857
339610000000,112,339610000000,BR_wheel_link,-1.1660496726785243,1.6506965115265637,1.6436681095626664,0.12734763874240115,0.12171840397313566,-0.03163734603721626
339611000000,113,339611000000,BR_wheel_link,0.34278086489344683,2.162556819668958,17.379079717554568,-0.24249464561064296,-0.031535902523353886,0.008258981649885918
339612000000,114,339612000000,BR_wheel_link,0.0011256281940106405,-0.037537700208831175,-0.0564115255197319,-0.0044525627838150564,-0.0031534004521733727,0.0007456195558735525
339612000000,115,339613000000,BR_wheel_link,-1.008687722220115,5.555548258838082,21.901687404137842,-0.02828955475702678,0.09975416680601945,-0.025676419331872063
339614000000,116,339614000000,BR_wheel_link,-1.1658907700809698,1.6505705267443123,1.643458858125067,0.12734072673171254,0.12170130599929536,-0.031633009111765066
339615000000,117,339615000000,BR_wheel_link,0.3428153445116595,2.162923535496811,17.37900951416016,-0.24245296678050735,-0.031539211007249504,0.008260020023941678
339615000000,118,339616000000,BR_wheel_link,0.0011334429537291294,-0.037541093035929736,-0.056406828090183346,-0.004452375186535551,-0.0031537963253265547,0.0007457263424645585
339615000000,119,339617000000,BR_wheel_link,-1.0087019217477358,5.556073370600904,21.901749765133296,-0.028233355427283814,0.09975567391661366,-0.02567688492274708
339615000000,120,339618000000,BR_wheel_link,-1.1657311787375197,1.650448959186574,1.6432511463778512,0.12733427107058903,0.12168410410085816,-0.031628654964883665
339615000000,121,339619000000,BR_wheel_link,0.34284877651442575,2.1632868554219473,17.37893533817775,-0.242411537698824,-0.03154241623985027,0.008261008291837022
339615000000,122,339620000000,BR_wheel_link,0.0011415869890435974,-0.03754434338797364,-0.05640198345908288,-0.004452176241533717,-0.0031542150190559024,0.0007458495454848418
339615000000,123,339621000000,BR_wheel_link,-1.008722553124892,5.556591995122255,21.901812758462956,-0.02817794534583719,0.09975793751447591,-0.0256775237345109
339615000000,124,339622000000,BR_wheel_link,-1.1655708960915925,1.650331828796046,1.643044983454258,0.12732827376273298,0.1216667978486816,-0.03162428350018814
339615000000,125,339623000000,BR_wheel_link,0.3428811528710931,2.1636467664412766,17.378857178308927,-0.24237035924091604,-0.03154551759839346,0.008261946168274775
339624000000,126,339624000000,BR_wheel_link,0.0011500615757170586,-0.037547450406627596,-0.0563969915304544,-0.004451965888477026,-0.003154656625156584,0.0007459892329938511
339625000000,127,339625000000,BR_wheel_link,-1.0087496503936748,5.557104099796417,21.901876378343992,-0.028123327940199068,0.09976096133791483,-0.02567833662099316
339626000000,128,339626000000,BR_wheel_link,-1.1654099184871072,1.6502191574513563,1.6428403787507657,0.1273227370290523,0.12164938667830821,-0.03161989459229165
339627000000,129,339627000000,BR_wheel_link,0.3429124648242643,2.1640032535267864,17.378775021142268,-0.2423294324380334,-0.03154851438761159,0.008262833334323058
339628000000,130,339628000000,BR_wheel_link,0.0011588681792708993,-0.037550413117215076,-0.056391852135722585,-0.0044517440592626864,-0.003155121249136507,0.0007461454833025724
339632000000,131,339629000000,BR_wheel_link,-1.008783251719661,5.557609647887836,21.901940618809288,-0.02806950712243054,0.09976474960953256,-0.025679324547305652
339632000000,132,339630000000,BR_wheel_link,-1.1652482434343128,1.65011097174771,1.6426373442339146,0.12731766353935434,0.12163187012893237,-0.031615488148579375
339632000000,133,339631000000,BR_wheel_link,0.3429427031191407,2.164356299154145,17.37868884945773,-0.24228875848077783,-0.03155140586617496,0.008263669444447104
339632000000,134,339632000000,BR_wheel_link,0.0011680084771952136,-0.03755323047539703,-0.056386565001565005,-0.00445151067981686,-0.0031556090117423213,0.0007463183852953943
339632000000,135,339633000000,BR_wheel_link,-1.008823399238006,5.558108598326559,21.90200547415202,-0.02801648732474266,0.09976930702048795,-0.025680488585177155
339632000000,136,339634000000,BR_wheel_link,-1.1650858669452502,1.6500072998285855,1.642435891898336,0.12731305614445812,0.12161424756093225,-0.031611064036397844
339632000000,137,339635000000,BR_wheel_link,0.342971857763797,2.164705883774252,17.378598644178272,-0.2422483387219378,-0.031554191219261035,0.008264454119009315
339632000000,138,339636000000,BR_wheel_link,0.001177484332989225,-0.03755590131527544,-0.05638112980454267,-0.004451265667963116,-0.003156120047538688,0.0007465080381221813
339632000000,139,339637000000,BR_wheel_link,-1.0088701393228285,5.558600905972073,21.90207093851579,-0.027964273459278495,0.09977463875783128,-0.02568182992075184
339638000000,140,339638000000,BR_wheel_link,-1.1649227852690311,1.6499081734345882,1.642236035376624,0.12730891805281025,0.12159651834051488,-0.03160662213052825
339639000000,141,339639000000,BR_wheel_link,0.3429999180879926,2.1650519855921138,17.378504383194077,-0.24220817466815756,-0.03155686956586199,0.008265186946314434
339640000000,142,339640000000,BR_wheel_link,0.0011872978239355742,-0.03755842439056605,-0.056375546114723486,-0.004451008934505514,-0.0031566545055211827,0.0007467145515052291
339641000000,143,339641000000,BR_wheel_link,-1.0089235224245707,5.559086521331308,21.902137006451273,-0.027912870962123852,0.0997807504895237,-0.025683349849628383
339644000000,144,339642000000,BR_wheel_link,-1.1647589947294874,1.6498136278103825,1.642037789862309,0.1273052528183024,0.12157868182126434,-0.03160216230870202
339644000000,145,339643000000,BR_wheel_link,0.34302687284751787,2.1653945804370527,17.378406041215364,-0.24216826798947721,-0.03155943997102238,0.00826586748547916
339644000000,146,339644000000,BR_wheel_link,0.0011974512302684406,-0.03756079834639023,-0.05636981340822046,-0.004450740383373482,-0.0031572125499185004,0.000746938045657966
339644000000,147,339645000000,BR_wheel_link,-1.0089836031693789,5.559565390663695,21.90220367232121,-0.027862285769522963,0.09978764837252695,-0.025685049779783985
339644000000,148,339646000000,BR_wheel_link,-1.1645944911606094,1.6497237010501278,1.6418411715582657,0.12730206428907564,0.12156073728444895,-0.03159768443617149
339644000000,149,339647000000,BR_wheel_link,0.34305271009346094,2.165733641936673,17.37830359052516,-0.24212862052044032,-0.031561901430317764,0.008266495262469324
339644000000,150,339648000000,BR_wheel_link,0.0012079470293230956,-0.03756302173115826,-0.056363931099262105,-0.0044504599108392065,-0.0031577943591485427,0.0007471786515801703
339649000000,151,339649000000,BR_wheel_link,-1.009050440402863,5.560037455815045,21.902270930257846,-0.027812524331905192,0.09979533906016763,-0.02568693123277475
339650000000,152,339650000000,BR_wheel_link,-1.1644292703372359,1.6496384345369133,1.6416461981630464,0.1272993566421504,0.12154268398499293,-0.03159318837735413
339651000000,153,339651000000,BR_wheel_link,0.34307741725078145,2.1660691413706226,17.378197000454474,-0.24208923426279735,-0.031564252879443505,0.008267069772354568
339652000000,154,339652000000,BR_wheel_link,0.0012187879053736756,-0.03756509298638193,-0.05635789852783226,-0.004450167405896694,-0.003158400126698554,0.0007474365109589107
339653000000,155,339653000000,BR_wheel_link,-1.0091259273139384,5.56050150864199,21.902339565184366,-0.027763756469498926,0.09980404706995337,-0.02568904442166658
339654000000,156,339654000000,BR_wheel_link,-1.1642622398765297,1.6495588853899412,1.6414529715694857,0.12729725372782139,0.12152439214947425,-0.03158864513513548
339655000000,157,339655000000,BR_wheel_link,0.3431015640535507,2.166401226845262,17.378085467498263,-0.2420500672225574,-0.03156656193719165,0.008267606059081705
339656000000,158,339656000000,BR_wheel_link,0.0012299974894545926,-0.037567013957195985,-0.05635169302301149,-0.004449862481579526,-0.0031590327574532663,0.0007477119994004823
339657000000,159,339657000000,BR_wheel_link,-1.0092103875938245,5.560957231477792,21.902410017016276,-0.02771603254727301,0.09981381156826813,-0.025691397886801925
339658000000,160,339658000000,BR_wheel_link,-1.1640945431508998,1.649487698825254,1.6412631433863312,0.12729599488721532,0.12150597535760391,-0.03158408646376714
339659000000,161,339659000000,BR_wheel_link,0.3431260092868014,2.1667290631164993,17.37796665410895,-0.24201114217394706,-0.031568924881105416,0.008268127792950077
339660000000,162,339660000000,BR_wheel_link,0.0012416140313937032,-0.03756883577988849,-0.0563452770177541,-0.004449548619670129,-0.003159696410713147,0.0007480058189749946
339661000000,163,339661000000,BR_wheel_link,-1.009301323020137,5.561405774638998,21.90248212841384,-0.027669204246449166,0.09982433876978726,-0.025693924681757328
339662000000,164,339662000000,BR_wheel_link,-1.1639256163641152,1.6494205389179128,1.6410741816731094,0.1272951738484733,0.12148739572753146,-0.03157949567120428
339663000000,165,339663000000,BR_wheel_link,0.34314967481102204,2.167052677873444,17.377843284003067,-0.24197253571573793,-0.03157121529815021,0.008268605184680708
339664000000,166,339664000000,BR_wheel_link,0.001253600898660898,-0.03757052960577033,-0.05633871088771675,-0.004449224685476447,-0.003160386214303519,0.0007483176789541919
339665000000,167,339665000000,BR_wheel_link,-1.0093991129815132,5.561846901756734,21.90255462410458,-0.0276232617756156,0.0998356721096443,-0.025696635257085185
339666000000,168,339666000000,BR_wheel_link,-1.1637557664838156,1.6493578798683302,1.6408867390671371,0.12729482084945604,0.12146868493011041,-0.031574880935124526
339667000000,169,339667000000,BR_wheel_link,0.3431722642047334,2.1673723972744416,17.37771583642375,-0.2419342264323742,-0.03157340136861885,0.008269029930974425
339673000000,170,339668000000,BR_wheel_link,0.0012659508583298352,-0.037572073695333344,-0.05633199413705061,-0.004448889038298607,-0.003161101063033285,0.0007486475731910951
339673000000,175,339673000000,BR_wheel_link,-1.0096160366125766,5.5627073883644735,21.902701271774426,-0.02753399816784723,0.09986084171832398,-0.025702629044172542
339674000000,176,339674000000,BR_wheel_link,-1.1634137465426075,1.6492470552968146,1.640517005085204,0.12729560973261544,0.12143091463795458,-0.0315655919164725
339675000000,177,339675000000,BR_wheel_link,0.34321377453117735,2.1680005218931853,17.37744824036237,-0.2418584468681511,-0.03157741657161997,0.008269708604297838
339676000000,178,339676000000,BR_wheel_link,0.0012917438796823685,-0.03757468230820584,-0.05631807944860293,-0.00444817996413802,-0.003162605941156322,0.0007493618998478466
339677000000,179,339677000000,BR_wheel_link,-1.009735396703801,5.563126734021389,21.90277563280785,-0.027490685721187177,0.09987470287987754,-0.02570591823178101
339678000000,180,339678000000,BR_wheel_link,-1.1632416178960694,1.649199109499277,1.640334781656136,0.12729677433076514,0.12141185849504285,-0.031560918776232454
339678000000,181,339679000000,BR_wheel_link,0.343232642796475,2.1683088799900796,17.377307844057963,-0.24182097447523349,-0.03157924131610118,0.008269960626417699
339678000000,182,339680000000,BR_wheel_link,0.0013051939947175569,-0.03757574022991228,-0.05631087856521516,-0.004447806026745705,-0.003163396653528423,0.0007497467525995419
339678000000,183,339681000000,BR_wheel_link,-1.0098621356266386,5.563538689385827,21.902850642163184,-0.027448266092571713,0.09988942779892655,-0.02570940521155222
339682000000,184,339682000000,BR_wheel_link,-1.1630687350111906,1.6491562428391522,1.6401543629858497,0.1272984626407223,0.12139268675961626,-0.031556226304847425
339683000000,185,339683000000,BR_wheel_link,0.34325024344164495,2.1686133631137228,17.37716295453692,-0.24178378511510554,-0.031580943729809456,0.008270153822629592
339684000000,186,339684000000,BR_wheel_link,0.0013189598687568767,-0.037576578865849676,-0.05630362835873851,-0.004447418074544251,-0.0031642127984912636,0.0007501503728024133
339685000000,187,339685000000,BR_wheel_link,-1.0099963868849051,5.563942829662486,21.90292455333664,-0.02740673345421841,0.09990503292926602,-0.02571309426027439
339686000000,188,339686000000,BR_wheel_link,-1.1628952601017475,1.6491188996642492,1.639976422476513,0.1273007019659662,0.1213734148654424,-0.031551518736531406
339687000000,189,339687000000,BR_wheel_link,0.3432664067451622,2.168914152650634,17.37701422178579,-0.241746876317212,-0.03158250507739846,0.008270283109670904
339688000000,190,339688000000,BR_wheel_link,0.001332993722752055,-0.0375771448947472,-0.05629642085910114,-0.00444701425832486,-0.003165053187937928,0.0007505728589692142
339689000000,191,339689000000,BR_wheel_link,-1.0101383708574134,5.5643388819535256,21.902995949701683,-0.02736607490715881,0.09992154412125703,-0.025716992063333145
339690000000,192,339690000000,BR_wheel_link,-1.1627214160241837,1.6490875878851519,1.6398016523959216,0.12730352598445963,0.1213540647609135,-0.03154680197706649
339691000000,193,339691000000,BR_wheel_link,0.3432808981462066,2.1692114923626407,17.376862238724865,-0.24171023748863094,-0.031583899679642834,0.008270341635078955
339692000000,194,339692000000,BR_wheel_link,0.0013473965915534593,-0.0375775147889426,-0.056289055646782195,-0.004446594719278533,-0.003165917931010921,0.0007510143077683077
339693000000,195,339693000000,BR_wheel_link,-1.0102882489509233,5.564727473257909,21.903068020533805,-0.02732631852902438,0.09993897724830621,-0.025721101778718673
339694000000,196,339694000000,BR_wheel_link,-1.1625469973296385,1.6490618517498143,1.639629037530715,0.1273069179654911,0.12133461634714535,-0.03154207073243657
339695000000,197,339695000000,BR_wheel_link,0.34329386526955696,2.1695050292129014,17.376705676818514,-0.24167387086418118,-0.031585145360106856,0.008270333390954432
339696000000,198,339696000000,BR_wheel_link,0.0013621833775611027,-0.03757770247286153,-0.056281510466194694,-0.004446160684190569,-0.0031668089178659435,0.000751475135127941
339697000000,199,339697000000,BR_wheel_link,-1.0104460163803275,5.565108418265732,21.903141024127756,-0.027287493625979115,0.09995733210086198,-0.02572542287297936
339701000000,200,339698000000,BR_wheel_link,-1.1623718593749268,1.6490415664119527,1.639458363291097,0.12731087162787968,0.12131505403276305,-0.03153732108927672
339701000000,203,339701000000,BR_wheel_link,-1.010611702540331,5.565481448104522,21.903214663413536,-0.027249621967728024,0.09997661263987254,-0.025729955949550257
339702000000,204,339702000000,BR_wheel_link,-1.162195937052211,1.6490267631109008,1.6392896564018367,0.12731538994261982,0.12129537021196915,-0.03153255124272996
339703000000,205,339703000000,BR_wheel_link,0.34331565500785677,2.1700798565781634,17.376378041299386,-0.24160202127846625,-0.031587238330618495,0.008270127049759884
339704000000,206,339704000000,BR_wheel_link,0.0013929405501584833,-0.03757753486819911,-0.056265915037428525,-0.004445250295454722,-0.0031686735939885115,0.0007524565709267794
339705000000,207,339705000000,BR_wheel_link,-1.0107853996631584,5.5658463648529874,21.903288729015895,-0.027212719987873935,0.09999682975019035,-0.025734703406664044
339706000000,208,339706000000,BR_wheel_link,-1.1620192145104906,1.649017532915068,1.639122988201316,0.12732048096961238,0.12127556250099106,-0.03152776073301538
339707000000,209,339707000000,BR_wheel_link,0.34332450536697856,2.170360950752874,17.37620694250958,-0.24156655788355874,-0.03158808929379083,0.008269928959585298
339708000000,210,339708000000,BR_wheel_link,0.0014089219482568683,-0.037577173006131545,-0.056257873705136574,-0.004444773647542542,-0.003169648272203734,0.0007529778308795497
339709000000,211,339709000000,BR_wheel_link,-1.010967237296984,5.566203027658702,21.903363153769227,-0.027176802014975358,0.10001799838006847,-0.025739668680938802
339710000000,212,339710000000,BR_wheel_link,-1.1618416951904937,1.6490139848094783,1.638958422927875,0.1273261549818206,0.12125563060840028,-0.03152294963794855
339710000000,213,339711000000,BR_wheel_link,0.34333195193275423,2.170637755720647,17.376030932204124,-0.24153140826583777,-0.03158880603022932,0.008269665951517569
339712000000,214,339712000000,BR_wheel_link,0.0014253122828880196,-0.03757662040811776,-0.05624966842828434,-0.00444428232180273,-0.0031706516592009382,0.0007535198484047307
339713000000,215,339713000000,BR_wheel_link,-1.011157358908743,5.566551314887043,21.903437942432962,-0.027141882401239478,0.10004013500396677,-0.025744855584073762
339716000000,216,339714000000,BR_wheel_link,-1.1616633839395516,1.6490162290421686,1.6387960121236445,0.12733242283536206,0.1212355744037516,-0.031518118081124695
339716000000,218,339716000000,BR_wheel_link,0.0014421174147968515,-0.03757587325125114,-0.056241296117860114,-0.004443776030598644,-0.0031716841479782535,0.0007540829359446077
339717000000,219,339717000000,BR_wheel_link,-1.0113559109923826,5.5668911011649875,21.903513114644877,-0.027107976386362517,0.10006325645729118,-0.02575026800034698
339718000000,220,339718000000,BR_wheel_link,-1.1614842814504516,1.649024374515021,1.6386358011990652,0.12733929546814146,0.12121539329624445,-0.03151326607552919
339719000000,221,339719000000,BR_wheel_link,0.3433424884672294,2.171178264135871,17.37566384345769,-0.24146206509590662,-0.03158982295776359,0.008268939580144132
339721000000,222,339720000000,BR_wheel_link,0.0014593436322340812,-0.037574927824028416,-0.056232753864177205,-0.004443254499956284,-0.003172746180979429,0.0007546674275079028
339721000000,223,339721000000,BR_wheel_link,-1.0115630411749155,5.567222249847843,21.903588680363764,-0.0270751002081184,0.10008737974042461,-0.02575590983742195
339721000000,224,339722000000,BR_wheel_link,-1.1613043847137365,1.6490385308105397,1.6384778351690834,0.1273467839327531,0.12119508627169338,-0.03150839353367473
339721000000,225,339723000000,BR_wheel_link,0.34334551598968505,2.171441830508089,17.375472578699426,-0.2414278804860176,-0.031590117350160395,0.008268473657077308
339724000000,226,339724000000,BR_wheel_link,0.001476997602896606,-0.03757378041150092,-0.05622403908499085,-0.004442717461399405,-0.0031738382386250386,0.0007552736769009512
339725000000,227,339725000000,BR_wheel_link,-1.011778899410266,5.567544613444837,21.903664637993685,-0.027043271001228143,0.10011252215550058,-0.025761785061243006
339726000000,228,339726000000,BR_wheel_link,-1.16112368884371,1.6490588104430155,1.638322161452998,0.12735489954732615,0.12117465208413696,-0.03150350031671488
339727000000,229,339727000000,BR_wheel_link,0.3433470121284222,2.1717008365094554,17.37527603939302,-0.24139402748161853,-0.03159026561574846,0.008267937618907643
339728000000,230,339728000000,BR_wheel_link,0.0014950862753416157,-0.03757242719539213,-0.05621514944982445,-0.00444216464414959,-0.003174960829208991,0.0007559020544265391
339729000000,231,339729000000,BR_wheel_link,-1.012003639765668,5.567858035834436,21.903740978326184,-0.02701250666776228,0.10013870149919481,-0.025767897746602205
339730000000,232,339730000000,BR_wheel_link,-1.1609421881054265,1.649085329905435,1.6381688301343396,0.12736365399578445,0.12115408936652247,-0.031498586262742954
339731000000,233,339731000000,BR_wheel_link,0.343346948993017,2.171955200863859,17.37507412793447,-0.24136051176036794,-0.03159026523582402,0.008267330232955832
339732000000,234,339732000000,BR_wheel_link,0.0015136168306851515,-0.03757086419442784,-0.05620608270984748,-0.004441595768318658,-0.0031761144810084595,0.0007565529450015259
339733000000,235,339733000000,BR_wheel_link,-1.0122374216238768,5.568162354056414,21.903817687924594,-0.02698282578277173,0.1001659361929919,-0.02577425211115348
339734000000,236,339734000000,BR_wheel_link,-1.160759876866519,1.6491182105443454,1.6380178942756738,0.1273730594174569,0.12113339673380921,-0.03149365121295662
339735000000,237,339735000000,BR_wheel_link,0.3433452977129578,2.1722048393354303,17.374866744204823,-0.2413273392386691,-0.03159011359688989,0.008266650221751118
339736000000,238,339736000000,BR_wheel_link,0.0015325967312589414,-0.037569087275927913,-0.05619683649869997,-0.004441010543421873,-0.0031772997402741035,0.0007572267474693841
339737000000,239,339737000000,BR_wheel_link,-1.0124804100993903,5.5684573991870865,21.903894752610903,-0.026954247598239927,0.10019424532808759,-0.025780852525926018
339738000000,240,339738000000,BR_wheel_link,-1.1605767500903612,1.6491575789972621,1.6378694097689193,0.12738312845976513,0.12111257283632604,-0.03148869502543682
339739000000,241,339739000000,BR_wheel_link,0.3433420284454528,2.1724496645077584,17.37465378341925,-0.24129451603719781,-0.03158980799351243,0.008265896263060962
339740000000,242,339740000000,BR_wheel_link,0.0015520336688605609,-0.03756709215755917,-0.056187408410167616,-0.0044404086688187,-0.0031785171725951687,0.0007579238748609963
339741000000,243,339741000000,BR_wheel_link,-1.012732776306318,5.568742996627551,21.90397215822898,-0.02692679203773891,0.10022364869539993,-0.025787703523017114
339741000000,244,339742000000,BR_wheel_link,-1.1603928021121073,1.6492035657459794,1.637723433808183,0.12739387416700138,0.12109161622969315,-0.03148371754166439
339743000000,245,339743000000,BR_wheel_link,0.34333711008999074,2.172689586227701,17.374435137476468,-0.24126204847133817,-0.031589345597530044,0.00826506698146908
339744000000,246,339744000000,BR_wheel_link,0.0015719355967466005,-0.03756487436988626,-0.056177795907358476,-0.004439789831994058,-0.003179767361897048,0.0007586447544195343
339745000000,247,339745000000,BR_wheel_link,-1.0129946973690587,5.569018965577037,21.90404988928275,-0.02690047971070708,0.10025416678595736,-0.025794809795756376
339746000000,248,339746000000,BR_wheel_link,-1.1602080287315824,1.6492563078741758,1.6375800273843188,0.12740531020562165,0.12107052559582043,-0.03147871864385693
339747000000,249,339747000000,BR_wheel_link,0.34333051067722214,2.1729245109219826,17.37421069332237,-0.24122994307880882,-0.03158872350127136,0.008264160959502293
339748000000,250,339748000000,BR_wheel_link,0.0015923107648073908,-0.03756242932558098,-0.056167996324362215,-0.004439153710771317,-0.003181050912947646,0.0007593898284631732
339749000000,251,339749000000,BR_wheel_link,-1.0132663564458122,5.569285119368007,21.904127931315177,-0.026875331950479607,0.10028582079569674,-0.02580217619832288
339750000000,252,339750000000,BR_wheel_link,-1.1600224249672906,1.6493159461860207,1.6374392525483727,0.12741745063513357,0.12104929950518568,-0.03147369819351458
339751000000,253,339751000000,BR_wheel_link,0.34332219719007095,2.173154341731896,17.373980333026203,-0.24119820660621263,-0.031587938698677376,0.008263176731643772
339752000000,254,339752000000,BR_wheel_link,0.0016131676488970008,-0.03755975225237979,-0.05615800697556715,-0.004438499972049913,-0.0031823684513285063,0.0007601595542449715
339753000000,255,339753000000,BR_wheel_link,-1.0135479428526595,5.569541264645118,21.904206267535727,-0.02685137080461191,0.10031863263906086,-0.025809807750380748
339754000000,256,339754000000,BR_wheel_link,-1.1598359865594503,1.6493826274517054,1.637301174701384,0.1274303100817428,0.12102793657381206,-0.03146865607235856
339755000000,257,339755000000,BR_wheel_link,0.3433121356312824,2.173378978432717,17.373743934918533,-0.2411668460483456,-0.03158698809168195,0.008262112786350547
339756000000,258,339756000000,BR_wheel_link,0.0016345236387965566,-0.03755684570318631,-0.0561478086720986,-0.0044378283999042725,-0.003183720704722718,0.0007609544120342409
339757000000,259,339757000000,BR_wheel_link,-1.013839628074345,5.569787196939102,21.904284980470717,-0.026828622712763133,0.10035262217671943,-0.025817708909962336
339758000000,260,339758000000,BR_wheel_link,-1.1596486923093303,1.6494564825596225,1.6371658421114221,0.1274439020401692,0.12100643359986984,-0.03146359170263895
339759000000,261,339759000000,BR_wheel_link,0.3433003182812545,2.173598286696325,17.373501358294646,-0.24113587149354923,-0.03158587142541679,0.008260968323314974
339760000000,262,339760000000,BR_wheel_link,0.0016563823532423074,-0.03755370010570096,-0.05613741231441122,-0.004437138656560604,-0.0031851084035134924,0.0007617749211023192
339761000000,263,339761000000,BR_wheel_link,-1.0141416243054022,5.57002271089476,21.90436400269716,-0.026807109560739686,0.10038781402546008,-0.025825885331244528
339762000000,264,339762000000,BR_wheel_link,-1.1594605347524782,1.649537655770551,1.6370332991310232,0.1274582415448339,0.120984788857541,-0.031458504887155125
339763000000,265,339763000000,BR_wheel_link,0.3432866999289748,2.1738121666054497,17.373252449039946,-0.2411052890426462,-0.03158458447045386,0.008259741477708476
339764000000,266,339764000000,BR_wheel_link,0.0016787506243169136,-0.037550308067197107,-0.05612681787908965,-0.004436430318057593,-0.0031865321906545895,0.0007626215632372745
339765000000,267,339765000000,BR_wheel_link,-1.0144541580997866,5.570247622091256,21.90444336306372,-0.026786853870798873,0.10042423431245472,-0.025834343053507798
339766000000,268,339766000000,BR_wheel_link,-1.1592715169068082,1.6496263083608083,1.636903599368458,0.12747334523204687,0.12096300170981165,-0.03145339571715089
339767000000,269,339767000000,BR_wheel_link,0.34327122988129355,2.1740205186778225,17.372997038496628,-0.24107510435754487,-0.031583122430631085,0.008258430220661863
339768000000,270,339768000000,BR_wheel_link,0.0017016378727972754,-0.0375466640310934,-0.05611602016163589,-0.00443570297545942,-0.0031879927404849257,0.0007634948372896209
339769000000,271,339769000000,BR_wheel_link,-1.0147774386662807,5.570461688482709,21.90452297112522,-0.02676788104207768,0.10046190732637228,-0.02584308765404509
339770000000,272,339770000000,BR_wheel_link,-1.1590816466139024,1.6497226373942502,1.6367768714557231,0.12748923130559453,0.12094107182083409,-0.031448264391952856
339770000000,273,339771000000,BR_wheel_link,0.34325386827829113,2.17422323564362,17.372735040604468,-0.24104532606266454,-0.03158148156058601,0.008257032794460913
339770000000,274,339772000000,BR_wheel_link,0.0017250537674547597,-0.037542761819875196,-0.05610501739828624,-0.0044349561995774955,-0.0031894907455790665,0.000764395287285103
339773000000,275,339773000000,BR_wheel_link,-1.0151116889066276,5.570664679188105,21.90460278090118,-0.026750216613342346,0.10050085891501674,-0.025852125058285966
339774000000,276,339774000000,BR_wheel_link,-1.1588909234273708,1.6498268230873572,1.636653203738997,0.12750591743038872,0.12091899803178971,-0.031443110897701944
339775000000,277,339775000000,BR_wheel_link,0.3432345736332159,2.1744202028664326,17.372466320210908,-0.24101596226627742,-0.03157965801772859,0.00825554737884738
339776000000,278,339776000000,BR_wheel_link,0.0017490085005231015,-0.03753859550154341,-0.056093806298844154,-0.004434189574898887,-0.0031910269492045782,0.0007653234675423814
339777000000,279,339777000000,BR_wheel_link,-1.0154571385909124,5.570856360937588,21.904682770324893,-0.0267338871580064,0.10054111570829999,-0.025861461369859822
339777000000,280,339778000000,BR_wheel_link,-1.1586993465191588,1.6499390482731462,1.6365326800062718,0.12752342172777517,0.12089677912790443,-0.03143793521337301
339777000000,281,339779000000,BR_wheel_link,0.34321330528883986,2.174611298656909,17.37219072501558,-0.24098702136038652,-0.031577648080953306,0.00825397215598325
339780000000,282,339780000000,BR_wheel_link,0.0017735125922040936,-0.037534159064850504,-0.05608238346447051,-0.004433402686670074,-0.003192602132920983,0.0007662799505422302
339781000000,283,339781000000,BR_wheel_link,-1.0158140236253475,5.571036492152889,21.904762916672215,-0.026718920203777124,0.10058270505592536,-0.025871102854459024
339781000000,284,339782000000,BR_wheel_link,-1.158506913487368,1.6500594993215636,1.6364153844455855,0.12754176271495044,0.12087441369482049,-0.03143273727582679
339783000000,285,339783000000,BR_wheel_link,0.3431900222360218,2.17479639647663,17.371908097600503,-0.24095851210397987,-0.031575448008923035,0.008252305276174349
339784000000,286,339784000000,BR_wheel_link,0.001798576912653125,-0.03752944632484285,-0.0560707454419199,-0.004432595110193004,-0.0031942171053509012,0.0007672653270160608
339785000000,287,339785000000,BR_wheel_link,-1.016182586690352,5.571204822758352,21.904843193700497,-0.026705344165085302,0.10062565510132197,-0.025881055958148085
339786000000,288,339786000000,BR_wheel_link,-1.158313622984732,1.650188369695995,1.6363014054064338,0.12756095957740823,0.12085190039368712,-0.031427517051038446
339787000000,289,339787000000,BR_wheel_link,0.34316468267133304,2.174975365374151,17.371618274814143,-0.24093044356120535,-0.03157305399222447,0.008250544845245626
339788000000,290,339788000000,BR_wheel_link,0.0018242126128206729,-0.037524450881234045,-0.05605888876740306,-0.0044317664085190365,-0.0031958727003731117,0.0007682802060072245
339789000000,291,339789000000,BR_wheel_link,-1.0165630778298784,5.571361094617757,21.904923572178202,-0.026693188313381914,0.10066999484699808,-0.025891327324323282
339790000000,292,339790000000,BR_wheel_link,-1.15811947428372,1.650325859594892,1.6361908349572225,0.1275810321435032,0.12082923791512439,-0.03142227452240286
339791000000,293,339791000000,BR_wheel_link,0.3431372434298539,2.1751480704671016,17.371321088246045,-0.24090282506138178,-0.03157046209302262,0.008248688908780215
339792000000,294,339792000000,BR_wheel_link,0.0018504311857173179,-0.03751916614322806,-0.0560468098454216,-0.004430916131064042,-0.0031975697758936175,0.0007693252146346165
339793000000,295,339793000000,BR_wheel_link,-1.0169557547418866,5.571505041886267,21.90500402229679,-0.026682482804598808,0.10071575418729052,-0.025901923800804864
339794000000,296,339794000000,BR_wheel_link,-1.15792446705263,1.6504721756011707,1.6360837681578602,0.12760200086762977,0.12080642495503381,-0.031417009684647085
339795000000,297,339795000000,BR_wheel_link,0.3431076600794478,2.1753143726996944,17.37101636342039,-0.2408756662023821,-0.03156766825512726,0.008246735453848224
339796000000,298,339796000000,BR_wheel_link,0.001877244407646288,-0.03751358525247647,-0.05603450503819704,-0.0044300438132342254,-0.0031993092148202376,0.0007704009987860293
339797000000,299,339797000000,BR_wheel_link,-1.017360882969618,5.571636390699867,21.905084511707464,-0.026673258661294028,0.10076296392963881,-0.025912852446080326
339798000000,300,339798000000,BR_wheel_link,-1.157728602605698,1.650627532536015,1.6359803048270074,0.12762388698079477,0.12078346034562237,-0.031411722577941795
339799000000,301,339799000000,BR_wheel_link,0.3430758868486396,2.175474128857807,17.370703919545093,-0.24084897684352527,-0.03156466829827315,0.00824468240721234
339800000000,302,339800000000,BR_wheel_link,0.0019046643967120464,-0.03750770116927027,-0.05602197057144819,-0.004429148976478911,-0.0032010919257220967,0.000771508223409552
339801000000,303,339801000000,BR_wheel_link,-1.017778736009128,5.5717548590643275,21.905165007139594,-0.026665547831434627,0.1008116558080111,-0.02592412053095278
339802000000,304,339802000000,BR_wheel_link,-1.1575318822891265,1.6507921514330184,1.6358805475498253,0.12764671233030617,0.12076034288461807,-0.03140641324394642
339803000000,305,339803000000,BR_wheel_link,0.34304187670212627,2.175627191281291,17.37038356989453,-0.24082276714327597,-0.0315614579249557,0.008242527636345216
339804000000,306,339804000000,BR_wheel_link,0.0019327036078204756,-0.0375015066009448,-0.056009202575267446,-0.0044282311281310105,-0.0032029188436614644,0.0007726475731813995
339805000000,307,339805000000,BR_wheel_link,-1.0182095953857977,5.5718601564821295,21.905245473084122,-0.026659383191743907,0.10086186249253067,-0.025935735541126576
339806000000,308,339806000000,BR_wheel_link,-1.157334308772991,1.6509662613557012,1.635784603364037,0.12767049952866022,0.12073707147072367,-0.03140108176099261
339807000000,309,339807000000,BR_wheel_link,0.34300558140216664,2.1757734077526725,17.37005512069096,-0.2407970475440641,-0.03155803272968934,0.008240268950975377
339808000000,310,339808000000,BR_wheel_link,0.0019613748340749576,-0.03749499405497986,-0.05599619709173469,-0.004427289761600174,-0.003204790931490855,0.0007738197528998296
339809000000,311,339809000000,BR_wheel_link,-1.0186537508612494,5.571951983805395,21.905325872246106,-0.02665479858053412,0.10091361761317216,-0.025947705182449227
339810000000,312,339810000000,BR_wheel_link,-1.1571358860141807,1.6511500994734087,1.6356925836333636,0.1276952719624275,0.1207136450981586,-0.031395728242997266
339811000000,313,339811000000,BR_wheel_link,0.3429669515641515,2.1759126211452617,17.36971837114468,-0.2407718288057762,-0.031554388203516304,0.008237904103979257
339812000000,314,339812000000,BR_wheel_link,0.001990691185709554,-0.03748815574740628,-0.055982950123921876,-0.004426324356162439,-0.003206709180259683,0.0007750254880318604
339813000000,315,339813000000,BR_wheel_link,-1.0191115005535418,5.572030032621769,21.90540616378689,-0.02665182881006669,0.10096695577466148,-0.025960037384600038
339814000000,316,339814000000,BR_wheel_link,-1.1569366183398715,1.6513439101899086,1.6356046035890226,0.1277210537159316,0.12069006275941137,-0.0313903528145348
339815000000,317,339815000000,BR_wheel_link,0.34292593642185715,2.1760446698380536,17.369373114610976,-0.24074712199768716,-0.031550519709836355,0.008235430784191382
339816000000,318,339816000000,BR_wheel_link,0.0020206661688216576,-0.03748098370710857,-0.055969457517771805,-0.004425334375690146,-0.0032086746089926618,0.0007762655250936393
339817000000,319,339817000000,BR_wheel_link,-1.0195831512243057,5.572093985805416,21.905486306055703,-0.026650509693681296,0.10102191258882241,-0.025972740307929867
339818000000,320,339818000000,BR_wheel_link,-1.1567365116319817,1.651547946499734,1.635520782937471,0.12774786969798393,0.12066632356975418,-0.031384955643158824
339819000000,321,339819000000,BR_wheel_link,-0.43548806840672083,1.0428304632816758,14.903821272932584,-0.3026259635113545,0.05643405846895056,-0.012753979991000681
339820000000,322,339820000000,BR_wheel_link,0.007724185883907984,-0.05762662347057069,-0.11330380906315356,-0.007686390994207968,0.0013808345203338481,0.001251447355930361
339821000000,323,339821000000,BR_wheel_link,-3.8052878620194415,3.9347223274615937,13.516026514552587,0.041700272368146565,0.3803936880878478,-0.10498090393335655
339822000000,324,339822000000,BR_wheel_link,0.0405227438945121,-0.274387257823915,1.3093829853966112,-0.026669189420357405,0.00028357037373645435,-0.00451141255913847
339823000000,325,339823000000,BR_wheel_link,-2.2057801943345887,5.951989026016511,26.00568848411847,-0.13614103158614885,0.22803858379728523,-0.05409478395553738
339824000000,326,339824000000,BR_wheel_link,-0.1160318933106895,0.04830788255994293,0.02623134903698063,0.0025113831331839555,0.012944822733566308,-0.003062506822711511
339825000000,327,339825000000,BR_wheel_link,-0.2601237535126655,1.9532101743334895,17.140962850788227,-0.2630871441160125,0.03759830298132106,-0.007655255926560059
339826000000,328,339826000000,BR_wheel_link,-0.01951525155986046,-0.03742944951391089,-0.04934043050070964,-0.005009575567337175,-0.0007901345909404745,0.0004354481839016228
339827000000,329,339827000000,BR_wheel_link,-1.2258232646149336,5.5990003957384396,21.87802131587395,-0.025118054816022244,0.12382844952858567,-0.03128813792932809
339828000000,330,339828000000,BR_wheel_link,-1.306611766934359,1.7323392207736281,1.7055974227160575,0.13380609409600652,0.1371384911938764,-0.03545463350533073
339829000000,331,339829000000,BR_wheel_link,0.23325618639278609,2.2774357735367636,17.26355279832688,-0.2279000421328494,-0.020280789418596276,0.0053658061288768865
339830000000,332,339830000000,BR_wheel_link,-0.0053042147654990225,-0.028727401860200386,-0.0622215777803059,-0.003875357032382189,-0.002835505262366712,0.0006902894780684313
339831000000,333,339831000000,BR_wheel_link,-1.061993587466496,5.628084888821666,21.785059887617567,-0.01752218596667916,0.10508397904521566,-0.027082680079275827
339832000000,334,339832000000,BR_wheel_link,-1.2296435226664852,1.7732606503039674,1.72575766001787,0.13823959860294766,0.1281701203451325,-0.03339037098726942
339833000000,335,339833000000,BR_wheel_link,0.3048540807896094,2.2393548224711224,17.30209830785922,-0.23242980933945417,-0.027991916670360724,0.0072241617046338484
339834000000,336,339834000000,BR_wheel_link,-0.0020286930426056267,-0.032383110392117644,-0.060966764305973906,-0.004058366312823651,-0.0030950753916830775,0.0007159373972453783
339835000000,337,339835000000,BR_wheel_link,-1.0354512516676035,5.5988067889734525,21.805465071141864,-0.021043017587949485,0.1024018869587441,-0.026397638159091096
339836000000,338,339836000000,BR_wheel_link,-1.1971965041449784,1.7247888411821846,1.6938456084749725,0.13396697756530845,0.12479389989296659,-0.0324999699715663
339837000000,339,339837000000,BR_wheel_link,0.32351685488933307,2.212055747887332,17.33855997608478,-0.23620709752004293,-0.029751137004604477,0.007717642555215375
339838000000,340,339838000000,BR_wheel_link,-0.0004580237803957222,-0.03463306116054653,-0.05944225822977967,-0.004209612946835353,-0.0031391384108709498,0.0007380380336960677
339839000000,341,339839000000,BR_wheel_link,-1.0281246926337,5.5865065536421685,21.83612152661884,-0.023188404876356466,0.10177447171663064,-0.026208453630641157
339840000000,342,339840000000,BR_wheel_link,-1.181257535767329,1.6941587552744866,1.672022977244565,0.13128214221887535,0.12317939653248491,-0.032061316662339454
339841000000,343,339841000000,BR_wheel_link,0.3303783636531521,2.1996956021979712,17.356549689237728,-0.23796720146253736,-0.03033775090896614,0.007900062280109687
339842000000,344,339842000000,BR_wheel_link,0.00044483239039789976,-0.03583184605429556,-0.058045738303192776,-0.004294616460162608,-0.0031521465616323446,0.0007498612702121515
339843000000,345,339843000000,BR_wheel_link,-1.0251754412524687,5.584153849543207,21.865241020021575,-0.02424559413015638,0.10154442464317942,-0.026133813606775497
339844000000,346,339844000000,BR_wheel_link,-1.172244038203275,1.6763299879999403,1.657246326264957,0.12978131384342767,0.12227094797263004,-0.0318142317137055
339845000000,347,339845000000,BR_wheel_link,0.3340792505006439,2.193398013890489,17.363177730533916,-0.2387965018954467,-0.03065536544497213,0.007999283674037376
339846000000,348,339846000000,BR_wheel_link,0.0010143949534256115,-0.036520271466454104,-0.057051389165425445,-0.004343997765607984,-0.0031633073105486625,0.000756762484974226
339847000000,349,339847000000,BR_wheel_link,-1.0230753480941,5.584200849734049,21.885625071457603,-0.02480563678157924,0.10136256714933728,-0.02607958396731092
339848000000,350,339848000000,BR_wheel_link,-1.1663676386693154,1.665487910419808,1.6473661216785442,0.12889854915325333,0.12167416131885185,-0.031653741925444324
339849000000,351,339849000000,BR_wheel_link,0.3369942067936619,2.189449211138568,17.36536062016052,-0.23926319056249132,-0.030926093608761862,0.0080783885495191
339850000000,352,339850000000,BR_wheel_link,0.0013846116086258943,-0.036942596746636594,-0.05646932011682892,-0.004375286829395187,-0.003175063900556406,0.000761621567388148
339851000000,353,339851000000,BR_wheel_link,-1.0211876156267201,5.584068289814877,21.8971063384185,-0.025137443049887218,0.10118241360011196,-0.026029367861837904
339852000000,354,339852000000,BR_wheel_link,-1.1622712868190828,1.6587127054894428,1.641066541200151,0.1283525092201545,0.12125311748915026,-0.031541992063555714
339853000000,355,339853000000,BR_wheel_link,0.3394702746453154,2.186745173993756,17.366340427103587,-0.23956841327095144,-0.03116863801535845,0.008146106239116303
339854000000,356,339854000000,BR_wheel_link,0.0016234204710436682,-0.03720769418495849,-0.05617885070483678,-0.004395820957371476,-0.003185542273989251,0.000765184540902032
339855000000,357,339855000000,BR_wheel_link,-1.0194976385943333,5.583640201372844,21.902482674088024,-0.025329646587123486,0.10101218076078497,-0.025983760128327697
339856000000,358,339856000000,BR_wheel_link,-1.1594432718678165,1.6543802039079434,1.6371999501019112,0.1279985691057383,0.12096006003989604,-0.03146474453202744
339857000000,359,339857000000,BR_wheel_link,0.34136843173198467,2.184996626439984,17.36719409219172,-0.23977111418404148,-0.03135859010341478,0.008198290241785556
339858000000,360,339858000000,BR_wheel_link,0.001771673014777173,-0.03737205836379948,-0.05605228673200092,-0.004409057984502519,-0.0031932298765287317,0.0007675779499557963
339859000000,361,339859000000,BR_wheel_link,-1.0181782221552764,5.5832621257603465,21.904622225909947,-0.025425514608208268,0.10087599825687575,-0.025948005457452596
339860000000,362,339860000000,BR_wheel_link,-1.1575696608649444,1.6516429636845373,1.6348997459990384,0.12777028434886156,0.12076494279459235,-0.031413458008907776
339861000000,363,339861000000,BR_wheel_link,0.3426715491019008,2.184033247618273,17.368005180663207,-0.23989104178630455,-0.03148990401799956,0.008234341433090523
339862000000,364,339862000000,BR_wheel_link,0.001860101938692833,-0.03747201641500243,-0.05599996994319261,-0.004417241374553716,-0.003198087225183598,0.000768977621949856
339863000000,365,339863000000,BR_wheel_link,-1.017251035750861,5.583166967438661,21.9054264185155,-0.025453534431492564,0.10077881308467145,-0.025922900342313506
339864000000,366,339864000000,BR_wheel_link,-1.1563731875873495,1.6499241580633741,1.6335174241032264,0.127624720739743,0.12064011691744142,-0.03138063207505093
339865000000,367,339865000000,BR_wheel_link,0.343489766876396,2.1836473481474097,17.368665974145845,-0.23994684331403957,-0.031572324067978504,0.008257225594066808
339865000000,368,339866000000,BR_wheel_link,0.0019111914716485176,-0.037532581519626525,-0.05597512265703857,-0.004422105687632756,-0.003200801081244335,0.0007696513399381143
339867000000,369,339867000000,BR_wheel_link,-1.016636734466158,5.583380260109026,21.905815573299677,-0.025436937651057794,0.10071342983736027,-0.02590631810786231
339868000000,370,339868000000,BR_wheel_link,-1.1556171342232702,1.648826496863445,1.6326367793442342,0.12753150751836606,0.12056131584422798,-0.03135984363213773
339869000000,371,339869000000,BR_wheel_link,0.34397716531746203,2.18363461829543,17.36912883638044,-0.23995849926060073,-0.03162121764667687,0.008271129672571804
339870000000,372,339870000000,BR_wheel_link,0.0019402453362024183,-0.03757016233983487,-0.05595913354392411,-0.004424933031947942,-0.003202168676249749,0.0007698688837591314
339871000000,373,339871000000,BR_wheel_link,-1.016231173136464,5.583820364801952,21.906110024247152,-0.025393548148333885,0.10066940401975466,-0.02589540622085981
339872000000,374,339872000000,BR_wheel_link,-1.1551251442370771,1.6480927034595518,1.6320225497581742,0.12746991404212668,0.12051018169709955,-0.03134628795381484
339873000000,375,339873000000,BR_wheel_link,0.34426710452124204,2.183836993498042,17.369418581185826,-0.2399431379083274,-0.0316501650469641,0.008279674084681775
339874000000,376,339874000000,BR_wheel_link,0.001956870103299041,-0.03759473080396604,-0.05594674493661009,-0.004426578573401989,-0.0032028027185911387,0.0007698369643634594
339875000000,377,339875000000,BR_wheel_link,-1.0159496027697326,5.584390535483262,21.90637048008604,-0.025335462778813937,0.10063808485634675,-0.025887842692351715
339876000000,378,339876000000,BR_wheel_link,-1.1547820359413705,1.6475680233675305,1.6315532727793154,0.127426813482756,0.12047462582443488,-0.03133681624599873
339877000000,379,339877000000,BR_wheel_link,0.3444497816696031,2.1841524903517096,17.369588245191512,-0.23991280354976605,-0.031668369661895825,0.008285299686414727
339878000000,380,339878000000,BR_wheel_link,0.0019666462427634546,-0.03761189788731626,-0.05593721320639938,-0.004427557644467131,-0.0032030797720773506,0.0007696866037434988
339879000000,381,339879000000,BR_wheel_link,-1.0157379519600094,5.5850197912496204,21.906586334771422,-0.025269980904980966,0.10061395266130438,-0.025882154278449823
339880000000,382,339880000000,BR_wheel_link,-1.1545203723687039,1.647165146951886,1.6311690367043423,0.1273945015244533,0.12044754475962739,-0.0313295802258512
339881000000,383,339881000000,BR_wheel_link,0.34457658240080896,2.1845240290797467,17.369686740883836,-0.2398747487978443,-0.031681040125357454,0.008289390678134865
339882000000,384,339882000000,BR_wheel_link,0.0019727059543838132,-0.03762470711151391,-0.055930383195855984,-0.004428157080323575,-0.003203197330050755,0.0007694897822264865
339883000000,385,339883000000,BR_wheel_link,-1.0155670901605913,5.5856682889815765,21.906749391865556,-0.025201124788417486,0.10059406048627094,-0.02587755442333486
339884000000,386,339884000000,BR_wheel_link,-1.1543035324319186,1.6468363367166083,1.630838923523031,0.12736869102027168,0.12042508260495181,-0.03132357489098926
339885000000,387,339885000000,BR_wheel_link,0.3446734180243328,2.18492264950863,17.369746532918573,-0.23983285500816826,-0.031690768839005894,0.00829264116258902
339886000000,388,339886000000,BR_wheel_link,0.0019768623975090463,-0.03763486875373935,-0.055925631059359764,-0.004428531015067462,-0.003203249452533951,0.0007692823446799692
339887000000,389,339887000000,BR_wheel_link,-1.015423064747402,5.58631835122598,21.906868051167912,-0.025131014763185102,0.10057701935432509,-0.025873670170258902
339888000000,390,339888000000,BR_wheel_link,-1.154112017847047,1.646554817239931,1.6305441456027543,0.1273470168515706,0.12040519612535805,-0.03131826557066558
339889000000,391,339889000000,BR_wheel_link,0.34475272829219944,2.1853339444102406,17.369784018625403,-0.23978905882651702,-0.03169878106639659,0.008295382805308282
339890000000,392,339890000000,BR_wheel_link,0.0019801046575113382,-0.037643315638934034,-0.05592226987972154,-0.0044287627651381336,-0.003203280534886772,0.0007690816242123115
339891000000,393,339891000000,BR_wheel_link,-1.015299428254073,5.586962992026992,21.90695541522997,-0.025060759742826903,0.10056220243724066,-0.025870331857007142
339892000000,394,339892000000,BR_wheel_link,-1.153935345620534,1.6463054069758396,1.6302730317538185,0.12732816855088136,0.12038679260526512,-0.03131336518394676
339893000000,395,339893000000,BR_wheel_link,0.344820584700218,2.1857506089765195,17.369807014171577,-0.2397443276347061,-0.031705664965048765,0.008297776915145771
339894000000,396,339894000000,BR_wheel_link,0.0019830124339490873,-0.03765059587739001,-0.05591968374214058,-0.0044288989733450405,-0.0032033129418572704,0.0007688964377497601
339895000000,397,339895000000,BR_wheel_link,-1.0151930152649284,5.587599739098494,21.907023864046266,-0.02499096796534268,0.10054930779268227,-0.025867456953698898
339896000000,398,339896000000,BR_wheel_link,-1.1537675187499226,1.6460790410931916,1.630017887954055,0.12731138736716582,0.12036924983116025,-0.031308709832953786
339897000000,399,339897000000,BR_wheel_link,0.3448803329287697,2.1861685052375575,17.369818809173726,-0.2396991786221539,-0.03171174344887265,0.00829991257039274
339898000000,400,339898000000,BR_wheel_link,0.0019859391522574566,-0.037657048654449216,-0.05591742772636045,-0.004428967575037454,-0.003203360079925911,0.0007687318622794524
339899000000,401,339899000000,BR_wheel_link,-1.0151019769417144,5.588227527991263,21.907082280949147,-0.02492200069818793,0.1005381584925092,-0.025864996994778334
339900000000,402,339900000000,BR_wheel_link,-1.1536048537904982,1.6458700857467925,1.6297736596842398,0.12729621143227088,0.12035218618065001,-0.03130419898445718
339902000000,403,339901000000,BR_wheel_link,0.3449341149025793,2.186584994954943,17.369820805885016,-0.23965392295051333,-0.03171722566908092,0.008301847156518216
339902000000,404,339902000000,BR_wheel_link,0.0019891047901279095,-0.037662888755247786,-0.055915229676640796,-0.004428986178496503,-0.0032034311203070673,0.000768591187089781
339902000000,405,339903000000,BR_wheel_link,-1.0150250488637365,5.588845597559401,21.90713593999894,-0.024854086301011432,0.10052863098786861,-0.02586291836296801
339904000000,406,339904000000,BR_wheel_link,-1.153444989528384,1.6456749870905547,1.6295371455356258,0.1272823504465884,0.12033535660797369,-0.03129976819047492
339905000000,407,339905000000,BR_wheel_link,0.34498340726183935,2.186998305015389,17.369813768331298,-0.23960876501443998,-0.03172225800280056,0.008303620462920491
339906000000,408,339906000000,BR_wheel_link,-0.06956578547873976,0.0658915893358727,-0.33849648421182194,-0.0584642875947071,-0.006110064128712193,-0.002856903411293513
339907000000,409,339907000000,BR_wheel_link,1.1778183710268186,-3.8777990752018288,12.287032818419831,-0.8725559617309298,-0.11998756400946836,0.03278245590412387
339908000000,410,339908000000,BR_wheel_link,-0.07240563417648342,-0.2207369611094039,-0.38782598973755966,-0.09057844708774922,-0.023026285735664148,-0.0036342025906140212
339910000000,411,339909000000,BR_wheel_link,-0.27164110156355387,0.19150826417516412,-0.2759271333741005,-0.0027798368940127713,-0.004771299744257572,-0.0020022861631910365
339910000000,412,339910000000,BR_wheel_link,1.1115358024127466,-2.759650076450337,11.799448041146341,-0.68236142188433,-0.11827329372206374,0.040112380554186707
339911000000,413,339911000000,BR_wheel_link,-0.027558091101316348,-0.268172970426418,-0.11507103784640968,-0.03621370904978078,-0.010936666095943005,0.003858442838554141
