%time,field.header.seq,field.header.stamp,field.header.frame_id,field.wrench.force.x,field.wrench.force.y,field.wrench.force.z,field.wrench.torque.x,field.wrench.torque.y,field.wrench.torque.z
339549000000,47,339545000000,FL_wheel_link,-0.29148805307524445,-2.2486099892080684,17.10968693794373,0.22591299116485494,0.026152111608477423,0.006939807986469014
339549000000,48,339546000000,FL_wheel_link,0.0020020722470896844,0.03842297000149844,-0.04485664131954545,0.004697520421368728,0.003066506166460591,0.0005896844191713803
339549000000,49,339547000000,FL_wheel_link,1.067403332738785,-5.821451278699975,22.444271135486087,0.015054714891409188,-0.10550197296270307,-0.027252274581490123
339549000000,50,339548000000,FL_wheel_link,1.089359364083699,-1.4645174293009073,1.4030307274390736,-0.11459909643086362,-0.11441084762541841,-0.029589875387449893
339549000000,51,339549000000,FL_wheel_link,-0.29153482167572803,-2.248977489118949,17.10962415404237,0.22587188551060802,0.02615625799413884,0.006940984124042923
339549000000,52,339550000000,FL_wheel_link,0.0019936402151402998,0.038426121378385844,-0.04485171670702073,0.004697318287972148,0.003066926828447276,0.0005898537139937436
339549000000,53,339551000000,FL_wheel_link,1.067443461596808,-5.821961499491194,22.44431032937201,0.01500050755420671,-0.1055075350390378,-0.02725368715227007
339549000000,54,339552000000,FL_wheel_link,1.0891917799843958,-1.464407635283865,1.4028367848710332,-0.1145934610082212,-0.11439270390291378,-0.02958539624370514
339549000000,55,339553000000,FL_wheel_link,-0.2915817881528142,-2.249348513386739,17.1095650871931,0.22583050975873428,0.02616041690808037,0.006942186382690861
339549000000,56,339554000000,FL_wheel_link,0.001985531490940098,0.038429366558158984,-0.044846981497908736,0.004697125592765635,0.0030673276460046915,0.0005900079801167976
339549000000,57,339555000000,FL_wheel_link,1.0674764759610562,-5.822478889699722,22.4443480891341,0.014945405499786185,-0.10551225541632528,-0.02725490522949793
339549000000,58,339556000000,FL_wheel_link,1.0890258637477384,-1.464293891712956,1.4026418893990824,-0.11458739986441487,-0.1143747708210684,-0.029580961171089687
339549000000,59,339557000000,FL_wheel_link,-0.2916289611356826,-2.249723035096101,17.109509708050766,0.22578886612442187,0.026164589150967355,0.006943414856313184
339549000000,60,339558000000,FL_wheel_link,0.001977743984838405,0.03843270551302346,-0.04484243483980255,0.004696942314692099,0.003067708764123903,0.0005901473140999086
339549000000,61,339559000000,FL_wheel_link,1.0675024077108932,-5.823003403041984,22.444384414463276,0.014889414427931647,-0.10551613818230482,-0.02725592974982904
339559000000,62,339560000000,FL_wheel_link,1.0888616041898194,-1.4641762184053888,1.4024460449661138,-0.11458091516451982,-0.11435704702272587,-0.029576569900922948
339559000000,63,339561000000,FL_wheel_link,-0.29167634761021183,-2.250101031445366,17.10945799423557,0.22574695657968677,0.026168775334223918,0.006944669604743835
339561000000,64,339562000000,FL_wheel_link,0.001970275861032219,0.03843613818144773,-0.04483807591553045,0.004696768429354047,0.00306807030355596,0.000590271799670152
339561000000,65,339563000000,FL_wheel_link,1.0675212859961292,-5.823535000026833,22.444419307908834,0.014832539334832816,-0.10551918708754549,-0.027256761577598064
339561000000,66,339564000000,FL_wheel_link,1.088698992031574,-1.464054633373317,1.402249255398172,-0.11457400885806568,-0.11433953137568911,-0.02957222221552383
339566000000,67,339565000000,FL_wheel_link,-0.29172395216770486,-2.2504824840671906,17.10940992626506,0.22570478271153946,0.026172975802995317,0.006945950633860123
339566000000,68,339566000000,FL_wheel_link,0.0019631255499869315,0.038439664448174315,-0.04483390384602585,0.004696603908882816,0.003068412363056812,0.0005903815082475728
339566000000,69,339567000000,FL_wheel_link,1.067533137099682,-5.824073648354389,22.44445277606596,0.014774784504308226,-0.10552140552665334,-0.02725740150031941
339566000000,70,339568000000,FL_wheel_link,1.088538020098738,-1.463929153059981,1.4020515240595042,-0.11456668272257188,-0.1143222229959507,-0.029567917954377222
339566000000,71,339569000000,FL_wheel_link,-0.2917717779063938,-2.2508673782019755,17.10936548606485,0.2256623457675927,0.02617719073684345,0.006947257921210206
339566000000,72,339570000000,FL_wheel_link,0.001956291687544029,0.03844328423833346,-0.04482991766036883,0.004696448726407359,0.0030687350242785284,0.0005904765001146673
339566000000,73,339571000000,FL_wheel_link,1.067537983652534,-5.824619321904694,22.44448482896235,0.014716153601052447,-0.10552279645424456,-0.027257850206274678
339566000000,74,339572000000,FL_wheel_link,1.0883786835271365,-1.4637997927198128,1.4018528541796849,-0.11455893839398337,-0.1143051212669803,-0.0295636570194704
339566000000,75,339573000000,FL_wheel_link,-0.2918198275731415,-2.25125570152535,17.109324655834175,0.22561964674834967,0.026181420272691772,0.00694859144764337
339574000000,76,339574000000,FL_wheel_link,0.0019497731216612652,0.038446997522938176,-0.0448261163969943,0.004696302860538509,0.0030690383561784262,0.0005905568259538011
339575000000,77,339575000000,FL_wheel_link,1.0675358441370615,-5.825171999593341,22.44451547746806,0.014656649721957479,-0.10552336233129858,-0.027258108270561295
339575000000,78,339576000000,FL_wheel_link,1.0882209780473657,-1.4636665644410791,1.4016532475248313,-0.11455077719551197,-0.11428822565789994,-0.029559439328310774
339575000000,79,339577000000,FL_wheel_link,-0.2918681039670318,-2.2516474439202474,17.10928741983248,0.22557668647764198,0.02618566454789292,0.006949951207822522
339577000000,80,339578000000,FL_wheel_link,0.0019435688889859245,0.03845080433634697,-0.04482249920452832,0.00469616629583372,0.0030693224154397136,0.0005906225272777652
339579000000,81,339579000000,FL_wheel_link,1.0675267326421418,-5.825731664713168,22.444544731798423,0.01459627542372045,-0.1055231051002422,-0.027258176148314064
339579000000,82,339580000000,FL_wheel_link,1.0880649008576888,-1.4635294784746125,1.40145270566146,-0.11454220023899896,-0.11427153581376535,-0.029555264837774264
339580000000,83,339581000000,FL_wheel_link,-0.2919166101615158,-2.2520425971941553,17.10925376382108,0.2255334656184134,0.026189923723220012,0.006951337216777886
339581000000,84,339582000000,FL_wheel_link,0.0019376781840737657,0.03845470481318502,-0.04481906525808297,0.0046960390239404294,0.003069587247806201,0.0005906736366553388
339581000000,85,339583000000,FL_wheel_link,1.067510658807067,-5.826298305118713,22.444572602416393,0.01453503273320786,-0.10552202617742935,-0.027258054172753017
339581000000,86,339584000000,FL_wheel_link,1.0879104497958394,-1.4633885419698072,1.4012512288094225,-0.11453320832767223,-0.11425505147011476,-0.029551133521544273
339584000000,87,339585000000,FL_wheel_link,-0.2919653495701743,-2.252441155003257,17.109223675194745,0.22548998468489426,0.026194197991239145,0.0069527495114318555
339584000000,88,339586000000,FL_wheel_link,0.0019321004821098023,0.03845869908146114,-0.04481581400897092,0.004695921042517636,0.0030698328870830335,0.0005907101777600238
339584000000,89,339587000000,FL_wheel_link,1.067487627883546,-5.8268719121717565,22.444599095842023,0.014472923134822763,-0.105520126464939,-0.027257742558333155
339584000000,90,339588000000,FL_wheel_link,1.0877576245101064,-1.4632437609563076,1.4010488181003877,-0.1145238020963706,-0.11423877257234784,-0.029547045401712466
339584000000,91,339589000000,FL_wheel_link,-0.292014325817398,-2.2528431131115814,17.109197144265977,0.22544624404785962,0.026198487559283654,0.006954188146683883
339590000000,92,339590000000,FL_wheel_link,0.0019268353748059634,0.03846278738308004,-0.04481274490440715,0.00469581235534325,0.003070059355186363,0.0005907321652218206
339591000000,93,339591000000,FL_wheel_link,1.0674576407213217,-5.827452482047381,22.444624219759053,0.01440994758200452,-0.10551740634361376,-0.027257241398698243
339593000000,94,339592000000,FL_wheel_link,1.087606425690791,-1.4630951388403473,1.4008454736235167,-0.11451398191273576,-0.11422269919871895,-0.029543000528240968
339593000000,95,339593000000,FL_wheel_link,-0.29206354276396446,-2.253248469222365,17.109174161981336,0.22540224389367433,0.026202792656199604,0.006955653196695439
339594000000,96,339594000000,FL_wheel_link,0.0019218827309399101,0.03846696997440694,-0.044809857611841676,0.00469571297298265,0.0030702666623927373,0.000590739604508579
339595000000,97,339595000000,FL_wheel_link,1.067420693878718,-5.828040014744147,22.444647978894942,0.014346106483240207,-0.10551386568952976,-0.02725655067131093
339596000000,98,339596000000,FL_wheel_link,1.087456855273419,-1.4629426770246499,1.4006411954435198,-0.11450374791050419,-0.11420683157942613,-0.029538998984228612
339597000000,99,339597000000,FL_wheel_link,-0.2921130044772036,-2.253657223048608,17.109154722573273,0.22535798428657824,0.026207113523884905,0.00695714475332142
339597000000,100,339598000000,FL_wheel_link,0.0019172425769486373,0.03847124717788038,-0.04480715187976666,0.004695622910863043,0.0030704548067300498,0.0005907324922441038
339599000000,101,339599000000,FL_wheel_link,1.0673767795004303,-5.828634514697483,22.44467037743841,0.014281399705656983,-0.10550950385853188,-0.027255670233198363
339599000000,102,339600000000,FL_wheel_link,1.0873089162085525,-1.4627863745370993,1.400435983069817,-0.11449309996673711,-0.11419117007272064,-0.02953504087985939
339599000000,103,339601000000,FL_wheel_link,-0.2921627151007056,-2.254069376475533,17.10913882186039,0.22531346510725742,0.02621145040737779,0.006958662923182307
339599000000,104,339602000000,FL_wheel_link,0.0019129151333449942,0.038475619384244125,-0.04480462754070684,0.0046955421906798465,0.00307062377426593,0.0005907108157691811
339602000000,105,339603000000,FL_wheel_link,1.067325885391761,-5.829235990700868,22.444691418997213,0.014215826581990032,-0.1055043196947056,-0.027254599823216225
339604000000,106,339604000000,FL_wheel_link,1.0871626129334357,-1.4626262284558373,1.4002298357484764,-0.11448203773901781,-0.11417571521547606,-0.02953112636512164
339604000000,107,339605000000,FL_wheel_link,-0.2922126790876261,-2.2544849333276997,17.109126457024942,0.22526868606994982,0.026215803579311282,0.006960207833656252
339606000000,108,339606000000,FL_wheel_link,0.0019089008600945126,0.03848008702153305,-0.044802284610827484,0.004695470840811985,0.0030707735390817404,0.0005906745533923096
339607000000,109,339607000000,FL_wheel_link,1.0672679950668889,-5.8298444557376605,22.444711105421696,0.014149385897365314,-0.10549831153675396,-0.027253339063749472
339608000000,110,339608000000,FL_wheel_link,1.0870179509215496,-1.4624622335149269,1.40002275224138,-0.11447056062845665,-0.11416046767555808,-0.029527255617750076
339609000000,111,339609000000,FL_wheel_link,-0.29226290098367064,-2.2549038995328146,17.109117628032305,0.22522364674522585,0.026220173313651004,0.006961779627028315
339610000000,112,339610000000,FL_wheel_link,0.0019052003933374907,0.038484650579368375,-0.044800123189473975,0.004695408894564853,0.0030709040631185843,0.0005906236743572069
339611000000,113,339611000000,FL_wheel_link,1.0672030876085457,-5.83045992706145,22.444729437452498,0.014082075896413174,-0.10549147720157566,-0.027251887456582854
339612000000,114,339612000000,FL_wheel_link,1.0868749375435518,-1.4622943831272361,1.399814731707442,-0.1144586678647578,-0.11414542834158906,-0.029523428866452206
339613000000,115,339613000000,FL_wheel_link,-0.292313385643854,-2.255326282995757,17.109112336005087,0.2251783465282439,0.02622455991241681,0.006963378466572835
339614000000,116,339614000000,FL_wheel_link,0.0019018145841841806,0.038489310600275606,-0.044798143505950995,0.004695356392365549,0.003071015296550717,0.0005905581387726415
339615000000,117,339615000000,FL_wheel_link,1.0671311377647898,-5.831082426311195,22.444746415074096,0.014013894282717073,-0.10548381399535038,-0.027250244385625066
339624000000,118,339616000000,FL_wheel_link,1.0867335804432552,-1.4621226673043364,1.399605771838405,-0.11444635833651685,-0.11413059815334958,-0.029519646346890843
339624000000,119,339617000000,FL_wheel_link,-0.2923641379817198,-2.2557520937687237,17.10911058480685,0.22513278466437367,0.02622896367560788,0.006965004529450778
339624000000,120,339618000000,FL_wheel_link,0.0018987444710153976,0.03849406768888833,-0.044796345894909696,0.0046953133796092525,0.0030711071770890353,0.0005904778976431678
339624000000,121,339619000000,FL_wheel_link,1.0670521158387527,-5.831711979393636,22.444762036924423,0.013944838214138998,-0.10547531870183258,-0.027248409114110795
339624000000,122,339620000000,FL_wheel_link,1.086593889324984,-1.4619470749280155,1.3993958709121121,-0.11443363077625938,-0.11411597828899081,-0.029515908350249944
339624000000,123,339621000000,FL_wheel_link,-0.29241516323997235,-2.2561813438402325,17.10911237950653,0.22508696022989014,0.026233384932356347,0.006966658014439891
339624000000,124,339622000000,FL_wheel_link,0.001895991317767657,0.03849892249675226,-0.044794730833181,0.004695279908577022,0.003071179630744108,0.0005903828927512419
339624000000,125,339623000000,FL_wheel_link,1.0669659877581865,-5.832348616523813,22.444776300414233,0.013874904302118152,-0.10546598758965538,-0.027246380786387064
339624000000,126,339624000000,FL_wheel_link,1.086455874901123,-1.461767592399471,1.399185026564756,-0.11442048364957155,-0.11410157005509172,-0.029512215194730063
339625000000,127,339625000000,FL_wheel_link,-0.29246646679676347,-2.256614047365955,17.109117727525728,0.22504087213897914,0.026237824018818506,0.006968339136448673
339626000000,128,339626000000,FL_wheel_link,0.0018935565636432898,0.03850387575066413,-0.04479329887069801,0.004695256037550933,0.0030712325712732844,0.0005902730566683844
339627000000,129,339627000000,FL_wheel_link,1.0668727149748276,-5.832992372409783,22.44478920251309,0.013804088613984588,-0.10545581640096754,-0.02724415842521011
339628000000,130,339628000000,FL_wheel_link,1.0863195490889115,-1.4615842038078535,1.3989732358528784,-0.11440691517241185,-0.11408737490722318,-0.02950856723078707
339632000000,131,339629000000,FL_wheel_link,-0.29251805429374317,-2.257050220508421,17.109126637888146,0.2249945191397952,0.026242281292694722,0.006970048130155576
339632000000,132,339630000000,FL_wheel_link,0.0018914418995902324,0.03850892820103851,-0.04479205076764387,0.004695241830966467,0.0030712658999928043,0.000590148312782832
339632000000,133,339631000000,FL_wheel_link,1.066772254547741,-5.833643285883601,22.444800737850905,0.013732386658109476,-0.1054448003619033,-0.02724174093437202
339632000000,134,339632000000,FL_wheel_link,1.0861849253204583,-1.4613968914306283,1.3987604960356521,-0.11439292334185439,-0.11407339448238797,-0.02950496484960135
339632000000,135,339633000000,FL_wheel_link,-0.2925699315006214,-2.2574898815524653,17.10913912189353,0.22494789982151442,0.026246757116631443,0.006971785246328
339637000000,136,339634000000,FL_wheel_link,0.00188964918146558,0.038514080686128764,-0.044790987309312344,0.0046952373592129395,0.003071279506151279,0.0005900085750700354
339637000000,137,339635000000,FL_wheel_link,1.0666645590005759,-5.834301400429113,22.444810901071385,0.01365979339481341,-0.10543293416480701,-0.027239127094374538
339637000000,138,339636000000,FL_wheel_link,1.086052018365109,-1.4612056353628615,1.3985468037854916,-0.1143785059182104,-0.11405963058104418,-0.02950140847839607
339637000000,139,339637000000,FL_wheel_link,-0.292622104518209,-2.2579330508156863,17.109155192351608,0.22490101260286396,0.026251251882531943,0.006973550757385246
339638000000,140,339638000000,FL_wheel_link,0.001888180484249669,0.038519334102661576,-0.04479010944115155,0.00469524269948379,0.003071273266745749,0.0005898537483410565
339639000000,141,339639000000,FL_wheel_link,1.0665495763322066,-5.834966763843575,22.444819685303624,0.013586303229522208,-0.10542021197095286,-0.02723631556304605
339640000000,142,339640000000,FL_wheel_link,1.0859208440196388,-1.4610104131206474,1.3983321551884702,-0.1143636603844037,-0.11404608513439546,-0.029497898571819024
339641000000,143,339641000000,FL_wheel_link,-0.2926745796315352,-2.258379750690733,17.10917486442878,0.22485385575085612,0.02625576599283875,0.00697534495363405
339644000000,144,339642000000,FL_wheel_link,0.0018870381011355185,0.03852468937984234,-0.04478941824376826,0.00469525793480025,0.0030712470463856575,0.0005896837279209316
339644000000,145,339643000000,FL_wheel_link,1.0664272499799448,-5.835639428260677,22.44482708201877,0.013511910003460558,-0.105406627406236,-0.02723330487470562
339644000000,146,339644000000,FL_wheel_link,1.085791419680938,-1.4608112005208582,1.3981165465123861,-0.11434838401474455,-0.11403276026410043,-0.029494435627720233
339644000000,147,339645000000,FL_wheel_link,-0.2927273633263372,-2.2588300057880533,17.109198155005025,0.22480642734735,0.026260299864733522,0.006977168143547528
339644000000,148,339646000000,FL_wheel_link,0.0018862245331802087,0.03853014752798129,-0.04478891490462275,0.0046952831547704835,0.003071200696975631,0.000589498399518564
339644000000,149,339647000000,FL_wheel_link,1.0662975188534092,-5.836319450467294,22.444833082138558,0.013436606994278687,-0.10539217356404504,-0.027230093440832295
339644000000,150,339648000000,FL_wheel_link,1.085663764084367,-1.460607971005368,1.397899973445549,-0.11433267382776714,-0.11401965825652109,-0.029491020179924415
339649000000,151,339649000000,FL_wheel_link,-0.29278046232978655,-2.259283842771225,17.10922508272069,0.22475872530984536,0.026264853932589045,0.006979020655110046
339650000000,152,339650000000,FL_wheel_link,0.0018857424905788615,0.03853570961331879,-0.04478860072606221,0.004695318455585948,0.0030711340579197975,0.0005892976395191774
339651000000,153,339651000000,FL_wheel_link,1.0661603172087226,-5.837006891715864,22.444837675337254,0.013360386913818238,-0.10537684299194898,-0.02722667954685308
339652000000,154,339652000000,FL_wheel_link,1.0855378974260217,-1.4604006959615947,1.3976824314475067,-0.11431652660760544,-0.11400678157467369,-0.029487652801670584
339653000000,155,339653000000,FL_wheel_link,-0.29283420251452325,-2.2597406391221146,17.109255968784744,0.22471083454864127,0.026269454267860082,0.006980917219204279
339654000000,156,339654000000,FL_wheel_link,0.0018856218894611509,0.03854139451800262,-0.04478853132713044,0.004695360619746424,0.0030710482192445186,0.0005890770672068422
339655000000,157,339655000000,FL_wheel_link,1.0660155060672538,-5.837701660036404,22.444839826473416,0.013283225589860724,-0.10536061897962301,-0.027223061334906536
339656000000,158,339656000000,FL_wheel_link,1.0854138784930638,-1.4601896663598577,1.3974643268561304,-0.11429996165252675,-0.11399413493386563,-0.02948433514536283
339657000000,159,339657000000,FL_wheel_link,-0.292888678699323,-2.260200368346154,17.109291208798695,0.22466277004155258,0.026274108840145645,0.006982861544725011
339658000000,160,339658000000,FL_wheel_link,0.0018859441247169573,0.03854715591698839,-0.04478885407179791,0.004695406878398075,0.003070942927774512,0.000588834222694273
339659000000,161,339659000000,FL_wheel_link,1.065863045743801,-5.838403430829685,22.444837341312713,0.013205089494819178,-0.10534349906478312,-0.027219239506490092
339660000000,162,339660000000,FL_wheel_link,1.0852919751918118,-1.45997552018699,1.397246625410087,-0.11428301815690099,-0.11398174463159332,-0.029481074390097232
339661000000,163,339661000000,FL_wheel_link,-0.29294340368286953,-2.2606641104226917,17.109331482911628,0.22461442193474557,0.026278773845330505,0.006984833133576256
339662000000,164,339662000000,FL_wheel_link,0.001886600390911608,0.0385530159007074,-0.04478936411287146,0.004695461995267217,0.003070816141133067,0.0005885755192194971
339663000000,165,339663000000,FL_wheel_link,1.0657029096033532,-5.839112986847024,22.4448337123509,0.01312600065016329,-0.10532547998740195,-0.027215210126933825
339664000000,166,339664000000,FL_wheel_link,1.085171897654174,-1.4597572480524599,1.3970279773417653,-0.11426562772697879,-0.11396958443444682,-0.029477862771224814
339665000000,167,339665000000,FL_wheel_link,-0.2929984587433059,-2.2611316027299364,17.10937562382698,0.22456578890882575,0.02628345844952454,0.006986835138637928
339666000000,168,339666000000,FL_wheel_link,0.0018875898154867322,0.038558993160211205,-0.04479004314001021,0.0046955280442858545,0.0030706682869479683,0.0005883010523850622
339667000000,169,339667000000,FL_wheel_link,1.0655349668311695,-5.83983032253324,22.44482912558082,0.013045966355917142,-0.10530654660557591,-0.02721096933641085
339673000000,170,339668000000,FL_wheel_link,1.0850535940577752,-1.4595346095251425,1.3968081411241633,-0.11424777120770382,-0.11395764991362228,-0.02947469891258273
339673000000,175,339673000000,FL_wheel_link,-0.2931098860364733,-2.2620775998363247,17.109475093541054,0.22446768429144576,0.02629292206561515,0.006990940260829741
339674000000,176,339674000000,FL_wheel_link,0.0018905956602191377,0.03857130387924903,-0.04479197436701227,0.004695694327651379,0.0030703095678468544,0.000587704045362414
339675000000,177,339675000000,FL_wheel_link,1.065175193542635,-5.841288276971674,22.44481575917762,0.012883028394996719,-0.10526588331868754,-0.027201841112606963
339676000000,178,339676000000,FL_wheel_link,1.0848224874713448,-1.4590762428372235,1.396365145833908,-0.11421065165409526,-0.11393447783305484,-0.029468519372809938
339677000000,179,339677000000,FL_wheel_link,-0.29316626551656977,-2.262556206994467,17.109530562477,0.22441820631966317,0.02629770146199629,0.006993043981414063
339678000000,180,339678000000,FL_wheel_link,0.00189262604621621,0.03857763425600623,-0.044793244126547435,0.004695794473577049,0.003070098065802335,0.0005873810114415761
339678000000,181,339679000000,FL_wheel_link,1.0649831959954656,-5.8420290664025005,22.44480671783848,0.012800097427263424,-0.10524413391783383,-0.027196949371216302
339678000000,182,339680000000,FL_wheel_link,1.0847098095715413,-1.458840535201501,1.3961420888435934,-0.11419138685774834,-0.11392325426081557,-0.02946550713407848
339678000000,183,339681000000,FL_wheel_link,-0.2932230588285257,-2.2630386558905435,17.109589915612233,0.2243684358029757,0.026302508973444886,0.006995181294156917
339678000000,184,339682000000,FL_wheel_link,0.0018950160651970238,0.038584080686967566,-0.04479471969992406,0.004695905911722401,0.003069864616749374,0.000587041288830472
339683000000,185,339683000000,FL_wheel_link,1.0647830133814453,-5.842777898908665,22.44479610097136,0.012716172493460682,-0.10522142631875613,-0.02719183632296875
339684000000,186,339684000000,FL_wheel_link,1.0846007155118373,-1.458602360951468,1.3959194737632357,-0.11417181021885,-0.11391244943306271,-0.029462592091033347
339685000000,187,339685000000,FL_wheel_link,-0.2932805195352124,-2.2635246772804347,17.109651742896407,0.22431836386107243,0.02630737346595221,0.006997359664468374
339686000000,188,339686000000,FL_wheel_link,0.0018977574531925867,0.038590666169855695,-0.04479636254060834,0.004696030696124151,0.003069610194006086,0.000586684856085574
339687000000,189,339687000000,FL_wheel_link,1.0645744539743194,-5.84353490464372,22.444784546494102,0.012631258372629444,-0.10519773851864299,-0.027186496493934873
339688000000,190,339688000000,FL_wheel_link,1.0844963245833825,-1.4583628507139985,1.3956980575937565,-0.1141520207595959,-0.11390218313360187,-0.029459804847927304
339689000000,191,339689000000,FL_wheel_link,-0.293338998628172,-2.2640138951678384,17.109714681944546,0.22426799420162669,0.02631233414133433,0.006999589256126922
339690000000,192,339690000000,FL_wheel_link,0.0019008411510232498,0.038597417412526945,-0.04479814587608278,0.0046961714186206744,0.003069336112482029,0.0005863117849509473
339691000000,193,339691000000,FL_wheel_link,1.064357268377343,-5.844300086924138,22.444772428069765,0.012545366158357158,-0.10517304242915561,-0.02718092280515853
339692000000,194,339692000000,FL_wheel_link,1.084393694954442,-1.4581182860239512,1.395474913695379,-0.1141317045919819,-0.11389214522742215,-0.02945706518325226
339693000000,195,339693000000,FL_wheel_link,-0.2933982249764254,-2.264506728641202,17.109781133197963,0.22421734712784686,0.026317358150786892,0.0070018625442644375
339694000000,196,339694000000,FL_wheel_link,0.0019042937542393288,0.03860430301998458,-0.0448001560702976,0.0046963256025759235,0.0030690403759378935,0.0005859216242663163
339695000000,197,339695000000,FL_wheel_link,1.06413141947653,-5.845073367677609,22.444758281159217,0.012458459414748083,-0.10514733423072957,-0.027175114862385635
339696000000,198,339696000000,FL_wheel_link,1.084293117469386,-1.4578691321553763,1.3952507171810937,-0.11411089067617596,-0.11388236562959453,-0.02945438094049147
339697000000,199,339697000000,FL_wheel_link,-0.29345801288738116,-2.265003485956092,17.109851636418277,0.224166404651381,0.026322424613665914,0.007004174624290495
339701000000,200,339698000000,FL_wheel_link,0.001908126924706953,0.038611312478176785,-0.04480239582710882,0.004696492124126367,0.0030687217336022566,0.0005855139167307607
339701000000,203,339701000000,FL_wheel_link,-0.29351825057996067,-2.265504350942633,17.109926239870816,0.2241151489189605,0.026327521133234544,0.007006522725661366
339702000000,204,339702000000,FL_wheel_link,0.0019123474501706967,0.038618444759707736,-0.04480485629239572,0.004696670702866054,0.0030683794789681603,0.0005850882983216652
339703000000,205,339703000000,FL_wheel_link,1.0636535935105742,-5.846645332478598,22.444724430854688,0.012281491540579009,-0.10509286276612813,-0.02716279336072397
339704000000,206,339704000000,FL_wheel_link,1.084098602552038,-1.4573572760102027,1.3947994470644844,-0.1140677831551166,-0.11386363484243857,-0.02944919205097629
339705000000,207,339705000000,FL_wheel_link,-0.29357890860386365,-2.2660094190090523,17.110004919665148,0.2240635694986324,0.02633264422689848,0.007008906382666894
339706000000,208,339706000000,FL_wheel_link,0.0019169608658209764,0.03862570206282789,-0.04480753409343851,0.004696861452958244,0.0030680132031546243,0.0005846444812424264
339707000000,209,339707000000,FL_wheel_link,1.0634014119484907,-5.847444440031937,22.44470506053672,0.012191391889595544,-0.10506407522696395,-0.027156274429502032
339708000000,210,339708000000,FL_wheel_link,1.0840047681171365,-1.4570944567075501,1.394572298757593,-0.1140454783532068,-0.11385469605207046,-0.029446690283920093
339709000000,211,339709000000,FL_wheel_link,-0.2936400000564286,-2.2665187476126674,17.110087680745565,0.2240116607402153,0.026337794938322008,0.007011326315598826
339709000000,212,339710000000,FL_wheel_link,0.0019219728867698438,0.038633087188865815,-0.044810431313658285,0.004697064622983639,0.0030676225909252973,0.0005841822019957123
339710000000,213,339711000000,FL_wheel_link,1.06314019440293,-5.8482524873851975,22.444684073082602,0.012100193507592666,-0.10503423115850505,-0.027149511629423764
339712000000,214,339712000000,FL_wheel_link,1.083913264478747,-1.456826944695218,1.3943441060759498,-0.11402266261705081,-0.11384604777178146,-0.02944425166090342
339713000000,215,339713000000,FL_wheel_link,-0.293701549318914,-2.267032387507996,17.110174560256006,0.22395941857748264,0.0263429754703219,0.007013783565621879
339716000000,216,339714000000,FL_wheel_link,0.001927389731816086,0.03864060275498253,-0.04481355240916384,0.004697280479435454,0.003067207317745284,0.00058370118936847
339716000000,218,339716000000,FL_wheel_link,1.0838241323802202,-1.4565546701515748,1.3941148594391755,-0.11399932811848958,-0.11383769501751727,-0.02944187730793377
339716000000,219,339717000000,FL_wheel_link,-0.2937635782613301,-2.267550395275853,17.110265611983863,0.2239068387941342,0.026348187720273534,0.007016279116180954
339717000000,220,339718000000,FL_wheel_link,0.0019332180809707692,0.03864825112424132,-0.04481690219013989,0.004697509273385818,0.00306676701977051,0.0005832011533875534
339719000000,221,339719000000,FL_wheel_link,1.06259002603542,-5.849895911398016,22.444637004197457,0.011914433824880591,-0.10497130147496642,-0.027135237733787402
339721000000,222,339720000000,FL_wheel_link,1.0837374192362639,-1.4562775667366608,1.3938845549534464,-0.11397546719621472,-0.1138296435381892,-0.029439568532400547
339721000000,223,339721000000,FL_wheel_link,-0.2938261039349116,-2.268072835185316,17.110360893654363,0.2238539164784937,0.026353433051441985,0.007018813832120076
339721000000,224,339722000000,FL_wheel_link,0.0019394649734256442,0.038656034581104635,-0.04482048517217182,0.004697751246397217,0.0030663012960780657,0.0005826817854734006
339721000000,225,339723000000,FL_wheel_link,1.0623007563081481,-5.8507315678312555,22.444610810378197,0.011819836577738703,-0.10493817909026792,-0.027127718140823986
339723000000,226,339724000000,FL_wheel_link,1.0836531756436618,-1.4559955658602342,1.393653187319082,-0.11395107196468122,-0.11382189945767429,-0.029437326729221815
339725000000,227,339725000000,FL_wheel_link,-0.2938891400769718,-2.2685997772938773,17.11046046364491,0.22380064613973555,0.026358712457060493,0.007021388502558634
339726000000,228,339726000000,FL_wheel_link,0.0019461377464985372,0.03866395540140934,-0.04482430556940401,0.0046980066369497,0.003065809719140207,0.0005821427614539524
339727000000,229,339727000000,FL_wheel_link,1.062001811041704,-5.851576724764731,22.444582783811054,0.011724068848732384,-0.10490392643526043,-0.02711993763145462
339728000000,230,339728000000,FL_wheel_link,1.0835714554478337,-1.4557085973114838,1.393420750545724,-0.11392613436138678,-0.11381446927711003,-0.02943515338235249
339729000000,231,339729000000,FL_wheel_link,-0.2939526993784463,-2.2691312955420266,17.110564380027988,0.22374702187448875,0.02636402680699237,0.007024003904129206
339730000000,232,339730000000,FL_wheel_link,0.001953243999042816,0.03867201595220571,-0.04482836750028374,0.00469827569029005,0.0030652918423316783,0.0005815837436330968
339731000000,233,339731000000,FL_wheel_link,1.061693019828771,-5.852431545478798,22.4445528851759,0.011627110473445165,-0.10486852380429544,-0.02711189166571239
339732000000,234,339732000000,FL_wheel_link,1.0834923151160498,-1.4554165885284929,1.3931872378692096,-0.11390064607263305,-0.11380735980823828,-0.02943305004754704
339733000000,235,339733000000,FL_wheel_link,-0.2940167947678365,-2.2696674666602665,17.11067270075198,0.2236930374903291,0.026369376987127532,0.007026660836805227
339734000000,236,339734000000,FL_wheel_link,0.00196079159673781,0.03868021870528671,-0.044832675145744905,0.004698558662216692,0.003064747203364099,0.0005810043820645176
339735000000,237,339735000000,FL_wheel_link,1.0613742061214497,-5.8532961995545785,22.44452107534137,0.011528940554301781,-0.10483195077345497,-0.027103575537640985
339736000000,238,339736000000,FL_wheel_link,1.0834158120736095,-1.4551194627537298,1.3929526407269959,-0.1138745983619847,-0.1138005779956732,-0.02943101830655486
339737000000,239,339737000000,FL_wheel_link,-0.2940814396224956,-2.2702083699999775,17.110785485650776,0.22363868657737998,0.026374763917845205,0.007029360129740977
339738000000,240,339738000000,FL_wheel_link,0.0019687887039189157,0.03868856620915757,-0.04483723285888806,0.004698855817989054,0.0030641753239356692,0.0005804043144533594
339739000000,241,339739000000,FL_wheel_link,1.0610451870000321,-5.854170862271239,22.444487312458747,0.011429537441372449,-0.1047941861767341,-0.027094984369860534
339740000000,242,339740000000,FL_wheel_link,1.0833420068947277,-1.4548171419504574,1.3927169515603777,-0.11384798229933986,-0.11379413114686758,-0.02942905982682205
339741000000,243,339741000000,FL_wheel_link,-0.2941466482047761,-2.2707540871552667,17.110902796298827,0.22358396254142496,0.026380188600553578,0.00703210265352229
339741000000,244,339742000000,FL_wheel_link,0.001977243745859754,0.038697061115466495,-0.04484204514547798,0.004699167433717925,0.0030635757104047565,0.0005797831660857074
339743000000,245,339743000000,FL_wheel_link,1.0607057729598284,-5.855055714843841,22.444451552969756,0.011328878734637046,-0.10475520808041433,-0.027086113107270767
339744000000,246,339744000000,FL_wheel_link,1.083270961983917,-1.4545095449309604,1.3924801622570078,-0.11382078860668005,-0.11378802679409895,-0.029427176325504605
339745000000,247,339745000000,FL_wheel_link,-0.29421243531482827,-2.2713047025549677,17.111024695620774,0.22352885853394686,0.02638565208300971,0.007034889311042161
339746000000,248,339746000000,FL_wheel_link,0.001986165489292439,0.038705706153958686,-0.04484711675747246,0.004699493796473631,0.00306294785176624,0.0005791405491983265
339747000000,249,339747000000,FL_wheel_link,1.0603557680814253,-5.855950944459232,22.444413750586115,0.011226941250840403,-0.1047149938026208,-0.027076956522300053
339748000000,250,339748000000,FL_wheel_link,1.0832027416654177,-1.4541965873791574,1.3922422643309955,-0.11379300765296918,-0.11378227270457489,-0.029425369571844034
339749000000,251,339749000000,FL_wheel_link,-0.29427881621847657,-2.2718603032807376,17.111151249738136,0.22347336752230865,0.02639115544501755,0.007037721035469694
339750000000,252,339750000000,FL_wheel_link,0.001995562988474007,0.038714504117734305,-0.04485245259078378,0.004699835200989012,0.0030622912195748414,0.0005784760628448932
339751000000,253,339751000000,FL_wheel_link,1.0599949697171451,-5.856856744401372,22.444373856048585,0.011123700999065837,-0.1046735198773355,-0.027067509206570774
339752000000,254,339752000000,FL_wheel_link,1.0831374141522552,-1.453878184452858,1.3920032510971332,-0.1137646296688605,-0.11377687708742423,-0.02942364144098692
339753000000,255,339753000000,FL_wheel_link,-0.2943458068244892,-2.272420979270655,17.11128252546313,0.22341748219781024,0.02639669982404264,0.00704059879583425
339754000000,256,339754000000,FL_wheel_link,0.0020054456198760435,0.038723457905551976,-0.044858057726511684,0.004700191954122766,0.003061605267788133,0.0005777892925413968
339755000000,257,339755000000,FL_wheel_link,1.059623168566576,-5.8577733145511806,22.44433181897745,0.011019133181663256,-0.10463076206168632,-0.027057765572460268
339756000000,258,339756000000,FL_wheel_link,1.0830748175100653,-1.453553967061645,1.3917629004484562,-0.11373562063410354,-0.11377182384607036,-0.029421987527332986
339757000000,259,339757000000,FL_wheel_link,-0.2944133757887302,-2.2729868949249235,17.111418737690254,0.223361191197047,0.02640228117040486,0.007043522248485094
339758000000,260,339758000000,FL_wheel_link,0.0020158241821450333,0.03873256930127202,-0.04486393648601438,0.004700564234117764,0.0030608892641491854,0.0005770797673807908
339759000000,261,339759000000,FL_wheel_link,1.0592401685781978,-5.858700891019861,22.444287633024796,0.010913210224258951,-0.10458669750944381,-0.02704772041871255
339760000000,262,339760000000,FL_wheel_link,1.0830152038170697,-1.4532240574350348,1.3915213652670286,-0.11370598828385468,-0.11376714073462815,-0.029420414725791214
339761000000,263,339761000000,FL_wheel_link,-0.29448155856253255,-2.273558103519194,17.11155988427196,0.22330448945446277,0.026407902656619818,0.007046492955537553
339762000000,264,339762000000,FL_wheel_link,0.0020267084666956247,0.03874184077216744,-0.04487009617636806,0.004700952321470283,0.0030601426721731722,0.0005763470628658168
339763000000,265,339763000000,FL_wheel_link,1.0588457377495861,-5.859639672002226,22.44424118925244,0.010805905646342547,-0.10454129939210947,-0.027037367547357003
339764000000,266,339764000000,FL_wheel_link,1.0829587082506313,-1.45288844435935,1.3912787079275457,-0.11367572866295587,-0.11376284307764341,-0.029418926735872587
339765000000,267,339765000000,FL_wheel_link,-0.2945503955426004,-2.274134674534331,17.11170602815978,0.2232473718028759,0.02641356798357296,0.007049512622321544
339766000000,268,339766000000,FL_wheel_link,0.0020381088400806607,0.03875127513581444,-0.044876545926643245,0.004701356548518867,0.0030593649476982152,0.0005755907447028241
339767000000,269,339767000000,FL_wheel_link,1.0584396347467633,-5.86058985122709,22.444192350245338,0.010697192589924777,-0.10449453983717609,-0.027026700507250805
339768000000,270,339768000000,FL_wheel_link,1.082905407052329,-1.4525470394203903,1.3910349380977565,-0.11364483101556934,-0.11375893999811892,-0.029417525645958523
339769000000,271,339769000000,FL_wheel_link,-0.2946199050183051,-2.2747167211995327,17.111857210269726,0.22318982769609355,0.026419278615001453,0.007052582360161237
339770000000,272,339770000000,FL_wheel_link,0.0020500354642108073,0.03876087716220289,-0.04488328788299596,0.0047017773899665286,0.0030585555028776207,0.0005748103398043983
339770000000,273,339771000000,FL_wheel_link,1.058021623898594,-5.861551668313478,22.444141131183965,0.01058704368606018,-0.10444639148612113,-0.027015712982121
339770000000,274,339772000000,FL_wheel_link,1.0828553745239082,-1.452199722642288,1.3907900198850314,-0.11361328251830513,-0.11375544060982995,-0.029416213501082526
339773000000,275,339773000000,FL_wheel_link,-0.29469010840349114,-2.2753043415450773,17.112013484925914,0.22313184870724181,0.026425036215119487,0.007055703388617663
339774000000,276,339774000000,FL_wheel_link,0.002062499204271335,0.03877065060026457,-0.04489032751421553,0.004702215248962681,0.0030577137160505887,0.0005740053647358555
339775000000,277,339775000000,FL_wheel_link,1.0575914589640645,-5.862525356135337,22.44408747877579,0.010475430187606575,-0.10439682579779647,-0.027004398385746534
339776000000,278,339776000000,FL_wheel_link,1.0828086915463637,-1.4518463864565356,1.3905439401325925,-0.11358107096790021,-0.1137523546857245,-0.02941499252130491
339777000000,279,339777000000,FL_wheel_link,-0.2947610266235129,-2.2758976410656593,17.112174928065635,0.22307342619594028,0.026430842364133848,0.007058876930377463
339777000000,280,339778000000,FL_wheel_link,0.002075511482010345,0.03878059891235959,-0.044897671162456354,0.004702670507719888,0.0030568389318636397,0.0005731753193782992
339777000000,281,339779000000,FL_wheel_link,1.0571488869018175,-5.863511153901719,22.44403132489771,0.010362322143445808,-0.10434581343627054,-0.02699274995476215
339780000000,282,339780000000,FL_wheel_link,1.0827654460203548,-1.4514869278375582,1.390296693851707,-0.11354818437593094,-0.11374969276309509,-0.029413865117506804
339781000000,283,339781000000,FL_wheel_link,-0.29483267983359945,-2.2764967305481982,17.11234162030732,0.22301455109289053,0.0264366985417682,0.0070621042069397314
339781000000,284,339782000000,FL_wheel_link,0.002089084094745391,0.03879072560108821,-0.04490532531113426,0.004703143551023918,0.0030559304683511384,0.0005723196865744192
339783000000,285,339783000000,FL_wheel_link,1.05669364762733,-5.864509309685815,22.443972601332263,0.010247688564638016,-0.10429332423715564,-0.026980760737476232
339784000000,286,339784000000,FL_wheel_link,1.082725728456198,-1.4511212404314136,1.3900482754844286,-0.11351461038256297,-0.11374746569354265,-0.029412833771865682
339785000000,287,339785000000,FL_wheel_link,-0.29490508805774657,-2.2771017247750795,17.112513643843666,0.2229552139602317,0.02644260619649409,0.007065386457198723
339786000000,288,339786000000,FL_wheel_link,0.0021032292446598365,0.03880103423468897,-0.04491329661314894,0.004703634772579959,0.003054987620763184,0.0005714379330259749
339787000000,289,339787000000,FL_wheel_link,1.0562254734215788,-5.865520079530279,22.44391123777043,0.01013149746638692,-0.10423932714365941,-0.026968423577649128
339788000000,290,339788000000,FL_wheel_link,1.0826896335899656,-1.4507492164074076,1.3897986806769365,-0.11348033640206649,-0.11374568481425044,-0.02941190108178388
339789000000,291,339789000000,FL_wheel_link,-0.2949782719697668,-2.2777127418232834,17.112691081676346,0.2228954050435488,0.02644856683054643,0.007068724959523294
339790000000,292,339790000000,FL_wheel_link,0.0021179595104942627,0.038811528494639105,-0.0449215919110675,0.00470414457922339,0.003054009663515426,0.0005705295094916191
339791000000,293,339791000000,FL_wheel_link,1.0557440884714107,-5.866543727094229,22.44384716132144,0.010013715894246546,-0.10418379015508634,-0.026955731101257045
339792000000,294,339792000000,FL_wheel_link,1.082657258643065,-1.450370744176772,1.3895479045483896,-0.11344534942711555,-0.11374436176521512,-0.029411069712507874
339793000000,295,339793000000,FL_wheel_link,-0.2950522529837293,-2.278329903028454,17.112874019157648,0.22283511431962072,0.026454582006113954,0.007072121034681769
339794000000,296,339794000000,FL_wheel_link,0.0021332878582249835,0.03882221214782858,-0.0449302182766957,0.004704673389876468,0.0030529958496075572,0.000569593850426708
339795000000,297,339795000000,FL_wheel_link,1.0552492086372602,-5.867580523589119,22.443780295557833,0.009894309897955917,-0.10412668030158487,-0.02694267571079043
339796000000,298,339796000000,FL_wheel_link,1.0826287053234411,-1.4499857107493352,1.3892959437460188,-0.11340963622024658,-0.11374350870050702,-0.029410342451469264
339797000000,299,339797000000,FL_wheel_link,-0.29512705350033863,-2.2789533329049267,17.11306254232695,0.2227743314586206,0.02646065337473821,0.007075576052824795
339798000000,300,339798000000,FL_wheel_link,0.0021492276825949277,0.03883308906981518,-0.044939183059609096,0.004705221638009165,0.0030519454106150497,0.0005686303737510431
339799000000,301,339799000000,FL_wheel_link,1.0547405413443034,-5.868630747825744,22.4437105601471,0.009773244519378773,-0.1040679636312325,-0.02692924958227287
339800000000,302,339800000000,FL_wheel_link,1.0826040786133542,-1.449594000118537,1.3890427953380182,-0.11337318317159222,-0.11374313816187596,-0.029409722175441647
339801000000,303,339801000000,FL_wheel_link,-0.29520269665169835,-2.2795831593867626,17.113256739477684,0.2227130458417375,0.026466782646551505,0.007079091427290146
339802000000,304,339802000000,FL_wheel_link,0.0021657927713383514,0.038844163235739325,-0.04494849383049974,0.004705789770290231,0.0030508575552936103,0.0005676384802222182
339803000000,305,339803000000,FL_wheel_link,1.0542177854285943,-5.869694686754359,22.443637871833797,0.009650483757276947,-0.10400760519140478,-0.026915444661092646
339804000000,306,339804000000,FL_wheel_link,1.0825834871187177,-1.449195493401834,1.3887884567672641,-0.1133359763149549,-0.11374326311617414,-0.02940921185981191
339805000000,307,339805000000,FL_wheel_link,-0.2952792063280813,-2.280219513924572,17.11345670034997,0.22265124653132082,0.026472971593469497,0.007082668615369932
339806000000,308,339806000000,FL_wheel_link,0.0021829973551156885,0.03885543871119665,-0.04495815841508441,0.004706378246559011,0.00304973146913367,0.0005666175531779495
339807000000,309,339807000000,FL_wheel_link,1.053680630993007,-5.870772635366011,22.44356214314931,0.009525990540739729,-0.1039455690119177,-0.026901252658560817
339808000000,310,339808000000,FL_wheel_link,1.0825670436377601,-1.4487900695945586,1.3885329267247981,-0.11329800138175428,-0.11374389701659096,-0.02940881459441867
339809000000,311,339809000000,FL_wheel_link,-0.2953566071826074,-2.2808625315324838,17.113662516471774,0.22258892227305566,0.0264792220493503,0.0070863091192708
339810000000,312,339810000000,FL_wheel_link,0.0022008561210586667,0.038866919646447166,-0.04496818492634101,0.004706987540265869,0.003048566313598225,0.0005655669579890205
339811000000,313,339811000000,FL_wheel_link,1.0531287592283565,-5.871864896936472,22.44348328268145,0.009399726706625887,-0.10388181808582432,-0.026886665047173117
339812000000,314,339812000000,FL_wheel_link,1.082554866065867,-1.4483776063750915,1.388276205838941,-0.11325924386623343,-0.11374505389860304,-0.029408533608013213
339813000000,315,339813000000,FL_wheel_link,-0.29543492475513916,-2.281512350833908,17.113874279968584,0.2225260614599837,0.0264855359241797,0.007090014490001206
339814000000,316,339814000000,FL_wheel_link,0.00221938417567851,0.038878610327478205,-0.044978581664431104,0.004707618140857496,0.0030473612263257127,0.0005644860418318408
339815000000,317,339815000000,FL_wheel_link,1.0525618422189715,-5.872971783579119,22.443401196605727,0.009271652986633454,-0.1038163143432535,-0.026871673054737436
339816000000,318,339816000000,FL_wheel_link,1.0825470749421637,-1.4479579767588198,1.3880182937348573,-0.1132196887534839,-0.11374674812414941,-0.029408372201569603
339817000000,319,339817000000,FL_wheel_link,-0.2955141853235337,-2.282169114105135,17.114092085566508,0.22246265218426525,0.026491915184045728,0.0070937863236306365
339818000000,320,339818000000,FL_wheel_link,0.002238597108548077,0.03889051509799723,-0.0449893572568472,0.0047082705502028005,0.0030461153197488197,0.0005633741332097164
339819000000,321,339819000000,FL_wheel_link,0.03334199333902485,-6.179378538926333,19.710198504688925,-0.09768248362912704,-0.00019253463806491645,0.0017157705952878638
339820000000,322,339820000000,FL_wheel_link,-0.06116269183695228,-0.13858092813607087,-0.11273021446959479,-0.01215025290573326,0.0006225352336444292,0.001828588959333276
339821000000,323,339821000000,FL_wheel_link,0.06810527199184976,0.29175491725013,0.3781601182044956,0.014296938092684192,0.01746824254075979,-0.002191932413839459
339822000000,324,339822000000,FL_wheel_link,2.8485036882798216,-8.082695537097175,14.526398048322589,-0.4183690018564001,-0.26514567927169475,-0.07298087201870261
339823000000,325,339823000000,FL_wheel_link,0.37988042866514116,-2.5736756126449194,17.847358688780474,0.20166424605472552,-0.058940154042980315,-0.010294990145782936
339824000000,326,339824000000,FL_wheel_link,-0.009178171202958862,0.05745783727202923,-0.031706696406289925,0.0028819933038153832,0.0006167387475535673,0.0004391510317611218
339825000000,327,339825000000,FL_wheel_link,1.176491789721179,-5.793277594142936,22.028201058486456,0.008252127217051156,-0.11909340084772096,-0.0288060464889992
339826000000,328,339826000000,FL_wheel_link,1.2653350516590727,-1.5805279271654895,1.605757198777372,-0.12034021163563807,-0.13359841868407246,-0.03423700538245989
339827000000,329,339827000000,FL_wheel_link,-0.12003735688424498,-2.386967030431975,17.126687927399303,0.2129070708574214,0.007427039336786797,0.0027379433325901846
339828000000,330,339828000000,FL_wheel_link,0.012345142178310346,0.02963018380569105,-0.05440584353647274,0.004107432354165765,0.0021963601831937476,0.0005530184219242152
339829000000,331,339829000000,FL_wheel_link,1.144272162339596,-5.921798855992544,22.26805382103343,-0.0006585789205576115,-0.11330458048767589,-0.029289026576000195
339830000000,332,339830000000,FL_wheel_link,1.2003945829408549,-1.593971563505192,1.5114318198298426,-0.1252632560831487,-0.12616193470292916,-0.032613438174281584
339831000000,333,339831000000,FL_wheel_link,-0.1947960181000592,-2.3792354482091578,17.064426393377747,0.21109107791471785,0.016188851505960698,0.00436978701925433
339832000000,334,339832000000,FL_wheel_link,0.008834510995289879,0.03184472673155194,-0.05015075709522013,0.004092120591462816,0.002709531985808326,0.0004226396269648597
339833000000,335,339833000000,FL_wheel_link,1.1043953149279293,-5.931149988770708,22.362347864095742,0.0006304610502560735,-0.10894722233581154,-0.028299960881528554
339834000000,336,339834000000,FL_wheel_link,1.1532981671655886,-1.5537525145630557,1.46847977713133,-0.12231215002092898,-0.12109189167545199,-0.031340705304374
339835000000,337,339835000000,FL_wheel_link,-0.2334279917669009,-2.350030069894774,17.076117089109612,0.21432753061166365,0.020212215449353296,0.005402309214081198
339836000000,338,339836000000,FL_wheel_link,0.0060022486060186345,0.034590526116174324,-0.047042666265936305,0.004310550716212585,0.002853953724701533,0.0004752003960953495
339837000000,339,339837000000,FL_wheel_link,1.085156627204172,-5.917484089131745,22.416885856054083,0.0036424932435200506,-0.10702624000720873,-0.02776377920318065
339838000000,340,339838000000,FL_wheel_link,1.1231678064658044,-1.5094014839381027,1.4308835292047453,-0.11864284272467307,-0.11796157936499692,-0.03051758007955045
339839000000,341,339839000000,FL_wheel_link,-0.2583675410954977,-2.3236093612283844,17.08580539915504,0.21733708468192617,0.02275112761854939,0.006086051628298577
339840000000,342,339840000000,FL_wheel_link,0.004317399874818334,0.03646248681481841,-0.04580765958972401,0.004478415660577584,0.0029378990782430417,0.0005165306925050592
339841000000,343,339841000000,FL_wheel_link,1.0722278312797098,-5.901725813811472,22.43404997730601,0.005848484912751229,-0.10574333454661336,-0.027400785520899223
339842000000,344,339842000000,FL_wheel_link,1.1046159340276724,-1.481728889701081,1.4098084937649145,-0.11626777243337677,-0.11603393598571018,-0.030009209272197856
339843000000,345,339843000000,FL_wheel_link,-0.2748244838926644,-2.306163881541854,17.09516660457757,0.21940950019365882,0.02442969941733329,0.006535726989735399
339844000000,346,339844000000,FL_wheel_link,0.0033574821999369092,0.03753901727566269,-0.045478017819903654,0.004580016066117227,0.002990800091228369,0.000541217355496408
339845000000,347,339845000000,FL_wheel_link,1.0640838311885132,-5.890065079466972,22.436293881560637,0.0071806458257785595,-0.10493514024677196,-0.0271745744465392
339846000000,348,339846000000,FL_wheel_link,1.0938914020623316,-1.4664947519307558,1.3993687636937753,-0.11491958768834412,-0.11491390040094039,-0.029714890586438957
339847000000,349,339847000000,FL_wheel_link,-0.2845358151301586,-2.2962384645849423,17.10269839919167,0.22064683325122078,0.025418971009579783,0.006799271503963077
339848000000,350,339848000000,FL_wheel_link,0.0028191062186211807,0.038123006187653886,-0.04538292745652588,0.004635996930237147,0.0030209010426752586,0.0005544156036429353
339849000000,351,339849000000,FL_wheel_link,1.0595943517759314,-5.883360621872585,22.43616235865045,0.007904257245933638,-0.10449387763651717,-0.027051539504636356
339850000000,352,339850000000,FL_wheel_link,1.0879651372216899,-1.4583509971732187,1.3941108728559464,-0.11418670225230512,-0.11429324419104271,-0.029552224723863145
339851000000,353,339851000000,FL_wheel_link,-0.2896992341874738,-2.2911565617779144,17.10768017645321,0.2213098428792794,0.02594096609436351,0.006938408226773435
339852000000,354,339852000000,FL_wheel_link,0.0025143320160848524,0.03843698344486661,-0.0452946655231057,0.004665307761554399,0.0030366752768638096,0.0005609285836020238
339853000000,355,339853000000,FL_wheel_link,1.0573990330537262,-5.880264504278975,22.437105850247573,0.00826637360956656,-0.10428319447558189,-0.02699241765885558
339854000000,356,339854000000,FL_wheel_link,1.0846984050597521,-1.4539049886772448,1.391141428260227,-0.11378912403118699,-0.11395112386988612,-0.029462701734394074
339855000000,357,339855000000,FL_wheel_link,-0.2922715813229254,-2.2887777809689958,17.11045660798586,0.2216311237296753,0.026197854601868756,0.007006938424780322
339856000000,358,339856000000,FL_wheel_link,0.002332583320773078,0.03861134116363506,-0.04518283926977396,0.004680621564188803,0.0030448309031514804,0.0005642559774420383
339857000000,359,339857000000,FL_wheel_link,1.056414543282633,-5.879191134770632,22.438985715366396,0.008436343409487249,-0.1041930304806201,-0.026966488498147836
339858000000,360,339858000000,FL_wheel_link,1.0828021838360797,-1.451319126486954,1.3891871658549677,-0.11356529434803128,-0.11375284721729398,-0.029410913885126132
339859000000,361,339859000000,FL_wheel_link,-0.2935725356125417,-2.287719243720032,17.111759118678815,0.2217750990369478,0.026326039142068252,0.007041145826827577
339860000000,362,339860000000,FL_wheel_link,0.002218149427239737,0.038714300361304646,-0.04507576743575501,0.004688945230299718,0.0030494509461984247,0.0005661315769506257
339861000000,363,339861000000,FL_wheel_link,1.0559847549595311,-5.879015290056894,22.440899439399274,0.008510560558897932,-0.1041568662851676,-0.026955532271054718
339862000000,364,339862000000,FL_wheel_link,1.0816060236202605,-1.449717765037145,1.3877993347703783,-0.11343277288683853,-0.11362775983294528,-0.029378379688017528
339863000000,365,339863000000,FL_wheel_link,-0.2943058547958318,-2.2872678452241506,17.112275763655102,0.22183478187530872,0.026397790341163935,0.00706021164549549
339864000000,366,339864000000,FL_wheel_link,0.0021426911753166084,0.038778620159310995,-0.044993856498913055,0.004693745930377351,0.003052493644404679,0.0005673598510324957
339865000000,367,339865000000,FL_wheel_link,1.0557896083869924,-5.879158703164574,22.442336222460195,0.008536929018712322,-0.1041427210498509,-0.02695080666413656
339865000000,368,339866000000,FL_wheel_link,1.0807896306169675,-1.4486873892761336,1.3868074375983592,-0.11335104840406524,-0.11354207630421966,-0.029356253816493316
339867000000,369,339867000000,FL_wheel_link,-0.29478205864661755,-2.287108904502711,17.112446485366323,0.22185482240234275,0.026444469127169957,0.007072511910014948
339868000000,370,339868000000,FL_wheel_link,0.0020912098023735206,0.03882009985413981,-0.044939972850107805,0.004696633113292928,0.003054736680981704,0.000568266113730557
339869000000,371,339869000000,FL_wheel_link,1.0556994631019845,-5.879401113559423,22.44322775818066,0.008537155612112806,-0.10413803762383186,-0.026948841627072746
339870000000,372,339870000000,FL_wheel_link,1.0802012606399567,-1.4480144918962905,1.3861078698944116,-0.11329960842996367,-0.11347992648255079,-0.029340352785305952
339871000000,373,339871000000,FL_wheel_link,-0.2951196579360215,-2.2871166459035503,17.11248824326674,0.22185413268971835,0.026477670875168762,0.00708119233327168
339872000000,374,339872000000,FL_wheel_link,0.0020550555326495946,0.038847120639234324,-0.04490743641347659,0.004698367605822331,0.003056462543459696,0.0005689717931052664
339873000000,375,339873000000,FL_wheel_link,1.055667389418096,-5.879688526521812,22.443715917127644,0.008520998294442337,-0.10413851625110217,-0.026948414243964967
339874000000,376,339874000000,FL_wheel_link,1.0797612058085964,-1.4475713322620152,1.3856124153367098,-0.11326703040345816,-0.11343309503654625,-0.02932849162222458
339875000000,377,339875000000,FL_wheel_link,-0.2953643701795699,-2.2872374743993764,17.112484770742313,0.2218405117459103,0.026501686408490037,0.0070874424880942285
339876000000,378,339876000000,FL_wheel_link,0.002028805540892552,0.03886480321398376,-0.04488794579911972,0.004699358767058336,0.0030577996152844657,0.0005695293429725744
339877000000,379,339877000000,FL_wheel_link,1.055673564000567,-5.880018600212678,22.443970142985663,0.008493472326553989,-0.10414242117537055,-0.026949014642914115
339878000000,380,339878000000,FL_wheel_link,1.0794214662888095,-1.4472745376674965,1.385248876765265,-0.11324636139205194,-0.11339668503165186,-0.029319362205683226
339879000000,381,339879000000,FL_wheel_link,-0.295541354299776,-2.287440077292096,17.112459416321773,0.22181782145477336,0.026518884452403805,0.007091917180448684
339880000000,382,339880000000,FL_wheel_link,0.0020089158302284203,0.03887659667497175,-0.0448752572348554,0.004699868433450409,0.0030588430088381944,0.0005699728344587286
339881000000,383,339881000000,FL_wheel_link,1.0557044656036116,-5.8803934791323265,22.44411186002774,0.008457778630683564,-0.1041485137403642,-0.026950285342651904
339882000000,384,339882000000,FL_wheel_link,1.0791484715442943,-1.4470667011401763,1.3849636935660574,-0.11323296369816666,-0.11336726556560034,-0.0293120516507718
339883000000,385,339883000000,FL_wheel_link,-0.2956706048918281,-2.287700673959525,17.112417548437048,0.22178866561742777,0.02653122731706891,0.007095146275032373
339884000000,386,339884000000,FL_wheel_link,0.0019930948342591227,0.038884840210766256,-0.044865790473203694,0.0047000782432963135,0.003059675525950866,0.0005703300356127007
339885000000,387,339885000000,FL_wheel_link,1.055748400840109,-5.880809117807289,22.444206556422134,0.00841621151065126,-0.10415566166081694,-0.02695190966041485
339886000000,388,339886000000,FL_wheel_link,1.0789167228702583,-1.446907506259186,1.38472039024813,-0.1132235574877297,-0.11334220645690699,-0.029305865781146804
339887000000,389,339887000000,FL_wheel_link,-0.29576846879240987,-2.2880010433222386,17.112364264558757,0.22175506862674155,0.02654035931122119,0.007097567783066619
339888000000,390,339888000000,FL_wheel_link,0.0019799285617890104,0.03889102524281737,-0.044857935453863296,0.004700109970867143,0.003060361598798026,0.0005706225934132135
339889000000,391,339889000000,FL_wheel_link,1.0557959591492188,-5.881257694058722,22.444281107998183,0.00837037738124245,-0.10416293141465169,-0.02695363104857442
339890000000,392,339890000000,FL_wheel_link,1.0787110216915206,-1.4467739827269999,1.3844995792281645,-0.1132162302632689,-0.11331993173986371,-0.029300389956747032
339891000000,393,339891000000,FL_wheel_link,-0.2958473045564848,-2.288327987524858,17.112304013125904,0.22171851923557095,0.02654754042745265,0.007099514701879136
339892000000,394,339892000000,FL_wheel_link,0.001968558588960082,0.03889608117038646,-0.044851033903180855,0.0047000433493983255,0.0030609468798765156,0.0005708658186122694
339893000000,395,339893000000,FL_wheel_link,1.0558404203347007,-5.881731731025783,22.44434497806939,0.008321352140834943,-0.10416965022080954,-0.026955265995293354
339894000000,396,339894000000,FL_wheel_link,1.078521884850152,-1.4466524431660812,1.3842906324727087,-0.11320981245150678,-0.1132994531453158,-0.02929536495621977
339895000000,397,339895000000,FL_wheel_link,-0.295915379417999,-2.2886728619200003,17.112241056502736,0.22168002981410007,0.02655361628824371,0.007101210006380439
339896000000,398,339896000000,FL_wheel_link,0.001958480063527338,0.038900559011591014,-0.04484484243835695,0.004699927429451678,0.0030614601317840236,0.0005710694525233398
339897000000,399,339897000000,FL_wheel_link,1.0558775098615834,-5.882225715774668,22.444400887750373,0.008269808033694448,-0.10417539041298125,-0.02695669809090073
339898000000,400,339898000000,FL_wheel_link,1.0783437130953877,-1.446535036701801,1.3840879386553895,-0.11320361670310732,-0.11328018540107988,-0.029290637490158897
339899000000,401,339899000000,FL_wheel_link,-0.2959776885784716,-2.289030485372119,17.11217882105318,0.22164023085730744,0.02655909672276508,0.007102788189952314
339900000000,402,339900000000,FL_wheel_link,0.0019494004926257295,0.03890477480000128,-0.044839254093444865,0.004699790834579139,0.0030619178946076466,0.0005712391805567431
339902000000,403,339901000000,FL_wheel_link,1.0559047613710926,-5.882736258455387,22.444449890156875,0.008216140649003518,-0.10417990700610284,-0.026957860526092683
339902000000,404,339902000000,FL_wheel_link,1.0781733179168018,-1.4464173218847152,1.3838884761118317,-0.11319724854953675,-0.11326179502125922,-0.029286120214530493
339902000000,405,339903000000,FL_wheel_link,-0.2960370256738926,-2.2893979483505214,17.112119625654568,0.22159948712658697,0.02656426519376861,0.007104324191501693
339904000000,406,339904000000,FL_wheel_link,0.0019411498822903346,0.03890890813181259,-0.04483419479840878,0.004699649747762369,0.003062329144481968,0.0005713781377826737
339904000000,407,339905000000,FL_wheel_link,1.0559208464264176,-5.88326153576202,22.4444929580093,0.008160574351866616,-0.10418306969778589,-0.02695871757432594
339906000000,408,339906000000,FL_wheel_link,1.828906386461924,-4.626414696574987,3.473498895401366,-0.4743838012846227,-0.1788656765182591,-0.05062602707620129
339907000000,409,339907000000,FL_wheel_link,2.5791741355215114,-10.842880369851866,21.579128994708977,-0.6646054423777218,-0.27044160348765645,-0.06844029397279135
339908000000,410,339908000000,FL_wheel_link,5.918029290628523,-13.184592286369966,11.687505445473194,-1.1559831409827754,-0.5899838226974059,-0.16181772427143082
339910000000,411,339909000000,FL_wheel_link,9.266886329052019,-13.886291981363064,12.748802382436022,-1.1095148178148861,-0.9625132095787235,-0.25212594597167176
339910000000,412,339910000000,FL_wheel_link,7.166043972837734,-11.062919417078614,22.180691746740397,-0.5639586365670356,-0.7811117742616043,-0.19245224331150712
339911000000,413,339911000000,FL_wheel_link,6.468757839087574,-8.317451118057923,9.038459703228611,-0.617465484941598,-0.6810557222575873,-0.1745472215205266
339912000000,414,339912000000,FL_wheel_link,5.210889504772205,-8.153206584692368,17.85809655212567,-0.37158734474745,-0.5631593341731174,-0.1411841138283033
