%time,field.header.seq,field.header.stamp,field.header.frame_id,field.wrench.force.x,field.wrench.force.y,field.wrench.force.z,field.wrench.torque.x,field.wrench.torque.y,field.wrench.torque.z
339549000000,45,339545000000,BL_wheel_link,-0.09936304002193258,-0.4134964001462774,-1.315557134113056,0.009566275990294542,0.006411008920044039,-0.003583131631148806
339549000000,46,339546000000,BL_wheel_link,0.021559324322892575,-0.047574893899825776,-0.05061410637576212,0.0007281842849383179,0.0005136428947027173,-0.00045869509198240256
339549000000,47,339547000000,BL_wheel_link,0.10733159576329182,-0.5797786772636387,-1.0935591959475173,-0.00979485353798596,-0.006671050869430393,0.0039380369099719405
339549000000,48,339548000000,BL_wheel_link,-0.0294480526696809,0.010281187678794837,-0.05529600062830509,-0.00044879041687635946,-0.00030332619675713617,0.00013249503728728388
339549000000,49,339549000000,BL_wheel_link,-0.0993794588817359,-0.41349179764762295,-1.315546480739941,0.00956622719675876,0.006411415079868816,-0.0035835729232376982
339549000000,50,339550000000,BL_wheel_link,0.021556962893929454,-0.04756806064693908,-0.05060994612757956,0.0007281519187575412,0.0005135978896948806,-0.00045862624457193655
339549000000,51,339551000000,BL_wheel_link,0.10733686850063903,-0.5797941671199293,-1.0935461877756092,-0.009795302447321174,-0.0066710010469096335,0.003938347028367392
339549000000,52,339552000000,BL_wheel_link,-0.029445213928936884,0.010284243822734912,-0.05530072948926718,-0.0004485750936346763,-0.0003034308669061579,0.00013237567273434762
339549000000,53,339553000000,BL_wheel_link,-0.09939471244739409,-0.4134875287891365,-1.31553743677307,0.009566203335630815,0.0064118077265808765,-0.0035839825159328146
339549000000,54,339554000000,BL_wheel_link,0.021554238125542184,-0.047561178022650474,-0.05060533183158864,0.0007281090976536712,0.0005135551549119133,-0.00045856907433361346
339559000000,55,339555000000,BL_wheel_link,0.10734236315177305,-0.5798089107448373,-1.093535131598383,-0.009795723506623588,-0.00667097977787678,0.003938648452920031
339559000000,56,339556000000,BL_wheel_link,-0.02944232508443995,0.01028698484765383,-0.05530467855643164,-0.0004483704741195668,-0.0003035265924229044,0.00013226272050660773
339559000000,57,339557000000,BL_wheel_link,-0.099408806706619,-0.4134835917058041,-1.315529993210531,0.009566204266123387,0.006412186931093046,-0.0035843605880869767
339559000000,58,339558000000,BL_wheel_link,0.02155115217357752,-0.04755424638758385,-0.05060026612644081,0.0007280558823850055,0.0005135146785303872,-0.00045852351471199987
339559000000,59,339559000000,BL_wheel_link,0.10734807911876254,-0.579822912460802,-1.0935260167243732,-0.00979611686477138,-0.006670986904128366,0.003938941231788834
339559000000,60,339560000000,BL_wheel_link,-0.029439386337664294,0.010289412518716892,-0.05530785206167573,-0.0004481765002776618,-0.00030361342383459887,0.0001321561452884192
339559000000,61,339561000000,BL_wheel_link,-0.09942174711642934,-0.41347998469649105,-1.3155241423046427,0.009566229866610746,0.006412552760332079,-0.0035847073008182665
339561000000,62,339562000000,BL_wheel_link,0.021547706883563653,-0.047547265964593806,-0.05059475119616432,0.0007279923241509781,0.000513476449040048,-0.0004584895063759966
339561000000,63,339563000000,BL_wheel_link,0.1073540157894961,-0.5798361760421328,-1.0935188337232702,-0.009796482655349053,-0.006671022285251051,0.00393922540728797
339561000000,64,339564000000,BL_wheel_link,-0.029436397894616783,0.010291528417725527,-0.0553102537519181,-0.00044799312012082837,-0.0003036914048539672,0.00013205591572869153
339566000000,65,339565000000,BL_wheel_link,-0.09943353852855587,-0.41347670615546683,-1.3155198770727092,0.009566280026810777,0.006412905272504297,-0.0035850227945240314
339566000000,66,339566000000,BL_wheel_link,0.021543903792654244,-0.047540236863616456,-0.0505887890001086,0.0007279184701628912,0.000513440457920395,-0.00045846699885312335
339566000000,67,339567000000,BL_wheel_link,0.10736017258886989,-0.5798487047723433,-1.0935135744930404,-0.009796820998095429,-0.006671085800397913,0.003939501016570578
339566000000,68,339568000000,BL_wheel_link,-0.029433360006754734,0.010293333988460338,-0.05531188695109301,-0.00044782028537340864,-0.0003037605715054691,0.00013196200381436856
339566000000,69,339569000000,BL_wheel_link,-0.09944418512307586,-0.4134737545644257,-1.3155171912868093,0.009566354648085036,0.006413244515989887,-0.0035853071887393703
339574000000,70,339570000000,BL_wheel_link,0.02153974411261516,-0.0475331590965968,-0.050582381280652775,0.0007278343641991159,0.0005134066998799742,-0.0004584559507076728
339574000000,71,339571000000,BL_wheel_link,0.10736654905705985,-0.5798605015161724,-1.0935102322768948,-0.00979713199859187,-0.0066711773483033665,0.0039397680923426315
339574000000,72,339572000000,BL_wheel_link,-0.02943027296516642,0.010294830536689597,-0.05531275457106957,-0.0004476579515259313,-0.0003038209524733348,0.00013187438478751655
339574000000,73,339573000000,BL_wheel_link,-0.0994536903490478,-0.413471128542801,-1.3155160794724172,0.009566453643549785,0.006413570528592429,-0.0035855605819837904
339574000000,74,339574000000,BL_wheel_link,0.021535228809156193,-0.0475260326334552,-0.0505755296136137,0.0007277400466716311,0.0005133751726843378,-0.0004584563289427692
339575000000,75,339575000000,BL_wheel_link,0.10737314486104585,-0.5798715687096813,-1.0935088015636947,-0.009797415747029862,-0.006671296846284103,0.003940026662353277
339575000000,76,339576000000,BL_wheel_link,-0.029427137029336817,0.010296019189546517,-0.055312859027332656,-0.00044750607959156334,-0.0003038725701672707,0.00013179303766170584
339575000000,77,339577000000,BL_wheel_link,-0.09946205694910208,-0.4134688269167132,-1.3155165371166213,0.009566576941610314,0.006413883339802244,-0.0035857830536566767
339577000000,78,339578000000,BL_wheel_link,0.021530358615739917,-0.04751885741509955,-0.05056823529343671,0.0007276355515702781,0.0005133458754278542,-0.0004584681076268519
339579000000,79,339579000000,BL_wheel_link,0.10737995981329934,-0.5798819083427023,-1.0935092780475615,-0.00979767231671527,-0.006671444229304141,0.0039402767491968065
339580000000,80,339580000000,BL_wheel_link,-0.02942395245008751,0.01029690088652396,-0.055312202287906884,-0.0004473646366785384,-0.0003039154413605752,0.00013171794514059914
339580000000,81,339581000000,BL_wheel_link,-0.09946928692897301,-0.4134668486955252,-1.3155185606406694,0.009566724485099563,0.006414182970093356,-0.003585974663079398
339581000000,82,339582000000,BL_wheel_link,0.021525134000402287,-0.047511633304842656,-0.050560499360731384,0.0007275209078593366,0.0005133188093014542,-0.00045849126845501516
339581000000,83,339583000000,BL_wheel_link,0.10738699389490443,-0.5798915220019656,-1.0935116586693059,-0.0097979017649331,-0.006671619450631639,0.0039405183707003875
339581000000,84,339584000000,BL_wheel_link,-0.029420719448668333,0.010297476376635277,-0.05531078581858488,-0.00044723359565011073,-0.0003039495766860658,0.00013164909378553206
339584000000,85,339585000000,BL_wheel_link,-0.09947538157384973,-0.41346519310000907,-1.315522147406187,0.00956689623165798,0.006414469431410822,-0.0035861354504204135
339584000000,86,339586000000,BL_wheel_link,0.021519555312369362,-0.04750436026356827,-0.05055232262056341,0.0007273961372299511,0.0005132939763151798,-0.000458525799686194
339584000000,87,339587000000,BL_wheel_link,0.1073942471663124,-0.5799004107172159,-1.0935159414087137,-0.009798104130051964,-0.006671822479172309,0.00394075153830537
339584000000,88,339588000000,BL_wheel_link,-0.029417438221690715,0.010297746203548182,-0.05530861065067424,-0.0004471129375774743,-0.0003039749824699539,0.00013158647437535063
339584000000,89,339589000000,BL_wheel_link,-0.09948034147340591,-0.41346385957303167,-1.3155272958365651,0.009567092155683559,0.0064147427282864895,-0.003586265436883588
339590000000,90,339590000000,BL_wheel_link,0.021513622600929504,-0.047497038123105566,-0.05054370553593266,0.000727261254968288,0.000513271379766413,-0.00045857169658863916
339591000000,91,339591000000,BL_wheel_link,0.1074017198696523,-0.5799085751451867,-1.093522125550959,-0.009798279434477425,-0.006672053302356543,0.0039409762589716025
339591000000,92,339592000000,BL_wheel_link,-0.029414108953975063,0.010297710737998771,-0.055305677337312696,-0.0004470026488326934,-0.0003039916586426459,0.00013153008134695994
339593000000,93,339593000000,BL_wheel_link,-0.09948416647721116,-0.4134628477190326,-1.3155340051984268,0.009567312244691295,0.006415002855476093,-0.0035863646238098504
339594000000,94,339594000000,BL_wheel_link,0.021507335765150924,-0.047489666801885634,-0.050534648391965885,0.0007271162707552302,0.0005132510248436225,-0.00045862896199676517
339595000000,95,339595000000,BL_wheel_link,0.10740941234080577,-0.5799160154196256,-1.093530211433971,-0.00979842768313089,-0.006672311923985769,0.003941192533588054
339596000000,96,339596000000,BL_wheel_link,-0.029410731797358057,0.010297370143527197,-0.05530198596436413,-0.0004469027231866895,-0.00030399960021433424,0.00013147991330222824
339597000000,97,339597000000,BL_wheel_link,-0.09948685574804103,-0.4134621573767626,-1.3155422758369957,0.009567556502904194,0.0064152498008428396,-0.0035864329937051365
339598000000,98,339598000000,BL_wheel_link,0.021500694462296844,-0.04748224613755283,-0.0505251511306429,0.0007269611869620949,0.0005132329173875652,-0.00045869760507615627
339599000000,99,339599000000,BL_wheel_link,0.10741732506173016,-0.5799227312249644,-1.0935402006354293,-0.009798548863461857,-0.006672598365407518,0.003941400357891311
339599000000,100,339600000000,BL_wheel_link,-0.029407306879610882,0.010296724383393366,-0.055297536141895344,-0.00044681316092470315,-0.00030399879683274365,0.000131435972638166
339599000000,101,339601000000,BL_wheel_link,-0.09948840772482231,-0.41346178858755533,-1.3155521090038378,0.009567824948816339,0.0064154835432286145,-0.003586470509387591
339599000000,102,339602000000,BL_wheel_link,0.021493698111809782,-0.04747477592885496,-0.05051521346101483,0.0007267960005883351,0.0005132170652420869,-0.0004587776426732734
339603000000,103,339603000000,BL_wheel_link,0.10742545864915123,-0.5799287218122963,-1.0935520959190954,-0.009798642946447451,-0.006672912665448715,0.003941599722373736
339604000000,104,339604000000,BL_wheel_link,-0.02940383431310544,0.010295773248751095,-0.055292327027221984,-0.00044673396849211696,-0.00030398923223483716,0.0001313982656496558
339605000000,105,339605000000,BL_wheel_link,-0.09948882013270395,-0.41346174154815174,-1.3155635069011373,0.009568117615895447,0.006415704052830145,-0.0035864771145963583
339606000000,106,339606000000,BL_wheel_link,0.02148634595738277,-0.04746725602562335,-0.05050483482297249,0.0007266207019302251,0.0005132034774241649,-0.00045886909855014703
339607000000,107,339607000000,BL_wheel_link,0.1074338138411639,-0.5799339859411548,-1.093565901182587,-0.009798709885872826,-0.006673254880011039,0.003941790612011681
339608000000,108,339608000000,BL_wheel_link,-0.029400314188819388,0.010294516328338579,-0.05528635730142036,-0.00044666515907758217,-0.00030397088486118056,0.0001313668025869645
339609000000,109,339609000000,BL_wheel_link,-0.0994880899850895,-0.4134620167008756,-1.315576472727661,0.009568434552979687,0.006415911291991577,-0.0035864527334461866
339610000000,110,339610000000,BL_wheel_link,0.021478636999461422,-0.04745968620695065,-0.05049401438324241,0.0007264352750471482,0.0005131921643367133,-0.00045897200350689945
339611000000,111,339611000000,BL_wheel_link,0.10744239151008575,-0.5799385219066509,-1.0935816215236334,-0.009798749618101387,-0.006673625082281762,0.00394197300624758
339612000000,112,339612000000,BL_wheel_link,-0.029396746588781254,0.010292953026658282,-0.055279625206554446,-0.0004466067524433568,-0.00030394372765476363,0.00013134159761177445
339612000000,113,339613000000,BL_wheel_link,-0.09948621357222284,-0.4134626146648276,-1.3155910106086055,0.009568775823677081,0.006416105213965737,-0.003586397270642542
339614000000,114,339614000000,BL_wheel_link,0.02147057003439717,-0.0474520662597711,-0.05048275105367187,0.0007262396979311512,0.0005131831379783325,-0.0004590863956795104
339615000000,115,339615000000,BL_wheel_link,0.10745119266223116,-0.5799423275674278,-1.0935992632173022,-0.009798762062830842,-0.0066740233630578575,0.003942146879350477
339624000000,116,339616000000,BL_wheel_link,-0.029393131549363058,0.010291082548047607,-0.05527212847400978,-0.00044655877485700793,-0.00030390772796988475,0.00013132266881962494
339624000000,117,339617000000,BL_wheel_link,-0.09948318647367244,-0.41346353626518917,-1.315607125680604,0.009569141507109025,0.006416285764306142,-0.0035863106114916907
339624000000,118,339618000000,BL_wheel_link,0.021462143623989297,-0.04744439591633162,-0.05047104345935574,0.0007260339419875945,0.0005131764115690253,-0.0004592123201033579
339624000000,119,339619000000,BL_wheel_link,0.10746021843823012,-0.5799454002944806,-1.0936188337396757,-0.009798747122039079,-0.0066744498304072185,0.003942312199969765
339624000000,120,339620000000,BL_wheel_link,-0.02938946910752931,0.01028890390955116,-0.05526386439976547,-0.0004465212592753202,-0.00030386284767006366,0.00013131003826949363
339624000000,121,339621000000,BL_wheel_link,-0.09947900353500336,-0.41346478251932334,-1.3156248240022608,0.009569531697006873,0.006416452879325737,-0.003586192621477122
339624000000,122,339622000000,BL_wheel_link,0.02145335613037361,-0.0474366749433528,-0.0504588899731817,0.0007258179726327133,0.0005131719999538339,-0.0004593498292820035
339624000000,123,339623000000,BL_wheel_link,0.10746947010652302,-0.5799477369933965,-1.0936403417357703,-0.009798704680671254,-0.006674904609886315,0.003942468931390619
339624000000,124,339624000000,BL_wheel_link,-0.02938575927418539,0.010286415931679876,-0.055254829797913754,-0.0004464942451968294,-0.000303809043030715,0.00013130373194855213
339625000000,125,339625000000,BL_wheel_link,-0.09947365888294565,-0.41346635465444614,-1.3156441126376444,0.009569946502791353,0.006416606487145955,-0.0035860431465596
339626000000,126,339626000000,BL_wheel_link,0.021444205664506395,-0.0474289030261831,-0.05044628868642247,0.0007255917490130596,0.000513169919512382,-0.0004594989829749272
339627000000,127,339627000000,BL_wheel_link,0.10747894908253615,-0.5799493341222178,-1.0936637970856415,-0.009798634606875774,-0.006675387845073277,0.0039426170315830945
339628000000,128,339628000000,BL_wheel_link,-0.029382002039266702,0.01028361725368257,-0.05524502100975743,-0.0004464777783252787,-0.00030374626443770603,0.0001313037797231308
339632000000,129,339629000000,BL_wheel_link,-0.09946714591276477,-0.4134682540941559,-1.3156649996060499,0.009570386048948047,0.006416746507069285,-0.003585862012968018
339632000000,130,339630000000,BL_wheel_link,0.021434690166169765,-0.04742107990398132,-0.05043323743653646,0.0007253552234081787,0.000513170187776326,-0.00045965984789640105
339632000000,131,339631000000,BL_wheel_link,0.1074886568966993,-0.5799501876279376,-1.0936892108117613,-0.009798536750204638,-0.00667589969637734,0.003942756452620318
339632000000,132,339632000000,BL_wheel_link,-0.029378197372649437,0.010280506299274132,-0.05523443390145572,-0.0004464719119310302,-0.0003036744571323269,0.00013131021570886469
339632000000,133,339633000000,BL_wheel_link,-0.09945945728358448,-0.41347048246051116,-1.3156874939241248,0.00957085047534224,0.006416872849980779,-0.0035856490268165978
339632000000,134,339634000000,BL_wheel_link,0.021424807302070685,-0.04741320523727733,-0.05041973377353943,0.0007251083423985209,0.0005131728241133416,-0.00045983249846102064
339632000000,135,339635000000,BL_wheel_link,0.10749859523045081,-0.5799502930290703,-1.0937165951996888,-0.009798410943829498,-0.0066764403428036445,0.003942887141402592
339632000000,136,339636000000,BL_wheel_link,-0.029374345233209625,0.010277081320324379,-0.05522306387353348,-0.0004464767049839622,-0.0003035935601928221,0.00013132307773632226
339632000000,137,339637000000,BL_wheel_link,-0.09945058492353277,-0.41347304158518927,-1.315711605577657,0.009571339937287926,0.006416985417764055,-0.0035854039745342767
339638000000,138,339638000000,BL_wheel_link,0.021414554536809204,-0.047405278682503,-0.05040577497992948,0.0007248510458732772,0.0005131778492385923,-0.0004600170161805501
339639000000,139,339639000000,BL_wheel_link,0.10750876590613495,-0.5799496453432159,-1.0937459637327342,-0.009798257003115459,-0.006677009981064539,0.003943009039247256
339640000000,140,339640000000,BL_wheel_link,-0.029370445548733744,0.010273340348058761,-0.05521090582494438,-0.0004464922235497791,-0.0003035035070738404,0.00013134240782414417
339641000000,141,339641000000,BL_wheel_link,-0.099440520000431,-0.4134759335094035,-1.3157373455624959,0.009571854605598524,0.006417084103744072,-0.00358512662198065
339644000000,142,339642000000,BL_wheel_link,0.02140392911202419,-0.047397299892651866,-0.050391358069420814,0.0007245832672165761,0.0005131852853147257,-0.00046021349003740975
339644000000,143,339643000000,BL_wheel_link,0.10751917086692757,-0.5799482391033934,-1.0937773311066439,-0.009798074724883284,-0.006677608825452096,0.0039431220815227975
339644000000,144,339644000000,BL_wheel_link,-0.029366498231477835,0.010269281230350463,-0.05519795418967232,-0.00044651854085161254,-0.00030340422590092146,0.00013136825205457622
339644000000,145,339645000000,BL_wheel_link,-0.09942925295123166,-0.4134791604649896,-1.3157647258732206,0.009572394666966124,0.006417168792328133,-0.003584816715127145
339644000000,146,339646000000,BL_wheel_link,0.02139292803430432,-0.04738926849155381,-0.05037647976304399,0.0007243049333469718,0.0005131951561019679,-0.0004604220166250202
339644000000,147,339647000000,BL_wheel_link,0.10752981220645835,-0.5799460683740995,-1.0938107132699635,-0.009797863888816568,-0.006678237108772942,0.00394322619827771
339644000000,148,339648000000,BL_wheel_link,-0.02936250317839415,0.010264901612196816,-0.05518420291130672,-0.00044655573647740164,-0.00030329563849760524,0.0001314006606071595
339649000000,149,339649000000,BL_wheel_link,-0.09941677344505659,-0.4134827248905826,-1.315793759486985,0.009572960323442075,0.006417239358795951,-0.003584473979191769
339650000000,150,339650000000,BL_wheel_link,0.02138154808374463,-0.04738118408919411,-0.05036113652679864,0.0007240159650443822,0.0005132074870024958,-0.00046064269991456856
339651000000,151,339651000000,BL_wheel_link,0.1075406921587213,-0.5799431267267277,-1.0938461274060236,-0.009797624256666384,-0.006678895082138854,0.0039433213138724945
339652000000,152,339652000000,BL_wheel_link,-0.029358460269495068,0.01026019894712712,-0.055169645450410684,-0.0004466038967374186,-0.00030317766084382873,0.000131439687685824
339653000000,153,339653000000,BL_wheel_link,-0.09940274373418223,-0.41348680816267797,-1.3158246760501142,0.009573555261485428,0.006417293926633054,-0.0035840890350862914
339654000000,154,339654000000,BL_wheel_link,0.021369589429160705,-0.04737297102511142,-0.05034515312316312,0.000723713096695425,0.0005132237413730451,-0.00046088123148686836
339655000000,155,339655000000,BL_wheel_link,0.10755170935919832,-0.5799393243181724,-1.093883508937048,-0.009797355384281819,-0.006679581964015677,0.003943404399426568
339656000000,156,339656000000,BL_wheel_link,-0.02935436725836721,0.010255169365346579,-0.055154294955060065,-0.00044666368960075386,-0.00030305094631762286,0.0001314853374414363
339657000000,157,339657000000,BL_wheel_link,-0.09938709703597245,-0.4134914456237772,-1.315857561321836,0.009574180734514272,0.00641733211610505,-0.0035836600012289456
339658000000,158,339658000000,BL_wheel_link,0.021357015315678973,-0.047364678799026595,-0.050328453467774974,0.0007233936538306164,0.0005132441493115209,-0.0004611402193284777
339659000000,159,339659000000,BL_wheel_link,0.10756276880409853,-0.5799345242666062,-1.0939227581772677,-0.009797055227720038,-0.0066802964374049765,0.003943473296603138
339660000000,160,339660000000,BL_wheel_link,-0.02935021609020083,0.010249794757412566,-0.05513816567759539,-0.0004467368094531695,-0.00030291669623665673,0.00013153795324461167
339661000000,161,339661000000,BL_wheel_link,-0.09937024772932364,-0.4134964179483505,-1.3158922457554854,0.009574833806923429,0.006417356555244673,-0.0035831979753434507
339662000000,162,339662000000,BL_wheel_link,0.02134405013727497,-0.04735631653418692,-0.05031124455554679,0.0007230626294984451,0.0005132666474361563,-0.0004614112907897024
339663000000,163,339663000000,BL_wheel_link,0.10757406597447984,-0.579928913926342,-1.0939641175861483,-0.009796725249321918,-0.00668104166609177,0.0039435330599874256
339664000000,164,339664000000,BL_wheel_link,-0.029346015187867263,0.010244088740665213,-0.05512121232508425,-0.0004468212196812624,-0.0003027729018990273,0.0001315973697770126
339665000000,165,339665000000,BL_wheel_link,-0.099352134388075,-0.41350173526844586,-1.3159286535112595,0.009575513551633353,0.0064173661912507755,-0.0035827015078743513
339666000000,166,339666000000,BL_wheel_link,0.02133069149857509,-0.047347890228630965,-0.050293564487327524,0.0007227210038811591,0.0005132917615119444,-0.0004616947659447714
339667000000,167,339667000000,BL_wheel_link,0.1075856228501687,-0.5799225160583177,-1.0940076116199364,-0.009796365639731098,-0.006681818073262918,0.0039435838814624175
339673000000,168,339668000000,BL_wheel_link,-0.029341763916309268,0.010238047859903319,-0.055103415123798766,-0.00044691681709086204,-0.0003026191670245176,0.00013166364648683297
339673000000,173,339673000000,BL_wheel_link,-0.09931205195722653,-0.4135134362875735,-1.3160066903119305,0.00957695399303836,0.00641734049667427,-0.0035816043493289104
339674000000,174,339674000000,BL_wheel_link,0.021302783814821584,-0.04733086797539606,-0.050256756759439566,0.0007220047793883968,0.0005133498583397564,-0.00046229979562127877
339675000000,175,339675000000,BL_wheel_link,0.10760951985197378,-0.5799073048504809,-1.0941010488575647,-0.009795555508573256,-0.006683465139793014,0.003943657586680637
339676000000,176,339676000000,BL_wheel_link,-0.02933310597004473,0.010224939987278804,-0.05506525402268851,-0.0004471426412040411,-0.00030228178837961403,0.00013181718702387366
339677000000,177,339677000000,BL_wheel_link,-0.09929005759601693,-0.4135198292708512,-1.3160483663453242,0.009577715403618453,0.0064173049369065345,-0.003581003053932057
339678000000,178,339678000000,BL_wheel_link,0.02128822644743315,-0.04732227479286439,-0.05023761025422854,0.0007216296604571367,0.0005133828279092528,-0.00046262169366447105
339678000000,179,339679000000,BL_wheel_link,0.10762185987856529,-0.5798984631435019,-1.0941510338223412,-0.009795104094276839,-0.0066843364054380424,0.003943680051250427
339678000000,180,339680000000,BL_wheel_link,-0.029328700016636507,0.010217865035920154,-0.05504487425054725,-0.0004472732366076448,-0.00030209797904380125,0.0001319046268303609
339678000000,181,339681000000,BL_wheel_link,-0.09926674201223148,-0.41352658761622396,-1.316091840402778,0.009578504671983599,0.006417253984747052,-0.003580366065013338
339678000000,182,339682000000,BL_wheel_link,0.02127325897928802,-0.047313625898691425,-0.05021796021567126,0.0007212430115474058,0.0005134184691066842,-0.0004629567655108443
339683000000,183,339683000000,BL_wheel_link,0.10763446319259665,-0.5798887817381092,-1.094203233122421,-0.009794621276677146,-0.006685240027618526,0.0039436927277596975
339684000000,184,339684000000,BL_wheel_link,-0.029324302544310586,0.010210473862746507,-0.05502369933313542,-0.0004474149305075414,-0.0003019033291935476,0.00013199909693054987
339685000000,185,339685000000,BL_wheel_link,-0.0992420585476914,-0.41353369755280545,-1.3161370178383662,0.009579320500431632,0.006417186094830715,-0.0035796925153182045
339686000000,186,339686000000,BL_wheel_link,0.02125786158289729,-0.047304916150143636,-0.05019784505480533,0.0007208460020708869,0.000513457559376162,-0.0004633057465361157
339687000000,187,339687000000,BL_wheel_link,0.10764735457035761,-0.5798782873477141,-1.0942576982195338,-0.009794107456647818,-0.006686176859302419,0.003943695880372004
339688000000,188,339688000000,BL_wheel_link,-0.02931995857532044,0.010202792787603623,-0.05500177189102739,-0.000447566751521804,-0.00030169687457681413,0.00013210046763456504
339689000000,189,339689000000,BL_wheel_link,-0.09921595677327885,-0.4135411533850457,-1.316183817316808,0.009580161816992939,0.006417099849733695,-0.0035789815858981904
339690000000,190,339690000000,BL_wheel_link,0.021242018646659956,-0.04729614503959417,-0.05017729913573397,0.0007204396277296606,0.0005135007922210468,-0.00046366931003925647
339691000000,191,339691000000,BL_wheel_link,0.10766056070044319,-0.5798670048561734,-1.0943144715413373,-0.009793562857384683,-0.006687147627183155,0.003943689729702217
339692000000,192,339692000000,BL_wheel_link,-0.02931556135789859,0.010194754135927077,-0.05497892047474277,-0.00044773007332231276,-0.00030147918650097954,0.0001322091435057426
339693000000,193,339693000000,BL_wheel_link,-0.09918846139513117,-0.41354899908478915,-1.3162324632677713,0.009581031865137469,0.00641699735627281,-0.0035782335088246184
339694000000,194,339694000000,BL_wheel_link,0.021225753861169386,-0.047287325775398764,-0.05015623582434789,0.0007200213109465814,0.0005135468657856061,-0.000464046636046587
339695000000,195,339695000000,BL_wheel_link,0.10767405107377562,-0.5798548561624493,-1.0943735342049683,-0.00979298546619306,-0.00668815189620509,0.003943673396795227
339696000000,196,339696000000,BL_wheel_link,-0.029311108935098817,0.010186344508120834,-0.05495514873078373,-0.0004479060391771852,-0.0003012508574827027,0.00013232540761302464
339697000000,197,339697000000,BL_wheel_link,-0.09915956706759227,-0.4135572362216679,-1.3162830135798589,0.009581931451473059,0.006416878684046326,-0.003577447834321852
339701000000,198,339698000000,BL_wheel_link,0.021209060254708402,-0.04727845330826519,-0.050134636870570445,0.0007195906357471333,0.000513595676980177,-0.0004644378223573827
339701000000,201,339701000000,BL_wheel_link,-0.09912925752745898,-0.41356586268252926,-1.3163354848790991,0.009582860812123492,0.0064167435036959096,-0.0035766239405563825
339702000000,202,339702000000,BL_wheel_link,0.021191926792318606,-0.047269522305267125,-0.05011249909401745,0.0007191476132931499,0.0005136473679617385,-0.00046484315420564825
339703000000,203,339703000000,BL_wheel_link,0.10770186780887575,-0.5798278751153438,-1.0944986859309085,-0.009791730393565082,-0.006690263125612633,0.0039436093622506815
339704000000,204,339704000000,BL_wheel_link,-0.02930205239542224,0.010168404760365117,-0.05490481886310632,-0.0004482962364992716,-0.0003007615421881198,0.0001325809907713939
339705000000,205,339705000000,BL_wheel_link,-0.09909751126751136,-0.41357488030034095,-1.3163898952522284,0.00958382023033351,0.00641659145914389,-0.003575761192709665
339706000000,206,339706000000,BL_wheel_link,0.02117434463554956,-0.047260530324553046,-0.050089819088388055,0.0007186922099277703,0.0005137020608309131,-0.00046526290017282526
339707000000,207,339707000000,BL_wheel_link,0.10771620233308904,-0.579813020341076,-1.0945648606622513,-0.009791051971640393,-0.0066913713397048075,0.0039435614338620304
339708000000,208,339708000000,BL_wheel_link,-0.029297451102185085,0.01015886826590438,-0.054878236814677774,-0.00044851057460720725,-0.0003005000706930437,0.00013272046945280553
339709000000,209,339709000000,BL_wheel_link,-0.0990643047332652,-0.4135842941406654,-1.31644627044283,0.009584810114088793,0.0064164222348623515,-0.0035748589655060174
339710000000,210,339710000000,BL_wheel_link,0.021156306743252366,-0.047251476795172706,-0.050066590663368084,0.0007182242897230153,0.0005137598284943893,-0.00046569729728543097
339710000000,211,339711000000,BL_wheel_link,0.10773082844812981,-0.5797972393199355,-1.0946334868395955,-0.009790338968389316,-0.00669251539049242,0.003943502703997346
339712000000,212,339712000000,BL_wheel_link,-0.02929280081417253,0.010148946941166125,-0.054850690935336795,-0.00044873795362220697,-0.00030022712870792477,0.00013286788781482329
339713000000,213,339713000000,BL_wheel_link,-0.09902961358056353,-0.4135941107114649,-1.3165046411807866,0.009585830948186769,0.006416235541199712,-0.0035739166279297697
339716000000,214,339714000000,BL_wheel_link,0.021137806529799918,-0.04724236169883175,-0.0500428056936778,0.0007177436567337319,0.0005138207188590945,-0.0004661465729846321
339716000000,216,339716000000,BL_wheel_link,-0.029288100832934375,0.010138634424035,-0.05482216589031108,-0.00044897859309851236,-0.00029994253841057793,0.000133023375298573
339716000000,217,339717000000,BL_wheel_link,-0.09899341293363065,-0.41360433688531256,-1.3165650403711473,0.009586883249147575,0.006416031090989176,-0.0035729335287955715
339718000000,218,339718000000,BL_wheel_link,0.021118837090361837,-0.047233184909675534,-0.050018455194411414,0.0007172500942598213,0.0005138847760758895,-0.0004666109618886167
339719000000,219,339719000000,BL_wheel_link,0.10776097643836743,-0.579762838237156,-1.0947782481613928,-0.00978880690103739,-0.006694913276530462,0.003943352121822467
339721000000,220,339720000000,BL_wheel_link,-0.029283350579893067,0.010127924167843423,-0.054792645925923,-0.0004492327235521517,-0.0002996461150393614,0.00013318706722863544
339721000000,221,339721000000,BL_wheel_link,-0.09895567724814042,-0.41361497950208914,-1.316627501830247,0.009587967547665518,0.006415808585755512,-0.0035719089904050075
339721000000,222,339722000000,BL_wheel_link,0.021099391000152692,-0.047223946050403774,-0.04999352987156022,0.0007167433816961832,0.0005139520493144313,-0.0004670907114996038
339721000000,223,339723000000,BL_wheel_link,0.10777650843352245,-0.5797441858737694,-1.094854464529617,-0.009787986627809277,-0.006696168304408624,0.003943259887812342
339723000000,224,339724000000,BL_wheel_link,-0.029278549584269804,0.010116809468525308,-0.054762114722084566,-0.00044950057737943986,-0.0002993376611444954,0.0001333591026922162
339725000000,225,339725000000,BL_wheel_link,-0.09891638012908302,-0.4136260454263633,-1.3166920600573524,0.009589084384300658,0.006415567712286159,-0.0035708423060290327
339726000000,226,339726000000,BL_wheel_link,0.021079460364168665,-0.047214644560423465,-0.04996802028349691,0.0007162232979664214,0.000514022593998683,-0.000467586082456173
339727000000,227,339727000000,BL_wheel_link,0.10779235262775355,-0.5797245431607269,-1.0949332953254305,-0.009787129363303292,-0.006697461563561754,0.003943156094953416
339728000000,228,339728000000,BL_wheel_link,-0.029273697462432652,0.010105283487453622,-0.054730555445086614,-0.0004497823898288817,-0.0002990169681209289,0.00013353962459479433
339729000000,229,339729000000,BL_wheel_link,-0.09887549422707104,-0.41363754165262795,-1.3167587504717737,0.00959023431463448,0.006415308142679675,-0.0035697327406547146
339730000000,230,339730000000,BL_wheel_link,0.02105903688600524,-0.04720527978351444,-0.04994191676003348,0.0007156896185246039,0.0005140964702617692,-0.0004680973473589704
339731000000,231,339731000000,BL_wheel_link,0.10780851439939962,-0.5797038925646023,-1.0950147857892367,-0.00978623446048483,-0.00669879371843665,0.0039430405381948655
339732000000,232,339732000000,BL_wheel_link,-0.029268793877483084,0.0100933391704238,-0.054697950666651445,-0.0004500784014222646,-0.0002986838172956316,0.00013372878037014579
339733000000,233,339733000000,BL_wheel_link,-0.09883299117190963,-0.41364947536738195,-1.3168276095784903,0.009591417911757051,0.006415029534732028,-0.0035685795315303554
339734000000,234,339734000000,BL_wheel_link,0.021038111944212422,-0.04719585103178628,-0.04991520937631954,0.0007151421131887757,0.0005141737417655397,-0.00046862478958327583
339735000000,235,339735000000,BL_wheel_link,0.10782499934575346,-0.5796822159846468,-1.0950989828702384,-0.009785301250114906,-0.006700165458713474,0.003942913005954323
339736000000,236,339736000000,BL_wheel_link,-0.02926383845732812,0.010080969217332841,-0.05466428227402822,-0.00045038886066925394,-0.0002983379814611914,0.00013392672265070762
339737000000,237,339737000000,BL_wheel_link,-0.09878884156206531,-0.4136618540516493,-1.3168986751695952,0.009592635769010347,0.00641473153373788,-0.003567381888038379
339738000000,238,339738000000,BL_wheel_link,0.0210166766373943,-0.04718635763159601,-0.049887887879100236,0.0007145805438937585,0.0005142544744628888,-0.0004691687025514382
339739000000,239,339739000000,BL_wheel_link,0.107841813250742,-0.579659494655252,-1.0951859351277928,-0.009784329038525596,-0.006701577498489838,0.0039427732788730905
339740000000,240,339740000000,BL_wheel_link,-0.029258830847657027,0.010068166063095267,-0.0546295315673328,-0.0004507140250710661,-0.0002979792254711643,0.00013413360953574985
339741000000,241,339741000000,BL_wheel_link,-0.09874301494433543,-0.41367468545154573,-1.31697198638921,0.009593888501386663,0.006414413772635754,-0.0035661389917264878
339741000000,242,339742000000,BL_wheel_link,0.020994721734407584,-0.04717679886878326,-0.049859941633908694,0.0007140046635880744,0.0005143387363222627,-0.00046972938980735984
339743000000,243,339743000000,BL_wheel_link,0.10785896210929806,-0.5796357091535731,-1.0952756928452616,-0.009783317107148113,-0.006703030576839851,0.003942621129769793
339744000000,244,339744000000,BL_wheel_link,-0.029253770678589093,0.010054921872022848,-0.05459367916648678,-0.00045105416152413537,-0.00029760730603766556,0.00013434960475885822
339745000000,245,339745000000,BL_wheel_link,-0.09869547979888672,-0.4136879775857086,-1.3170475837161382,0.00959517674546799,0.006414075870958674,-0.0035648499957657894
339746000000,246,339746000000,BL_wheel_link,0.020972237739617504,-0.04716717409780867,-0.04983135966764875,0.0007134142165126471,0.0005144265975719597,-0.00047030716531443477
339747000000,247,339747000000,BL_wheel_link,0.10787645209471326,-0.5796108393500606,-1.0953683079642562,-0.009782264712182076,-0.006704525457724313,0.003942456323418808
339748000000,248,339748000000,BL_wheel_link,-0.029248657547806194,0.010041228500289465,-0.05455670499121721,-0.000451409546916493,-0.000297221971708787,0.00013457487793346222
339749000000,249,339749000000,BL_wheel_link,-0.09864620354060989,-0.41370173879845906,-1.3171255090649785,0.009596501160042783,0.006413717436412311,-0.0035635140241671425
339750000000,250,339750000000,BL_wheel_link,0.020949214825518456,-0.04715748262170199,-0.04980213060215756,0.0007128089374180713,0.0005145181302802722,-0.00047090235331300855
339751000000,251,339751000000,BL_wheel_link,0.10789428956850054,-0.5795848643990409,-1.095463834150559,-0.009781171083249614,-0.0067060629307066615,0.003942278615917544
339752000000,252,339752000000,BL_wheel_link,-0.029243491100130255,0.010027077557172841,-0.05451858838490216,-0.0004517804678070334,-0.0002968229629190134,0.00013480960444933312
339753000000,253,339753000000,BL_wheel_link,-0.09859515247460686,-0.41371597766764784,-1.3172058056946998,0.009597862425863815,0.006413338062242119,-0.0035621301714576815
339754000000,254,339754000000,BL_wheel_link,0.020925642844894635,-0.04714772376385814,-0.04977224272175733,0.0007121885528360442,0.0005146134093730614,-0.0004715152892687074
339755000000,255,339755000000,BL_wheel_link,0.10791248110086574,-0.5795577627716351,-1.095562326879019,-0.009780035424588713,-0.006707643811911418,0.003942087755600466
339756000000,256,339756000000,BL_wheel_link,-0.029238262330575353,0.010012454987609576,-0.05447929543400078,-0.00045216734916783636,-0.00029641008947150826,0.00013505399691213758
339757000000,257,339757000000,BL_wheel_link,-0.09854229578188005,-0.41373070232949793,-1.317288529267599,0.009599261385465548,0.006412937411481432,-0.003560697541734492
339758000000,258,339758000000,BL_wheel_link,0.02090151065674965,-0.04713789596527041,-0.04974168345144727,0.000711552780250136,0.0005147125138573245,-0.00047214632262961346
339759000000,259,339759000000,BL_wheel_link,0.10793103205948301,-0.5795295113722251,-1.095663844332919,-0.009778856937518553,-0.0067092689523935685,0.003941883485236842
339760000000,260,339760000000,BL_wheel_link,-0.02923297769738594,0.009997356127720024,-0.05443881354455056,-0.00045257038494870145,-0.0002959830002631469,0.00013530821666673983
339761000000,261,339761000000,BL_wheel_link,-0.09848759555916854,-0.4137459229107185,-1.317373718943063,0.009600698678825742,0.006412515032324122,-0.003559215135756599
339762000000,262,339762000000,BL_wheel_link,0.020876808402579692,-0.04712799902502584,-0.049710438354342364,0.0007109012649853346,0.0005148154853681358,-0.00047279578145051967
339763000000,263,339763000000,BL_wheel_link,0.10794994926839759,-0.5795000858235709,-1.0957684446812623,-0.009777634717757456,-0.006710939206690962,0.003941665512694947
339764000000,264,339764000000,BL_wheel_link,-0.029227638783350333,0.009981772874854005,-0.0543971237699732,-0.0004529898837391436,-0.00029554141859350206,0.00013557245084483264
339765000000,265,339765000000,BL_wheel_link,-0.09843101363368102,-0.41376165048183744,-1.3174614231095463,0.00960217507741918,0.006412070494603866,-0.0035576819613674492
339766000000,266,339766000000,BL_wheel_link,0.02085152642781801,-0.04711803337419495,-0.04967849234717108,0.0007102336273407501,0.0005149223608727502,-0.00047346399902554553
339767000000,267,339767000000,BL_wheel_link,0.10796923974665974,-0.5794694607044297,-1.0958761866972087,-0.009776367818691518,-0.006712655439152206,0.003941433533363315
339768000000,268,339768000000,BL_wheel_link,-0.029222244674623532,0.009965695055271201,-0.054354202776737956,-0.0004534262168586826,-0.00029508508612797487,0.0001358469069610373
339769000000,269,339769000000,BL_wheel_link,-0.09837251133545723,-0.4137778931021435,-1.317551688734624,0.009603691317335773,0.006411603270414148,-0.003556096985078584
339770000000,270,339770000000,BL_wheel_link,0.020825651789661323,-0.04710799772516422,-0.04964583599846143,0.0007095496732304859,0.0005150332921196865,-0.0004741514069339457
339770000000,271,339771000000,BL_wheel_link,0.10798891215682162,-0.5794376145078661,-1.0959871352935595,-0.00977505541695073,-0.006714418612486623,0.0039411872982954175
339770000000,272,339772000000,BL_wheel_link,-0.029216795234765034,0.00994911316332467,-0.05431002544595312,-0.0004538796763308988,-0.00029461365561761596,0.00013613178508894053
339773000000,273,339773000000,BL_wheel_link,-0.09831204871694074,-0.41379466075671517,-1.3176445643437416,0.009605248168603198,0.0064111128683866985,-0.0035544591364374553
339774000000,274,339774000000,BL_wheel_link,0.02079917242462547,-0.04709789135572594,-0.04961245623990065,0.0007088491000987301,0.0005151483774345889,-0.0004748584066319906
339775000000,275,339775000000,BL_wheel_link,0.108008974424703,-0.5794045225210739,-1.0961013555080017,-0.009773696591327223,-0.00671622968616181,0.003940926518107135
339776000000,276,339776000000,BL_wheel_link,-0.029211290037501197,0.009932016963359751,-0.05426456646212005,-0.00045435060554912843,-0.0002941268061904105,0.00013642729789144702
339777000000,277,339777000000,BL_wheel_link,-0.09824958493437004,-0.41381196395691733,-1.3177401019373303,0.009606846452424116,0.006410598795764005,-0.003552767319308025
339777000000,278,339778000000,BL_wheel_link,0.02077207618117029,-0.047087713683081164,-0.04957833900977052,0.0007081315766396129,0.0005152677069390515,-0.00047558540337795104
339777000000,279,339779000000,BL_wheel_link,0.10802943436842645,-0.579370158596001,-1.0962189139798342,-0.009772290377098269,-0.00671808964292529,0.0039406508866381045
339780000000,280,339780000000,BL_wheel_link,-0.029205728723390105,0.00991439590097713,-0.05421780005626349,-0.00045483936580277047,-0.0002936242139296898,0.00013673366552051068
339781000000,281,339781000000,BL_wheel_link,-0.09818507798645412,-0.4138298134610696,-1.3178383553224704,0.009608487018599959,0.0064100605455290754,-0.003551020404355493
339781000000,282,339782000000,BL_wheel_link,0.020744350491323848,-0.04707746405163822,-0.049543469740026304,0.0007073967601936554,0.0005153913728367251,-0.00047633281456757815
339783000000,283,339783000000,BL_wheel_link,0.10805029998993361,-0.5793344957479597,-1.0963398795036257,-0.009770835780062102,-0.006719999496940218,0.003940360088309406
339784000000,284,339784000000,BL_wheel_link,-0.029200110941882098,0.00989623910125451,-0.054169699685592536,-0.00045534632820388527,-0.0002931055444195227,0.00013705111441738533
339785000000,285,339785000000,BL_wheel_link,-0.09811848459903104,-0.41384822029792223,-1.3179393798210317,0.009610170741113552,0.006409497594079334,-0.003549217226799555
339786000000,286,339786000000,BL_wheel_link,0.02071598242514565,-0.04706714184094294,-0.049507833494650266,0.0007066442991540584,0.0005155194707120106,-0.0004771010705346773
339787000000,287,339787000000,BL_wheel_link,0.10807157950033539,-0.5792975061337972,-1.096464322967672,-0.009769331775697778,-0.006721960293561373,0.003940053797644711
339788000000,288,339788000000,BL_wheel_link,-0.029194436392354684,0.009877535398696118,-0.054120238077585675,-0.0004558718743829631,-0.0002925704525632184,0.0001373798777658617
339789000000,289,339789000000,BL_wheel_link,-0.09804976016978853,-0.4138671958232603,-1.3180432323137081,0.009611898519204699,0.006408909400606274,-0.0035473565861264653
339790000000,290,339790000000,BL_wheel_link,0.020686958664712644,-0.04705674643108143,-0.04947141494571958,0.0007058738324144167,0.000515652099556519,-0.0004778906148505394
339791000000,291,339791000000,BL_wheel_link,0.10809328135857318,-0.579259161064172,-1.096592317378103,-0.009767777308569824,-0.00672397310984526,0.0039397316794695875
339792000000,292,339792000000,BL_wheel_link,-0.029188704759969774,0.009858273250009859,-0.054069387108645374,-0.00045641639767060805,-0.00029201858291029003,0.00013772019574453164
339793000000,293,339793000000,BL_wheel_link,-0.09797885874263748,-0.41388675175750766,-1.3181499714018636,0.009613671279773502,0.0064082954083223296,-0.0035454372453401738
339794000000,294,339794000000,BL_wheel_link,0.0206572655105162,-0.04704627721927993,-0.04943419830687787,0.0007050849875826895,0.0005157893609046686,-0.00047870190403654104
339795000000,295,339795000000,BL_wheel_link,0.10811541425817273,-0.5792194309788167,-1.0967239378742344,-0.00976617129072904,-0.00672603905470997,0.0039393933881118086
339796000000,296,339796000000,BL_wheel_link,-0.029182915777620264,0.009838440812762523,-0.054017117898699465,-0.0004569803031362212,-0.00029144956918706146,0.00013807231574785726
339797000000,297,339797000000,BL_wheel_link,-0.09790573298009243,-0.41390690014651776,-1.318259657336537,0.009615489976664431,0.006407655042693679,-0.003543457930747493
339798000000,298,339798000000,BL_wheel_link,0.020626888902301112,-0.04703573366509342,-0.04939616737604301,0.0007042773814613079,0.0005159313594504727,-0.0004795354081672035
339799000000,299,339799000000,BL_wheel_link,0.10813798712156246,-0.5791782853907481,-1.0968592617433361,-0.009764512601122845,-0.006728159269206557,0.003939038567194816
339800000000,300,339800000000,BL_wheel_link,-0.02917706917695722,0.009818025837313468,-0.05396340070313757,-0.00045756400874040194,-0.00029086303464541776,0.00013843649271638373
339801000000,301,339801000000,BL_wheel_link,-0.09783033413403759,-0.41392765341526927,-1.318372352152058,0.009617355592538835,0.006406987712459144,-0.00354141733062492
339802000000,302,339802000000,BL_wheel_link,0.020595814362430048,-0.047025115231346296,-0.049357305465509704,0.0007034506193001621,0.000516078202674531,-0.00048039161095075954
339803000000,303,339803000000,BL_wheel_link,0.1081610091223893,-0.5791356929158427,-1.096998368531968,-0.009762800085197856,-0.006730334927939677,0.0039386668497627345
339804000000,304,339804000000,BL_wheel_link,-0.02917116470804339,0.009797015737444048,-0.05390820492021101,-0.0004581679447558175,-0.00029025859115060026,0.0001388129891066044
339805000000,305,339805000000,BL_wheel_link,-0.09775261202642609,-0.4139490243320922,-1.3184881196274527,0.0096192691381246,0.006406292808379853,-0.003539314094616256
339806000000,306,339806000000,BL_wheel_link,0.02056402702878879,-0.04701442142720386,-0.0493175954480118,0.0007026042950182656,0.0005162300012198754,-0.0004812710101043588
339807000000,307,339807000000,BL_wheel_link,0.10818448965936749,-0.5790916211851326,-1.0971413400183954,-0.009761032553942128,-0.006732567239134309,0.003938277857362183
339808000000,308,339808000000,BL_wheel_link,-0.029165202152338022,0.0097753975394571,-0.053851499104957096,-0.0004587925545475763,-0.00028963583953769853,0.00013920207517501
339809000000,309,339809000000,BL_wheel_link,-0.0976725150084613,-0.4139710260562503,-1.318607025347829,0.009621231653724827,0.006405569703280932,-0.003537146832836554
339810000000,310,339810000000,BL_wheel_link,0.02053151163968338,-0.04700365181743061,-0.04927701972529519,0.0007017379904653048,0.0005163868687159309,-0.0004821741176337508
339811000000,311,339811000000,BL_wheel_link,0.10820843836606713,-0.5790460368646874,-1.097288260286258,-0.009759208782516491,-0.006734857445335391,0.003937871200206141
339812000000,312,339812000000,BL_wheel_link,-0.029159181343722203,0.009753157914848364,-0.05379325097589038,-0.00045943829462347747,-0.0002889943688915792,0.00013960402904747974
339813000000,313,339813000000,BL_wheel_link,-0.09758998992697639,-0.413993672081202,-1.318729136676923,0.00962324420873243,0.006404817750471252,-0.003534914114801248
339814000000,314,339814000000,BL_wheel_link,0.02049825248038378,-0.04699280596852208,-0.04923556023890539,0.0007008512767284942,0.0005165489226755109,-0.00048310146065287044
339815000000,315,339815000000,BL_wheel_link,0.10823286515006884,-0.5789989056535524,-1.097439215833628,-0.009757327511992663,-0.006737206825358907,0.003937446477360094
339816000000,316,339816000000,BL_wheel_link,-0.02915310211016549,0.009730283113032822,-0.05373342726699733,-0.0004601056343961874,-0.00028833375605146947,0.00014001913688592113
339817000000,317,339817000000,BL_wheel_link,-0.09750498209914134,-0.41401697632683676,-1.3188545228992472,0.009625307903348883,0.006404036285305734,-0.0035326144687186003
339818000000,318,339818000000,BL_wheel_link,0.020464233441113325,-0.04698188352049618,-0.049193198430027445,0.0006999437116363932,0.0005167162832522104,-0.00048405358079048387
339819000000,319,339819000000,BL_wheel_link,0.16309643330364726,-0.503702327967067,-0.931236846276688,-0.012274557826888296,-0.0038484167649487267,0.004143481142798673
339820000000,320,339820000000,BL_wheel_link,-0.02114365265802627,-0.00207771559065191,0.17098645469945215,-0.004458483117581019,0.004166568831837925,-0.0006810807843424753
339821000000,321,339821000000,BL_wheel_link,-0.22955733266982775,0.0943835328643742,-0.7089655504363852,0.014633014114387085,0.013490118302632283,-0.014736489931536997
339822000000,322,339822000000,BL_wheel_link,0.2566541883517831,-0.42783330792323554,-0.06427094887821974,-0.03156004056977779,-0.021007252700917974,0.007347234433552403
339823000000,323,339823000000,BL_wheel_link,-0.10476485646089935,-0.3616542132589989,-1.8862130519514018,0.02663675126589938,0.013477538116724442,-0.0026003223220299504
339824000000,324,339824000000,BL_wheel_link,0.012177740999649685,-0.010039932070615095,0.0021723281969000608,-0.00011577386130202851,-0.00010850873558330881,0.0003118848758356503
339825000000,325,339825000000,BL_wheel_link,0.1862763799587306,-0.6084693115971128,-1.133622174933595,-0.008437019791476071,-0.006867338985481571,0.006197362792492982
339826000000,326,339826000000,BL_wheel_link,-0.027826885578432624,0.0002638313210789583,-0.04479550975541921,-0.000891589484995795,-0.0002589169065133119,0.00040320149968071055
339827000000,327,339827000000,BL_wheel_link,-0.0799115237493238,-0.4254469472568245,-1.3242526725245367,0.009754932873046088,0.006425744782178445,-0.0029139351005278594
339828000000,328,339828000000,BL_wheel_link,0.033092556719846324,-0.05574203736549931,-0.055161719270062755,0.0007199081679944971,0.0004054536224314101,-0.00021211798710074484
339829000000,329,339829000000,BL_wheel_link,0.10751886385876706,-0.5757918828151548,-1.0910116988777636,-0.009625348158468385,-0.00663004305335845,0.003920270931519984
339830000000,330,339830000000,BL_wheel_link,-0.03284633558321798,0.01128863967631263,-0.058985194311813156,-0.000465078456787923,-0.00027870847324463463,0.00014058131392116226
339831000000,331,339831000000,BL_wheel_link,-0.1004919817383135,-0.411516579414484,-1.309939890603253,0.009474407333945483,0.0063830727323919405,-0.0035781859632919256
339832000000,332,339832000000,BL_wheel_link,0.02068495551716991,-0.04989338500098355,-0.04913320622168045,0.000654651819010282,0.0005294296094981741,-0.0005528875914007683
339833000000,333,339833000000,BL_wheel_link,0.10423067903643389,-0.5743168807016262,-1.0950023912016962,-0.009695210255722213,-0.0067051879440941115,0.003816232369460315
339834000000,334,339834000000,BL_wheel_link,-0.03190695825086326,0.011922001056137922,-0.05954448785119196,-0.0004241437987890331,-0.0003050121789561045,0.00011440276569476368
339835000000,335,339835000000,BL_wheel_link,-0.10007933397742877,-0.41138389681583254,-1.3124468606587096,0.00951234047107768,0.006370077362989328,-0.0035812207366023945
339836000000,336,339836000000,BL_wheel_link,0.020052624371822262,-0.04833907080963307,-0.04961417462803249,0.0006905242963786913,0.0005360238443882612,-0.0005389849556374968
339837000000,337,339837000000,BL_wheel_link,0.1059830580266832,-0.5766186368099536,-1.0969864280704062,-0.009734390483143281,-0.006732643352460198,0.003872424932121095
339838000000,338,339838000000,BL_wheel_link,-0.030895982279714636,0.011298562793762082,-0.05745638374402256,-0.00042296408420581995,-0.0002936333046937637,0.0001200753969790438
339839000000,339,339839000000,BL_wheel_link,-0.09891570363696482,-0.412361778257033,-1.314488898984007,0.009550106916179614,0.006377950506735492,-0.0035575025846697706
339840000000,340,339840000000,BL_wheel_link,0.020288956241177176,-0.047755135111801836,-0.04985968864104735,0.0007057325812430267,0.0005310250872195979,-0.0005141899215920869
339841000000,341,339841000000,BL_wheel_link,0.1071815706742706,-0.5780255220239464,-1.0973592166893433,-0.009751082761001456,-0.006737692074930315,0.003907708932443315
339842000000,342,339842000000,BL_wheel_link,-0.030158136012101662,0.010704122995021763,-0.05592612391619944,-0.0004330140002006105,-0.00028966879935350557,0.00012708990740697867
339843000000,343,339843000000,BL_wheel_link,-0.09830585755934772,-0.41312057470096475,-1.3161281570087437,0.00957971633387266,0.006389682950849007,-0.0035482166154223046
339844000000,344,339844000000,BL_wheel_link,0.020516870279057155,-0.04750161867193593,-0.04972710778075079,0.0007059015298998575,0.0005241417551168784,-0.0004976763101659111
339845000000,345,339845000000,BL_wheel_link,0.10776559008439099,-0.5786559262084766,-1.0972087220268256,-0.009755930578972524,-0.006735408435152901,0.003924324062739322
339846000000,346,339846000000,BL_wheel_link,-0.029686398563504437,0.010293761830136272,-0.05502832960547613,-0.0004437273224396336,-0.0002905942865457667,0.0001320561821768608
339847000000,347,339847000000,BL_wheel_link,-0.09806841007624023,-0.41356754011236,-1.3172337091479454,0.009599142402843135,0.006399387800272353,-0.003546091149311524
339848000000,348,339848000000,BL_wheel_link,0.02062516263525258,-0.04734238988800501,-0.04951541346207063,0.0007025516801076394,0.0005190627324827991,-0.0004884542461758059
339849000000,349,339849000000,BL_wheel_link,0.10800961394306197,-0.5789273797704658,-1.0970088332428647,-0.009758013962231192,-0.006732498963133391,0.003932078222034014
339850000000,350,339850000000,BL_wheel_link,-0.029416714246777574,0.010053663954546677,-0.05453638000594334,-0.00045087600828360965,-0.00029203633197116705,0.0001349513915771192
339851000000,351,339851000000,BL_wheel_link,-0.09799770066944775,-0.4137917915449578,-1.3178551840163473,0.00960998021488079,0.006405736964123264,-0.0035457690388677114
339852000000,352,339852000000,BL_wheel_link,0.020638428473991235,-0.04721131725137761,-0.04935707432895971,0.0007002367196322301,0.0005163878160534805,-0.0004840393595702027
339853000000,353,339853000000,BL_wheel_link,0.10810019233891993,-0.5790654272956597,-1.0968849642588008,-0.009760311575011602,-0.00673075521577868,0.003936138207154823
339854000000,354,339854000000,BL_wheel_link,-0.029274871932258653,0.009931430247418134,-0.05427624771146732,-0.00045437597202122135,-0.0002927136592844858,0.00013635829698827598
339855000000,355,339855000000,BL_wheel_link,-0.09800256156271252,-0.4138805169881277,-1.3181380341289437,0.009615029993804829,0.006409433631719347,-0.003546045418710012
339856000000,356,339856000000,BL_wheel_link,0.020613853156650156,-0.047103954683991214,-0.04927646636299647,0.0006996589351705621,0.0005153359541830638,-0.0004820115763021611
339857000000,357,339857000000,BL_wheel_link,0.1081384493225585,-0.5791631740563155,-1.0968324984160573,-0.009762988776012867,-0.006730096260081583,0.00393877053656255
339858000000,358,339858000000,BL_wheel_link,-0.02920317068168063,0.009877284949006051,-0.05414053305641667,-0.00045548814623994635,-0.0002927392149576761,0.00013688489966801428
339859000000,359,339859000000,BL_wheel_link,-0.09802846004966977,-0.4139064086903495,-1.318236643222805,0.009616981056241095,0.006411472552534877,-0.003546444808408723
339860000000,360,339860000000,BL_wheel_link,0.02058263623728289,-0.04702346883806735,-0.04924645633828349,0.0007000409391071466,0.0005150939825283151,-0.000481101039879078
339861000000,361,339861000000,BL_wheel_link,0.10816083727940279,-0.5792431417524051,-1.0968107597960821,-0.009765531387287465,-0.006729919957020038,0.0039406580611886744
339862000000,362,339862000000,BL_wheel_link,-0.02916561705059555,0.009856431831673451,-0.054070272644650086,-0.0004554895092846122,-0.00029255107704659106,0.0001369808533222061
339863000000,363,339863000000,BL_wheel_link,-0.09805682541536079,-0.41390942730974556,-1.3182556442400992,0.00961758185860154,0.00641268131048495,-0.0035469399091575204
339864000000,364,339864000000,BL_wheel_link,0.02055866503045603,-0.04696840649053042,-0.04923904674588371,0.0007006486723436794,0.0005151121286340074,-0.00048062870027161384
339865000000,365,339865000000,BL_wheel_link,0.10817788590149356,-0.5793081765111562,-1.0967927677429357,-0.009767610459780255,-0.006729814857968028,0.0039420381096838455
339865000000,366,339866000000,BL_wheel_link,-0.029143620611980475,0.009849690527532835,-0.054034788612458265,-0.00045514786152668575,-0.00029242013151986894,0.00013690411662167494
339867000000,367,339867000000,BL_wheel_link,-0.09808356252258374,-0.41390661532107764,-1.3182482515954193,0.009617707648728829,0.006413540053933157,-0.003547533269862393
339868000000,368,339868000000,BL_wheel_link,0.020544345036304118,-0.046932915564276395,-0.049238113234462894,0.0007011343196424819,0.0005151421123517527,-0.0004802997418543435
339869000000,369,339869000000,BL_wheel_link,0.10819156177420693,-0.5793592975916338,-1.096769172937452,-0.00976918932884583,-0.006729630187255435,0.00394304824756078
339870000000,370,339870000000,BL_wheel_link,-0.02912898743523971,0.009848439435103514,-0.05401840420715633,-0.00045478295152950003,-0.00029241981876483304,0.00013677253031287246
339871000000,371,339871000000,BL_wheel_link,-0.09810884819012322,-0.41390308433964607,-1.3182348689516252,0.009617696745686926,0.006414261831466683,-0.0035481934158099375
339872000000,372,339872000000,BL_wheel_link,0.020537178401449762,-0.04691021777957133,-0.04923735614444292,0.0007014300134928815,0.0005151214570139589,-0.0004800198788885585
339873000000,373,339873000000,BL_wheel_link,0.10820218523630949,-0.5793990844019025,-1.0967404917034513,-0.00977038129884863,-0.006729366606158846,0.003943801922051043
339874000000,374,339874000000,BL_wheel_link,-0.02911845564610439,0.00984948659593988,-0.054012890038895194,-0.0004544701520142279,-0.00029252220818967956,0.00013662789153907423
339875000000,375,339875000000,BL_wheel_link,-0.09813323548203033,-0.413899443965913,-1.3182207767767218,0.009617644059676283,0.006414916983675251,-0.0035488753993662297
339876000000,376,339876000000,BL_wheel_link,0.020533922173596064,-0.046894884143206604,-0.04923548225013779,0.0007015833976477097,0.0005150624125081412,-0.00047977351508701375
339877000000,377,339877000000,BL_wheel_link,0.10821030716236749,-0.5794307730224335,-1.0967101554537642,-0.009771321287546804,-0.0067290729639349,0.003944390184172933
339878000000,378,339878000000,BL_wheel_link,-0.029110689079807996,0.00985181760304722,-0.05401367529805464,-0.00045419623048162307,-0.0002926760751753456,0.0001364807560396513
339879000000,379,339879000000,BL_wheel_link,-0.09815674958452406,-0.41389536546464256,-1.31820640848724,0.00961756628364355,0.006415519595843529,-0.003549541502911767
339880000000,380,339880000000,BL_wheel_link,0.020532215905952913,-0.046883410564539235,-0.04923284761774741,0.0007016578794923111,0.0005149906499111885,-0.00047956425111454396
339881000000,381,339881000000,BL_wheel_link,0.10821676573623619,-0.5794571533757676,-1.0966811217536083,-0.009772109045880557,-0.006728793860795323,0.00394487725152291
339882000000,382,339882000000,BL_wheel_link,-0.02910489826972641,0.009855005442153553,-0.05401793821967658,-0.0004539370986120185,-0.0002928424288241907,0.00013633325997727176
339883000000,383,339883000000,BL_wheel_link,-0.09817907422618066,-0.4138907458477904,-1.3181917312157438,0.00961747057298801,0.006416071515340381,-0.003550168395611474
339884000000,384,339884000000,BL_wheel_link,0.020530773675287543,-0.04687386398821708,-0.04922988272920463,0.0007016950652853353,0.0005149227715606055,-0.00047939384558181263
339885000000,385,339885000000,BL_wheel_link,0.10822235870419256,-0.5794801034425368,-1.0966550252940523,-0.00977280112135533,-0.006728555029549346,0.003945302619625962
339886000000,386,339886000000,BL_wheel_link,-0.02910039349540005,0.009858662986406183,-0.054023751792119296,-0.0004536820662982671,-0.0002930013924265121,0.00013618736143449877
339887000000,387,339887000000,BL_wheel_link,-0.09819987456726328,-0.4138858064270217,-1.3181773573007027,0.00961737163434669,0.006416577716638052,-0.0035507451807356444
339888000000,388,339888000000,BL_wheel_link,0.02052905937408815,-0.046865296440785895,-0.049226652275735736,0.0007017115195046413,0.0005148637717637104,-0.000479258879345404
339889000000,389,339889000000,BL_wheel_link,0.10822763584029062,-0.57950063183302,-1.0966324520413901,-0.009773422497842384,-0.00672836628041291,0.003945687469539911
339890000000,390,339890000000,BL_wheel_link,-0.0290966920244241,0.009862465950262845,-0.054029965069591075,-0.00045343118245586353,-0.0002931456833360957,0.00013604563039234144
339891000000,391,339891000000,BL_wheel_link,-0.09821887872679379,-0.413880842256007,-1.3181640416957077,0.009617284585459325,0.0064170436691485646,-0.00355126743434854
339892000000,392,339892000000,BL_wheel_link,0.02052687622457024,-0.04685725234196999,-0.049223063530054005,0.0007017119386286383,0.0005148137222452762,-0.00047915487647815527
339893000000,393,339893000000,BL_wheel_link,0.1082329406193933,-0.5795192621623064,-1.0966135175162874,-0.009773983448034313,-0.006728230074947528,0.003946042938667228
339894000000,394,339894000000,BL_wheel_link,-0.029093448194973164,0.00986615285816774,-0.05403585400169459,-0.0004531885728468461,-0.0002932735768888205,0.00013591056264560553
339895000000,395,339895000000,BL_wheel_link,-0.09823592238019287,-0.4138761083425514,-1.3181524666734226,0.00961722204982831,0.006417474747265175,-0.003551733787561709
339896000000,396,339896000000,BL_wheel_link,0.020524160859533323,-0.04684950342446307,-0.04921896852992689,0.000701695953911456,0.0005147709732265519,-0.00047907789481758744
339897000000,397,339897000000,BL_wheel_link,0.10823845789312707,-0.5795362449402766,-1.0965981723708302,-0.00977448789826077,-0.0067281460778726475,0.003946374744530168
339898000000,398,339898000000,BL_wheel_link,-0.029090436766347698,0.0098695386919453,-0.05404097870652673,-0.0004529586827166877,-0.00029338524699768127,0.0001357841208101028
