%time,field.header.seq,field.header.stamp,field.header.frame_id,field.orientation.x,field.orientation.y,field.orientation.z,field.orientation.w,field.orientation_covariance0,field.orientation_covariance1,field.orientation_covariance2,field.orientation_covariance3,field.orientation_covariance4,field.orientation_covariance5,field.orientation_covariance6,field.orientation_covariance7,field.orientation_covariance8,field.angular_velocity.x,field.angular_velocity.y,field.angular_velocity.z,field.angular_velocity_covariance0,field.angular_velocity_covariance1,field.angular_velocity_covariance2,field.angular_velocity_covariance3,field.angular_velocity_covariance4,field.angular_velocity_covariance5,field.angular_velocity_covariance6,field.angular_velocity_covariance7,field.angular_velocity_covariance8,field.linear_acceleration.x,field.linear_acceleration.y,field.linear_acceleration.z,field.linear_acceleration_covariance0,field.linear_acceleration_covariance1,field.linear_acceleration_covariance2,field.linear_acceleration_covariance3,field.linear_acceleration_covariance4,field.linear_acceleration_covariance5,field.linear_acceleration_covariance6,field.linear_acceleration_covariance7,field.linear_acceleration_covariance8
339590000000,17,339590000000,base_link,-0.00015914426763527658,0.00022043404672031431,-0.0002753667836307951,0.999999925127531,0.0,0.0,0.0,0.0,0.0,0.0,0.0,0.0,0.0,-0.01682189385032996,-0.012349168123560603,-0.0014260201698769806,0.0,0.0,0.0,0.0,0.0,0.0,0.0,0.0,0.0,-0.5578121021708085,0.6535497473511632,0.8689143745565318,0.0,0.0,0.0,0.0,0.0,0.0,0.0,0.0,0.0
339591000000,18,339591000000,base_link,-0.00015175313766166602,0.00022592631142824766,-0.00027619754480257843,0.9999999248215989,0.0,0.0,0.0,0.0,0.0,0.0,0.0,0.0,0.0,0.014780251471379542,0.010988353185143351,-0.0016560622602265053,0.0,0.0,0.0,0.0,0.0,0.0,0.0,0.0,0.0,0.8109766898531058,-1.4214588305845772,18.9919847116236,0.0,0.0,0.0,0.0,0.0,0.0,0.0,0.0,0.0
339593000000,19,339592000000,base_link,-0.00014364131569356825,0.000231937225499515,-0.0002769901423015486,0.9999999244243757,0.0,0.0,0.0,0.0,0.0,0.0,0.0,0.0,0.0,0.016220711551333682,0.012026569795916282,-0.0015797022861183101,0.0,0.0,0.0,0.0,0.0,0.0,0.0,0.0,0.0,0.5155466752939515,-0.5752546250466872,0.7404757907178752,0.0,0.0,0.0,0.0,0.0,0.0,0.0,0.0,0.0
339593000000,20,339593000000,base_link,-0.00015096187154528464,0.00022682897445937738,-0.0002778705504499064,0.9999999242735406,0.0,0.0,0.0,0.0,0.0,0.0,0.0,0.0,0.0,-0.01463943415740832,-0.010218838315807553,-0.0017641492551552268,0.0,0.0,0.0,0.0,0.0,0.0,0.0,0.0,0.0,-0.7522521337817891,1.3638072258850342,18.598643810570053,0.0,0.0,0.0,0.0,0.0,0.0,0.0,0.0,0.0
339593000000,21,339594000000,base_link,-0.0001594538687956757,0.0002207399426361706,-0.00027858082707813477,0.9999999241205294,0.0,0.0,0.0,0.0,0.0,0.0,0.0,0.0,0.0,-0.016980311773511923,-0.012182596345962774,-0.0014262329206347543,0.0,0.0,0.0,0.0,0.0,0.0,0.0,0.0,0.0,-0.5577414584009343,0.653474270974009,0.8688195087787811,0.0,0.0,0.0,0.0,0.0,0.0,0.0,0.0,0.0
339595000000,22,339595000000,base_link,-0.00015214166915126124,0.00022631596941968024,-0.00027941177130063444,0.9999999237815255,0.0,0.0,0.0,0.0,0.0,0.0,0.0,0.0,0.0,0.014622308824813732,0.011155882225326007,-0.0016564292944621223,0.0,0.0,0.0,0.0,0.0,0.0,0.0,0.0,0.0,0.8109840541175869,-1.421474924465789,18.99206321677187,0.0,0.0,0.0,0.0,0.0,0.0,0.0,0.0,0.0
339596000000,23,339596000000,base_link,-0.0001441089370911654,0.00023241063317857062,-0.0002802044930976803,0.9999999233516741,0.0,0.0,0.0,0.0,0.0,0.0,0.0,0.0,0.0,0.01606244690600254,0.012194077728052437,-0.0015799502321881982,0.0,0.0,0.0,0.0,0.0,0.0,0.0,0.0,0.0,0.5154794951153476,-0.5751805613784753,0.7403848826625712,0.0,0.0,0.0,0.0,0.0,0.0,0.0,0.0,0.0
339597000000,24,339597000000,base_link,-0.00015150901153477642,0.00022738578376124688,-0.00028108508892639526,0.999999923165946,0.0,0.0,0.0,0.0,0.0,0.0,0.0,0.0,0.0,-0.014798483385646162,-0.010052126630579264,-0.00176455041431907,0.0,0.0,0.0,0.0,0.0,0.0,0.0,0.0,0.0,-0.75227225656555,1.3638119109735924,18.59875141118168,0.0,0.0,0.0,0.0,0.0,0.0,0.0,0.0,0.0
339597000000,25,339598000000,base_link,-0.0001600802800312971,0.00022138015598790973,-0.0002817954663633097,0.9999999229782199,0.0,0.0,0.0,0.0,0.0,0.0,0.0,0.0,0.0,-0.017138861108388907,-0.012015886548046707,-0.001426461463118587,0.0,0.0,0.0,0.0,0.0,0.0,0.0,0.0,0.0,-0.5576704758844584,0.6534005013584556,0.8687255795442486,0.0,0.0,0.0,0.0,0.0,0.0,0.0,0.0,0.0
339599000000,26,339599000000,base_link,-0.00015284711995028135,0.0002270400521801546,-0.0002826265797940246,0.9999999226063915,0.0,0.0,0.0,0.0,0.0,0.0,0.0,0.0,0.0,0.014464147123149732,0.011323625370549236,-0.0016567602092111458,0.0,0.0,0.0,0.0,0.0,0.0,0.0,0.0,0.0,0.8109881766910461,-1.4214949894642692,18.992139622875495,0.0,0.0,0.0,0.0,0.0,0.0,0.0,0.0,0.0
339599000000,27,339600000000,base_link,-0.00014489357011463288,0.0002332185624407697,-0.00028341942428883234,0.9999999221441896,0.0,0.0,0.0,0.0,0.0,0.0,0.0,0.0,0.0,0.015903997016173885,0.012361778728578935,-0.0015801857473138337,0.0,0.0,0.0,0.0,0.0,0.0,0.0,0.0,0.0,0.5154130922768685,-0.5751049895697065,0.7402932691292072,0.0,0.0,0.0,0.0,0.0,0.0,0.0,0.0,0.0
339602000000,28,339601000000,base_link,-0.00015237329468504297,0.00022827724485412342,-0.0002843002222880998,0.9999999219226282,0.0,0.0,0.0,0.0,0.0,0.0,0.0,0.0,0.0,-0.014957796224832677,-0.009885155071546865,-0.0017649887219678216,0.0,0.0,0.0,0.0,0.0,0.0,0.0,0.0,0.0,-0.752295017939083,1.3638128304813457,18.598860743903142,0.0,0.0,0.0,0.0,0.0,0.0,0.0,0.0,0.0
339602000000,29,339602000000,base_link,-0.0001610239494122285,0.00022235514277369045,-0.00028501070366442885,0.9999999216991854,0.0,0.0,0.0,0.0,0.0,0.0,0.0,0.0,0.0,-0.017297641068178098,-0.01184893410573951,-0.0014267058234857,0.0,0.0,0.0,0.0,0.0,0.0,0.0,0.0,0.0,-0.5575991536926983,0.6533284399930008,0.8686325885106232,0.0,0.0,0.0,0.0,0.0,0.0,0.0,0.0,0.0
339602000000,30,339603000000,base_link,-0.0001538699877671845,0.00022809906808838793,-0.0002858419724459377,0.9999999212946012,0.0,0.0,0.0,0.0,0.0,0.0,0.0,0.0,0.0,0.014305667058461861,0.011491687352208239,-0.0016570549673095864,0.0,0.0,0.0,0.0,0.0,0.0,0.0,0.0,0.0,0.8109890502210917,-1.4215190331606857,18.992213933527786,0.0,0.0,0.0,0.0,0.0,0.0,0.0,0.0,0.0
339604000000,31,339604000000,base_link,-0.00014599576209997346,0.00023436157402342408,-0.0002866349380402696,0.9999999208001481,0.0,0.0,0.0,0.0,0.0,0.0,0.0,0.0,0.0,0.01574526259561685,0.01252977748535677,-0.0015804088274670443,0.0,0.0,0.0,0.0,0.0,0.0,0.0,0.0,0.0,0.5153474687023046,-0.5750279084788092,0.7402009491386803,0.0,0.0,0.0,0.0,0.0,0.0,0.0,0.0,0.0
339604000000,32,339605000000,base_link,-0.00015355531801341905,0.00022950397090391086,-0.0002875159527264509,0.9999999205416312,0.0,0.0,0.0,0.0,0.0,0.0,0.0,0.0,0.0,-0.015117472069079848,-0.009717818811272186,-0.0017654642532794267,0.0,0.0,0.0,0.0,0.0,0.0,0.0,0.0,0.0,-0.7523204256443562,1.3638099748974355,18.598971803714136,0.0,0.0,0.0,0.0,0.0,0.0,0.0,0.0,0.0
339606000000,33,339606000000,base_link,-0.0001622855236211044,0.00022366556856395395,-0.0002882265411781808,0.9999999202812886,0.0,0.0,0.0,0.0,0.0,0.0,0.0,0.0,0.0,-0.017456751015155994,-0.01168163423989585,-0.0014269660371996407,0.0,0.0,0.0,0.0,0.0,0.0,0.0,0.0,0.0,-0.5575274912056628,0.6532580899520629,0.868540538548741,0.0,0.0,0.0,0.0,0.0,0.0,0.0,0.0,0.0
339607000000,34,339607000000,base_link,-0.0001552109690247664,0.00022949373519667938,-0.0002890579514291503,0.9999999198438375,0.0,0.0,0.0,0.0,0.0,0.0,0.0,0.0,0.0,0.01414676911812575,0.011660173103207515,-0.0016573135083352028,0.0,0.0,0.0,0.0,0.0,0.0,0.0,0.0,0.0,0.8109866654040797,-1.421547065654303,18.992286150108193,0.0,0.0,0.0,0.0,0.0,0.0,0.0,0.0,0.0
339608000000,35,339608000000,base_link,-0.00014741625918832918,0.00023584043843240992,-0.00028985103652547675,0.9999999193170522,0.0,0.0,0.0,0.0,0.0,0.0,0.0,0.0,0.0,0.01558614417540771,0.012698178875180011,-0.001580619460091699,0.0,0.0,0.0,0.0,0.0,0.0,0.0,0.0,0.0,0.5152826268130073,-0.57494931605244,0.7401079213158717,0.0,0.0,0.0,0.0,0.0,0.0,0.0,0.0,0.0
339609000000,36,339609000000,base_link,-0.00015505587745813078,0.0002310667849604493,-0.00029073228245034944,0.9999999190202746,0.0,0.0,0.0,0.0,0.0,0.0,0.0,0.0,0.0,-0.015277610544980638,-0.009550012792500624,-0.0017659771070843268,0.0,0.0,0.0,0.0,0.0,0.0,0.0,0.0,0.0,-0.7523484890360198,1.363803332327728,18.599084587198416,0.0,0.0,0.0,0.0,0.0,0.0,0.0,0.0,0.0
339610000000,37,339610000000,base_link,-0.0001638658483669452,0.00022531230892319288,-0.0002914429811209686,0.9999999187216648,0.0,0.0,0.0,0.0,0.0,0.0,0.0,0.0,0.0,-0.017616290523682694,-0.011513881952171817,-0.001427242150201299,0.0,0.0,0.0,0.0,0.0,0.0,0.0,0.0,0.0,-0.5574554873477828,0.6531894551100554,0.8684494327762611,0.0,0.0,0.0,0.0,0.0,0.0,0.0,0.0,0.0
339611000000,38,339611000000,base_link,-0.0001568709593058729,0.00023122498168504796,-0.00029227451892759954,0.9999999182510545,0.0,0.0,0.0,0.0,0.0,0.0,0.0,0.0,0.0,0.013987353521039528,0.01182918782269086,-0.001657535749485569,0.0,0.0,0.0,0.0,0.0,0.0,0.0,0.0,0.0,0.8109810108531996,-1.421579099492939,18.99235627252083,0.0,0.0,0.0,0.0,0.0,0.0,0.0,0.0,0.0
339612000000,39,339612000000,base_link,-0.00014915600680384214,0.00023765613642836444,-0.00029306772192824775,0.9999999176916751,0.0,0.0,0.0,0.0,0.0,0.0,0.0,0.0,0.0,0.015426542039611224,0.012867088027873235,-0.0015808176251288794,0.0,0.0,0.0,0.0,0.0,0.0,0.0,0.0,0.0,0.5152185699165831,-0.5748692096922563,0.7400141843804366,0.0,0.0,0.0,0.0,0.0,0.0,0.0,0.0,0.0
339612000000,40,339613000000,base_link,-0.0001568759683873318,0.0002329667204775126,-0.00029394921368778134,0.9999999173551455,0.0,0.0,0.0,0.0,0.0,0.0,0.0,0.0,0.0,-0.015438311573985156,-0.009381631660577648,-0.0017665274049331263,0.0,0.0,0.0,0.0,0.0,0.0,0.0,0.0,0.0,-0.752379219215916,1.3637928884936839,18.59919909096602,0.0,0.0,0.0,0.0,0.0,0.0,0.0,0.0,0.0
339614000000,41,339614000000,base_link,-0.00016576596892565595,0.00022729644996331505,-0.0002946600257298496,0.999999917016715,0.0,0.0,0.0,0.0,0.0,0.0,0.0,0.0,0.0,-0.01777635944315069,-0.011345571958314298,-0.0014275342175776012,0.0,0.0,0.0,0.0,0.0,0.0,0.0,0.0,0.0,-0.5573831411402442,0.6531225407527824,0.8683592753720717,0.0,0.0,0.0,0.0,0.0,0.0,0.0,0.0,0.0
339615000000,42,339615000000,base_link,-0.00015885105392413745,0.0002332939464486078,-0.00029549167713684946,0.9999999165124696,0.0,0.0,0.0,0.0,0.0,0.0,0.0,0.0,0.0,0.01382732015712073,0.011998837044043134,-0.0016577215846192764,0.0,0.0,0.0,0.0,0.0,0.0,0.0,0.0,0.0,0.8109720731905091,-1.4216151497824667,18.992424299336747,0.0,0.0,0.0,0.0,0.0,0.0,0.0,0.0,0.0
339624000000,43,339616000000,base_link,-0.00015121615025474796,0.00023980985964793992,-0.00029628499644276127,0.9999999159200504,0.0,0.0,0.0,0.0,0.0,0.0,0.0,0.0,0.0,0.015266356164544243,0.013036610394027558,-0.0015810032942211011,0.0,0.0,0.0,0.0,0.0,0.0,0.0,0.0,0.0,0.515155301463094,-0.5747875854812059,0.7399197361309575,0.0,0.0,0.0,0.0,0.0,0.0,0.0,0.0,0.0
339624000000,44,339617000000,base_link,-0.00015901678623175271,0.0002352050219658746,-0.00029716674868631387,0.9999999155420878,0.0,0.0,0.0,0.0,0.0,0.0,0.0,0.0,0.0,-0.015599675435531441,-0.009212569699846983,-0.0017671152919646923,0.0,0.0,0.0,0.0,0.0,0.0,0.0,0.0,0.0,-0.7524126289066857,1.3637786267946286,18.599315313260888,0.0,0.0,0.0,0.0,0.0,0.0,0.0,0.0,0.0
339624000000,45,339618000000,base_link,-0.0001679871308033796,0.0002296192890292638,-0.00029787767726369824,0.9999999151620942,0.0,0.0,0.0,0.0,0.0,0.0,0.0,0.0,0.0,-0.017937057959415928,-0.011176598623073256,-0.0014278423049184706,0.0,0.0,0.0,0.0,0.0,0.0,0.0,0.0,0.0,-0.5573104512265766,0.6530573530381435,0.8682700708189728,0.0,0.0,0.0,0.0,0.0,0.0,0.0,0.0,0.0
339624000000,46,339619000000,base_link,-0.00016115254861974273,0.0002357019798150422,-0.000298709428265675,0.9999999146235514,0.0,0.0,0.0,0.0,0.0,0.0,0.0,0.0,0.0,0.013666568522468524,0.012169226698569258,-0.0016578708850811619,0.0,0.0,0.0,0.0,0.0,0.0,0.0,0.0,0.0,0.8109598369500287,-1.4216552340979762,18.992490227438218,0.0,0.0,0.0,0.0,0.0,0.0,0.0,0.0,0.0
339624000000,47,339620000000,base_link,-0.00015359803546123935,0.00024230301135329398,-0.00029950286227555423,0.9999999139974611,0.0,0.0,0.0,0.0,0.0,0.0,0.0,0.0,0.0,0.01510548615454732,0.013206851809011308,-0.0015811764314763977,0.0,0.0,0.0,0.0,0.0,0.0,0.0,0.0,0.0,0.5150928258634389,-0.5747044390315723,0.7398245745561383,0.0,0.0,0.0,0.0,0.0,0.0,0.0,0.0,0.0
339624000000,48,339621000000,base_link,-0.00016147972724321198,0.00023778314577728766,-0.0003003848897149548,0.999999913576192,0.0,0.0,0.0,0.0,0.0,0.0,0.0,0.0,0.0,-0.015761802828369698,-0.009042720764693032,-0.0017677409366956,0.0,0.0,0.0,0.0,0.0,0.0,0.0,0.0,0.0,-0.7524487325755859,1.3637605281884875,18.599433252324268,0.0,0.0,0.0,0.0,0.0,0.0,0.0,0.0,0.0
339624000000,49,339622000000,base_link,-0.00017053078052663127,0.00023228233551663774,-0.00030109593800458067,0.999999913152699,0.0,0.0,0.0,0.0,0.0,0.0,0.0,0.0,0.0,-0.01809848665807105,-0.0110068558929411,-0.0014281664873759883,0.0,0.0,0.0,0.0,0.0,0.0,0.0,0.0,0.0,-0.5572374164671846,0.6529938996698872,0.8681818248341866,0.0,0.0,0.0,0.0,0.0,0.0,0.0,0.0,0.0
339624000000,50,339623000000,base_link,-0.00016377694038006537,0.00023845064439630844,-0.00030192777453711566,0.9999999125790077,0.0,0.0,0.0,0.0,0.0,0.0,0.0,0.0,0.0,0.013504997658314737,0.012340463183638486,-0.0016579834990405916,0.0,0.0,0.0,0.0,0.0,0.0,0.0,0.0,0.0,0.8109442846719274,-1.421699372583008,18.99255405195526,0.0,0.0,0.0,0.0,0.0,0.0,0.0,0.0,0.0
339624000000,51,339624000000,base_link,-0.00015630320980686272,0.00024513720731771295,-0.00030272132164627834,0.999999911918425,0.0,0.0,0.0,0.0,0.0,0.0,0.0,0.0,0.0,0.01494383118045402,0.01337791856078367,-0.0015813369928541505,0.0,0.0,0.0,0.0,0.0,0.0,0.0,0.0,0.0,0.5150311480099399,-0.5746197649824263,0.739728697166834,0.0,0.0,0.0,0.0,0.0,0.0,0.0,0.0,0.0
339625000000,52,339625000000,base_link,-0.00016426638937850385,0.0002407027610223359,-0.0003036036390649025,0.9999999114517784,0.0,0.0,0.0,0.0,0.0,0.0,0.0,0.0,0.0,-0.01592479493556634,-0.0088719782151056,-0.0017684045310414579,0.0,0.0,0.0,0.0,0.0,0.0,0.0,0.0,0.0,-0.7524875463651075,1.3637385712307886,18.599552907620755,0.0,0.0,0.0,0.0,0.0,0.0,0.0,0.0,0.0
339626000000,53,339626000000,base_link,-0.00017339856655821333,0.00023528731182200361,-0.0003043148102586747,0.9999999109826533,0.0,0.0,0.0,0.0,0.0,0.0,0.0,0.0,0.0,-0.01826074658852412,-0.01083623723125886,-0.0014285068500343525,0.0,0.0,0.0,0.0,0.0,0.0,0.0,0.0,0.0,-0.5571640352074768,0.65293218912747,0.8680945433583318,0.0,0.0,0.0,0.0,0.0,0.0,0.0,0.0,0.0
339632000000,54,339628000000,base_link,-0.00015933342311827715,0.0002483142768419922,-0.00030594037678859467,0.999999909676679,0.0,0.0,0.0,0.0,0.0,0.0,0.0,0.0,0.0,0.014781289915174906,0.013549917455471313,-0.0015814849262509153,0.0,0.0,0.0,0.0,0.0,0.0,0.0,0.0,0.0,0.6628202850930656,-0.9979995638333737,9.866139933733944,0.0,0.0,0.0,0.0,0.0,0.0,0.0,0.0,0.0
339632000000,55,339634000000,base_link,-0.0001801141574549081,0.00024233101511782337,-0.00031075439865708,0.9999999061331323,0.0,0.0,0.0,0.0,0.0,0.0,0.0,0.0,0.0,-0.01625378720308661,-0.008527373168441635,-0.001769834428197373,0.0,0.0,0.0,0.0,0.0,0.0,0.0,0.0,0.0,0.00411389502032277,0.004887166782698475,9.79999665268767,0.0,0.0,0.0,0.0,0.0,0.0,0.0,0.0,0.0
339637000000,56,339635000000,base_link,-0.0001736055074157688,0.0002487592574039707,-0.00031158640666986644,0.9999999054469311,0.0,0.0,0.0,0.0,0.0,0.0,0.0,0.0,0.0,-0.018588131247428603,-0.010491992571392867,-0.0014293390258079612,0.0,0.0,0.0,0.0,0.0,0.0,0.0,0.0,0.0,-0.5570284727190675,0.6528244092386765,0.8679072442635167,0.0,0.0,0.0,0.0,0.0,0.0,0.0,0.0,0.0
339637000000,57,339636000000,base_link,-0.00016637698491936832,0.00025570542845042103,-0.00031238028339867954,0.9999999046759912,0.0,0.0,0.0,0.0,0.0,0.0,0.0,0.0,0.0,0.01301435463831085,0.01286032259994319,-0.001658104363722044,0.0,0.0,0.0,0.0,0.0,0.0,0.0,0.0,0.0,0.810615830033476,-1.4215805658355005,18.992764649821982,0.0,0.0,0.0,0.0,0.0,0.0,0.0,0.0,0.0
339638000000,58,339638000000,base_link,-0.00018396627893957056,0.00024637426233221443,-0.00031397511954368943,0.999999903437873,0.0,0.0,0.0,0.0,0.0,0.0,0.0,0.0,0.0,-0.018753532525255426,-0.010318051618103185,-0.0014296260200935152,0.0,0.0,0.0,0.0,0.0,0.0,0.0,0.0,0.0,-0.5569417982126383,0.6527576212204977,0.8678385613371713,0.0,0.0,0.0,0.0,0.0,0.0,0.0,0.0,0.0
339640000000,59,339640000000,base_link,-0.00017039485586311617,0.00025992424780323835,-0.0003156011394135294,0.9999999019004449,0.0,0.0,0.0,0.0,0.0,0.0,0.0,0.0,0.0,0.014287326313795593,0.014072584244175462,-0.0015818523171503762,0.0,0.0,0.0,0.0,0.0,0.0,0.0,0.0,0.0,0.6626879990120893,-0.99795498862775,9.86607892873505,0.0,0.0,0.0,0.0,0.0,0.0,0.0,0.0,0.0
339641000000,60,339641000000,base_link,-0.00017868932812110114,0.0002558370276791973,-0.00031648476633354915,0.9999999012274612,0.0,0.0,0.0,0.0,0.0,0.0,0.0,0.0,0.0,-0.01658745463972572,-0.008177917994600355,-0.001771443067960956,0.0,0.0,0.0,0.0,0.0,0.0,0.0,0.0,0.0,-0.7526702863786865,1.3636116466334562,18.6000487034111,0.0,0.0,0.0,0.0,0.0,0.0,0.0,0.0,0.0
339644000000,61,339642000000,base_link,-0.00018815117269290905,0.0002507684826545845,-0.00031719646143051544,0.9999999005503496,0.0,0.0,0.0,0.0,0.0,0.0,0.0,0.0,0.0,-0.01892013934344398,-0.010142851833968819,-0.001430032155538155,0.0,0.0,0.0,0.0,0.0,0.0,0.0,0.0,0.0,-0.556867015544067,0.6527029941345005,0.867755216294583,0.0,0.0,0.0,0.0,0.0,0.0,0.0,0.0,0.0
339644000000,62,339644000000,base_link,-0.00017474681353259379,0.0002644954182303858,-0.0003188226002966504,0.999999898928932,0.0,0.0,0.0,0.0,0.0,0.0,0.0,0.0,0.0,0.014120214444983185,0.014249392491725044,-0.0015819490567434565,0.0,0.0,0.0,0.0,0.0,0.0,0.0,0.0,0.0,0.6626412889995591,-0.9979427643578112,9.866055720116824,0.0,0.0,0.0,0.0,0.0,0.0,0.0,0.0,0.0
339644000000,63,339645000000,base_link,-0.00018312570276731176,0.00026049666434892937,-0.00031970659250729144,0.9999998981970746,0.0,0.0,0.0,0.0,0.0,0.0,0.0,0.0,0.0,-0.016756309433839826,-0.008001085750468557,-0.0017723001177487989,0.0,0.0,0.0,0.0,0.0,0.0,0.0,0.0,0.0,-0.7527229537489596,1.363569991539272,18.600176956060245,0.0,0.0,0.0,0.0,0.0,0.0,0.0,0.0,0.0
339650000000,64,339650000000,base_link,-0.00019753019242148116,0.00026062128956216304,-0.00032364101800871664,0.9999998941574234,0.0,0.0,0.0,0.0,0.0,0.0,0.0,0.0,0.0,-0.019257495075237142,-0.009788086733008976,-0.0014308948430286812,0.0,0.0,0.0,0.0,0.0,0.0,0.0,0.0,0.0,-0.10811585006479658,0.13436577635689867,8.013514440845647,0.0,0.0,0.0,0.0,0.0,0.0,0.0,0.0,0.0
339651000000,65,339651000000,base_link,-0.0001913573057769795,0.00026740532595779783,-0.00032447305260560757,0.9999998932970001,0.0,0.0,0.0,0.0,0.0,0.0,0.0,0.0,0.0,0.012342457589608488,0.0135718958936701,-0.0016577269177319462,0.0,0.0,0.0,0.0,0.0,0.0,0.0,0.0,0.0,0.810740665237576,-1.422124086751773,18.992941199043486,0.0,0.0,0.0,0.0,0.0,0.0,0.0,0.0,0.0
339652000000,66,339652000000,base_link,-0.00018446432479019787,0.0002747067023737792,-0.0003252673459682687,0.9999998923551413,0.0,0.0,0.0,0.0,0.0,0.0,0.0,0.0,0.0,0.013781677199611767,0.014607549239682983,-0.0015821034060016844,0.0,0.0,0.0,0.0,0.0,0.0,0.0,0.0,0.0,0.5146222806094297,-0.5739836440620132,0.7390372383626982,0.0,0.0,0.0,0.0,0.0,0.0,0.0,0.0,0.0
339653000000,67,339653000000,base_link,-0.00019301432901201387,0.00027088726110434066,-0.0003261521167279773,0.9999998914951729,0.0,0.0,0.0,0.0,0.0,0.0,0.0,0.0,0.0,-0.017098593242553795,-0.007642653219471385,-0.0017741506771639908,0.0,0.0,0.0,0.0,0.0,0.0,0.0,0.0,0.0,-0.7528377676023457,1.3634743349676726,18.600439005459744,0.0,0.0,0.0,0.0,0.0,0.0,0.0,0.0,0.0
339654000000,68,339654000000,base_link,-0.0002027303047179364,0.00026608615854819623,-0.00032686424283070656,0.9999998906291673,0.0,0.0,0.0,0.0,0.0,0.0,0.0,0.0,0.0,-0.019428456192738787,-0.009608294764229006,-0.001431358814298014,0.0,0.0,0.0,0.0,0.0,0.0,0.0,0.0,0.0,-0.5566400676857334,0.6525504019527956,0.8675113618175434,0.0,0.0,0.0,0.0,0.0,0.0,0.0,0.0,0.0
339656000000,69,339656000000,base_link,-0.00018983607777818702,0.0002803533218076203,-0.0003284906421984482,0.9999998887290822,0.0,0.0,0.0,0.0,0.0,0.0,0.0,0.0,0.0,0.013610039879292992,0.014789121835206583,-0.0015821618686213419,0.0,0.0,0.0,0.0,0.0,0.0,0.0,0.0,0.0,0.6624932731625484,-0.9979141809901118,9.865977043064259,0.0,0.0,0.0,0.0,0.0,0.0,0.0,0.0,0.0
339657000000,70,339657000000,base_link,-0.0001984728985548401,0.0002766248527145633,-0.00032937584420501776,0.99999988779937,0.0,0.0,0.0,0.0,0.0,0.0,0.0,0.0,0.0,-0.017272250224002347,-0.0074608121801869555,-0.0017751663597033141,0.0,0.0,0.0,0.0,0.0,0.0,0.0,0.0,0.0,-0.7529010412407287,1.3634199874813948,18.600573520134844,0.0,0.0,0.0,0.0,0.0,0.0,0.0,0.0,0.0
339658000000,71,339658000000,base_link,-0.0002082751743416414,0.00027191458063991283,-0.0003300881261572927,0.9999998868628645,0.0,0.0,0.0,0.0,0.0,0.0,0.0,0.0,0.0,-0.019601076892841823,-0.009426745368269922,-0.0014318461656623956,0.0,0.0,0.0,0.0,0.0,0.0,0.0,0.0,0.0,-0.5565634477379166,0.6525048573645397,0.8674332011279109,0.0,0.0,0.0,0.0,0.0,0.0,0.0,0.0,0.0
339660000000,72,339660000000,base_link,-0.0001955543260123294,0.0002863653149241185,-0.00033171457793429655,0.9999998848594188,0.0,0.0,0.0,0.0,0.0,0.0,0.0,0.0,0.0,0.01343668516808825,0.0149725054642204,-0.0015822036547607223,0.0,0.0,0.0,0.0,0.0,0.0,0.0,0.0,0.0,0.6624416947163879,-0.997907613888107,9.865946539831029,0.0,0.0,0.0,0.0,0.0,0.0,0.0,0.0,0.0
339662000000,73,339662000000,base_link,-0.00021416832591378772,0.000278110250284015,-0.00033331266439923273,0.9999998828446355,0.0,0.0,0.0,0.0,0.0,0.0,0.0,0.0,0.0,-0.01744771999218395,-0.0072770796033802465,-0.0017762014004949198,0.0,0.0,0.0,0.0,0.0,0.0,0.0,0.0,0.0,-0.7527970231332968,1.362992376324428,18.60074482016592,0.0,0.0,0.0,0.0,0.0,0.0,0.0,0.0,0.0
339663000000,74,339663000000,base_link,-0.00020825574388440735,0.0002851699777461166,-0.0003341445633313364,0.999999881827513,0.0,0.0,0.0,0.0,0.0,0.0,0.0,0.0,0.0,0.011821560972020154,0.014123253000453988,-0.0016570418300729834,0.0,0.0,0.0,0.0,0.0,0.0,0.0,0.0,0.0,0.12705173294419875,-0.38494984048236724,9.9302030114408,0.0,0.0,0.0,0.0,0.0,0.0,0.0,0.0,0.0
339664000000,75,339664000000,base_link,-0.00020162270208815594,0.0002927464935942808,-0.00033493914801874643,0.9999998807317648,0.0,0.0,0.0,0.0,0.0,0.0,0.0,0.0,0.0,0.013261501740712856,0.015157814444782088,-0.001582228176591174,0.0,0.0,0.0,0.0,0.0,0.0,0.0,0.0,0.0,0.5144602850964841,-0.5736884541221435,0.7387319635199638,0.0,0.0,0.0,0.0,0.0,0.0,0.0,0.0,0.0
339667000000,76,339666000000,base_link,-0.0002145895903524491,0.00029183071025642467,-0.00033736967426871206,0.999999877483916,0.0,0.0,0.0,0.0,0.0,0.0,0.0,0.0,0.0,0.011644121679285321,0.014311013462095026,-0.0016567291698601676,0.0,0.0,0.0,0.0,0.0,0.0,0.0,0.0,0.0,0.127064114632864,-0.38501654957169407,9.930182913664163,0.0,0.0,0.0,0.0,0.0,0.0,0.0,0.0,0.0
339668000000,77,339668000000,base_link,-0.00020804505944418646,0.00029950090531245566,-0.000338164349836502,0.9999998763306591,0.0,0.0,0.0,0.0,0.0,0.0,0.0,0.0,0.0,0.01308437839147331,0.015345165942772474,-0.0015822371028708759,0.0,0.0,0.0,0.0,0.0,0.0,0.0,0.0,0.0,0.5144080686609925,-0.5735868739752014,0.7386288356598634,0.0,0.0,0.0,0.0,0.0,0.0,0.0,0.0,0.0
339673000000,78,339669000000,base_link,-0.000227014666981655,0.0002916192866064297,-0.0003397636923564314,0.999999873991575,0.0,0.0,0.0,0.0,0.0,0.0,0.0,0.0,0.0,-0.020129998292754282,-0.008870444852616639,-0.0014333956127123195,0.0,0.0,0.0,0.0,0.0,0.0,0.0,0.0,0.0,-0.5563304885220879,0.6523783405738696,0.8672035104772515,0.0,0.0,0.0,0.0,0.0,0.0,0.0,0.0,0.0
339673000000,81,339673000000,base_link,-0.00022381913901795315,0.00030327825760464273,-0.00034227725514638133,0.9999998703867776,0.0,0.0,0.0,0.0,0.0,0.0,0.0,0.0,0.0,-0.017986044288666132,-0.006713449844357136,-0.0017796106754880462,0.0,0.0,0.0,0.0,0.0,0.0,0.0,0.0,0.0,-0.7531826335901615,1.3631593513260012,18.601133333893266,0.0,0.0,0.0,0.0,0.0,0.0,0.0,0.0,0.0
339674000000,82,339674000000,base_link,-0.00023397601024208517,0.00029894121995773827,-0.0003429901818572416,0.9999998691235458,0.0,0.0,0.0,0.0,0.0,0.0,0.0,0.0,0.0,-0.020310363016602436,-0.008680735367167961,-0.0014339452483038805,0.0,0.0,0.0,0.0,0.0,0.0,0.0,0.0,0.0,-0.5562520574939909,0.6523399311227899,0.8671290487623171,0.0,0.0,0.0,0.0,0.0,0.0,0.0,0.0,0.0
339675000000,83,339675000000,base_link,-0.0002283326278160322,0.000306285942159626,-0.0003438217984205613,0.9999998679198431,0.0,0.0,0.0,0.0,0.0,0.0,0.0,0.0,0.0,0.01128286278054163,0.014693206351239106,-0.0016559796896998323,0.0,0.0,0.0,0.0,0.0,0.0,0.0,0.0,0.0,0.81043355758615,-1.4226565599954188,18.993168489056778,0.0,0.0,0.0,0.0,0.0,0.0,0.0,0.0,0.0
339676000000,84,339676000000,base_link,-0.00022196825026046362,0.00031414679743935745,-0.0003446166493413147,0.9999998666406164,0.0,0.0,0.0,0.0,0.0,0.0,0.0,0.0,0.0,0.012723864399526627,0.015726468706597545,-0.0015822111756909694,0.0,0.0,0.0,0.0,0.0,0.0,0.0,0.0,0.0,0.5143062459659572,-0.5733785769734301,0.7384200891946051,0.0,0.0,0.0,0.0,0.0,0.0,0.0,0.0,0.0
339676000000,85,339677000000,base_link,-0.0002310537990071489,0.0003108884927579894,-0.0003455042281894015,0.9999998652946486,0.0,0.0,0.0,0.0,0.0,0.0,0.0,0.0,0.0,-0.018169843402276484,-0.006521017318336144,-0.0017808241411272354,0.0,0.0,0.0,0.0,0.0,0.0,0.0,0.0,0.0,-0.7532606939826918,1.3630834542643213,18.601277760553494,0.0,0.0,0.0,0.0,0.0,0.0,0.0,0.0,0.0
339678000000,86,339678000000,base_link,-0.00024130194705768458,0.00030664753688977294,-0.0003462173237554695,0.9999998639371024,0.0,0.0,0.0,0.0,0.0,0.0,0.0,0.0,0.0,-0.020492944023432817,-0.008488689921124984,-0.0014345127323614382,0.0,0.0,0.0,0.0,0.0,0.0,0.0,0.0,0.0,-0.5561732548014945,0.6523034773544016,0.8670556834929641,0.0,0.0,0.0,0.0,0.0,0.0,0.0,0.0,0.0
339682000000,87,339679000000,base_link,-0.00023575053708842602,0.0003140896021576472,-0.000347048814273931,0.9999998626632538,0.0,0.0,0.0,0.0,0.0,0.0,0.0,0.0,0.0,0.011098815366683765,0.014887877731635274,-0.0016555427332898554,0.0,0.0,0.0,0.0,0.0,0.0,0.0,0.0,0.0,0.8103694996006747,-1.422761206042292,18.993198031604674,0.0,0.0,0.0,0.0,0.0,0.0,0.0,0.0,0.0
339682000000,88,339680000000,base_link,-0.00022947791524437574,0.00032204755780727525,-0.00034784375000342294,0.9999998613149816,0.0,0.0,0.0,0.0,0.0,0.0,0.0,0.0,0.0,0.012540247151038327,0.015920658575097533,-0.0015821767544468126,0.0,0.0,0.0,0.0,0.0,0.0,0.0,0.0,0.0,0.5142566992311697,-0.573271866594768,0.738314519846961,0.0,0.0,0.0,0.0,0.0,0.0,0.0,0.0,0.0
339682000000,89,339681000000,base_link,-0.0002386565320448121,0.000318886762997525,-0.00034873185238026437,0.9999998598701839,0.0,0.0,0.0,0.0,0.0,0.0,0.0,0.0,0.0,-0.018356010900695864,-0.006326108183819792,-0.0017820804503537867,0.0,0.0,0.0,0.0,0.0,0.0,0.0,0.0,0.0,-0.7533418937875613,1.3630031642451392,18.60142403106008,0.0,0.0,0.0,0.0,0.0,0.0,0.0,0.0,0.0
339682000000,90,339682000000,base_link,-0.0002489971215231415,0.00031474311789398595,-0.000349445120310046,0.9999998584126457,0.0,0.0,0.0,0.0,0.0,0.0,0.0,0.0,0.0,-0.020677855762344988,-0.008294187967848407,-0.0014350984676230077,0.0,0.0,0.0,0.0,0.0,0.0,0.0,0.0,0.0,-0.5560940759529942,0.6522690072164455,0.8669834355766532,0.0,0.0,0.0,0.0,0.0,0.0,0.0,0.0,0.0
339683000000,91,339683000000,base_link,-0.00024353889946377512,0.0003222837994622178,-0.0003502764686723108,0.999999857064166,0.0,0.0,0.0,0.0,0.0,0.0,0.0,0.0,0.0,0.010912335529532486,0.015085094132930306,-0.0016550638295545082,0.0,0.0,0.0,0.0,0.0,0.0,0.0,0.0,0.0,0.8103015936632676,-1.4228705104011496,18.993225181364373,0.0,0.0,0.0,0.0,0.0,0.0,0.0,0.0,0.0
339684000000,92,339684000000,base_link,-0.0002373592306152716,0.00033034011540493527,-0.0003510714875185819,0.9999998556423968,0.0,0.0,0.0,0.0,0.0,0.0,0.0,0.0,0.0,0.012354233734801033,0.016117366816740926,-0.0015821283054816583,0.0,0.0,0.0,0.0,0.0,0.0,0.0,0.0,0.0,0.5142088014675374,-0.5731641393235738,0.7382089461898591,0.0,0.0,0.0,0.0,0.0,0.0,0.0,0.0,0.0
339685000000,93,339685000000,base_link,-0.0002466321558569159,0.00032727813186084166,-0.00035196013006604594,0.9999998540928249,0.0,0.0,0.0,0.0,0.0,0.0,0.0,0.0,0.0,-0.01854466062236439,-0.006128597649047525,-0.0017833798100644923,0.0,0.0,0.0,0.0,0.0,0.0,0.0,0.0,0.0,-0.753426379190556,1.3629184031194335,18.601570635309173,0.0,0.0,0.0,0.0,0.0,0.0,0.0,0.0,0.0
339686000000,94,339686000000,base_link,-0.0002570664101393403,0.0003232330874492474,-0.00035267357358617125,0.9999998525292804,0.0,0.0,0.0,0.0,0.0,0.0,0.0,0.0,0.0,-0.02086521584262705,-0.008097107681216027,-0.001435702043843987,0.0,0.0,0.0,0.0,0.0,0.0,0.0,0.0,0.0,-0.556014619946797,0.6522367075289485,0.8669126679092489,0.0,0.0,0.0,0.0,0.0,0.0,0.0,0.0,0.0
339687000000,95,339687000000,base_link,-0.0002517026495705268,0.000330873720883961,-0.0003535047632984078,0.9999998511013587,0.0,0.0,0.0,0.0,0.0,0.0,0.0,0.0,0.0,0.010723306948320865,0.015284980165161317,-0.0016545420927452329,0.0,0.0,0.0,0.0,0.0,0.0,0.0,0.0,0.0,0.810229688959617,-1.4229844615239873,18.993250557099405,0.0,0.0,0.0,0.0,0.0,0.0,0.0,0.0,0.0
339688000000,96,339688000000,base_link,-0.00024561719076572527,0.0003390297178307504,-0.0003542998636510605,0.9999998496013149,0.0,0.0,0.0,0.0,0.0,0.0,0.0,0.0,0.0,0.012165704701703627,0.016316715044229324,-0.0015820658417089462,0.0,0.0,0.0,0.0,0.0,0.0,0.0,0.0,0.0,0.5141630342125847,-0.5730557984299138,0.7381037737876124,0.0,0.0,0.0,0.0,0.0,0.0,0.0,0.0,0.0
339689000000,97,339689000000,base_link,-0.0002549857227986366,0.0003360679102519063,-0.0003551890629573873,0.9999998479406738,0.0,0.0,0.0,0.0,0.0,0.0,0.0,0.0,0.0,-0.018735908556002694,-0.005928359152519937,-0.00178472224520165,0.0,0.0,0.0,0.0,0.0,0.0,0.0,0.0,0.0,-0.75351438524295,1.362829192932433,18.601716240419034,0.0,0.0,0.0,0.0,0.0,0.0,0.0,0.0,0.0
339690000000,98,339690000000,base_link,-0.00026551492483080103,0.0003321228184387092,-0.00035590268493256765,0.9999998462647568,0.0,0.0,0.0,0.0,0.0,0.0,0.0,0.0,0.0,-0.021055143464501096,-0.007897325161050338,-0.001436322897817937,0.0,0.0,0.0,0.0,0.0,0.0,0.0,0.0,0.0,-0.5559350124892937,0.6522067898005427,0.8668437516396086,0.0,0.0,0.0,0.0,0.0,0.0,0.0,0.0,0.0
339691000000,99,339691000000,base_link,-0.00026024695854184984,0.0003398648024693392,-0.00035673369907603813,0.9999998447522401,0.0,0.0,0.0,0.0,0.0,0.0,0.0,0.0,0.0,0.010531611138527398,0.015487662098943967,-0.0016539765457636545,0.0,0.0,0.0,0.0,0.0,0.0,0.0,0.0,0.0,0.8101535748009824,-1.4231029752270528,18.99327462415693,0.0,0.0,0.0,0.0,0.0,0.0,0.0,0.0,0.0
339692000000,100,339692000000,base_link,-0.00025425702378457953,0.0003481218653444217,-0.0003575288789861041,0.9999998431688044,0.0,0.0,0.0,0.0,0.0,0.0,0.0,0.0,0.0,0.01197454600548831,0.016518831578409054,-0.001581988547985531,0.0,0.0,0.0,0.0,0.0,0.0,0.0,0.0,0.0,0.514118082457806,-0.5729454642628464,0.7379974254070802,0.0,0.0,0.0,0.0,0.0,0.0,0.0,0.0,0.0
339693000000,101,339693000000,base_link,-0.0002637225231922968,0.00034526165938589357,-0.00035841865218781953,0.9999998413904311,0.0,0.0,0.0,0.0,0.0,0.0,0.0,0.0,0.0,-0.0189298792182752,-0.005725270848239765,-0.0017861090113621167,0.0,0.0,0.0,0.0,0.0,0.0,0.0,0.0,0.0,-0.7536059024155009,1.3627356333644542,18.601863506556406,0.0,0.0,0.0,0.0,0.0,0.0,0.0,0.0,0.0
339694000000,102,339694000000,base_link,-0.00027434801398280514,0.0003414179353225073,-0.000359132456108361,0.999999839595407,0.0,0.0,0.0,0.0,0.0,0.0,0.0,0.0,0.0,-0.021247754816819387,-0.007694713975055556,-0.0014369624469084898,0.0,0.0,0.0,0.0,0.0,0.0,0.0,0.0,0.0,-0.5558551156827164,0.652179052178956,0.8667761437146595,0.0,0.0,0.0,0.0,0.0,0.0,0.0,0.0,0.0
339696000000,103,339696000000,base_link,-0.0002632841988350394,0.00035762230784907255,-0.00036075853545202585,0.999999836320484,0.0,0.0,0.0,0.0,0.0,0.0,0.0,0.0,0.0,0.011780638655202503,0.016723842801705434,-0.0015818963835291713,0.0,0.0,0.0,0.0,0.0,0.0,0.0,0.0,0.0,0.5140741022244778,-0.5728333258796757,0.7378902596685837,0.0,0.0,0.0,0.0,0.0,0.0,0.0,0.0,0.0
339701000000,104,339698000000,base_link,-0.0002835712676233318,0.0003511243147484406,-0.0003623628897063954,0.9999998324960798,0.0,0.0,0.0,0.0,0.0,0.0,0.0,0.0,0.0,-0.02144317015043624,-0.0074891473319198786,-0.0014376213550880048,0.0,0.0,0.0,0.0,0.0,0.0,0.0,0.0,0.0,-0.6546691707995677,1.0071955030690085,9.734378702815846,0.0,0.0,0.0,0.0,0.0,0.0,0.0,0.0,0.0
339701000000,107,339701000000,base_link,-0.0002823681870488243,0.000364884578830399,-0.0003648798094817721,0.999999826995073,0.0,0.0,0.0,0.0,0.0,0.0,0.0,0.0,0.0,-0.019326475915814142,-0.005310035831275006,-0.0017890193156215452,0.0,0.0,0.0,0.0,0.0,0.0,0.0,0.0,0.0,-0.7537991506162878,1.3625347181293723,18.602164037226128,0.0,0.0,0.0,0.0,0.0,0.0,0.0,0.0,0.0
339702000000,108,339702000000,base_link,-0.00029319051983062215,0.00036124809031255187,-0.00036559398859068766,0.9999998249400706,0.0,0.0,0.0,0.0,0.0,0.0,0.0,0.0,0.0,-0.021641511870798356,-0.0072804966659331454,-0.0014382999897002552,0.0,0.0,0.0,0.0,0.0,0.0,0.0,0.0,0.0,-0.5556942027087736,0.6521299686285603,0.8666445421408611,0.0,0.0,0.0,0.0,0.0,0.0,0.0,0.0,0.0
339703000000,109,339703000000,base_link,-0.0002882185455503689,0.0003693031493563413,-0.00036642437447164154,0.9999998231392002,0.0,0.0,0.0,0.0,0.0,0.0,0.0,0.0,0.0,0.009939294851780356,0.016113744316700988,-0.0016520155233632906,0.0,0.0,0.0,0.0,0.0,0.0,0.0,0.0,0.0,0.8099003774098327,-1.423487273901793,18.993330963402897,0.0,0.0,0.0,0.0,0.0,0.0,0.0,0.0,0.0
339705000000,110,339704000000,base_link,-0.0002825236677312992,0.00037787235542205037,-0.00036721978173591424,0.99999982127123,0.0,0.0,0.0,0.0,0.0,0.0,0.0,0.0,0.0,0.011384089741062425,0.017143062133147733,-0.0015816668993767307,0.0,0.0,0.0,0.0,0.0,0.0,0.0,0.0,0.0,0.5139892845301997,-0.5726037206853215,0.7376736045472292,0.0,0.0,0.0,0.0,0.0,0.0,0.0,0.0,0.0
339706000000,111,339706000000,base_link,-0.0003032118522682821,0.0003717956567846915,-0.0003688257557018634,0.9999998168990455,0.0,0.0,0.0,0.0,0.0,0.0,0.0,0.0,0.0,-0.01952935399296797,-0.00509761755649746,-0.0017905176758182787,0.0,0.0,0.0,0.0,0.0,0.0,0.0,0.0,0.0,-0.7537713197927938,1.3620196525895787,18.602352149533935,0.0,0.0,0.0,0.0,0.0,0.0,0.0,0.0,0.0
339707000000,112,339707000000,base_link,-0.0002983416176745564,0.00037995829922426923,-0.0003696558975531452,0.9999998149892266,0.0,0.0,0.0,0.0,0.0,0.0,0.0,0.0,0.0,0.009735700983553634,0.016328884941006105,-0.0016512717114300006,0.0,0.0,0.0,0.0,0.0,0.0,0.0,0.0,0.0,0.12708965581914627,-0.3857546355042859,9.929954888117287,0.0,0.0,0.0,0.0,0.0,0.0,0.0,0.0,0.0
339708000000,113,339708000000,base_link,-0.00029274812603107285,0.00038863475114848446,-0.0003704513768085302,0.9999998130136538,0.0,0.0,0.0,0.0,0.0,0.0,0.0,0.0,0.0,0.011181199505159818,0.01735753174206655,-0.0015815291714264465,0.0,0.0,0.0,0.0,0.0,0.0,0.0,0.0,0.0,0.5139484917587952,-0.5724862057509839,0.7375640656321938,0.0,0.0,0.0,0.0,0.0,0.0,0.0,0.0,0.0
339709000000,114,339709000000,base_link,-0.00030261632510247117,0.0003861964930721395,-0.0003713436241863504,0.9999998106897526,0.0,0.0,0.0,0.0,0.0,0.0,0.0,0.0,0.0,-0.019735439050953044,-0.004881851035960234,-0.0017921169990293645,0.0,0.0,0.0,0.0,0.0,0.0,0.0,0.0,0.0,-0.7540060016972238,1.3623144972330072,18.602471864070544,0.0,0.0,0.0,0.0,0.0,0.0,0.0,0.0,0.0
339709000000,115,339710000000,base_link,-0.0003136415982219166,0.00038277367428366746,-0.0003720581940201341,0.9999998083429629,0.0,0.0,0.0,0.0,0.0,0.0,0.0,0.0,0.0,-0.022047473272352035,-0.006853418287463294,-0.0014397176563892763,0.0,0.0,0.0,0.0,0.0,0.0,0.0,0.0,0.0,-0.5555317047886746,0.6520895923224131,0.8665179714021551,0.0,0.0,0.0,0.0,0.0,0.0,0.0,0.0,0.0
339712000000,116,339711000000,base_link,-0.00030338426328556037,0.00039983103156347207,-0.00037368362339723843,0.9999998042268232,0.0,0.0,0.0,0.0,0.0,0.0,0.0,0.0,0.0,0.010975063124635467,0.01757541924564793,-0.0015813758108363283,0.0,0.0,0.0,0.0,0.0,0.0,0.0,0.0,0.0,0.5139087981771431,-0.5723668430515719,0.7374536944052075,0.0,0.0,0.0,0.0,0.0,0.0,0.0,0.0,0.0
339713000000,117,339712000000,base_link,-0.00030338426328556037,0.00039983103156347207,-0.00037368362339723843,0.9999998042268232,0.0,0.0,0.0,0.0,0.0,0.0,0.0,0.0,0.0,0.010975063124635467,0.01757541924564793,-0.0015813758108363283,0.0,0.0,0.0,0.0,0.0,0.0,0.0,0.0,0.0,0.5139087981771431,-0.5723668430515719,0.7374536944052075,0.0,0.0,0.0,0.0,0.0,0.0,0.0,0.0,0.0
339716000000,118,339713000000,base_link,-0.00031335715841167966,0.0003975024767636457,-0.000374576535403802,0.9999998017457261,0.0,0.0,0.0,0.0,0.0,0.0,0.0,0.0,0.0,-0.019944875831101792,-0.004662567829324781,-0.00179373793900011,0.0,0.0,0.0,0.0,0.0,0.0,0.0,0.0,0.0,-0.7541146687474494,1.3621969414122537,18.602628445278146,0.0,0.0,0.0,0.0,0.0,0.0,0.0,0.0,0.0
339716000000,120,339716000000,base_link,-0.00031443879815878814,0.0004114682628491367,-0.0003769165242156837,0.9999997948780013,0.0,0.0,0.0,0.0,0.0,0.0,0.0,0.0,0.0,0.009318519933520304,0.016769636782539447,-0.0016496593653553065,0.0,0.0,0.0,0.0,0.0,0.0,0.0,0.0,0.0,0.8092737243908734,-1.4237117355115974,18.99339383342551,0.0,0.0,0.0,0.0,0.0,0.0,0.0,0.0,0.0
339717000000,121,339717000000,base_link,-0.00033575294717728076,0.0004060490552131123,-0.00037852509643098543,0.9999997895564151,0.0,0.0,0.0,0.0,0.0,0.0,0.0,0.0,0.0,-0.02246665627269152,-0.00641240701849923,-0.0014412179950291123,0.0,0.0,0.0,0.0,0.0,0.0,0.0,0.0,0.0,-0.5553676274531224,0.6520582588644733,0.8663967026987809,0.0,0.0,0.0,0.0,0.0,0.0,0.0,0.0,0.0
339719000000,122,339718000000,base_link,-0.00033119805275496044,0.00041454506502186186,-0.00037935439854450603,0.9999997872752171,0.0,0.0,0.0,0.0,0.0,0.0,0.0,0.0,0.0,0.009104664898768102,0.016995529505637107,-0.0016487599488396705,0.0,0.0,0.0,0.0,0.0,0.0,0.0,0.0,0.0,0.8095038258900527,-1.4240714854867424,18.993369862679998,0.0,0.0,0.0,0.0,0.0,0.0,0.0,0.0,0.0
339721000000,123,339719000000,base_link,-0.00033119805275496044,0.00041454506502186186,-0.00037935439854450603,0.9999997872752171,0.0,0.0,0.0,0.0,0.0,0.0,0.0,0.0,0.0,0.009104664898768102,0.016995529505637107,-0.0016487599488396705,0.0,0.0,0.0,0.0,0.0,0.0,0.0,0.0,0.0,0.8095038258900527,-1.4240714854867424,18.993369862679998,0.0,0.0,0.0,0.0,0.0,0.0,0.0,0.0,0.0
339721000000,124,339721000000,base_link,-0.0003361062784149475,0.00042145017689335616,-0.00038104438064261544,0.9999997821087253,0.0,0.0,0.0,0.0,0.0,0.0,0.0,0.0,0.0,-0.020374314578552113,-0.004212931627039305,-0.0017971279403767265,0.0,0.0,0.0,0.0,0.0,0.0,0.0,0.0,0.0,-0.12025295337382798,0.39490500207997403,9.670081834017983,0.0,0.0,0.0,0.0,0.0,0.0,0.0,0.0,0.0
339721000000,125,339722000000,base_link,-0.00034744851297471494,0.0004183611045217861,-0.00038175956673734804,0.9999997792565508,0.0,0.0,0.0,0.0,0.0,0.0,0.0,0.0,0.0,-0.02268153286360408,-0.006186331941216266,-0.0014420000293396149,0.0,0.0,0.0,0.0,0.0,0.0,0.0,0.0,0.0,-0.5552849948754688,0.6520460891837853,0.8663381258329945,0.0,0.0,0.0,0.0,0.0,0.0,0.0,0.0,0.0
339723000000,126,339724000000,base_link,-0.000337831251028861,0.00043609522844069546,-0.000383384299603497,0.9999997743537129,0.0,0.0,0.0,0.0,0.0,0.0,0.0,0.0,0.0,0.00888713026248669,0.017225278541524017,-0.0016478425467474213,0.0,0.0,0.0,0.0,0.0,0.0,0.0,0.0,0.0,0.8090492752550883,-1.424033327035534,18.993402371231163,0.0,0.0,0.0,0.0,0.0,0.0,0.0,0.0,0.0
339725000000,127,339725000000,base_link,-0.0003481289277556916,0.00043410700010720004,-0.00038427932085539326,0.9999997713433566,0.0,0.0,0.0,0.0,0.0,0.0,0.0,0.0,0.0,-0.020594585075673022,-0.003982296444789598,-0.0017988986730087708,0.0,0.0,0.0,0.0,0.0,0.0,0.0,0.0,0.0,-0.12033098786907181,0.3949009614159062,9.67010641744766,0.0,0.0,0.0,0.0,0.0,0.0,0.0,0.0,0.0
339726000000,128,339726000000,base_link,-0.00035958042668943375,0.00043113298582222727,-0.0003849947206822786,0.9999997683026383,0.0,0.0,0.0,0.0,0.0,0.0,0.0,0.0,0.0,-0.02290011165499461,-0.005956355514648833,-0.0014428037937440493,0.0,0.0,0.0,0.0,0.0,0.0,0.0,0.0,0.0,-0.5552019628774968,0.6520363086114009,0.8662809583861115,0.0,0.0,0.0,0.0,0.0,0.0,0.0,0.0,0.0
339727000000,129,339727000000,base_link,-0.00035524485665692444,0.000439860785915061,-0.0003858233702925064,0.9999997657319265,0.0,0.0,0.0,0.0,0.0,0.0,0.0,0.0,0.0,0.00866576794961054,0.01745903948045361,-0.001646844119518232,0.0,0.0,0.0,0.0,0.0,0.0,0.0,0.0,0.0,0.809278952225886,-1.4243958839037212,18.993373102617962,0.0,0.0,0.0,0.0,0.0,0.0,0.0,0.0,0.0
339728000000,130,339728000000,base_link,-0.0003501839353080977,0.00044910049477177365,-0.0003866191798105915,0.9999997631027553,0.0,0.0,0.0,0.0,0.0,0.0,0.0,0.0,0.0,0.01011543801409082,0.01848390572964497,-0.0015806010033362486,0.0,0.0,0.0,0.0,0.0,0.0,0.0,0.0,0.0,0.5137614353659931,-0.571870369706224,0.7370037192359646,0.0,0.0,0.0,0.0,0.0,0.0,0.0,0.0,0.0
339729000000,131,339729000000,base_link,-0.00036059366261708407,0.00044722968476768477,-0.00038751494368439776,0.9999997598949651,0.0,0.0,0.0,0.0,0.0,0.0,0.0,0.0,0.0,-0.020818739180845442,-0.003747591037342568,-0.001800721061916565,0.0,0.0,0.0,0.0,0.0,0.0,0.0,0.0,0.0,-0.754585875315166,1.3616752576477225,18.603273123728854,0.0,0.0,0.0,0.0,0.0,0.0,0.0,0.0,0.0
339730000000,132,339730000000,base_link,-0.00037215634433672857,0.00044437275252668507,-0.0003882305615168034,0.9999997566547421,0.0,0.0,0.0,0.0,0.0,0.0,0.0,0.0,0.0,-0.023122529641764138,-0.005722333424018816,-0.0014436296688053055,0.0,0.0,0.0,0.0,0.0,0.0,0.0,0.0,0.0,-0.5551185283029824,0.6520289623267129,0.8662252306215468,0.0,0.0,0.0,0.0,0.0,0.0,0.0,0.0,0.0
339731000000,133,339731000000,base_link,-0.0003679333707578485,0.0004532195269694702,-0.0003890588561141535,0.9999997539251206,0.0,0.0,0.0,0.0,0.0,0.0,0.0,0.0,0.0,0.008440447403508886,0.01769694950309904,-0.0016458113244151617,0.0,0.0,0.0,0.0,0.0,0.0,0.0,0.0,0.0,0.8091595880252017,-1.424566479125207,18.993370467417346,0.0,0.0,0.0,0.0,0.0,0.0,0.0,0.0,0.0
339732000000,134,339732000000,base_link,-0.00036298455902104924,0.0004625777857511044,-0.00038985472552451446,0.9999997511386166,0.0,0.0,0.0,0.0,0.0,0.0,0.0,0.0,0.0,0.009891087758555,0.018720971219245295,-0.0015803656121826863,0.0,0.0,0.0,0.0,0.0,0.0,0.0,0.0,0.0,0.5137275692285671,-0.5717413577952367,0.7368890630592357,0.0,0.0,0.0,0.0,0.0,0.0,0.0,0.0,0.0
339733000000,135,339733000000,base_link,-0.0003735083476656848,0.000460826503915166,-0.00039075125236418196,0.9999997477219215,0.0,0.0,0.0,0.0,0.0,0.0,0.0,0.0,0.0,-0.021046917053071944,-0.0035086681076685333,-0.001802596021571624,0.0,0.0,0.0,0.0,0.0,0.0,0.0,0.0,0.0,-0.7547131489904008,1.3615315214777677,18.60343897729446,0.0,0.0,0.0,0.0,0.0,0.0,0.0,0.0,0.0
339734000000,136,339734000000,base_link,-0.0003851842002439096,0.0004580887511384307,-0.00039146709254862116,0.9999997442706391,0.0,0.0,0.0,0.0,0.0,0.0,0.0,0.0,0.0,-0.02334892622999297,-0.0054841188219135525,-0.0014444780468994888,0.0,0.0,0.0,0.0,0.0,0.0,0.0,0.0,0.0,-0.5550346880608488,0.6520240974105189,0.8661709745170896,0.0,0.0,0.0,0.0,0.0,0.0,0.0,0.0,0.0
339735000000,137,339735000000,base_link,-0.0003810758732002631,0.00046705665151265837,-0.000392295012503391,0.9999997413719098,0.0,0.0,0.0,0.0,0.0,0.0,0.0,0.0,0.0,0.008211024206779112,0.01793916032395832,-0.00164472742858559,0.0,0.0,0.0,0.0,0.0,0.0,0.0,0.0,0.0,0.8090354947181189,-1.4247428071059594,18.99336492079401,0.0,0.0,0.0,0.0,0.0,0.0,0.0,0.0,0.0
339736000000,138,339736000000,base_link,-0.00037624119757372467,0.0004765355964192066,-0.0003930909396718095,0.9999997384179157,0.0,0.0,0.0,0.0,0.0,0.0,0.0,0.0,0.0,0.009662682026269014,0.01896230679785818,-0.0015801129677552024,0.0,0.0,0.0,0.0,0.0,0.0,0.0,0.0,0.0,0.5136949453094385,-0.5716103294796805,0.7367735231692549,0.0,0.0,0.0,0.0,0.0,0.0,0.0,0.0,0.0
339737000000,139,339737000000,base_link,-0.0003868811296075017,0.000474906027598216,-0.000393988250183873,0.9999997347802224,0.0,0.0,0.0,0.0,0.0,0.0,0.0,0.0,0.0,-0.02127926137382454,-0.003265377715186549,-0.001804524498866896,0.0,0.0,0.0,0.0,0.0,0.0,0.0,0.0,0.0,-0.7548443520583648,1.361382264192407,18.60360673438749,0.0,0.0,0.0,0.0,0.0,0.0,0.0,0.0,0.0
339738000000,140,339738000000,base_link,-0.00039867221202479093,0.00047228962648382383,-0.0003947043171426625,0.999999731105703,0.0,0.0,0.0,0.0,0.0,0.0,0.0,0.0,0.0,-0.023579443322399116,-0.005241562233413359,-0.0014453493343666408,0.0,0.0,0.0,0.0,0.0,0.0,0.0,0.0,0.0,-0.5549504393128131,0.6520217629970007,0.8661182236876499,0.0,0.0,0.0,0.0,0.0,0.0,0.0,0.0,0.0
339739000000,141,339739000000,base_link,-0.0003946806536263079,0.0004813808801270712,-0.00039553184246783455,0.9999997280270588,0.0,0.0,0.0,0.0,0.0,0.0,0.0,0.0,0.0,0.007977354210766344,0.018185823368758403,-0.0016435915062236895,0.0,0.0,0.0,0.0,0.0,0.0,0.0,0.0,0.0,0.8089065854336621,-1.4249249738296028,18.993356403415774,0.0,0.0,0.0,0.0,0.0,0.0,0.0,0.0,0.0
339740000000,142,339740000000,base_link,-0.0003899622122168906,0.0004909827228265603,-0.0003963278252222738,0.9999997248948093,0.0,0.0,0.0,0.0,0.0,0.0,0.0,0.0,0.0,0.009430077510569755,0.019208063318629127,-0.0015798427615678276,0.0,0.0,0.0,0.0,0.0,0.0,0.0,0.0,0.0,0.5136635917862541,-0.5714772536859759,0.7366570898079843,0.0,0.0,0.0,0.0,0.0,0.0,0.0,0.0,0.0
339740000000,143,339741000000,base_link,-0.00040072044230031424,0.0004894771282446251,-0.00039722594048844696,0.9999997210233713,0.0,0.0,0.0,0.0,0.0,0.0,0.0,0.0,0.0,-0.021515917440935815,-0.0030175671828571306,-0.0018065074735723295,0.0,0.0,0.0,0.0,0.0,0.0,0.0,0.0,0.0,-0.7549795593539244,1.3612273824668533,18.603776410005707,0.0,0.0,0.0,0.0,0.0,0.0,0.0,0.0,0.0
339741000000,144,339742000000,base_link,-0.00041262888573713675,0.0004869843271301816,-0.0003979422387222606,0.9999997171127814,0.0,0.0,0.0,0.0,0.0,0.0,0.0,0.0,0.0,-0.023814225408660617,-0.004994511462412728,-0.001446243951463022,0.0,0.0,0.0,0.0,0.0,0.0,0.0,0.0,0.0,-0.5548657789166842,0.6520220097214949,0.8660670125640806,0.0,0.0,0.0,0.0,0.0,0.0,0.0,0.0,0.0
339743000000,145,339743000000,base_link,-0.0004087562914543912,0.0004962012385320764,-0.0003987693490606869,0.9999997138427748,0.0,0.0,0.0,0.0,0.0,0.0,0.0,0.0,0.0,0.007739290599274995,0.018437092852558647,-0.0016424025984147312,0.0,0.0,0.0,0.0,0.0,0.0,0.0,0.0,0.0,0.8087727700766194,-1.425113088698004,18.99334485393735,0.0,0.0,0.0,0.0,0.0,0.0,0.0,0.0,0.0
339744000000,146,339744000000,base_link,-0.0004041562552946319,0.0005059282675466076,-0.00039956538518972875,0.9999997105208643,0.0,0.0,0.0,0.0,0.0,0.0,0.0,0.0,0.0,0.009193128267966285,0.01945839440436166,-0.0015795546737221993,0.0,0.0,0.0,0.0,0.0,0.0,0.0,0.0,0.0,0.5136335376825913,-0.5713420980623092,0.7365397527315736,0.0,0.0,0.0,0.0,0.0,0.0,0.0,0.0,0.0
339745000000,147,339745000000,base_link,-0.0004150350120473696,0.0005045489862236533,-0.00040046432667925137,0.9999997064022481,0.0,0.0,0.0,0.0,0.0,0.0,0.0,0.0,0.0,-0.021757033258947463,-0.002765080998724341,-0.0018085459579777028,0.0,0.0,0.0,0.0,0.0,0.0,0.0,0.0,0.0,-0.7551188483474832,1.361066769397155,18.603948018897157,0.0,0.0,0.0,0.0,0.0,0.0,0.0,0.0,0.0
339746000000,148,339746000000,base_link,-0.0004270630212219497,0.0005021821109967901,-0.0004011808607692424,0.9999997022420659,0.0,0.0,0.0,0.0,0.0,0.0,0.0,0.0,0.0,-0.024053419656678728,-0.004742811494163822,-0.001447162331662326,0.0,0.0,0.0,0.0,0.0,0.0,0.0,0.0,0.0,-0.5547807043721461,0.6520248907637172,0.8660173777349041,0.0,0.0,0.0,0.0,0.0,0.0,0.0,0.0,0.0
339747000000,149,339747000000,base_link,-0.0004233116612645957,0.0005115270632435334,-0.0004020075353803741,0.9999996987685759,0.0,0.0,0.0,0.0,0.0,0.0,0.0,0.0,0.0,0.00749668379625086,0.01869312587676939,-0.0016411597120762293,0.0,0.0,0.0,0.0,0.0,0.0,0.0,0.0,0.0,0.8086339555839483,-1.4253072648130094,18.99333020771746,0.0,0.0,0.0,0.0,0.0,0.0,0.0,0.0,0.0
339748000000,150,339748000000,base_link,-0.00041883227567490695,0.0005213816453839373,-0.0004028036226314792,0.9999996952449268,0.0,0.0,0.0,0.0,0.0,0.0,0.0,0.0,0.0,0.008951685627756901,0.019713456544677693,-0.0015792483723997555,0.0,0.0,0.0,0.0,0.0,0.0,0.0,0.0,0.0,0.5136048129333821,-0.5712048290422698,0.7364215012940001,0.0,0.0,0.0,0.0,0.0,0.0,0.0,0.0,0.0
339749000000,151,339749000000,base_link,-0.0004298338630741098,0.0005201310956008282,-0.00040370341221491313,0.9999996908649765,0.0,0.0,0.0,0.0,0.0,0.0,0.0,0.0,0.0,-0.022002759631511642,-0.0025077607227466043,-0.0018106409999552446,0.0,0.0,0.0,0.0,0.0,0.0,0.0,0.0,0.0,-0.7552622991530467,1.3609003147246856,18.60412157751786,0.0,0.0,0.0,0.0,0.0,0.0,0.0,0.0,0.0
339751000000,152,339751000000,base_link,-0.00043835593836731714,0.0005273680074239709,-0.00040524640457321223,0.9999996827511536,0.0,0.0,0.0,0.0,0.0,0.0,0.0,0.0,0.0,0.007249381371604432,0.018954082525249105,-0.001639861820624768,0.0,0.0,0.0,0.0,0.0,0.0,0.0,0.0,0.0,0.12688867472348342,-0.38673589549586085,9.929633256330035,0.0,0.0,0.0,0.0,0.0,0.0,0.0,0.0,0.0
339752000000,153,339752000000,base_link,-0.00043399952436573255,0.0005373525892725812,-0.0004060425406512438,0.9999996790129799,0.0,0.0,0.0,0.0,0.0,0.0,0.0,0.0,0.0,0.008705598096846484,0.019973409192189588,-0.0015789235142360935,0.0,0.0,0.0,0.0,0.0,0.0,0.0,0.0,0.0,0.5135774492696091,-0.5710654127916486,0.7363023256160144,0.0,0.0,0.0,0.0,0.0,0.0,0.0,0.0,0.0
339753000000,154,339753000000,base_link,-0.00044512632319151257,0.0005362332700884051,-0.0004069432006131284,0.9999996743567808,0.0,0.0,0.0,0.0,0.0,0.0,0.0,0.0,0.0,-0.022253250255788722,-0.0022454448825129413,-0.0018127936808238205,0.0,0.0,0.0,0.0,0.0,0.0,0.0,0.0,0.0,-0.7554099946138679,1.3607279044247937,18.604297101275748,0.0,0.0,0.0,0.0,0.0,0.0,0.0,0.0,0.0
339755000000,155,339755000000,base_link,-0.0004538986045631075,0.0005437340469353912,-0.0004084859598326177,0.999999665734226,0.0,0.0,0.0,0.0,0.0,0.0,0.0,0.0,0.0,0.006997227946530742,0.019220125968431503,-0.001638507861810986,0.0,0.0,0.0,0.0,0.0,0.0,0.0,0.0,0.0,0.12685696370182042,-0.38683517294869335,9.929599558520842,0.0,0.0,0.0,0.0,0.0,0.0,0.0,0.0,0.0
339756000000,156,339756000000,base_link,-0.0004496675603222309,0.0005538511563795433,-0.0004092821423981484,0.9999996617679977,0.0,0.0,0.0,0.0,0.0,0.0,0.0,0.0,0.0,0.008454711680526122,0.020238415125174953,-0.0015785797145985764,0.0,0.0,0.0,0.0,0.0,0.0,0.0,0.0,0.0,0.5135513765267976,-0.5709237108279762,0.7361820994601089,0.0,0.0,0.0,0.0,0.0,0.0,0.0,0.0,0.0
339757000000,157,339757000000,base_link,-0.0004609220296688933,0.0005528656491872054,-0.00041018369544437125,0.9999996568198375,0.0,0.0,0.0,0.0,0.0,0.0,0.0,0.0,0.0,-0.02250866185309731,-0.001977968895400827,-0.0018150051048329563,0.0,0.0,0.0,0.0,0.0,0.0,0.0,0.0,0.0,-0.7555619885213274,1.360549392784004,18.60447472482823,0.0,0.0,0.0,0.0,0.0,0.0,0.0,0.0,0.0
339758000000,158,339758000000,base_link,-0.0004733227207930769,0.0005508913046029112,-0.00041090096543168345,0.9999996518223241,0.0,0.0,0.0,0.0,0.0,0.0,0.0,0.0,0.0,-0.024798989191136978,-0.00395822198756152,-0.0014500645980228557,0.0,0.0,0.0,0.0,0.0,0.0,0.0,0.0,0.0,-0.5545229598292126,0.6520498887407611,0.8658783028103532,0.0,0.0,0.0,0.0,0.0,0.0,0.0,0.0,0.0
339759000000,159,339759000000,base_link,-0.0004699494541068266,0.000560635486565865,-0.000411726204375622,0.9999996476583852,0.0,0.0,0.0,0.0,0.0,0.0,0.0,0.0,0.0,0.006740065138149337,0.019491422561334414,-0.0016370967177048049,0.0,0.0,0.0,0.0,0.0,0.0,0.0,0.0,0.0,0.808186561504897,-1.4259273714870917,18.99326701276595,0.0,0.0,0.0,0.0,0.0,0.0,0.0,0.0,0.0
339760000000,160,339760000000,base_link,-0.000465846256365854,0.0005708877344191354,-0.000412522431032675,0.9999996434497885,0.0,0.0,0.0,0.0,0.0,0.0,0.0,0.0,0.0,0.008198868635136346,0.020508639781588192,-0.0015782166200512542,0.0,0.0,0.0,0.0,0.0,0.0,0.0,0.0,0.0,0.5135267082732261,-0.5707797656567467,0.7360608980559267,0.0,0.0,0.0,0.0,0.0,0.0,0.0,0.0,0.0
339763000000,161,339762000000,base_link,-0.0004897607746340169,0.0005682003947180092,-0.00041414242539538764,0.999999632884306,0.0,0.0,0.0,0.0,0.0,0.0,0.0,0.0,0.0,-0.02505736048995972,-0.003686315392442223,-0.001451082712634298,0.0,0.0,0.0,0.0,0.0,0.0,0.0,0.0,0.0,-0.6550439781207262,1.0059806234472863,9.735263300242885,0.0,0.0,0.0,0.0,0.0,0.0,0.0,0.0,0.0
339764000000,162,339764000000,base_link,-0.0004825458053114536,0.0005884730480560331,-0.0004157634098616195,0.9999996239948317,0.0,0.0,0.0,0.0,0.0,0.0,0.0,0.0,0.0,0.00793790838407154,0.020784252046503564,-0.001577833873740735,0.0,0.0,0.0,0.0,0.0,0.0,0.0,0.0,0.0,0.660568894339269,-0.9983142836652343,9.864603064130113,0.0,0.0,0.0,0.0,0.0,0.0,0.0,0.0,0.0
339766000000,163,339766000000,base_link,-0.0005067248957988897,0.0005860637077872396,-0.00041738460428835273,0.9999996127745764,0.0,0.0,0.0,0.0,0.0,0.0,0.0,0.0,0.0,-0.025320922980259123,-0.00340893882029251,-0.0014521271000076277,0.0,0.0,0.0,0.0,0.0,0.0,0.0,0.0,0.0,-0.6550834041507227,1.0058910935975793,9.735333642639942,0.0,0.0,0.0,0.0,0.0,0.0,0.0,0.0,0.0
339767000000,164,339767000000,base_link,-0.0005036164788862957,0.0005960874686211318,-0.00041820877483239935,0.9999996080757196,0.0,0.0,0.0,0.0,0.0,0.0,0.0,0.0,0.0,0.0062100617148608045,0.020050456833577576,-0.0016340984857779264,0.0,0.0,0.0,0.0,0.0,0.0,0.0,0.0,0.0,0.8078615118328113,-1.4263733885578622,18.993207989985628,0.0,0.0,0.0,0.0,0.0,0.0,0.0,0.0,0.0
339768000000,165,339768000000,base_link,-0.000499776726667983,0.0006066181655580407,-0.0004190050823191245,0.9999996033361042,0.0,0.0,0.0,0.0,0.0,0.0,0.0,0.0,0.0,0.007671667240523552,0.021065424282172094,-0.001577431092029185,0.0,0.0,0.0,0.0,0.0,0.0,0.0,0.0,0.0,0.5134818073775032,-0.570485090129451,0.7358156490391483,0.0,0.0,0.0,0.0,0.0,0.0,0.0,0.0,0.0
339769000000,166,339769000000,base_link,-0.0005114297687476953,0.0006060504301846243,-0.000419909455544147,0.9999995974091774,0.0,0.0,0.0,0.0,0.0,0.0,0.0,0.0,0.0,-0.023306036676620942,-0.0011428859912078922,-0.0018220039662493546,0.0,0.0,0.0,0.0,0.0,0.0,0.0,0.0,0.0,-0.7560447911169053,1.3599761660542717,18.605020000983455,0.0,0.0,0.0,0.0,0.0,0.0,0.0,0.0,0.0
339770000000,167,339770000000,base_link,-0.0005242257694406056,0.0006044924866093997,-0.000420627506036851,0.9999995914242553,0.0,0.0,0.0,0.0,0.0,0.0,0.0,0.0,0.0,-0.025589842092178166,-0.0031259182594869026,-0.001453198196314635,0.0,0.0,0.0,0.0,0.0,0.0,0.0,0.0,0.0,-0.5542613253330756,0.6521005988506422,0.8657546886903376,0.0,0.0,0.0,0.0,0.0,0.0,0.0,0.0,0.0
339770000000,168,339771000000,base_link,-0.0005212538608227858,0.0006146603243785181,-0.00042145110764661676,0.9999995864329456,0.0,0.0,0.0,0.0,0.0,0.0,0.0,0.0,0.0,0.005936888104398133,0.02033854415855378,-0.0016325090036758143,0.0,0.0,0.0,0.0,0.0,0.0,0.0,0.0,0.0,0.8076906087008251,-1.4266065637695278,18.99317315311269,0.0,0.0,0.0,0.0,0.0,0.0,0.0,0.0,0.0
339770000000,169,339772000000,base_link,-0.0005175498730903683,0.0006253345060767553,-0.0004222474517798907,0.9999995814028992,0.0,0.0,0.0,0.0,0.0,0.0,0.0,0.0,0.0,0.007399978064843221,0.021352332298125748,-0.001577007854940345,0.0,0.0,0.0,0.0,0.0,0.0,0.0,0.0,0.0,0.513461644416702,-0.5703342765644235,0.7356915730064486,0.0,0.0,0.0,0.0,0.0,0.0,0.0,0.0,0.0
339773000000,170,339773000000,base_link,-0.0005293412367010723,0.0006249117646244599,-0.0004231528135751451,0.9999995751123286,0.0,0.0,0.0,0.0,0.0,0.0,0.0,0.0,0.0,-0.02358276242885974,-0.0008530576184906183,-0.0018244624787647386,0.0,0.0,0.0,0.0,0.0,0.0,0.0,0.0,0.0,-0.7562149951129665,1.3597721012681603,18.605205879284526,0.0,0.0,0.0,0.0,0.0,0.0,0.0,0.0,0.0
339774000000,171,339774000000,base_link,-0.0005422744172421409,0.0006234983283339236,-0.00042387113458420677,0.9999995687606832,0.0,0.0,0.0,0.0,0.0,0.0,0.0,0.0,0.0,-0.025864286467787427,-0.002837076142227009,-0.0014542965237725612,0.0,0.0,0.0,0.0,0.0,0.0,0.0,0.0,0.0,-0.554173249585552,0.652123528960231,0.8657171479320596,0.0,0.0,0.0,0.0,0.0,0.0,0.0,0.0,0.0
339775000000,172,339775000000,base_link,-0.0005394418529386645,0.0006338132209902176,-0.00042469414345214614,0.9999995634589911,0.0,0.0,0.0,0.0,0.0,0.0,0.0,0.0,0.0,0.005658038904825535,0.020632584031106384,-0.0016308575995149421,0.0,0.0,0.0,0.0,0.0,0.0,0.0,0.0,0.0,0.8075139653093211,-1.4268467028178502,18.993134683314857,0.0,0.0,0.0,0.0,0.0,0.0,0.0,0.0,0.0
339776000000,173,339776000000,base_link,-0.0005358764372047783,0.0006446338466740293,-0.0004254905216462672,0.9999995581206343,0.0,0.0,0.0,0.0,0.0,0.0,0.0,0.0,0.0,0.007122670355800919,0.021645155504928393,-0.001576563740918648,0.0,0.0,0.0,0.0,0.0,0.0,0.0,0.0,0.0,0.5134430550945377,-0.5701810868620836,0.7355665056803744,0.0,0.0,0.0,0.0,0.0,0.0,0.0,0.0,0.0
339776000000,174,339777000000,base_link,-0.0005478089970615826,0.0006443591176046971,-0.0004263968970777884,0.9999995514460577,0.0,0.0,0.0,0.0,0.0,0.0,0.0,0.0,0.0,-0.02386524090801797,-0.0005571954295184316,-0.0018269858939830787,0.0,0.0,0.0,0.0,0.0,0.0,0.0,0.0,0.0,-0.756389999634208,1.3595613159601485,18.60539382424468,0.0,0.0,0.0,0.0,0.0,0.0,0.0,0.0,0.0
339777000000,175,339778000000,base_link,-0.0005608822043349554,0.0006430931916618477,-0.00042711549393363953,0.9999995447072236,0.0,0.0,0.0,0.0,0.0,0.0,0.0,0.0,0.0,-0.026144428182934606,-0.0025422312517532045,-0.001455422637772924,0.0,0.0,0.0,0.0,0.0,0.0,0.0,0.0,0.0,-0.5540847410861799,0.6521495913276544,0.8656815274154255,0.0,0.0,0.0,0.0,0.0,0.0,0.0,0.0,0.0
339777000000,176,339779000000,base_link,-0.000558191907901922,0.000653558209164645,-0.0004279378857544222,0.9999995390762074,0.0,0.0,0.0,0.0,0.0,0.0,0.0,0.0,0.0,0.005373338917379757,0.020932760349701113,-0.001629142985108351,0.0,0.0,0.0,0.0,0.0,0.0,0.0,0.0,0.0,0.807331461676123,-1.4270939504864497,18.993092490092536,0.0,0.0,0.0,0.0,0.0,0.0,0.0,0.0,0.0
339780000000,177,339780000000,base_link,-0.0005547679586274144,0.0006645283296694849,-0.00042873429536878,0.9999995334106487,0.0,0.0,0.0,0.0,0.0,0.0,0.0,0.0,0.0,0.006839570096036115,0.021944077014613185,-0.0015760983169825027,0.0,0.0,0.0,0.0,0.0,0.0,0.0,0.0,0.0,0.5134260802879859,-0.5700254798467831,0.735440436553132,0.0,0.0,0.0,0.0,0.0,0.0,0.0,0.0,0.0
339781000000,178,339781000000,base_link,-0.0005668446777741047,0.0006644047243106316,-0.0004296417100173675,0.9999995263306252,0.0,0.0,0.0,0.0,0.0,0.0,0.0,0.0,0.0,-0.02415364888273463,-0.0002551137939267049,-0.0018295755567226066,0.0,0.0,0.0,0.0,0.0,0.0,0.0,0.0,0.0,-0.7565699080554311,1.3593436687903055,18.605583852807946,0.0,0.0,0.0,0.0,0.0,0.0,0.0,0.0,0.0
339781000000,179,339782000000,base_link,-0.0005800608464273711,0.0006632894043196997,-0.00043036058815654996,0.9999995191830569,0.0,0.0,0.0,0.0,0.0,0.0,0.0,0.0,0.0,-0.026430442885023206,-0.0022411986150016497,-0.0014565771122161616,0.0,0.0,0.0,0.0,0.0,0.0,0.0,0.0,0.0,-0.5539957979111068,0.652178858198314,0.8656478774234646,0.0,0.0,0.0,0.0,0.0,0.0,0.0,0.0,0.0
339783000000,180,339783000000,base_link,-0.0005775158307888653,0.0006739077105586285,-0.0004311823381117041,0.9999995132027085,0.0,0.0,0.0,0.0,0.0,0.0,0.0,0.0,0.0,0.0050826092763544065,0.021239260855178684,-0.0016273638325272947,0.0,0.0,0.0,0.0,0.0,0.0,0.0,0.0,0.0,0.807142974912961,-1.4273484569476582,18.99304648092084,0.0,0.0,0.0,0.0,0.0,0.0,0.0,0.0,0.0
339784000000,181,339784000000,base_link,-0.0005742363311982944,0.000685030470240847,-0.0004319787764488865,0.9999995071899924,0.0,0.0,0.0,0.0,0.0,0.0,0.0,0.0,0.0,0.006550499633454123,0.022249283755418188,-0.0015756111363197545,0.0,0.0,0.0,0.0,0.0,0.0,0.0,0.0,0.0,0.5134107620877686,-0.569867413016543,0.735313354560196,0.0,0.0,0.0,0.0,0.0,0.0,0.0,0.0,0.0
339785000000,182,339785000000,base_link,-0.0005864602628622384,0.0006850611947356136,-0.000432887256425898,0.9999994996819462,0.0,0.0,0.0,0.0,0.0,0.0,0.0,0.0,0.0,-0.02444816683467828,5.337681591803157e-05,-0.0018322328529959684,0.0,0.0,0.0,0.0,0.0,0.0,0.0,0.0,0.0,-0.7567548263327019,1.3591190134920212,18.605775980685827,0.0,0.0,0.0,0.0,0.0,0.0,0.0,0.0,0.0
339786000000,183,339786000000,base_link,-0.0005998224171464292,0.0006840996707812575,-0.00043360642139455587,0.9999994921029608,0.0,0.0,0.0,0.0,0.0,0.0,0.0,0.0,0.0,-0.02672250990508042,-0.0019337893835393255,-0.0014577605389424586,0.0,0.0,0.0,0.0,0.0,0.0,0.0,0.0,0.0,-0.553906418596219,0.6522114045525679,0.8656162506375029,0.0,0.0,0.0,0.0,0.0,0.0,0.0,0.0,0.0
339787000000,184,339787000000,base_link,-0.0005974257864832878,0.000694874525558234,-0.00043442750413655236,0.9999994857521514,0.0,0.0,0.0,0.0,0.0,0.0,0.0,0.0,0.0,0.004785667334341049,0.0215522772487706,-0.001625518772790958,0.0,0.0,0.0,0.0,0.0,0.0,0.0,0.0,0.0,0.8069483787422179,-1.4276103772640572,18.992996560001117,0.0,0.0,0.0,0.0,0.0,0.0,0.0,0.0,0.0
339788000000,185,339788000000,base_link,-0.0005942938104366007,0.0007061531642637439,-0.0004352239684404894,0.9999994793712009,0.0,0.0,0.0,0.0,0.0,0.0,0.0,0.0,0.0,0.006255277568742404,0.022560966589656686,-0.00157510173815742,0.0,0.0,0.0,0.0,0.0,0.0,0.0,0.0,0.0,0.513397144519116,-0.5697068432199263,0.735185249044223,0.0,0.0,0.0,0.0,0.0,0.0,0.0,0.0,0.0
