%time,field.header.seq,field.header.stamp,field.header.frame_id,field.orientation.x,field.orientation.y,field.orientation.z,field.orientation.w,field.orientation_covariance0,field.orientation_covariance1,field.orientation_covariance2,field.orientation_covariance3,field.orientation_covariance4,field.orientation_covariance5,field.orientation_covariance6,field.orientation_covariance7,field.orientation_covariance8,field.angular_velocity.x,field.angular_velocity.y,field.angular_velocity.z,field.angular_velocity_covariance0,field.angular_velocity_covariance1,field.angular_velocity_covariance2,field.angular_velocity_covariance3,field.angular_velocity_covariance4,field.angular_velocity_covariance5,field.angular_velocity_covariance6,field.angular_velocity_covariance7,field.angular_velocity_covariance8,field.linear_acceleration.x,field.linear_acceleration.y,field.linear_acceleration.z,field.linear_acceleration_covariance0,field.linear_acceleration_covariance1,field.linear_acceleration_covariance2,field.linear_acceleration_covariance3,field.linear_acceleration_covariance4,field.linear_acceleration_covariance5,field.linear_acceleration_covariance6,field.linear_acceleration_covariance7,field.linear_acceleration_covariance8
160367000000,0,160362000000,base_link,-0.004095399272718168,-0.0050624227578146535,-0.707115073978542,0.7070685056859338,0.0,0.0,0.0,0.0,0.0,0.0,0.0,0.0,0.0,-0.10375384928814628,-0.036037572528902155,-0.4868412585187653,0.0,0.0,0.0,0.0,0.0,0.0,0.0,0.0,0.0,-1.2169935339810412,-9.890612373704974,10.382392645349372,0.0,0.0,0.0,0.0,0.0,0.0,0.0,0.0,0.0
160367000000,1,160363000000,base_link,-0.004069081014148822,-0.00511490878802156,-0.7069427414301171,0.7072405818581545,0.0,0.0,0.0,0.0,0.0,0.0,0.0,0.0,0.0,0.11459923507011038,-0.03667166086206994,0.48636078995026716,0.0,0.0,0.0,0.0,0.0,0.0,0.0,0.0,0.0,1.3327524752232367,8.712496651948202,9.788420451944987,0.0,0.0,0.0,0.0,0.0,0.0,0.0,0.0,0.0
160367000000,2,160364000000,base_link,-0.004069081014148822,-0.00511490878802156,-0.7069427414301171,0.7072405818581545,0.0,0.0,0.0,0.0,0.0,0.0,0.0,0.0,0.0,0.11459923507011038,-0.03667166086206994,0.48636078995026716,0.0,0.0,0.0,0.0,0.0,0.0,0.0,0.0,0.0,1.3327524752232367,8.712496651948202,9.788420451944987,0.0,0.0,0.0,0.0,0.0,0.0,0.0,0.0,0.0
160367000000,3,160366000000,base_link,-0.004054866286945169,-0.0051537125998264415,-0.7069426096397072,0.7072405135324431,0.0,0.0,0.0,0.0,0.0,0.0,0.0,0.0,0.0,0.1578915354161393,-0.018167855795253998,0.4862046272501284,0.0,0.0,0.0,0.0,0.0,0.0,0.0,0.0,0.0,0.21423800775772922,-1.1406257852614816,10.457040989667599,0.0,0.0,0.0,0.0,0.0,0.0,0.0,0.0,0.0
160369000000,4,160368000000,base_link,-0.004041738919775611,-0.00516478270930863,-0.706942011044147,0.7072411062621622,0.0,0.0,0.0,0.0,0.0,0.0,0.0,0.0,0.0,0.12839235063993532,-0.0054670794074695925,0.48750903898586295,0.0,0.0,0.0,0.0,0.0,0.0,0.0,0.0,0.0,0.2060126008980553,0.11731350068022367,10.854702387199234,0.0,0.0,0.0,0.0,0.0,0.0,0.0,0.0,0.0
160371000000,5,160370000000,base_link,-0.0040431265613742225,-0.005153265123214138,-0.7069419302844959,0.7072412630720929,0.0,0.0,0.0,0.0,0.0,0.0,0.0,0.0,0.0,0.09173992565816783,-0.0020578727936159114,0.48704791581987383,0.0,0.0,0.0,0.0,0.0,0.0,0.0,0.0,0.0,0.1569489181434884,0.9812412543949397,10.304369177516085,0.0,0.0,0.0,0.0,0.0,0.0,0.0,0.0,0.0
160373000000,6,160372000000,base_link,-0.004056465574697975,-0.005131006665933732,-0.7069419692286691,0.7072413095971747,0.0,0.0,0.0,0.0,0.0,0.0,0.0,0.0,0.0,0.07079417961835142,-0.0015726750055324243,0.48688899801190777,0.0,0.0,0.0,0.0,0.0,0.0,0.0,0.0,0.0,0.1325475718707453,0.8359820992007295,9.689566936254852,0.0,0.0,0.0,0.0,0.0,0.0,0.0,0.0,0.0
160375000000,7,160374000000,base_link,-0.004065584790645347,-0.005113375223538565,-0.7069421033693326,0.7072412508457616,0.0,0.0,0.0,0.0,0.0,0.0,0.0,0.0,0.0,0.07399993296451284,-0.001196781882800313,0.4866896607229777,0.0,0.0,0.0,0.0,0.0,0.0,0.0,0.0,0.0,0.12277385998979197,-0.12823579797407408,9.041402160613371,0.0,0.0,0.0,0.0,0.0,0.0,0.0,0.0,0.0
160377000000,8,160376000000,base_link,-0.004068042673430546,-0.005110344015687239,-0.7069421914370838,0.7072411705910382,0.0,0.0,0.0,0.0,0.0,0.0,0.0,0.0,0.0,0.09036380055121722,-0.006468366717125952,0.48659668000352735,0.0,0.0,0.0,0.0,0.0,0.0,0.0,0.0,0.0,0.09352670110192784,-0.580038618763993,9.173284628042296,0.0,0.0,0.0,0.0,0.0,0.0,0.0,0.0,0.0
160379000000,9,160378000000,base_link,-0.00406190754408586,-0.005118539608038967,-0.7069421930356908,0.7072411449889437,0.0,0.0,0.0,0.0,0.0,0.0,0.0,0.0,0.0,0.10278150830383131,-0.0092281917540432,0.48663502014523397,0.0,0.0,0.0,0.0,0.0,0.0,0.0,0.0,0.0,0.10711628371804252,-0.7452759400032398,9.20287156336892,0.0,0.0,0.0,0.0,0.0,0.0,0.0,0.0,0.0
160381000000,10,160380000000,base_link,-0.004057024317904597,-0.005141318078011623,-0.7069421114600923,0.7072410893369043,0.0,0.0,0.0,0.0,0.0,0.0,0.0,0.0,0.0,0.09300428802878336,-0.021355727403178953,0.48670835252582445,0.0,0.0,0.0,0.0,0.0,0.0,0.0,0.0,0.0,0.06300020915958435,-1.0408619503346128,9.806859156100858,0.0,0.0,0.0,0.0,0.0,0.0,0.0,0.0,0.0
160383000000,11,160382000000,base_link,-0.004061051731897428,-0.005161108810385104,-0.7069419324477922,0.707241101012702,0.0,0.0,0.0,0.0,0.0,0.0,0.0,0.0,0.0,0.07334957455209504,-0.021979860052151124,0.4867125850609302,0.0,0.0,0.0,0.0,0.0,0.0,0.0,0.0,0.0,0.12092901994434284,0.07616922859537871,10.239600493379658,0.0,0.0,0.0,0.0,0.0,0.0,0.0,0.0,0.0
160384000000,12,160383000000,base_link,-0.004082909267948264,-0.005141100405889825,-0.7071140390132423,0.7070690452628408,0.0,0.0,0.0,0.0,0.0,0.0,0.0,0.0,0.0,0.05737523484982818,-0.006037373438942097,0.48655440974239705,0.0,0.0,0.0,0.0,0.0,0.0,0.0,0.0,0.0,-0.9075115199019119,-5.936332322954019,10.07788831935931,0.0,0.0,0.0,0.0,0.0,0.0,0.0,0.0,0.0
160385000000,13,160384000000,base_link,-0.0040660102879675804,-0.00516252680918224,-0.7069418442074425,0.7072411503764914,0.0,0.0,0.0,0.0,0.0,0.0,0.0,0.0,0.0,0.05737523484982818,-0.006037373438942097,0.48655440974239705,0.0,0.0,0.0,0.0,0.0,0.0,0.0,0.0,0.0,1.3319627081642607,7.284385956413441,10.831765290790553,0.0,0.0,0.0,0.0,0.0,0.0,0.0,0.0,0.0
160387000000,14,160386000000,base_link,-0.004064676301483449,-0.005145304018762388,-0.7069416260732055,0.7072415015948164,0.0,0.0,0.0,0.0,0.0,0.0,0.0,0.0,0.0,0.04971190350732316,0.010457683999093765,0.4871210164429201,0.0,0.0,0.0,0.0,0.0,0.0,0.0,0.0,0.0,0.22237046817152445,0.46865130460214127,10.192511849128628,0.0,0.0,0.0,0.0,0.0,0.0,0.0,0.0,0.0
160389000000,15,160388000000,base_link,-0.004059988774636919,-0.005125096753470653,-0.7069417532425767,0.7072415481267549,0.0,0.0,0.0,0.0,0.0,0.0,0.0,0.0,0.0,0.047439881759542876,0.01026329320625878,0.48663035803272714,0.0,0.0,0.0,0.0,0.0,0.0,0.0,0.0,0.0,0.13461557356733825,0.03689718685088741,9.697894807510071,0.0,0.0,0.0,0.0,0.0,0.0,0.0,0.0,0.0
160391000000,16,160390000000,base_link,-0.004064407860518137,-0.005121502288074256,-0.7069417850060256,0.7072415170332912,0.0,0.0,0.0,0.0,0.0,0.0,0.0,0.0,0.0,0.053533737792325745,-0.009527875316369634,0.48667833045382536,0.0,0.0,0.0,0.0,0.0,0.0,0.0,0.0,0.0,0.02740141248842247,-0.13251088114494478,9.579849672848166,0.0,0.0,0.0,0.0,0.0,0.0,0.0,0.0,0.0
160393000000,17,160392000000,base_link,-0.004072877084083533,-0.005134448385012376,-0.7069418662060745,0.707241293277699,0.0,0.0,0.0,0.0,0.0,0.0,0.0,0.0,0.0,0.0613335662401954,-0.020940790975236243,0.4865927323860993,0.0,0.0,0.0,0.0,0.0,0.0,0.0,0.0,0.0,0.05768304755100778,-0.46680344840431165,9.213256849373881,0.0,0.0,0.0,0.0,0.0,0.0,0.0,0.0,0.0
160394000000,18,160393000000,base_link,-0.0040716211497775,-0.005144957263583548,-0.706941813692385,0.7072412766300409,0.0,0.0,0.0,0.0,0.0,0.0,0.0,0.0,0.0,0.07163497906627028,-0.009169045227892185,0.4864846249152169,0.0,0.0,0.0,0.0,0.0,0.0,0.0,0.0,0.0,1.2879475895001757,5.720674206027319,9.25623569488391,0.0,0.0,0.0,0.0,0.0,0.0,0.0,0.0,0.0
160395000000,19,160394000000,base_link,-0.0040861061755107205,-0.005119344091562983,-0.7071139444854047,0.7070692791846402,0.0,0.0,0.0,0.0,0.0,0.0,0.0,0.0,0.0,-0.059874690567472105,0.015381108435033385,-0.48630276627466007,0.0,0.0,0.0,0.0,0.0,0.0,0.0,0.0,0.0,-0.8423175816435748,-6.4466077786657685,9.2730638885794,0.0,0.0,0.0,0.0,0.0,0.0,0.0,0.0,0.0
160396000000,20,160395000000,base_link,-0.004060387170474834,-0.00514105235194779,-0.7069416100331996,0.7072415731844446,0.0,0.0,0.0,0.0,0.0,0.0,0.0,0.0,0.0,0.07024316795937482,0.006029757136510133,0.48692705477133225,0.0,0.0,0.0,0.0,0.0,0.0,0.0,0.0,0.0,1.257625358089193,6.593843831928364,9.645016391851131,0.0,0.0,0.0,0.0,0.0,0.0,0.0,0.0,0.0
160397000000,21,160396000000,base_link,-0.004060387170474834,-0.00514105235194779,-0.7069416100331996,0.7072415731844446,0.0,0.0,0.0,0.0,0.0,0.0,0.0,0.0,0.0,0.07024316795937482,0.006029757136510133,0.48692705477133225,0.0,0.0,0.0,0.0,0.0,0.0,0.0,0.0,0.0,1.257625358089193,6.593843831928364,9.645016391851131,0.0,0.0,0.0,0.0,0.0,0.0,0.0,0.0,0.0
160399000000,22,160398000000,base_link,-0.004052967875650091,-0.005127860906270249,-0.7069416112167742,0.7072417103255124,0.0,0.0,0.0,0.0,0.0,0.0,0.0,0.0,0.0,0.061365256744582666,0.005130629988486148,0.486705167517839,0.0,0.0,0.0,0.0,0.0,0.0,0.0,0.0,0.0,0.13664775625688508,0.44061087593069026,10.130438916089577,0.0,0.0,0.0,0.0,0.0,0.0,0.0,0.0,0.0
160401000000,23,160400000000,base_link,-0.0040569829648096105,-0.005119049093713855,-0.7069415445161167,0.7072418178125263,0.0,0.0,0.0,0.0,0.0,0.0,0.0,0.0,0.0,0.06093874533284896,-0.008613741937925048,0.4867550817742752,0.0,0.0,0.0,0.0,0.0,0.0,0.0,0.0,0.0,0.07653671799581405,0.46763893954254165,10.606397422548088,0.0,0.0,0.0,0.0,0.0,0.0,0.0,0.0,0.0
160402000000,24,160401000000,base_link,-0.004086296933691725,-0.005093363496098537,-0.7071139365948728,0.7070694736014054,0.0,0.0,0.0,0.0,0.0,0.0,0.0,0.0,0.0,-0.08094392593158509,-0.005480361045637046,-0.48701182339209703,0.0,0.0,0.0,0.0,0.0,0.0,0.0,0.0,0.0,-1.049593444043213,-6.869389698553274,10.82568852600556,0.0,0.0,0.0,0.0,0.0,0.0,0.0,0.0,0.0
160403000000,25,160402000000,base_link,-0.004071048304409977,-0.005124839968590491,-0.7069416518350462,0.7072415877772855,0.0,0.0,0.0,0.0,0.0,0.0,0.0,0.0,0.0,-0.0691367355753408,-0.010032241007635011,-0.4866471585495806,0.0,0.0,0.0,0.0,0.0,0.0,0.0,0.0,0.0,-0.9664865627834412,-7.578828766394311,10.073328454298466,0.0,0.0,0.0,0.0,0.0,0.0,0.0,0.0,0.0
160404000000,26,160403000000,base_link,-0.00409779547803369,-0.005104940186403039,-0.707113875761873,0.7070693844050497,0.0,0.0,0.0,0.0,0.0,0.0,0.0,0.0,0.0,-0.0691367355753408,-0.010032241007635011,-0.4866471585495806,0.0,0.0,0.0,0.0,0.0,0.0,0.0,0.0,0.0,-0.9664865627834412,-7.578828766394311,10.073328454298466,0.0,0.0,0.0,0.0,0.0,0.0,0.0,0.0,0.0
160406000000,27,160405000000,base_link,-0.00409254172105492,-0.005115717989609327,-0.7071137872871609,0.7070694254174199,0.0,0.0,0.0,0.0,0.0,0.0,0.0,0.0,0.0,-0.058905766434615286,0.007970370594108662,-0.4864491055279942,0.0,0.0,0.0,0.0,0.0,0.0,0.0,0.0,0.0,0.20798544138114508,-0.59823594958945,9.104948094308797,0.0,0.0,0.0,0.0,0.0,0.0,0.0,0.0,0.0
160408000000,28,160407000000,base_link,-0.004076038580191801,-0.005114092414571492,-0.7071136548016631,0.7070696649986494,0.0,0.0,0.0,0.0,0.0,0.0,0.0,0.0,0.0,-0.059456954028074695,0.022175608351416624,-0.4865789894375605,0.0,0.0,0.0,0.0,0.0,0.0,0.0,0.0,0.0,0.19281016470104506,-0.008895964596828846,8.684225439765184,0.0,0.0,0.0,0.0,0.0,0.0,0.0,0.0,0.0
160409000000,29,160408000000,base_link,-0.004052693450015503,-0.005128366980054564,-0.7069414388358137,0.707241880536403,0.0,0.0,0.0,0.0,0.0,0.0,0.0,0.0,0.0,0.05636611985913792,0.013186631078100638,0.4867341561427187,0.0,0.0,0.0,0.0,0.0,0.0,0.0,0.0,0.0,1.2663963651155814,7.165783129703823,9.466352552175957,0.0,0.0,0.0,0.0,0.0,0.0,0.0,0.0,0.0
160410000000,30,160409000000,base_link,-0.004067478769394914,-0.005097321256126042,-0.7071136485032982,0.7070698416937513,0.0,0.0,0.0,0.0,0.0,0.0,0.0,0.0,0.0,-0.06796936383207727,0.022640232463332282,-0.48642728008348535,0.0,0.0,0.0,0.0,0.0,0.0,0.0,0.0,0.0,-0.9910701632598384,-5.422709028421295,8.97336070628233,0.0,0.0,0.0,0.0,0.0,0.0,0.0,0.0,0.0
160411000000,31,160410000000,base_link,-0.004053362453696403,-0.005109352956534875,-0.7069414378859262,0.7072420152712676,0.0,0.0,0.0,0.0,0.0,0.0,0.0,0.0,0.0,0.040134252980274725,0.003303496098539485,0.48678066742614345,0.0,0.0,0.0,0.0,0.0,0.0,0.0,0.0,0.0,1.1746834581057433,6.65683508217233,10.289494850331623,0.0,0.0,0.0,0.0,0.0,0.0,0.0,0.0,0.0
160412000000,32,160411000000,base_link,-0.004079528451422755,-0.005084204207175205,-0.707113694830027,0.7070698203848198,0.0,0.0,0.0,0.0,0.0,0.0,0.0,0.0,0.0,0.04563101476610207,-0.019095980993762012,0.48720211121141943,0.0,0.0,0.0,0.0,0.0,0.0,0.0,0.0,0.0,1.1823882285168077,5.97496990787731,10.930279468168461,0.0,0.0,0.0,0.0,0.0,0.0,0.0,0.0,0.0
160413000000,33,160412000000,base_link,-0.0040713862050193814,-0.005106094530325466,-0.7069412757337061,0.7072420973591835,0.0,0.0,0.0,0.0,0.0,0.0,0.0,0.0,0.0,0.04563101476610207,-0.019095980993762012,0.48720211121141943,0.0,0.0,0.0,0.0,0.0,0.0,0.0,0.0,0.0,1.1823882285168077,5.97496990787731,10.930279468168461,0.0,0.0,0.0,0.0,0.0,0.0,0.0,0.0,0.0
160414000000,34,160413000000,base_link,-0.004097497135127678,-0.005090983851518045,-0.7071135141674507,0.7070698483759646,0.0,0.0,0.0,0.0,0.0,0.0,0.0,0.0,0.0,-0.06145974062269152,-0.015900513433004478,-0.486778696225706,0.0,0.0,0.0,0.0,0.0,0.0,0.0,0.0,0.0,-1.055792107535679,-6.17338961078223,10.660652406067003,0.0,0.0,0.0,0.0,0.0,0.0,0.0,0.0,0.0
160415000000,35,160414000000,base_link,-0.004083949908499393,-0.005119351494821504,-0.7069413225710274,0.7072418822686791,0.0,0.0,0.0,0.0,0.0,0.0,0.0,0.0,0.0,0.06243902676494254,-0.020616422669557044,0.4864275573672061,0.0,0.0,0.0,0.0,0.0,0.0,0.0,0.0,0.0,1.3047393302486947,5.027563971523485,10.591771497648685,0.0,0.0,0.0,0.0,0.0,0.0,0.0,0.0,0.0
160416000000,36,160415000000,base_link,-0.00410060500064517,-0.005106667851051161,-0.707113488757253,0.7070697426701513,0.0,0.0,0.0,0.0,0.0,0.0,0.0,0.0,0.0,-0.044660320015432776,-0.005963787789000297,-0.48663735537416253,0.0,0.0,0.0,0.0,0.0,0.0,0.0,0.0,0.0,-0.9476309497921575,-6.634949196088384,9.987920943151805,0.0,0.0,0.0,0.0,0.0,0.0,0.0,0.0,0.0
160417000000,37,160416000000,base_link,-0.0040832737134102555,-0.005114270449305481,-0.7071134543923023,0.707069822387392,0.0,0.0,0.0,0.0,0.0,0.0,0.0,0.0,0.0,-0.03771747758753379,0.01718278195085405,-0.48641715568540034,0.0,0.0,0.0,0.0,0.0,0.0,0.0,0.0,0.0,-0.8856900858877886,-6.267643962871372,8.705332835675733,0.0,0.0,0.0,0.0,0.0,0.0,0.0,0.0,0.0
160418000000,38,160417000000,base_link,-0.004057792129762633,-0.005131155375980136,-0.7069411231472139,0.7072421466307667,0.0,0.0,0.0,0.0,0.0,0.0,0.0,0.0,0.0,0.0630836285015641,0.012514371725694421,0.4870075114444213,0.0,0.0,0.0,0.0,0.0,0.0,0.0,0.0,0.0,1.3016311207803852,5.582724850058878,9.156527722513545,0.0,0.0,0.0,0.0,0.0,0.0,0.0,0.0,0.0
160419000000,39,160418000000,base_link,-0.004057792129762633,-0.005131155375980136,-0.7069411231472139,0.7072421466307667,0.0,0.0,0.0,0.0,0.0,0.0,0.0,0.0,0.0,0.0630836285015641,0.012514371725694421,0.4870075114444213,0.0,0.0,0.0,0.0,0.0,0.0,0.0,0.0,0.0,1.3016311207803852,5.582724850058878,9.156527722513545,0.0,0.0,0.0,0.0,0.0,0.0,0.0,0.0,0.0
160421000000,40,160420000000,base_link,-0.004068125771632252,-0.00509224425911002,-0.7071132990656801,0.7070702240128356,0.0,0.0,0.0,0.0,0.0,0.0,0.0,0.0,0.0,-0.06594049182259398,0.006774698302885164,-0.4864642622526216,0.0,0.0,0.0,0.0,0.0,0.0,0.0,0.0,0.0,-1.1069744338644685,-4.121221690302073,9.41395196855588,0.0,0.0,0.0,0.0,0.0,0.0,0.0,0.0,0.0
160422000000,41,160421000000,base_link,-0.004068125771632252,-0.00509224425911002,-0.7071132990656801,0.7070702240128356,0.0,0.0,0.0,0.0,0.0,0.0,0.0,0.0,0.0,-0.06594049182259398,0.006774698302885164,-0.4864642622526216,0.0,0.0,0.0,0.0,0.0,0.0,0.0,0.0,0.0,-1.1069744338644685,-4.121221690302073,9.41395196855588,0.0,0.0,0.0,0.0,0.0,0.0,0.0,0.0,0.0
160424000000,42,160423000000,base_link,-0.0040893146717366526,-0.005090724670987084,-0.707113395494449,0.7070700162926941,0.0,0.0,0.0,0.0,0.0,0.0,0.0,0.0,0.0,-0.06676218610800524,-0.014342500766906213,-0.48694349936203174,0.0,0.0,0.0,0.0,0.0,0.0,0.0,0.0,0.0,0.021193374179105773,0.47021562057251576,10.264200960661704,0.0,0.0,0.0,0.0,0.0,0.0,0.0,0.0,0.0
160426000000,43,160425000000,base_link,-0.004103030159980213,-0.00510177428557035,-0.7071133835130187,0.7070698691780155,0.0,0.0,0.0,0.0,0.0,0.0,0.0,0.0,0.0,-0.050847421654138955,-0.011189378917012327,-0.48666314566061486,0.0,0.0,0.0,0.0,0.0,0.0,0.0,0.0,0.0,0.1474421648893936,-0.49954171309252393,10.557319913403449,0.0,0.0,0.0,0.0,0.0,0.0,0.0,0.0,0.0
160428000000,44,160427000000,base_link,-0.004094081776368293,-0.005111200577397247,-0.707113391329955,0.7070698451531615,0.0,0.0,0.0,0.0,0.0,0.0,0.0,0.0,0.0,-0.039747756317576106,0.008726122507721973,-0.48653309429010994,0.0,0.0,0.0,0.0,0.0,0.0,0.0,0.0,0.0,0.23300337659126902,-0.8636369069058154,10.20913700054215,0.0,0.0,0.0,0.0,0.0,0.0,0.0,0.0,0.0
160430000000,45,160429000000,base_link,-0.004072455962938602,-0.00510764171363577,-0.707113284341571,0.7070701027523593,0.0,0.0,0.0,0.0,0.0,0.0,0.0,0.0,0.0,-0.042581163787492354,0.026788035636377237,-0.48655469617985936,0.0,0.0,0.0,0.0,0.0,0.0,0.0,0.0,0.0,0.22259465537764345,-0.1371936752768086,9.373852780230544,0.0,0.0,0.0,0.0,0.0,0.0,0.0,0.0,0.0
160431000000,46,160430000000,base_link,-0.004050523509521713,-0.005119889721883899,-0.7069410946235245,0.7072422984529612,0.0,0.0,0.0,0.0,0.0,0.0,0.0,0.0,0.0,0.0514985099918576,0.014053615657242224,0.48670034747634494,0.0,0.0,0.0,0.0,0.0,0.0,0.0,0.0,0.0,1.2293430291807665,5.750317294083204,9.605094790447486,0.0,0.0,0.0,0.0,0.0,0.0,0.0,0.0,0.0
160433000000,47,160432000000,base_link,-0.004052083450741982,-0.005108371591231055,-0.7069410441697868,0.7072424232379768,0.0,0.0,0.0,0.0,0.0,0.0,0.0,0.0,0.0,0.03650272484513573,-0.003830541135833478,0.4868100032334298,0.0,0.0,0.0,0.0,0.0,0.0,0.0,0.0,0.0,0.04115180455612705,0.684742855427488,9.427630831019231,0.0,0.0,0.0,0.0,0.0,0.0,0.0,0.0,0.0
160435000000,48,160434000000,base_link,-0.004073686144844459,-0.005110304840092226,-0.7069411311464374,0.707242198231292,0.0,0.0,0.0,0.0,0.0,0.0,0.0,0.0,0.0,0.03892602918325366,-0.024499196982678936,0.4866313968603492,0.0,0.0,0.0,0.0,0.0,0.0,0.0,0.0,0.0,0.01792192461295311,0.5117569353560836,9.91126443279304,0.0,0.0,0.0,0.0,0.0,0.0,0.0,0.0,0.0
160436000000,49,160435000000,base_link,-0.004098818676740333,-0.005097251679354839,-0.7071133080011848,0.7070700017384375,0.0,0.0,0.0,0.0,0.0,0.0,0.0,0.0,0.0,-0.05716790972421464,-0.017428113596701565,-0.48664383721274185,0.0,0.0,0.0,0.0,0.0,0.0,0.0,0.0,0.0,-1.030831263652801,-5.380143837045325,9.847506384505506,0.0,0.0,0.0,0.0,0.0,0.0,0.0,0.0,0.0
160438000000,50,160437000000,base_link,-0.004100800649927314,-0.0051087597928481535,-0.7071133070642406,0.7070699081279599,0.0,0.0,0.0,0.0,0.0,0.0,0.0,0.0,0.0,-0.043050398723333744,-0.000741611038286176,-0.4865776257991685,0.0,0.0,0.0,0.0,0.0,0.0,0.0,0.0,0.0,0.20519911580572353,-0.7707850471119513,9.861712456954912,0.0,0.0,0.0,0.0,0.0,0.0,0.0,0.0,0.0
160440000000,51,160439000000,base_link,-0.004082910714038561,-0.0051101630020567125,-0.707113526415362,0.7070697821535189,0.0,0.0,0.0,0.0,0.0,0.0,0.0,0.0,0.0,-0.04130659206695688,0.020552617849989428,-0.4869691804543914,0.0,0.0,0.0,0.0,0.0,0.0,0.0,0.0,0.0,0.24007301293870026,-0.5071187531417904,9.628724217887088,0.0,0.0,0.0,0.0,0.0,0.0,0.0,0.0,0.0
160442000000,52,160441000000,base_link,-0.004066091374919077,-0.005098670977845384,-0.7071135052897519,0.7070699831643474,0.0,0.0,0.0,0.0,0.0,0.0,0.0,0.0,0.0,-0.05138133654743339,0.02553866200965322,-0.48643550520608664,0.0,0.0,0.0,0.0,0.0,0.0,0.0,0.0,0.0,0.1598773483045774,0.3381957306804028,9.551195438767133,0.0,0.0,0.0,0.0,0.0,0.0,0.0,0.0,0.0
160444000000,53,160443000000,base_link,-0.004064575453495146,-0.005106961303746459,-0.7069412640785278,0.7072421419257185,0.0,0.0,0.0,0.0,0.0,0.0,0.0,0.0,0.0,0.041382646730673635,-0.017684318319762568,0.4867420046915707,0.0,0.0,0.0,0.0,0.0,0.0,0.0,0.0,0.0,1.1516927715497038,5.924407552779829,10.493492599984743,0.0,0.0,0.0,0.0,0.0,0.0,0.0,0.0,0.0
160445000000,54,160444000000,base_link,-0.004064575453495146,-0.005106961303746459,-0.7069412640785278,0.7072421419257185,0.0,0.0,0.0,0.0,0.0,0.0,0.0,0.0,0.0,0.041382646730673635,-0.017684318319762568,0.4867420046915707,0.0,0.0,0.0,0.0,0.0,0.0,0.0,0.0,0.0,1.1516927715497038,5.924407552779829,10.493492599984743,0.0,0.0,0.0,0.0,0.0,0.0,0.0,0.0,0.0
160446000000,55,160445000000,base_link,-0.0040920598175405165,-0.005091119144254425,-0.7071136058512894,0.7070697872008789,0.0,0.0,0.0,0.0,0.0,0.0,0.0,0.0,0.0,-0.06443653855111255,-0.016810602547499276,-0.4870545713586285,0.0,0.0,0.0,0.0,0.0,0.0,0.0,0.0,0.0,-1.0865902599394275,-5.439962928855315,10.174698404202227,0.0,0.0,0.0,0.0,0.0,0.0,0.0,0.0,0.0
160447000000,56,160446000000,base_link,-0.00408273416258867,-0.00511727973474677,-0.7069413934290044,0.7072418334534032,0.0,0.0,0.0,0.0,0.0,0.0,0.0,0.0,0.0,0.05334635330762309,-0.023463723136118313,0.48653585070780747,0.0,0.0,0.0,0.0,0.0,0.0,0.0,0.0,0.0,1.2827741792402396,5.139536939307668,10.11187203204649,0.0,0.0,0.0,0.0,0.0,0.0,0.0,0.0,0.0
160448000000,57,160447000000,base_link,-0.004101723972563108,-0.005104668761538168,-0.7071135719974109,0.707069667369737,0.0,0.0,0.0,0.0,0.0,0.0,0.0,0.0,0.0,-0.04785920392338973,-0.009367475476627057,-0.4866691226898012,0.0,0.0,0.0,0.0,0.0,0.0,0.0,0.0,0.0,-0.9563346759543253,-6.183806834568366,9.643158456601101,0.0,0.0,0.0,0.0,0.0,0.0,0.0,0.0,0.0
160449000000,58,160448000000,base_link,-0.004081756969819838,-0.005129338927053793,-0.7069414250201975,0.7072417201584075,0.0,0.0,0.0,0.0,0.0,0.0,0.0,0.0,0.0,0.06629427638168758,-0.0063048281514976705,0.48635532013278693,0.0,0.0,0.0,0.0,0.0,0.0,0.0,0.0,0.0,1.3753398576490665,4.783805352557253,9.5210888013005,0.0,0.0,0.0,0.0,0.0,0.0,0.0,0.0,0.0
160450000000,59,160449000000,base_link,-0.004090066017744318,-0.005111060913222236,-0.7071135700808541,0.7070696906414679,0.0,0.0,0.0,0.0,0.0,0.0,0.0,0.0,0.0,-0.040766328279706325,0.013746441142518627,-0.4864914831711395,0.0,0.0,0.0,0.0,0.0,0.0,0.0,0.0,0.0,-0.8927179242617239,-6.07824086402125,8.922500755042137,0.0,0.0,0.0,0.0,0.0,0.0,0.0,0.0,0.0
160451000000,60,160450000000,base_link,-0.004064224442239669,-0.005128498009863947,-0.7069412761084324,0.7072419760746861,0.0,0.0,0.0,0.0,0.0,0.0,0.0,0.0,0.0,0.06437413442156888,0.012239107980131062,0.4868916482743824,0.0,0.0,0.0,0.0,0.0,0.0,0.0,0.0,0.0,1.335871655452993,5.296453909529955,9.30360363178659,0.0,0.0,0.0,0.0,0.0,0.0,0.0,0.0,0.0
160452000000,61,160451000000,base_link,-0.0040695281400255495,-0.0051035309918879175,-0.7071134785981662,0.7070699550234992,0.0,0.0,0.0,0.0,0.0,0.0,0.0,0.0,0.0,-0.04596697245241213,0.02745196121881741,-0.4865378925701396,0.0,0.0,0.0,0.0,0.0,0.0,0.0,0.0,0.0,-0.942647236752252,-5.170678304225901,8.651330755729173,0.0,0.0,0.0,0.0,0.0,0.0,0.0,0.0,0.0
160453000000,62,160452000000,base_link,-0.004049870306739303,-0.005114695335290743,-0.7069412882136855,0.7072421462702154,0.0,0.0,0.0,0.0,0.0,0.0,0.0,0.0,0.0,0.04674687556813896,0.012368794046092271,0.48672729633323875,0.0,0.0,0.0,0.0,0.0,0.0,0.0,0.0,0.0,1.206673115413031,5.789499766307751,9.761146289648455,0.0,0.0,0.0,0.0,0.0,0.0,0.0,0.0,0.0
160454000000,63,160453000000,base_link,-0.004066722241459046,-0.005089632751366924,-0.7071134752490166,0.707070074695518,0.0,0.0,0.0,0.0,0.0,0.0,0.0,0.0,0.0,-0.06242745314304518,0.011258457712390889,-0.48646948740050283,0.0,0.0,0.0,0.0,0.0,0.0,0.0,0.0,0.0,-1.0968950772457422,-4.338303039184192,9.745810758967025,0.0,0.0,0.0,0.0,0.0,0.0,0.0,0.0,0.0
160455000000,64,160454000000,base_link,-0.004058103829566133,-0.005106052973007366,-0.7069412448800393,0.7072422048377809,0.0,0.0,0.0,0.0,0.0,0.0,0.0,0.0,0.0,0.03856275301807245,-0.010680772357909393,0.4867676983469802,0.0,0.0,0.0,0.0,0.0,0.0,0.0,0.0,0.0,1.1382954833007723,5.949238938183105,10.549758469264138,0.0,0.0,0.0,0.0,0.0,0.0,0.0,0.0,0.0
160456000000,65,160455000000,base_link,-0.004085275265633966,-0.005088667051468934,-0.707113557377589,0.7070698925611631,0.0,0.0,0.0,0.0,0.0,0.0,0.0,0.0,0.0,-0.06617342043724647,-0.014186250354823734,-0.4869440814349023,0.0,0.0,0.0,0.0,0.0,0.0,0.0,0.0,0.0,-1.1259418897676472,-4.920818892099907,10.578217936554656,0.0,0.0,0.0,0.0,0.0,0.0,0.0,0.0,0.0
160457000000,66,160456000000,base_link,-0.004079191201677076,-0.005113554336696587,-0.7069413439793334,0.7072419302713039,0.0,0.0,0.0,0.0,0.0,0.0,0.0,0.0,0.0,0.046958307979950695,-0.02624604577278595,0.4865689646479683,0.0,0.0,0.0,0.0,0.0,0.0,0.0,0.0,0.0,1.2336074242036565,5.228958343666926,10.753821474527763,0.0,0.0,0.0,0.0,0.0,0.0,0.0,0.0,0.0
160458000000,67,160457000000,base_link,-0.004085527039019533,-0.005127988348296351,-0.7069413645876204,0.7072417685907036,0.0,0.0,0.0,0.0,0.0,0.0,0.0,0.0,0.0,0.0636771148467841,-0.013773525897926592,0.48634655309367797,0.0,0.0,0.0,0.0,0.0,0.0,0.0,0.0,0.0,1.3660632775375494,4.705389066434817,10.195989715063414,0.0,0.0,0.0,0.0,0.0,0.0,0.0,0.0,0.0
160459000000,68,160458000000,base_link,-0.004085527039019533,-0.005127988348296351,-0.7069413645876204,0.7072417685907036,0.0,0.0,0.0,0.0,0.0,0.0,0.0,0.0,0.0,0.0636771148467841,-0.013773525897926592,0.48634655309367797,0.0,0.0,0.0,0.0,0.0,0.0,0.0,0.0,0.0,1.3660632775375494,4.705389066434817,10.195989715063414,0.0,0.0,0.0,0.0,0.0,0.0,0.0,0.0,0.0
160461000000,69,160460000000,base_link,-0.004071919581822653,-0.005133145465650721,-0.7069412061618138,0.7072419680130893,0.0,0.0,0.0,0.0,0.0,0.0,0.0,0.0,0.0,0.0677614305081615,0.00732648141104901,0.4868606849604785,0.0,0.0,0.0,0.0,0.0,0.0,0.0,0.0,0.0,0.2349079099454327,-0.5840152788078395,9.601016328475202,0.0,0.0,0.0,0.0,0.0,0.0,0.0,0.0,0.0
160462000000,70,160461000000,base_link,-0.004075622153751116,-0.005109698972761948,-0.7071134102745978,0.7070699437045079,0.0,0.0,0.0,0.0,0.0,0.0,0.0,0.0,0.0,-0.04155664950638534,0.027566038040346512,-0.486573154049239,0.0,0.0,0.0,0.0,0.0,0.0,0.0,0.0,0.0,-0.891172905780397,-5.488227915125532,8.527703245288356,0.0,0.0,0.0,0.0,0.0,0.0,0.0,0.0,0.0
160463000000,71,160462000000,base_link,-0.004051922673324964,-0.0051210692591051495,-0.7069412344954739,0.7072421420859396,0.0,0.0,0.0,0.0,0.0,0.0,0.0,0.0,0.0,0.05275770994763231,0.017793582882209995,0.48667334457450095,0.0,0.0,0.0,0.0,0.0,0.0,0.0,0.0,0.0,1.2578576567846913,5.629971187587694,9.31500009587215,0.0,0.0,0.0,0.0,0.0,0.0,0.0,0.0,0.0
160465000000,72,160464000000,base_link,-0.004048947562608454,-0.0051045219665814285,-0.7069411930516741,0.7072423201744953,0.0,0.0,0.0,0.0,0.0,0.0,0.0,0.0,0.0,0.03699194035146684,0.0026274576401291126,0.48682166660868753,0.0,0.0,0.0,0.0,0.0,0.0,0.0,0.0,0.0,0.05873061383129716,0.749727528768901,9.287038294847548,0.0,0.0,0.0,0.0,0.0,0.0,0.0,0.0,0.0
160466000000,73,160465000000,base_link,-0.004077205594372493,-0.005085277024042878,-0.7071134080820429,0.7070701128337472,0.0,0.0,0.0,0.0,0.0,0.0,0.0,0.0,0.0,-0.07033330709666942,-0.013095351200359602,-0.4866321248373966,0.0,0.0,0.0,0.0,0.0,0.0,0.0,0.0,0.0,-1.253933873439812,-4.4794749674005985,10.080267287808509,0.0,0.0,0.0,0.0,0.0,0.0,0.0,0.0,0.0
160467000000,74,160466000000,base_link,-0.004077130191053112,-0.005113236267391506,-0.7069411663432837,0.7072421220158459,0.0,0.0,0.0,0.0,0.0,0.0,0.0,0.0,0.0,0.04280177136765661,-0.03908675575393847,0.4866052258154211,0.0,0.0,0.0,0.0,0.0,0.0,0.0,0.0,0.0,1.2700022341219857,5.7387105922252335,10.812406856297619,0.0,0.0,0.0,0.0,0.0,0.0,0.0,0.0,0.0
160468000000,75,160467000000,base_link,-0.004109862422968158,-0.005106929349311142,-0.7071132333555006,0.7070699424505434,0.0,0.0,0.0,0.0,0.0,0.0,0.0,0.0,0.0,-0.058380103707911836,-0.037716199674189696,-0.48644157428802626,0.0,0.0,0.0,0.0,0.0,0.0,0.0,0.0,0.0,-0.7186355674791252,-5.912052413426194,11.394697801594674,0.0,0.0,0.0,0.0,0.0,0.0,0.0,0.0,0.0
160468000000,76,160468000000,base_link,-0.004102301594720428,-0.005142583126072971,-0.7069412517305188,0.7072416783265143,0.0,0.0,0.0,0.0,0.0,0.0,0.0,0.0,0.0,0.0642828031270801,-0.03938626120277396,0.4857092216407989,0.0,0.0,0.0,0.0,0.0,0.0,0.0,0.0,0.0,1.9242206180625496,4.8615259262089285,12.58553315083771,0.0,0.0,0.0,0.0,0.0,0.0,0.0,0.0,0.0
160470000000,77,160469000000,base_link,-0.004099499351837472,-0.005157178211632936,-0.7069410936231794,0.7072417463391291,0.0,0.0,0.0,0.0,0.0,0.0,0.0,0.0,0.0,0.06706108343856244,-0.0012011624053173062,0.4860136443012903,0.0,0.0,0.0,0.0,0.0,0.0,0.0,0.0,0.0,2.7460476503832028,5.279973910866853,14.26062934919716,0.0,0.0,0.0,0.0,0.0,0.0,0.0,0.0,0.0
160471000000,78,160470000000,base_link,-0.004099499351837472,-0.005157178211632936,-0.7069410936231794,0.7072417463391291,0.0,0.0,0.0,0.0,0.0,0.0,0.0,0.0,0.0,0.06706108343856244,-0.0012011624053173062,0.4860136443012903,0.0,0.0,0.0,0.0,0.0,0.0,0.0,0.0,0.0,2.7460476503832028,5.279973910866853,14.26062934919716,0.0,0.0,0.0,0.0,0.0,0.0,0.0,0.0,0.0
160472000000,79,160471000000,base_link,-0.004105789593032011,-0.005128960057291768,-0.707112694489972,0.7070703455468064,0.0,0.0,0.0,0.0,0.0,0.0,0.0,0.0,0.0,-0.05196985704157544,0.030659520866712628,-0.48477089461282336,0.0,0.0,0.0,0.0,0.0,0.0,0.0,0.0,0.0,0.6808800848534192,-5.7517133931447075,13.459569958246863,0.0,0.0,0.0,0.0,0.0,0.0,0.0,0.0,0.0
160473000000,80,160472000000,base_link,-0.004082178094808439,-0.005141394409655133,-0.7069406157502379,0.7072424391170266,0.0,0.0,0.0,0.0,0.0,0.0,0.0,0.0,0.0,0.05415328879127483,0.01616034099750566,0.48637834826076387,0.0,0.0,0.0,0.0,0.0,0.0,0.0,0.0,0.0,2.9351070843337412,6.5467274348362965,13.42477197455904,0.0,0.0,0.0,0.0,0.0,0.0,0.0,0.0,0.0
160474000000,81,160473000000,base_link,-0.004100608472843372,-0.005114496270640841,-0.7071121500352678,0.707071024869886,0.0,0.0,0.0,0.0,0.0,0.0,0.0,0.0,0.0,-0.06726360475654987,0.011626496141091458,-0.4845829319504176,0.0,0.0,0.0,0.0,0.0,0.0,0.0,0.0,0.0,0.6798292479257939,-5.395423010063529,12.587199861277618,0.0,0.0,0.0,0.0,0.0,0.0,0.0,0.0,0.0
160476000000,82,160475000000,base_link,-0.004117385691002987,-0.005136674452554596,-0.7069394121934345,0.7072434723617047,0.0,0.0,0.0,0.0,0.0,0.0,0.0,0.0,0.0,0.05704064038534781,-0.023885110718521972,0.4846019657159484,0.0,0.0,0.0,0.0,0.0,0.0,0.0,0.0,0.0,2.8461371076865327,7.51221250573291,8.215390862276081,0.0,0.0,0.0,0.0,0.0,0.0,0.0,0.0,0.0
160477000000,83,160476000000,base_link,-0.004117385691002987,-0.005136674452554596,-0.7069394121934345,0.7072434723617047,0.0,0.0,0.0,0.0,0.0,0.0,0.0,0.0,0.0,0.05704064038534781,-0.023885110718521972,0.4846019657159484,0.0,0.0,0.0,0.0,0.0,0.0,0.0,0.0,0.0,2.8461371076865327,7.51221250573291,8.215390862276081,0.0,0.0,0.0,0.0,0.0,0.0,0.0,0.0,0.0
160478000000,84,160477000000,base_link,-0.00414854143705554,-0.005114884451384728,-0.7071112739900746,0.7070716185487351,0.0,0.0,0.0,0.0,0.0,0.0,0.0,0.0,0.0,-0.07805859270505222,-0.013579049408943868,-0.48557723985666934,0.0,0.0,0.0,0.0,0.0,0.0,0.0,0.0,0.0,0.7695239927387336,-8.071493189348725,8.158871850247245,0.0,0.0,0.0,0.0,0.0,0.0,0.0,0.0,0.0
160480000000,85,160479000000,base_link,-0.004148508957505506,-0.005174051195146199,-0.7069408790827479,0.707241551769529,0.0,0.0,0.0,0.0,0.0,0.0,0.0,0.0,0.0,0.07645151704849461,-0.034444702296255576,0.48404474669775566,0.0,0.0,0.0,0.0,0.0,0.0,0.0,0.0,0.0,3.1804779440347892,6.27774609498692,7.741270202035986,0.0,0.0,0.0,0.0,0.0,0.0,0.0,0.0,0.0
160481000000,86,160480000000,base_link,-0.004148508957505506,-0.005174051195146199,-0.7069408790827479,0.707241551769529,0.0,0.0,0.0,0.0,0.0,0.0,0.0,0.0,0.0,0.07645151704849461,-0.034444702296255576,0.48404474669775566,0.0,0.0,0.0,0.0,0.0,0.0,0.0,0.0,0.0,3.1804779440347892,6.27774609498692,7.741270202035986,0.0,0.0,0.0,0.0,0.0,0.0,0.0,0.0,0.0
160483000000,87,160482000000,base_link,-0.004147969943275036,-0.005198934894866192,-0.7069415953973441,0.707240656437656,0.0,0.0,0.0,0.0,0.0,0.0,0.0,0.0,0.0,0.08441541893995537,-0.014167556620452902,0.4828671996744104,0.0,0.0,0.0,0.0,0.0,0.0,0.0,0.0,0.0,2.1468486840660232,-0.43337148777735657,7.0451163901768155,0.0,0.0,0.0,0.0,0.0,0.0,0.0,0.0,0.0
160484000000,88,160483000000,base_link,-0.00415366343895546,-0.005184807100689405,-0.7071134185491261,0.7070689345199184,0.0,0.0,0.0,0.0,0.0,0.0,0.0,0.0,0.0,-0.031239584345680797,0.011573455756248237,-0.4856589811233783,0.0,0.0,0.0,0.0,0.0,0.0,0.0,0.0,0.0,1.19758162950986,-7.52303379077791,7.106519387085959,0.0,0.0,0.0,0.0,0.0,0.0,0.0,0.0,0.0
160486000000,89,160485000000,base_link,-0.004111325166104243,-0.005184304288990426,-0.7071136174505679,0.7070689867406076,0.0,0.0,0.0,0.0,0.0,0.0,0.0,0.0,0.0,-0.026447593147942698,0.042561830908702976,-0.4843868261845026,0.0,0.0,0.0,0.0,0.0,0.0,0.0,0.0,0.0,2.649755919263507,-0.23717305832276908,7.784811155861677,0.0,0.0,0.0,0.0,0.0,0.0,0.0,0.0,0.0
160487000000,90,160486000000,base_link,-0.0040703328522999965,-0.005196226679057712,-0.7069417402316668,0.7072409826480602,0.0,0.0,0.0,0.0,0.0,0.0,0.0,0.0,0.0,-0.03455116020191377,0.06081533752289535,-0.4830848824163487,0.0,0.0,0.0,0.0,0.0,0.0,0.0,0.0,0.0,4.180565554973856,6.380611389573613,8.863703527025036,0.0,0.0,0.0,0.0,0.0,0.0,0.0,0.0,0.0
160488000000,91,160487000000,base_link,-0.004059799170086038,-0.005163491305212619,-0.7071127614224249,0.7070702928434995,0.0,0.0,0.0,0.0,0.0,0.0,0.0,0.0,0.0,-0.03455116020191377,0.06081533752289535,-0.4830848824163487,0.0,0.0,0.0,0.0,0.0,0.0,0.0,0.0,0.0,1.986827338545829,-5.86003111470275,8.921479298332574,0.0,0.0,0.0,0.0,0.0,0.0,0.0,0.0,0.0
160490000000,92,160489000000,base_link,-0.004021760421846426,-0.005135371721688963,-0.7071114647018397,0.7070720118118154,0.0,0.0,0.0,0.0,0.0,0.0,0.0,0.0,0.0,-0.04875093101129806,0.05038171330689581,-0.48318510930620606,0.0,0.0,0.0,0.0,0.0,0.0,0.0,0.0,0.0,3.622829810804403,0.6770356269643508,10.454181581802553,0.0,0.0,0.0,0.0,0.0,0.0,0.0,0.0,0.0
160492000000,93,160491000000,base_link,-0.00400898744215762,-0.005120472958559012,-0.707110533797335,0.7070731233537427,0.0,0.0,0.0,0.0,0.0,0.0,0.0,0.0,0.0,-0.05874322501061424,0.019506287264434263,-0.48402484909965404,0.0,0.0,0.0,0.0,0.0,0.0,0.0,0.0,0.0,4.089912702289278,0.43894216636633593,11.67878727965675,0.0,0.0,0.0,0.0,0.0,0.0,0.0,0.0,0.0
160493000000,94,160492000000,base_link,-0.00402521787658974,-0.005127682269376398,-0.7071097833055077,0.7070737294294197,0.0,0.0,0.0,0.0,0.0,0.0,0.0,0.0,0.0,-0.06668784616910574,-0.016848998858829282,-0.48424296279221796,0.0,0.0,0.0,0.0,0.0,0.0,0.0,0.0,0.0,3.2793614833619302,-6.722457656625237,11.852396373478413,0.0,0.0,0.0,0.0,0.0,0.0,0.0,0.0,0.0
160494000000,95,160493000000,base_link,-0.004024598554404813,-0.005164338945435918,-0.7069379248215135,0.7072452917190645,0.0,0.0,0.0,0.0,0.0,0.0,0.0,0.0,0.0,0.05586002570176229,-0.05058619113595001,0.48535854637840115,0.0,0.0,0.0,0.0,0.0,0.0,0.0,0.0,0.0,5.945499228959785,7.459124478754399,13.090275001185798,0.0,0.0,0.0,0.0,0.0,0.0,0.0,0.0,0.0
160495000000,96,160494000000,base_link,-0.004024598554404813,-0.005164338945435918,-0.7069379248215135,0.7072452917190645,0.0,0.0,0.0,0.0,0.0,0.0,0.0,0.0,0.0,0.05586002570176229,-0.05058619113595001,0.48535854637840115,0.0,0.0,0.0,0.0,0.0,0.0,0.0,0.0,0.0,5.945499228959785,7.459124478754399,13.090275001185798,0.0,0.0,0.0,0.0,0.0,0.0,0.0,0.0,0.0
160496000000,97,160495000000,base_link,-0.003966908276002984,-0.00506171204566603,-0.7069706944218103,0.7072136027669718,0.0,0.0,0.0,0.0,0.0,0.0,0.0,0.0,0.0,-0.06409287733148535,0.22666814052295564,-0.09092633598995054,0.0,0.0,0.0,0.0,0.0,0.0,0.0,0.0,0.0,-31.210454416171345,-7.522748177203265,12.36142659799669,0.0,0.0,0.0,0.0,0.0,0.0,0.0,0.0,0.0
160497000000,98,160496000000,base_link,-0.003785830905241508,-0.004913983897417875,-0.7069713049678196,0.7072150268473594,0.0,0.0,0.0,0.0,0.0,0.0,0.0,0.0,0.0,0.04724693527286253,0.4650027742357829,0.0004889183389299679,0.0,0.0,0.0,0.0,0.0,0.0,0.0,0.0,0.0,-31.248894232488045,6.699444473267897,12.799559885564133,0.0,0.0,0.0,0.0,0.0,0.0,0.0,0.0,0.0
160498000000,99,160497000000,base_link,-0.0037617898706172495,-0.0048651737040444,-0.7069674657246057,0.7072193304970725,0.0,0.0,0.0,0.0,0.0,0.0,0.0,0.0,0.0,-0.034940132628946005,0.10304447451006873,0.011648754473443206,0.0,0.0,0.0,0.0,0.0,0.0,0.0,0.0,0.0,38.950894976932055,-5.6045877990286,8.49258668852275,0.0,0.0,0.0,0.0,0.0,0.0,0.0,0.0,0.0
160499000000,100,160498000000,base_link,-0.0036453759067479434,-0.004770975007145587,-0.7069736323326917,0.7072144174281939,0.0,0.0,0.0,0.0,0.0,0.0,0.0,0.0,0.0,0.031372616382355445,0.2978386411817303,-0.01609308567712421,0.0,0.0,0.0,0.0,0.0,0.0,0.0,0.0,0.0,-32.91079233251738,3.786988442862174,8.965131714278206,0.0,0.0,0.0,0.0,0.0,0.0,0.0,0.0,0.0
160500000000,101,160499000000,base_link,-0.0036808228966457397,-0.004792546745233506,-0.7069682306361038,0.7072194877898623,0.0,0.0,0.0,0.0,0.0,0.0,0.0,0.0,0.0,-0.01954743510681599,-0.08062286413935438,0.014990498653691904,0.0,0.0,0.0,0.0,0.0,0.0,0.0,0.0,0.0,38.04719501529781,-3.209090173078566,6.812279007421117,0.0,0.0,0.0,0.0,0.0,0.0,0.0,0.0,0.0
160501000000,102,160500000000,base_link,-0.003625970573637882,-0.0047527343795905575,-0.7069742790487722,0.7072139935102989,0.0,0.0,0.0,0.0,0.0,0.0,0.0,0.0,0.0,0.021194686679794295,0.13386172456204204,-0.01655635297050015,0.0,0.0,0.0,0.0,0.0,0.0,0.0,0.0,0.0,-34.90600852100109,2.3465339993072014,7.81671893692763,0.0,0.0,0.0,0.0,0.0,0.0,0.0,0.0,0.0
160502000000,103,160501000000,base_link,-0.0035075330142044434,-0.004629384276271833,-0.7069788362341465,0.707210853374288,0.0,0.0,0.0,0.0,0.0,0.0,0.0,0.0,0.0,-0.006955392318176906,0.3419376597015961,-0.011117078314204424,0.0,0.0,0.0,0.0,0.0,0.0,0.0,0.0,0.0,-34.89139905881055,-1.913234812447168,8.370910901987797,0.0,0.0,0.0,0.0,0.0,0.0,0.0,0.0,0.0
160503000000,104,160502000000,base_link,-0.0035100766847707054,-0.00464007259777469,-0.706973642938774,0.7072159622617644,0.0,0.0,0.0,0.0,0.0,0.0,0.0,0.0,0.0,0.01159893403490126,-0.018703565760610066,0.014517832326838512,0.0,0.0,0.0,0.0,0.0,0.0,0.0,0.0,0.0,36.56118802561844,1.2939635715701967,6.928143626635373,0.0,0.0,0.0,0.0,0.0,0.0,0.0,0.0,0.0
160504000000,105,160503000000,base_link,-0.00344356710065371,-0.00457320817469673,-0.7069797380621377,0.7072106316948336,0.0,0.0,0.0,0.0,0.0,0.0,0.0,0.0,0.0,-0.0005634755007140058,0.18860954167407798,-0.01630609787907144,0.0,0.0,0.0,0.0,0.0,0.0,0.0,0.0,0.0,-34.76497308125813,-0.8625631988943749,8.580457676930292,0.0,0.0,0.0,0.0,0.0,0.0,0.0,0.0,0.0
160505000000,106,160504000000,base_link,-0.003499475804947406,-0.004635332180014498,-0.7069741300844921,0.7072155589040355,0.0,0.0,0.0,0.0,0.0,0.0,0.0,0.0,0.0,0.008847593132868536,-0.16691571349774673,0.014982424946557172,0.0,0.0,0.0,0.0,0.0,0.0,0.0,0.0,0.0,36.98021922748046,0.5853755026415839,7.752747937743616,0.0,0.0,0.0,0.0,0.0,0.0,0.0,0.0,0.0
160505000000,107,160505000000,base_link,-0.003476533334357362,-0.004615633955146934,-0.7069802049780313,0.7072097280216019,0.0,0.0,0.0,0.0,0.0,0.0,0.0,0.0,0.0,0.00450114518124306,0.06028971035468545,-0.016911909561473197,0.0,0.0,0.0,0.0,0.0,0.0,0.0,0.0,0.0,-34.026207366750015,-0.5046818788238804,9.203184671680727,0.0,0.0,0.0,0.0,0.0,0.0,0.0,0.0,0.0
160507000000,108,160506000000,base_link,-0.003573838204494384,-0.004718949593348672,-0.7069744563163328,0.7072143079091721,0.0,0.0,0.0,0.0,0.0,0.0,0.0,0.0,0.0,0.008539232443146527,-0.28371457837961406,0.014786685612993268,0.0,0.0,0.0,0.0,0.0,0.0,0.0,0.0,0.0,37.71875614880812,0.20531013485948119,9.1199864402453,0.0,0.0,0.0,0.0,0.0,0.0,0.0,0.0,0.0
160508000000,109,160507000000,base_link,-0.003585453815844777,-0.004734915853912332,-0.7069802620874797,0.7072083385477786,0.0,0.0,0.0,0.0,0.0,0.0,0.0,0.0,0.0,0.006048562333571105,-0.0390218573338405,-0.016656715597114034,0.0,0.0,0.0,0.0,0.0,0.0,0.0,0.0,0.0,-34.069510759336694,-0.2476387174951963,8.068627002096045,0.0,0.0,0.0,0.0,0.0,0.0,0.0,0.0,0.0
160509000000,110,160508000000,base_link,-0.00371250580340079,-0.004866156413347952,-0.7069743627015492,0.7072126895815424,0.0,0.0,0.0,0.0,0.0,0.0,0.0,0.0,0.0,0.005951587307857165,-0.36527643739712945,0.014758427083592695,0.0,0.0,0.0,0.0,0.0,0.0,0.0,0.0,0.0,37.80094461603623,0.17921825630466212,8.136751763975923,0.0,0.0,0.0,0.0,0.0,0.0,0.0,0.0,0.0
160510000000,111,160509000000,base_link,-0.0037376302313773405,-0.004893673828151002,-0.7069800202561933,0.7072067116729518,0.0,0.0,0.0,0.0,0.0,0.0,0.0,0.0,0.0,0.003272137890255135,-0.07446215430208744,-0.016414443448607825,0.0,0.0,0.0,0.0,0.0,0.0,0.0,0.0,0.0,-33.571622555405625,0.036843041919317865,8.484399316496383,0.0,0.0,0.0,0.0,0.0,0.0,0.0,0.0,0.0
160511000000,112,160510000000,base_link,-0.0037120026855399784,-0.0048715885164924404,-0.7069083644302897,0.7072786247016666,0.0,0.0,0.0,0.0,0.0,0.0,0.0,0.0,0.0,0.006259085808171073,0.0676422792570947,0.20294737993229378,0.0,0.0,0.0,0.0,0.0,0.0,0.0,0.0,0.0,-14.348126816623758,0.2181649305823091,9.638794101529925,0.0,0.0,0.0,0.0,0.0,0.0,0.0,0.0,0.0
160512000000,113,160511000000,base_link,-0.0036628102000915283,-0.00482947147478669,-0.7068954407324997,0.7072920866928439,0.0,0.0,0.0,0.0,0.0,0.0,0.0,0.0,0.0,0.02077253557342045,0.049841488043114814,0.4774599226062801,0.0,0.0,0.0,0.0,0.0,0.0,0.0,0.0,0.0,4.145731852324828,1.6462819714132562,12.192257272216066,0.0,0.0,0.0,0.0,0.0,0.0,0.0,0.0,0.0
160513000000,114,160512000000,base_link,-0.0036628102000915283,-0.00482947147478669,-0.7068954407324997,0.7072920866928439,0.0,0.0,0.0,0.0,0.0,0.0,0.0,0.0,0.0,0.02077253557342045,0.049841488043114814,0.4774599226062801,0.0,0.0,0.0,0.0,0.0,0.0,0.0,0.0,0.0,4.145731852324828,1.6462819714132562,12.192257272216066,0.0,0.0,0.0,0.0,0.0,0.0,0.0,0.0,0.0
160515000000,115,160514000000,base_link,-0.0036421104390067923,-0.004811899514732636,-0.7068956083786728,0.7072921457994257,0.0,0.0,0.0,0.0,0.0,0.0,0.0,0.0,0.0,0.03611535617507908,0.006940843008505051,0.4848148993191926,0.0,0.0,0.0,0.0,0.0,0.0,0.0,0.0,0.0,3.225938790461114,0.6406669391562082,12.652371888707377,0.0,0.0,0.0,0.0,0.0,0.0,0.0,0.0,0.0
160517000000,116,160516000000,base_link,-0.0036536856447025767,-0.004826262650722302,-0.7068959936833978,0.7072916031485159,0.0,0.0,0.0,0.0,0.0,0.0,0.0,0.0,0.0,0.04644124300641662,-0.038516558396051996,0.48495081562999676,0.0,0.0,0.0,0.0,0.0,0.0,0.0,0.0,0.0,3.5970250819597176,0.2955606990490107,13.095955130343938,0.0,0.0,0.0,0.0,0.0,0.0,0.0,0.0,0.0
160519000000,117,160518000000,base_link,-0.0037058891961759067,-0.004865472900654399,-0.7068955915820349,0.7072914647870449,0.0,0.0,0.0,0.0,0.0,0.0,0.0,0.0,0.0,0.0448400228763549,-0.08347518782125198,0.4854313048776512,0.0,0.0,0.0,0.0,0.0,0.0,0.0,0.0,0.0,3.7461816342339294,0.7373718753045344,12.38253889568698,0.0,0.0,0.0,0.0,0.0,0.0,0.0,0.0,0.0
160521000000,118,160520000000,base_link,-0.0037759592454534355,-0.0049151621550998946,-0.7068955939713483,0.7072907482334687,0.0,0.0,0.0,0.0,0.0,0.0,0.0,0.0,0.0,0.04859902977411311,-0.09235671802786655,0.483409211609779,0.0,0.0,0.0,0.0,0.0,0.0,0.0,0.0,0.0,3.9039360943402004,0.5634628956071623,11.271552864346134,0.0,0.0,0.0,0.0,0.0,0.0,0.0,0.0,0.0
160521000000,119,160521000000,base_link,-0.003826844604436309,-0.004909501624582533,-0.7070666817643466,0.7071194804224586,0.0,0.0,0.0,0.0,0.0,0.0,0.0,0.0,0.0,-0.08295954700193185,-0.06432556942302418,-0.4836115955891377,0.0,0.0,0.0,0.0,0.0,0.0,0.0,0.0,0.0,2.7157052060218687,-7.425241481438864,9.67639042422732,0.0,0.0,0.0,0.0,0.0,0.0,0.0,0.0,0.0
160522000000,120,160522000000,base_link,-0.0038275904240114046,-0.004948000130966098,-0.7068963646743737,0.7072894714728933,0.0,0.0,0.0,0.0,0.0,0.0,0.0,0.0,0.0,0.056360659623871615,-0.05513518904052689,0.48097176214244775,0.0,0.0,0.0,0.0,0.0,0.0,0.0,0.0,0.0,5.117697267087727,7.704652853725818,9.567709411612938,0.0,0.0,0.0,0.0,0.0,0.0,0.0,0.0,0.0
160525000000,121,160524000000,base_link,-0.0038357690420685433,-0.004944118097550237,-0.7068974920576133,0.707288327554435,0.0,0.0,0.0,0.0,0.0,0.0,0.0,0.0,0.0,0.06068334510719008,0.0068886553506612574,0.4805109931542776,0.0,0.0,0.0,0.0,0.0,0.0,0.0,0.0,0.0,3.476440900554704,-0.33758082199784767,8.440677065621072,0.0,0.0,0.0,0.0,0.0,0.0,0.0,0.0,0.0
160527000000,122,160526000000,base_link,-0.003801112540527464,-0.004906510155580686,-0.7068986836475054,0.7072875856106704,0.0,0.0,0.0,0.0,0.0,0.0,0.0,0.0,0.0,0.06311924647493435,0.054191269959937276,0.4831669551858706,0.0,0.0,0.0,0.0,0.0,0.0,0.0,0.0,0.0,3.0607999555842653,-0.40698060164332245,8.153697665699145,0.0,0.0,0.0,0.0,0.0,0.0,0.0,0.0,0.0
160529000000,123,160528000000,base_link,-0.003745124769004107,-0.00485207475195991,-0.7068995630703866,0.7072873808728404,0.0,0.0,0.0,0.0,0.0,0.0,0.0,0.0,0.0,0.06142081319618893,0.076375021258691,0.48445295392065735,0.0,0.0,0.0,0.0,0.0,0.0,0.0,0.0,0.0,3.1295912778684025,-0.30426377741512556,8.187760766587804,0.0,0.0,0.0,0.0,0.0,0.0,0.0,0.0,0.0
160529000000,124,160529000000,base_link,-0.003735063405958313,-0.00479864167573496,-0.7070711221024407,0.7071162921530072,0.0,0.0,0.0,0.0,0.0,0.0,0.0,0.0,0.0,-0.06425741992205636,0.0894345795543397,-0.48426558431262967,0.0,0.0,0.0,0.0,0.0,0.0,0.0,0.0,0.0,1.6856834179499927,-6.836673188727413,7.566607815087151,0.0,0.0,0.0,0.0,0.0,0.0,0.0,0.0,0.0
160532000000,125,160531000000,base_link,-0.003692951025640136,-0.004751862006688265,-0.7070705975016677,0.7071173538167665,0.0,0.0,0.0,0.0,0.0,0.0,0.0,0.0,0.0,-0.06334613343276911,0.06137513123149604,-0.48483955708765786,0.0,0.0,0.0,0.0,0.0,0.0,0.0,0.0,0.0,2.928975393753096,0.19614198137569827,8.133401149075167,0.0,0.0,0.0,0.0,0.0,0.0,0.0,0.0,0.0
160533000000,126,160532000000,base_link,-0.0036668963414888136,-0.0047635635350093,-0.7068982685037278,0.7072896862814415,0.0,0.0,0.0,0.0,0.0,0.0,0.0,0.0,0.0,0.0563056515018948,0.02066129040268214,0.4870820593460511,0.0,0.0,0.0,0.0,0.0,0.0,0.0,0.0,0.0,4.214210314638348,6.9678698287427085,9.013422620301055,0.0,0.0,0.0,0.0,0.0,0.0,0.0,0.0,0.0
160534000000,127,160533000000,base_link,-0.0036850688062318544,-0.004739258606613045,-0.7070698802682269,0.7071181967063416,0.0,0.0,0.0,0.0,0.0,0.0,0.0,0.0,0.0,-0.0629612553330576,0.008313845016495347,-0.4848584653643411,0.0,0.0,0.0,0.0,0.0,0.0,0.0,0.0,0.0,1.8751480159911238,-6.945233436027888,8.44492631622184,0.0,0.0,0.0,0.0,0.0,0.0,0.0,0.0,0.0
160535000000,128,160534000000,base_link,-0.003679305134765346,-0.004772145360156942,-0.7068974603735864,0.7072903716718905,0.0,0.0,0.0,0.0,0.0,0.0,0.0,0.0,0.0,0.05756089959862855,-0.03799780286069668,0.4870249582718038,0.0,0.0,0.0,0.0,0.0,0.0,0.0,0.0,0.0,4.4422638301142365,7.004723845258614,9.784083390598976,0.0,0.0,0.0,0.0,0.0,0.0,0.0,0.0,0.0
160536000000,129,160535000000,base_link,-0.0037186155715842285,-0.004767093128718675,-0.7070688798767736,0.707118834306609,0.0,0.0,0.0,0.0,0.0,0.0,0.0,0.0,0.0,-0.0656489622555644,-0.04880590124395348,-0.48459303098585116,0.0,0.0,0.0,0.0,0.0,0.0,0.0,0.0,0.0,2.16258248128384,-7.099648740552252,9.171540985057806,0.0,0.0,0.0,0.0,0.0,0.0,0.0,0.0,0.0
160537000000,130,160536000000,base_link,-0.003730409454191821,-0.004817821625141266,-0.7068963988059471,0.7072908553030187,0.0,0.0,0.0,0.0,0.0,0.0,0.0,0.0,0.0,0.05798155760974464,-0.08806302934634014,0.48692579460654767,0.0,0.0,0.0,0.0,0.0,0.0,0.0,0.0,0.0,4.818440016455182,7.371402970486909,10.518363389543648,0.0,0.0,0.0,0.0,0.0,0.0,0.0,0.0,0.0
160539000000,131,160538000000,base_link,-0.003573534412343221,-0.004652235281858886,-0.706851894176038,0.7073372507216295,0.0,0.0,0.0,0.0,0.0,0.0,0.0,0.0,0.0,0.0519562930250002,0.270511871649356,0.21924426701534871,0.0,0.0,0.0,0.0,0.0,0.0,0.0,0.0,0.0,-22.470314653453368,-0.38719723425472485,10.892960461448816,0.0,0.0,0.0,0.0,0.0,0.0,0.0,0.0,0.0
160541000000,132,160540000000,base_link,-0.003451325416016391,-0.004522891276248564,-0.7068386296203659,0.7073519516363684,0.0,0.0,0.0,0.0,0.0,0.0,0.0,0.0,0.0,0.04347959172945299,0.13161330317623016,0.48014053118927863,0.0,0.0,0.0,0.0,0.0,0.0,0.0,0.0,0.0,3.3319710128631947,0.019780475159425243,10.110292765876714,0.0,0.0,0.0,0.0,0.0,0.0,0.0,0.0,0.0
160543000000,133,160542000000,base_link,-0.003438413113636203,-0.004499258885712068,-0.7068379335587527,0.7073528607895297,0.0,0.0,0.0,0.0,0.0,0.0,0.0,0.0,0.0,0.04268549575648444,-0.021594753496558435,0.48732054127885427,0.0,0.0,0.0,0.0,0.0,0.0,0.0,0.0,0.0,3.344456427547864,0.29972699083983134,9.744742466101412,0.0,0.0,0.0,0.0,0.0,0.0,0.0,0.0,0.0
160544000000,134,160543000000,base_link,-0.0034872075039216054,-0.004504060727890071,-0.7070098865767175,0.7071807216713147,0.0,0.0,0.0,0.0,0.0,0.0,0.0,0.0,0.0,-0.06497254980513248,-0.07613915383636738,-0.4862057947872541,0.0,0.0,0.0,0.0,0.0,0.0,0.0,0.0,0.0,2.3279594156249437,-6.102534051528893,9.321478553598743,0.0,0.0,0.0,0.0,0.0,0.0,0.0,0.0,0.0
160545000000,135,160544000000,base_link,-0.0035282824091894377,-0.004577739528983323,-0.7068372181267211,0.7073526295949735,0.0,0.0,0.0,0.0,0.0,0.0,0.0,0.0,0.0,0.04884289650380308,-0.16194488304387777,0.487152958764683,0.0,0.0,0.0,0.0,0.0,0.0,0.0,0.0,0.0,5.024835899267233,6.766377302937744,10.713019809684704,0.0,0.0,0.0,0.0,0.0,0.0,0.0,0.0,0.0
160546000000,136,160545000000,base_link,-0.003620414828341389,-0.004622430072115984,-0.7070084750243315,0.7071806996662652,0.0,0.0,0.0,0.0,0.0,0.0,0.0,0.0,0.0,-0.06994351559913485,-0.19383481429786725,-0.4848028408605758,0.0,0.0,0.0,0.0,0.0,0.0,0.0,0.0,0.0,2.5480351894685516,-7.0863647061373864,8.82040133232699,0.0,0.0,0.0,0.0,0.0,0.0,0.0,0.0,0.0
160547000000,137,160546000000,base_link,-0.003682094937973996,-0.004725578063105257,-0.7068366776292313,0.7073514135469775,0.0,0.0,0.0,0.0,0.0,0.0,0.0,0.0,0.0,0.06143939671811438,-0.23277099560476933,0.48419928972450854,0.0,0.0,0.0,0.0,0.0,0.0,0.0,0.0,0.0,5.21940120777464,7.309013826691246,9.476736072801545,0.0,0.0,0.0,0.0,0.0,0.0,0.0,0.0,0.0
160548000000,138,160547000000,base_link,-0.00374987834282511,-0.004742674826112669,-0.7069644691077132,0.707223221385693,0.0,0.0,0.0,0.0,0.0,0.0,0.0,0.0,0.0,-0.07387594616995978,-0.12028091801018097,-0.3614940877198945,0.0,0.0,0.0,0.0,0.0,0.0,0.0,0.0,0.0,-8.184472262435762,-7.882241238504953,7.962612715652557,0.0,0.0,0.0,0.0,0.0,0.0,0.0,0.0,0.0
160549000000,139,160548000000,base_link,-0.003769724333080127,-0.004800259159044222,-0.7068003350873096,0.7073867633840241,0.0,0.0,0.0,0.0,0.0,0.0,0.0,0.0,0.0,0.05613245977987434,-0.10919049011691474,0.463151936313822,0.0,0.0,0.0,0.0,0.0,0.0,0.0,0.0,0.0,5.087365438713936,7.5900319472793,8.666051574190636,0.0,0.0,0.0,0.0,0.0,0.0,0.0,0.0,0.0
160550000000,140,160549000000,base_link,-0.0038188930617353073,-0.004797875273963287,-0.7069693407447454,0.7072176098596377,0.0,0.0,0.0,0.0,0.0,0.0,0.0,0.0,0.0,-0.07583034567781281,-0.0664820442872813,-0.47773026122608586,0.0,0.0,0.0,0.0,0.0,0.0,0.0,0.0,0.0,2.8776328328425547,-7.133967405389597,8.500877293023615,0.0,0.0,0.0,0.0,0.0,0.0,0.0,0.0,0.0
160551000000,141,160550000000,base_link,-0.0038226880426056133,-0.004829957937093267,-0.7067984431688067,0.7073881673428004,0.0,0.0,0.0,0.0,0.0,0.0,0.0,0.0,0.0,0.04293773716361382,-0.05041337248875119,0.4826727627249795,0.0,0.0,0.0,0.0,0.0,0.0,0.0,0.0,0.0,5.426255590473864,7.708075096980255,9.309979888545234,0.0,0.0,0.0,0.0,0.0,0.0,0.0,0.0,0.0
160552000000,142,160551000000,base_link,-0.003855689025065192,-0.004804694541721057,-0.7069687537054575,0.7072179507454933,0.0,0.0,0.0,0.0,0.0,0.0,0.0,0.0,0.0,-0.08534782394846872,-0.011250222386796634,-0.48105704824549755,0.0,0.0,0.0,0.0,0.0,0.0,0.0,0.0,0.0,3.3739547394901757,-6.581329394009912,9.455933961969313,0.0,0.0,0.0,0.0,0.0,0.0,0.0,0.0,0.0
160553000000,143,160552000000,base_link,-0.003848466420188453,-0.004817372197742643,-0.7067973520929539,0.7073892035546697,0.0,0.0,0.0,0.0,0.0,0.0,0.0,0.0,0.0,0.031108985849155106,-0.007395527862531642,0.48441021169430554,0.0,0.0,0.0,0.0,0.0,0.0,0.0,0.0,0.0,5.970706979546462,7.7442559789304575,10.633818183836075,0.0,0.0,0.0,0.0,0.0,0.0,0.0,0.0,0.0
160554000000,144,160553000000,base_link,-0.0038741414560419644,-0.004777450769919483,-0.7069680369985007,0.707218750921245,0.0,0.0,0.0,0.0,0.0,0.0,0.0,0.0,0.0,-0.09571367608319534,0.019857362653241457,-0.48187762831661096,0.0,0.0,0.0,0.0,0.0,0.0,0.0,0.0,0.0,3.8009906764417107,-6.546211613079924,10.468977135393384,0.0,0.0,0.0,0.0,0.0,0.0,0.0,0.0,0.0
160555000000,145,160554000000,base_link,-0.003862290012083812,-0.00478103871177147,-0.7067963292164271,0.7073903967335741,0.0,0.0,0.0,0.0,0.0,0.0,0.0,0.0,0.0,0.024806859200294393,0.011991883348676183,0.4854251069012684,0.0,0.0,0.0,0.0,0.0,0.0,0.0,0.0,0.0,6.337740112598637,7.693426341148686,11.370732312067709,0.0,0.0,0.0,0.0,0.0,0.0,0.0,0.0,0.0
160556000000,146,160555000000,base_link,-0.003885159004640768,-0.00473592721681358,-0.7069675812619265,0.7072194253395241,0.0,0.0,0.0,0.0,0.0,0.0,0.0,0.0,0.0,-0.09908210007989299,0.03118344602230233,-0.4834008845872961,0.0,0.0,0.0,0.0,0.0,0.0,0.0,0.0,0.0,4.011910997655232,-6.936900749304623,10.918543413274499,0.0,0.0,0.0,0.0,0.0,0.0,0.0,0.0,0.0
160557000000,147,160556000000,base_link,-0.0038234735161969667,-0.004691020197068975,-0.7068668736715152,0.7073207181227195,0.0,0.0,0.0,0.0,0.0,0.0,0.0,0.0,0.0,0.025495702225484654,0.15091441699607822,0.28543082590537616,0.0,0.0,0.0,0.0,0.0,0.0,0.0,0.0,0.0,-10.996339945831474,7.415304286546222,12.034395017375422,0.0,0.0,0.0,0.0,0.0,0.0,0.0,0.0,0.0
160558000000,148,160557000000,base_link,-0.0037033208283678135,-0.00451364608148372,-0.7068888906841077,0.7073005080171262,0.0,0.0,0.0,0.0,0.0,0.0,0.0,0.0,0.0,-0.08114791423562184,0.42076344398846016,-0.05948879492595187,0.0,0.0,0.0,0.0,0.0,0.0,0.0,0.0,0.0,-30.79767952581817,-7.251270058703781,11.389180204826186,0.0,0.0,0.0,0.0,0.0,0.0,0.0,0.0,0.0
160559000000,149,160558000000,base_link,-0.003654862905792258,-0.004483532103413427,-0.7068579493999398,0.7073318735128015,0.0,0.0,0.0,0.0,0.0,0.0,0.0,0.0,0.0,0.026485782473646247,0.11116197302152567,0.08789901275668853,0.0,0.0,0.0,0.0,0.0,0.0,0.0,0.0,0.0,34.2083823353114,5.214944003204748,10.164911643652976,0.0,0.0,0.0,0.0,0.0,0.0,0.0,0.0,0.0
160560000000,150,160559000000,base_link,-0.003554834493684887,-0.00434980791677132,-0.7068691230926959,0.7073220519261173,0.0,0.0,0.0,0.0,0.0,0.0,0.0,0.0,0.0,-0.04771342942585499,0.3305801259490754,-0.029611425780618275,0.0,0.0,0.0,0.0,0.0,0.0,0.0,0.0,0.0,-31.889968214431327,-5.812967716593588,9.747256057025254,0.0,0.0,0.0,0.0,0.0,0.0,0.0,0.0,0.0
160561000000,151,160560000000,base_link,-0.0034651431964301737,-0.004274397493434044,-0.7067249142716455,0.70746704365393,0.0,0.0,0.0,0.0,0.0,0.0,0.0,0.0,0.0,0.022556070355396612,0.2337150298617759,0.40874038408300767,0.0,0.0,0.0,0.0,0.0,0.0,0.0,0.0,0.0,4.411547924654931,3.291424850663923,8.58090027148171,0.0,0.0,0.0,0.0,0.0,0.0,0.0,0.0,0.0
160562000000,152,160561000000,base_link,-0.003417007132883137,-0.004200262199652637,-0.7068933911594959,0.7072993817293606,0.0,0.0,0.0,0.0,0.0,0.0,0.0,0.0,0.0,-0.03927938193451026,0.17266875622633548,-0.4752631518817068,0.0,0.0,0.0,0.0,0.0,0.0,0.0,0.0,0.0,0.3269495837158819,-3.8631034410876,7.569944948044813,0.0,0.0,0.0,0.0,0.0,0.0,0.0,0.0,0.0
160563000000,153,160562000000,base_link,-0.0033820950384945933,-0.004182916642845265,-0.7067221362798214,0.7074707674056893,0.0,0.0,0.0,0.0,0.0,0.0,0.0,0.0,0.0,0.0274735703849899,0.07416463429885549,0.4843850193631256,0.0,0.0,0.0,0.0,0.0,0.0,0.0,0.0,0.0,2.724787440307494,3.576234893287351,9.00972744374281,0.0,0.0,0.0,0.0,0.0,0.0,0.0,0.0,0.0
160564000000,154,160563000000,base_link,-0.0033891138906439657,-0.0041656913261391435,-0.7068948693411643,0.7072982430502355,0.0,0.0,0.0,0.0,0.0,0.0,0.0,0.0,0.0,-0.03689033530720051,0.014177149376295458,-0.48808552578875714,0.0,0.0,0.0,0.0,0.0,0.0,0.0,0.0,0.0,0.49118573690424816,-4.129258941026234,7.870902623738287,0.0,0.0,0.0,0.0,0.0,0.0,0.0,0.0,0.0
160565000000,155,160564000000,base_link,-0.0034053691293167467,-0.00420560934001376,-0.7067228393971422,0.7074698188513862,0.0,0.0,0.0,0.0,0.0,0.0,0.0,0.0,0.0,0.03603730314768677,-0.07918596869790498,0.4857899314037215,0.0,0.0,0.0,0.0,0.0,0.0,0.0,0.0,0.0,3.188234814313251,3.902105255064184,9.810729901886544,0.0,0.0,0.0,0.0,0.0,0.0,0.0,0.0,0.0
160566000000,156,160565000000,base_link,-0.0034630420097253693,-0.004237648871615407,-0.706895120692634,0.7072972062810841,0.0,0.0,0.0,0.0,0.0,0.0,0.0,0.0,0.0,-0.03894222294786448,-0.1271300101563343,-0.48747925463749014,0.0,0.0,0.0,0.0,0.0,0.0,0.0,0.0,0.0,1.2404759565087666,-4.676812329006282,8.872919704602339,0.0,0.0,0.0,0.0,0.0,0.0,0.0,0.0,0.0
160567000000,157,160566000000,base_link,-0.0035219600672706033,-0.0043222564936980035,-0.7067225376978932,0.7074688463854343,0.0,0.0,0.0,0.0,0.0,0.0,0.0,0.0,0.0,0.03892376285426742,-0.20272387467256242,0.48671141020986025,0.0,0.0,0.0,0.0,0.0,0.0,0.0,0.0,0.0,3.8763807914402912,4.808653569902896,10.077591638810206,0.0,0.0,0.0,0.0,0.0,0.0,0.0,0.0,0.0
160568000000,158,160567000000,base_link,-0.0035862753798235852,-0.0043583627050020205,-0.7068520907590556,0.7073388615741281,0.0,0.0,0.0,0.0,0.0,0.0,0.0,0.0,0.0,-0.04200353996560483,-0.14220529787278957,-0.3667342627570762,0.0,0.0,0.0,0.0,0.0,0.0,0.0,0.0,0.0,-8.92761669898066,-5.032511489437013,8.118829016901024,0.0,0.0,0.0,0.0,0.0,0.0,0.0,0.0,0.0
160569000000,159,160568000000,base_link,-0.003529230239067289,-0.004332681893655991,-0.7068357621264679,0.7073556232763145,0.0,0.0,0.0,0.0,0.0,0.0,0.0,0.0,0.0,0.044657975923082176,0.1170040152163509,0.04648279144033669,0.0,0.0,0.0,0.0,0.0,0.0,0.0,0.0,0.0,-33.055337237360206,4.941206121978116,8.581053527110134,0.0,0.0,0.0,0.0,0.0,0.0,0.0,0.0,0.0
160570000000,160,160569000000,base_link,-0.00350862237168112,-0.00429203347655453,-0.7069822081755532,0.7072096049552126,0.0,0.0,0.0,0.0,0.0,0.0,0.0,0.0,0.0,-0.030609001529060955,0.08640691184254191,-0.4134924839091153,0.0,0.0,0.0,0.0,0.0,0.0,0.0,0.0,0.0,1.8075777361240346,-4.746701149106036,9.032059397588828,0.0,0.0,0.0,0.0,0.0,0.0,0.0,0.0,0.0
160571000000,161,160570000000,base_link,-0.0034898454508628584,-0.004303172089623802,-0.7068143456294081,0.7073773989188289,0.0,0.0,0.0,0.0,0.0,0.0,0.0,0.0,0.0,0.044926435956072215,0.01105765195128034,0.4744433724808358,0.0,0.0,0.0,0.0,0.0,0.0,0.0,0.0,0.0,4.281607225499566,4.006087813282231,10.985115483892578,0.0,0.0,0.0,0.0,0.0,0.0,0.0,0.0,0.0
160572000000,162,160571000000,base_link,-0.0035100130336023975,-0.004302540957331235,-0.70698543646949,0.7072063069358611,0.0,0.0,0.0,0.0,0.0,0.0,0.0,0.0,0.0,-0.03209100791675311,-0.027894892289037538,-0.483734162831388,0.0,0.0,0.0,0.0,0.0,0.0,0.0,0.0,0.0,1.6950811123483605,-4.769554799283138,9.99717747270313,0.0,0.0,0.0,0.0,0.0,0.0,0.0,0.0,0.0
160573000000,163,160572000000,base_link,-0.003530149597871191,-0.004354105419980673,-0.7068125622298054,0.707378669231654,0.0,0.0,0.0,0.0,0.0,0.0,0.0,0.0,0.0,0.047126824042576565,-0.10113633491918864,0.48804207927065846,0.0,0.0,0.0,0.0,0.0,0.0,0.0,0.0,0.0,4.486852693929819,4.894127966331264,12.08096678009385,0.0,0.0,0.0,0.0,0.0,0.0,0.0,0.0,0.0
160574000000,164,160573000000,base_link,-0.0035918592178965244,-0.004379583071606389,-0.7069836310748588,0.7072072278983619,0.0,0.0,0.0,0.0,0.0,0.0,0.0,0.0,0.0,-0.05398842171642461,-0.12356411784010993,-0.4840171947698589,0.0,0.0,0.0,0.0,0.0,0.0,0.0,0.0,0.0,2.344621275767401,-4.924494708858558,10.277240917241993,0.0,0.0,0.0,0.0,0.0,0.0,0.0,0.0,0.0
160575000000,165,160574000000,base_link,-0.003638250425878908,-0.004454101028584536,-0.7068109685541736,0.7073790913289542,0.0,0.0,0.0,0.0,0.0,0.0,0.0,0.0,0.0,0.04249655604219095,-0.17072990921961778,0.48709667825769387,0.0,0.0,0.0,0.0,0.0,0.0,0.0,0.0,0.0,5.007483036714282,6.6541971357749325,11.640275894499657,0.0,0.0,0.0,0.0,0.0,0.0,0.0,0.0,0.0
160576000000,166,160575000000,base_link,-0.003719579690609945,-0.0044902923868251595,-0.7069816849173962,0.7072078189560443,0.0,0.0,0.0,0.0,0.0,0.0,0.0,0.0,0.0,-0.06666738646394979,-0.16645436963390306,-0.48317562031661276,0.0,0.0,0.0,0.0,0.0,0.0,0.0,0.0,0.0,2.670491622981829,-5.823051819536335,10.242413605913407,0.0,0.0,0.0,0.0,0.0,0.0,0.0,0.0,0.0
160577000000,167,160576000000,base_link,-0.003767422714692544,-0.0045680753949239525,-0.7068096762721069,0.7073789795727567,0.0,0.0,0.0,0.0,0.0,0.0,0.0,0.0,0.0,0.04513043366503605,-0.1774082698355306,0.4851575945887716,0.0,0.0,0.0,0.0,0.0,0.0,0.0,0.0,0.0,5.245518699958343,6.901410678160587,10.79596415105823,0.0,0.0,0.0,0.0,0.0,0.0,0.0,0.0,0.0
