%time,field.header.seq,field.header.stamp,field.header.frame_id,field.wrench.force.x,field.wrench.force.y,field.wrench.force.z,field.wrench.torque.x,field.wrench.torque.y,field.wrench.torque.z
160367000000,0,160362000000,BR_wheel_link,-20.41037212471932,-22.56736686362821,3.691228832274287,0.0059133379084565655,0.062355031908429816,-0.42300397649520566
160367000000,1,160363000000,BR_wheel_link,19.986781351071528,22.714907073845307,1.8210081967696692,0.0035116856133270598,-0.05884729486701343,0.423042369463439
160367000000,2,160364000000,BR_wheel_link,-20.686424302786687,-22.68649158443792,4.05571403890723,0.00018097603488984317,0.06776077184730962,-0.42269422268211604
160367000000,3,160365000000,BR_wheel_link,19.1803594057969,22.52683645469074,2.7259255634464346,-0.006218021732933246,-0.06128982535642964,0.4225808465236006
160367000000,4,160366000000,BR_wheel_link,-20.588551911024684,-22.689423214052326,4.839237404704833,0.0004523163620360045,0.07471672368472178,-0.42251327045838377
160367000000,5,160367000000,BR_wheel_link,18.52040150104168,22.467411734785795,3.869873369385198,-0.008220662740458089,-0.0782008910465802,0.42228467085071786
160368000000,6,160368000000,BR_wheel_link,-18.46514350075237,-22.62984652845657,5.730803604214042,0.004274000408708383,0.06904666447888486,-0.4228515167576473
160369000000,7,160369000000,BR_wheel_link,19.90012805874819,22.46399049136874,4.294316159218908,-0.00677481569282033,-0.07395409800737482,0.4230927826550068
160370000000,8,160370000000,BR_wheel_link,-18.737924510572814,-22.597732385712664,5.316401513560191,0.005713763427607343,0.06258312422200264,-0.42289243027482665
160371000000,9,160371000000,BR_wheel_link,20.493121529231015,22.51659420468368,3.608952312428236,-0.005046653807942459,-0.0660409560488438,0.4228734801505779
160372000000,10,160372000000,BR_wheel_link,-19.52057457254407,-22.614069179849675,5.1157509167079755,0.004889574974204287,0.05954345208657129,-0.42280438347280896
160373000000,11,160373000000,BR_wheel_link,20.500016339494934,22.544154034930703,2.4773866033118126,-0.0046036663234995485,-0.05665637888549416,0.4228760277996696
160374000000,12,160374000000,BR_wheel_link,-20.65975179512546,-22.614444650435008,4.467495889434098,0.004475040528943423,0.05765172660362021,-0.42278947567025665
160375000000,13,160375000000,BR_wheel_link,20.408803697055014,22.592420404014813,2.0230281884406085,-0.002635400724809684,-0.05340052065262812,0.4228151885615037
160376000000,14,160376000000,BR_wheel_link,-21.105287978224123,-22.614784147344697,4.20880386611622,0.0042555530526717355,0.05847944404451393,-0.42277468057745804
160377000000,15,160377000000,BR_wheel_link,20.207039485287748,22.56720947753168,1.938684545681136,-0.0039640567731649345,-0.05363510411069407,0.4227825007435595
160378000000,16,160378000000,BR_wheel_link,-21.100999084706576,-22.60476837619505,4.330491191564196,0.004806094475420513,0.05748925342944616,-0.4227991065482558
160379000000,17,160379000000,BR_wheel_link,20.231125561994347,22.608712692648243,2.452962012242826,-0.0016253316225571962,-0.04860814454625013,0.42284426153126015
160380000000,18,160380000000,BR_wheel_link,-21.468747152390367,-22.596926842838688,4.579446587313059,0.005381339956382636,0.04557878500746781,-0.42287592074983166
160381000000,19,160381000000,BR_wheel_link,21.491258620602608,22.57579879201486,3.71922965741492,-0.0029843236271939327,-0.044701593381316754,0.4227261225881356
160382000000,20,160382000000,BR_wheel_link,-21.418739130914773,-22.65298421604774,5.357938281366564,0.0031751919633403168,0.03860457190429581,-0.4227280218520322
160383000000,21,160383000000,BR_wheel_link,22.20945403480644,22.51550358740666,4.794171604125288,-0.005891835860279006,-0.042115775027113625,0.4226227650802099
160384000000,22,160384000000,BR_wheel_link,-21.4394673842027,-22.712818049995068,5.828730826071745,0.0009423661887180446,0.037156139441898,-0.42255438710625925
160385000000,23,160385000000,BR_wheel_link,22.241792353431247,22.491904263230037,4.801680799834358,-0.006774266551622868,-0.04019079795635503,0.42249755564167196
160386000000,24,160386000000,BR_wheel_link,-21.743825304767274,-22.69243426730348,5.295365203092601,0.0016512387188105605,0.037809618773712375,-0.4227439854478152
160387000000,25,160387000000,BR_wheel_link,22.274215314566927,22.531880560635116,3.954659829555041,-0.004498918572300197,-0.0369422260153241,0.4229346295249429
160388000000,26,160388000000,BR_wheel_link,-22.23032000883499,-22.62472756724904,4.393759702914367,0.004552704248859616,0.03623827629462072,-0.4227214975449791
160389000000,27,160389000000,BR_wheel_link,22.261272581485276,22.648379593900057,3.0514107542750386,0.0005858419417939765,-0.034838236179747066,0.42274962685225953
160390000000,28,160390000000,BR_wheel_link,-22.449314254190714,-22.594161335247314,4.0424690679064526,0.005545667486524617,0.03673468310217928,-0.42277008077393585
160391000000,29,160391000000,BR_wheel_link,22.144236392315523,22.64088165335557,2.8822488679926086,-5.686578868018098e-05,-0.033678004381344696,0.4229220408983087
160392000000,30,160392000000,BR_wheel_link,-22.70760793231877,-22.629253241110877,4.01577835992161,0.0035887680143410084,0.03610132500175875,-0.4228846450967823
160393000000,31,160393000000,BR_wheel_link,22.22673272994193,22.522609499327196,4.41816802636543,-0.005280257000651926,-0.03609695471110782,0.4226630087079194
160394000000,32,160394000000,BR_wheel_link,-22.36903198404353,-22.67645648048898,4.31288459332387,0.0016179913817619298,0.03929040475574929,-0.4226162418674625
160395000000,33,160395000000,BR_wheel_link,21.89491975655191,22.469481102495607,4.800321785127869,-0.007613789678375307,-0.04079884049873935,0.42251675593622356
160396000000,34,160396000000,BR_wheel_link,-21.857807982426724,-22.656219284848188,4.55574975573519,0.002890907079953177,0.04036393478758823,-0.4227091946409235
160397000000,35,160397000000,BR_wheel_link,22.053075764324554,22.496866950303612,4.958920755270253,-0.005580628318090033,-0.04335616249332857,0.4227868951025507
160398000000,36,160398000000,BR_wheel_link,-21.55342772069164,-22.60129604591198,4.665724410415839,0.00585380788002897,0.04060318519553175,-0.42269043607154877
160399000000,37,160399000000,BR_wheel_link,22.010482022279437,22.54803708473262,4.72996538790709,-0.0031894819037264423,-0.04356668701787506,0.42265329897966614
160400000000,38,160400000000,BR_wheel_link,-21.513383855146763,-22.565921433798927,4.59183690650706,0.007445265820325908,0.04343912491861053,-0.42267463969729985
160401000000,39,160401000000,BR_wheel_link,21.71163066774896,22.598392431157528,4.340241724798728,-0.0009769937089817208,-0.044021938457252476,0.4229417023672877
160402000000,40,160402000000,BR_wheel_link,-21.72144272684769,-22.597215161002275,4.476932066540013,0.005305656729393669,0.046601846752505026,-0.4228873096049446
160403000000,41,160403000000,BR_wheel_link,21.27229514678568,22.550511490262043,4.127094676677399,-0.0038996708309237153,-0.04293877769294363,0.4227289074809404
160404000000,42,160404000000,BR_wheel_link,-21.88290782940961,-22.668988562009545,4.389934614823558,0.001773482759614946,0.04676488944338504,-0.42266807802294587
160405000000,43,160405000000,BR_wheel_link,21.13392636025618,22.482465967104897,4.090387775667748,-0.007365348868314157,-0.04358606889061076,0.4225825625867353
160406000000,44,160406000000,BR_wheel_link,-21.749355138978853,-22.683538667309637,4.558003252013892,0.0013861617794959536,0.043249239640200554,-0.422781938255952
160407000000,45,160407000000,BR_wheel_link,21.729728125273464,22.501547745868056,4.149581809704127,-0.005801832908624444,-0.043416530699604036,0.42283870723560324
160408000000,46,160408000000,BR_wheel_link,-21.521092722075032,-22.674578462724696,5.492811061359928,0.0027825829245067073,0.035925642439747774,-0.4227455693962706
160409000000,47,160409000000,BR_wheel_link,22.517709690408683,22.556811250904666,4.1974513835665554,-0.002935790533387512,-0.03856593086208173,0.42267971933461734
160410000000,48,160410000000,BR_wheel_link,-21.814804432179454,-22.610426887436056,5.30363076260442,0.005999377191705706,0.033533607681267764,-0.42269959879592467
160411000000,49,160411000000,BR_wheel_link,22.620156988630747,22.647960344300593,4.121573598824009,0.0015704583779350436,-0.03594449398585065,0.42279467179564206
160412000000,50,160412000000,BR_wheel_link,-22.243972848789397,-22.607973530816,5.225412578238659,0.005370242103855912,0.037656287981124546,-0.42297719121683136
160413000000,51,160413000000,BR_wheel_link,22.11948696990856,22.605222845047802,4.08397463031949,-0.0009952454144865253,-0.033232939102623676,0.4230343385546657
160414000000,52,160414000000,BR_wheel_link,-22.774600399162562,-22.686033618965006,5.219115465446876,0.0014554082165244512,0.03844820072140563,-0.42269781012721663
160415000000,53,160415000000,BR_wheel_link,21.805624071726978,22.5431812819921,4.133321041469784,-0.004541655004661213,-0.033233557558019385,0.4226367208449204
160416000000,54,160416000000,BR_wheel_link,-22.712505834958847,-22.73318490425025,5.259334714949051,-0.0007995152710519852,0.036500327209507695,-0.4225982876662149
160417000000,55,160417000000,BR_wheel_link,22.003105209248545,22.49827175221311,4.181307301976541,-0.006387044289306126,-0.03434089198895335,0.42250317893632305
160418000000,56,160418000000,BR_wheel_link,-22.444822279607838,-22.695600664963973,5.2017552677766865,0.0014361773700748578,0.03126624662408417,-0.42279385868592634
160419000000,57,160419000000,BR_wheel_link,22.89061898038747,22.542741122487513,4.1742902812155185,-0.003911505113692865,-0.03457105712835002,0.42283266421430116
160420000000,58,160420000000,BR_wheel_link,-22.204649521089657,-22.622609675119698,5.074811204341604,0.00526422221493948,0.027883923359972897,-0.422730705180829
160421000000,59,160421000000,BR_wheel_link,23.27516993551065,22.630944031914193,4.130005563352277,0.000421820987343175,-0.033336398992428164,0.42271236464999357
160422000000,60,160422000000,BR_wheel_link,-22.266349311223923,-22.5945830785052,5.05987444602085,0.006281741476884776,0.031207407582121646,-0.422698413314878
160423000000,61,160423000000,BR_wheel_link,22.82233944883349,22.632879385076986,4.141576784833708,0.00026351636454127893,-0.0314662284496039,0.42290633238753966
160424000000,62,160424000000,BR_wheel_link,-22.799906063221094,-22.65766816092517,5.178134082600539,0.0029425571697957727,0.03532541985459051,-0.42281048520039627
160425000000,63,160425000000,BR_wheel_link,22.181587791765367,22.55453415603134,4.3467014044146115,-0.003923823881224369,-0.030386590348186804,0.42268888113765624
160426000000,64,160426000000,BR_wheel_link,-23.018005752176652,-22.730196573720004,5.344561302805041,-0.0005633668311296261,0.03617331942449111,-0.4226009292092661
160427000000,65,160427000000,BR_wheel_link,21.97684897780909,22.516155765416027,4.439404236808601,-0.0056196938618656945,-0.032724983042626415,0.4225448820558538
160428000000,66,160428000000,BR_wheel_link,-22.71674299694145,-22.726478872509194,5.3746683854039965,-4.371870349689503e-05,0.03346809463276711,-0.422787456409478
160429000000,67,160429000000,BR_wheel_link,22.545408333580212,22.508135155238513,4.374601590627399,-0.005567122222227857,-0.03434278028835242,0.4227972287891583
160430000000,68,160430000000,BR_wheel_link,-22.335592541573423,-22.651065638758407,5.175829436723404,0.00394299667096162,0.029178742041543217,-0.42272031615619976
160431000000,69,160431000000,BR_wheel_link,23.07180549537616,22.596415054000477,4.222322223302467,-0.0011984121309405694,-0.03303190390678617,0.4226759287384463
160432000000,70,160432000000,BR_wheel_link,-22.291445422700775,-22.589139851741727,4.935003012886836,0.006744990077433373,0.028385146095599206,-0.422723167896861
160433000000,71,160433000000,BR_wheel_link,23.184253153198892,22.659225999385466,4.067084683807679,0.0015304990908610661,-0.032034917899227654,0.4229034488891384
160434000000,72,160434000000,BR_wheel_link,-22.59522493348548,-22.61661081115286,4.900277593120639,0.0048748999217949965,0.032792670353275204,-0.4228254394440097
160435000000,73,160435000000,BR_wheel_link,22.54121522785231,22.592554957324456,4.0973225279733825,-0.0021982075285203488,-0.02982288761260255,0.42272782683171317
160436000000,74,160436000000,BR_wheel_link,-22.995669975410138,-22.710045122926932,5.141380345773214,0.0002761342380899546,0.03527907144994646,-0.4226155431466187
160437000000,75,160437000000,BR_wheel_link,22.069052829300908,22.526031975910055,4.27213747716776,-0.005456502811870898,-0.03089507959241334,0.42258715821862386
160438000000,76,160438000000,BR_wheel_link,-22.8705866329017,-22.74571346499289,5.369511400575581,-0.0010984090399511455,0.03463600874744541,-0.42254961655229883
160439000000,77,160439000000,BR_wheel_link,22.26949390468948,22.513255298789822,4.402707789644379,-0.00551435403687897,-0.03409005977822925,0.42272013482190834
160440000000,78,160440000000,BR_wheel_link,-22.500547763285876,-22.689516564812163,5.415637347279418,0.0018677987586277068,0.031088498368762162,-0.4228873136306624
160441000000,79,160441000000,BR_wheel_link,22.85662449682671,22.551167273174116,4.383559397436441,-0.0034232031175829387,-0.034212579528899396,0.4226556558528928
160442000000,80,160442000000,BR_wheel_link,-22.23241408214669,-22.614239110084387,5.266181551899083,0.005947110145741656,0.029109539753607225,-0.4226926525624668
160443000000,81,160443000000,BR_wheel_link,23.081856298313927,22.646730400579855,4.2203469447660025,0.001314945827596375,-0.03390543864490196,0.4227363111293264
160444000000,82,160444000000,BR_wheel_link,-22.250495299347538,-22.59516977313008,5.145584837661396,0.006137944486093806,0.03357599090217194,-0.42272962452898644
160445000000,83,160445000000,BR_wheel_link,22.53783885906077,22.621450749759525,4.070590739328132,-0.00027666556705888216,-0.03283831756065877,0.42295434001637217
160446000000,84,160446000000,BR_wheel_link,-22.7214950872815,-22.673002223419815,5.110768106860291,0.002059700787084379,0.03655180264469237,-0.422864622219323
160447000000,85,160447000000,BR_wheel_link,22.071451645041456,22.547500646348297,4.103307001830671,-0.0043720055009946425,-0.03140654479895016,0.4226974518909199
160448000000,86,160448000000,BR_wheel_link,-22.90391129981378,-22.73781229565074,5.1721301030963955,-0.0009614872728530282,0.035419261790643565,-0.42261925793743954
160449000000,87,160449000000,BR_wheel_link,22.116726898166,22.50525415600634,4.18789061086159,-0.006214692931369371,-0.03321331989381086,0.42254259227674396
160450000000,88,160450000000,BR_wheel_link,-22.61083161903353,-22.715887329071062,5.242130208364344,0.0004556281591242308,0.0326132216502597,-0.4227757648665117
160451000000,89,160451000000,BR_wheel_link,22.67521679872773,22.52680446117233,4.242108835483718,-0.004715322560318566,-0.03422329048170309,0.42279621582727883
160452000000,90,160452000000,BR_wheel_link,-22.31222017648296,-22.637555557615354,5.194542343651311,0.004673734217130245,0.028755387258348853,-0.42272468354447673
160453000000,91,160453000000,BR_wheel_link,23.147188700721088,22.62733230734712,4.237933302069523,0.000340650800663289,-0.03386519364879486,0.42269480092943734
160454000000,92,160454000000,BR_wheel_link,-22.226464097559433,-22.588446553093387,5.186970921230637,0.006806259031720044,0.03133298374112535,-0.4227118742664995
160455000000,93,160455000000,BR_wheel_link,22.834559584043713,22.647829564754872,4.219182825741647,0.001080858931890062,-0.03249999192023948,0.42291769028702364
160456000000,94,160456000000,BR_wheel_link,-22.663109718346057,-22.6423251125895,5.241237341116156,0.003739345024323975,0.03510915966130661,-0.42283101685527924
160457000000,95,160457000000,BR_wheel_link,22.24968542558434,22.568229344070446,4.282577753349991,-0.003304199092382831,-0.030781465999409566,0.4227069054444332
160458000000,96,160458000000,BR_wheel_link,-22.950118335460022,-22.72961572836529,5.332791986281158,-0.0005763792024843215,0.035965287786183395,-0.4226104252442412
160459000000,97,160459000000,BR_wheel_link,22.020047561640574,22.517618030753056,4.334511766559582,-0.005702802415465415,-0.032546732619914656,0.422557842151464
160460000000,98,160460000000,BR_wheel_link,-22.7392147331478,-22.74252707461957,5.3498112366782555,-0.0008509518013625065,0.03380862441008137,-0.42278142345053477
160461000000,99,160461000000,BR_wheel_link,22.489822317138337,22.49534865018601,4.284727480716005,-0.0062729515744014384,-0.03390705755813209,0.4227980338889229
160462000000,100,160462000000,BR_wheel_link,-22.404989564731277,-22.671061595350093,5.184692481672846,0.0030234925291745137,0.029250283311349042,-0.4227166716423275
160463000000,101,160463000000,BR_wheel_link,23.062656970291954,22.575281676618303,4.1490554280757515,-0.0022309510296648614,-0.03378854358926253,0.4226445814826629
160464000000,102,160464000000,BR_wheel_link,-22.206856535723883,-22.59116021936719,5.006174343559914,0.006934354086392101,0.028902281636420987,-0.42270861678685695
160465000000,103,160465000000,BR_wheel_link,23.07746585584247,22.720692342092264,4.0984527479126465,-0.05717936555153129,-0.03324540001745751,0.42280822317527733
160466000000,104,160466000000,BR_wheel_link,-22.35668638340034,-22.648272994961076,5.475516242236819,-0.05398562411691545,0.03493572457891537,-0.4227254463121066
160467000000,105,160467000000,BR_wheel_link,22.22741318143216,22.409073938251755,5.1800383685029,-0.06247820486553598,-0.03104815754597939,0.42266116487459804
160468000000,106,160468000000,BR_wheel_link,-22.841589197803142,-23.057029541826044,7.247025100844668,-0.06153986032556718,0.03746885217539738,-0.4223117406442131
160469000000,107,160469000000,BR_wheel_link,21.687477496069405,21.879337926921707,7.314764255010032,-0.04889026423435773,-0.03223713269666749,0.4220751580798905
160470000000,108,160470000000,BR_wheel_link,-22.543779728087614,-23.60638350796546,9.151476651101767,-0.004441137713447279,0.032801237117683735,-0.42226186889416895
160471000000,109,160471000000,BR_wheel_link,22.267470551774085,21.42968973484696,8.229807765046791,-0.00988097987295624,-0.03546311424443315,0.4218480277706694
160472000000,110,160472000000,BR_wheel_link,-21.76610222886678,-23.580685268511154,8.124550827412035,0.004491548482671227,0.031172740942516854,-0.42202888307443986
160473000000,111,160473000000,BR_wheel_link,22.534272289999127,21.635694170101438,6.222921877955419,0.0014035226073270022,-0.03564055793878631,0.4220298020810947
160474000000,112,160474000000,BR_wheel_link,-21.558295832400674,-23.570896415343764,7.262258550350778,0.00892464828556921,0.0325982911000515,-0.42230162253737386
160475000000,113,160475000000,BR_wheel_link,22.393845420345606,21.622938485863752,4.791908374440654,-0.0010752850108625845,-0.039827862402356334,0.4219421758731194
160476000000,114,160476000000,BR_wheel_link,-21.194226045036576,-23.445340119023296,5.160470359133246,0.003155300720722273,0.04321946829372136,-0.42098896181003514
160477000000,115,160477000000,BR_wheel_link,20.868783627022808,21.542229743241105,3.69644077353385,-0.003202243156608363,-0.03877691532992131,0.42193203730792733
160478000000,116,160478000000,BR_wheel_link,-21.642127763235724,-23.426882215503547,4.916496201810463,0.004345921977121604,0.04129892433091159,-0.42173177325804934
160479000000,117,160479000000,BR_wheel_link,20.840821412402104,21.692172357116505,2.716181010833821,-0.0019686528352281397,-0.03405751538103018,0.42237603715597555
160480000000,118,160480000000,BR_wheel_link,-22.153463876961315,-23.566669459272,4.980693307449616,0.004080864217927537,0.03700098939336056,-0.42252780354802194
160481000000,119,160481000000,BR_wheel_link,21.19516825906761,21.476707860442836,2.991181214521207,-0.004392896452466208,-0.034503394107472496,0.4217266695123964
160482000000,120,160482000000,BR_wheel_link,-21.78621587377087,-23.97351782901493,5.553404764882406,-0.0019071942920295057,0.036693079065260696,-0.4213245728440429
160483000000,121,160483000000,BR_wheel_link,21.03728227683591,21.106810617094496,3.785576570772175,-0.007972826232117584,-0.03105578441049564,0.42136978130386904
160484000000,122,160484000000,BR_wheel_link,-22.03118129199306,-24.291175953961254,6.360766754266975,-0.0020175446933520633,0.031136389711098316,-0.4218229558177019
160485000000,123,160485000000,BR_wheel_link,21.582596761405842,20.776153502972626,4.736501537765076,-0.007601500911793699,-0.02936857045910926,0.4212518937942292
160486000000,124,160486000000,BR_wheel_link,-21.81558695931856,-24.570013126425142,7.237046667817913,0.0003166353474010896,0.026713669819728354,-0.42213788620184517
160487000000,125,160487000000,BR_wheel_link,22.173276066068386,20.52504457679567,5.33422658551172,-0.0059869888530695884,-0.02894987392482676,0.4216549357790583
160488000000,126,160488000000,BR_wheel_link,-21.48903646019568,-24.705078866976304,7.866729918758726,0.005458424176076267,0.02394384665641179,-0.42222998815178275
160489000000,127,160489000000,BR_wheel_link,22.51965253320403,20.34071506420257,5.871423630359535,-0.002229620705361226,-0.028068287337945894,0.422425534993448
160490000000,128,160490000000,BR_wheel_link,-21.432403811267076,-24.830919430722364,8.497969952190555,0.009532889274202856,0.025605606530549663,-0.4222326482377511
160491000000,129,160491000000,BR_wheel_link,22.139257798705145,20.158453594419985,6.260447231677338,3.860845212437973e-05,-0.028423277828534033,0.422729399738765
160492000000,130,160492000000,BR_wheel_link,-21.40401893784221,-24.986079217333668,9.011060267890684,0.011102634202667565,0.027589461744147746,-0.42247106573275656
160493000000,131,160493000000,BR_wheel_link,21.722177642987596,19.95174880492094,6.527858644363507,0.00016907668317818537,-0.029776901937441223,0.4226909412469096
160494000000,132,160494000000,BR_wheel_link,-21.22641794566517,-25.178672192679503,9.43359423943156,0.010462814132388146,0.030109316375849335,-0.42234876602062926
160495000000,133,160495000000,BR_wheel_link,25.163200299150905,19.32089159860068,4.001503993886222,-0.08602336934272087,-0.03233231093955583,0.25159696845672663
160496000000,134,160496000000,BR_wheel_link,-1.900876447370258,27.050260050572714,3.9770685183872794,-0.07394686231694574,0.03371177882261574,-0.041021528956559736
160497000000,135,160497000000,BR_wheel_link,-3.046759618591031,-28.495194079614315,5.257260092858779,0.11229844339999648,-0.025579441666315803,-0.003831964186113223
160498000000,136,160498000000,BR_wheel_link,2.687826422054643,27.649414951930186,-0.854188008826831,-0.060436098327031666,0.020820445159740374,0.01119926189973074
160499000000,137,160499000000,BR_wheel_link,-2.6744930995170937,-27.229134051323463,3.8114391058436303,0.11741765430415106,-0.016078279617026146,-0.012829769928357708
160500000000,138,160500000000,BR_wheel_link,2.105871381925931,27.68317077198069,-1.4355578153796562,-0.0665441589308437,0.012940702486149206,0.013144845172371319
160501000000,139,160501000000,BR_wheel_link,-2.2567875851102817,28.005553415972855,-1.995866779361073,-0.06455381516626574,-0.008788950189260852,-0.001970245329962848
160502000000,140,160502000000,BR_wheel_link,0.1820204703746657,-27.58140514605384,4.693854691753691,0.11188690706711778,0.005493093401836495,-0.011396231654336118
160503000000,141,160503000000,BR_wheel_link,0.2486542013802665,27.571790477906223,-1.7460047305693849,-0.06431762206632258,-0.0034435361030127646,0.013557810486919897
160504000000,142,160504000000,BR_wheel_link,-0.5432099697605164,-27.862556345051097,5.4356528477949375,0.11029993165019983,0.002582917663555975,-0.013726564443813882
160505000000,143,160505000000,BR_wheel_link,0.47478759107943813,26.89991257503578,-0.447756158785983,-0.07048934027395529,-0.0009928193957073287,0.013909370248997714
160506000000,144,160506000000,BR_wheel_link,-0.7980348508379799,-28.533922664848458,6.944705208748093,0.10672572545810967,0.0008956921374426813,-0.01382682328803684
160507000000,145,160507000000,BR_wheel_link,0.6110753951494574,26.73617917666833,-0.30787059182421905,-0.07591475003729936,-0.00040654411529578177,0.013685792361952775
160508000000,146,160508000000,BR_wheel_link,-0.7953638714766772,-28.618213850673484,7.197280756724612,0.10121908748072396,-0.0004004030423963666,-0.013636674943117738
160509000000,147,160509000000,BR_wheel_link,0.7770901088356773,26.362548863435357,2.0907083642797915,-0.09022381681873028,-0.00045243762984744593,0.013573822662588548
160510000000,148,160510000000,BR_wheel_link,1.142576331934262,-1.7575883983425686,5.348352434037918,-0.04408762291388044,-0.0019018741417913057,-0.0952512193006416
160511000000,149,160511000000,BR_wheel_link,8.162573961960662,24.459938716774698,6.012083293266983,-0.003622347932113794,0.0032581102997345976,0.2794517353905984
160512000000,150,160512000000,BR_wheel_link,-21.88839763342913,-24.542911244573705,8.233240221119468,0.009143431358897535,-0.00260236615535088,-0.3988411111932835
160513000000,151,160513000000,BR_wheel_link,23.631406974351403,21.137079973700295,6.266481976331669,0.0008231003387282407,-0.003085104152537496,0.4186445426823906
160514000000,152,160514000000,BR_wheel_link,-23.403497012407318,-24.12328522057098,8.999979266467681,0.012481455540092435,0.007471674199838017,-0.42213286217663704
160515000000,153,160515000000,BR_wheel_link,22.91918257114654,20.8424583319381,6.377281073061845,0.0015846389949639836,-0.010533525110070748,0.422883562628185
160516000000,154,160516000000,BR_wheel_link,-22.724764755286078,-24.286587017756087,9.543092349082336,0.012513087628476834,0.013463108818621373,-0.4231619644865145
160517000000,155,160517000000,BR_wheel_link,22.348183688589632,20.648448870679804,6.405877384939618,0.0022583849387700023,-0.019628487918477645,0.4229913917336296
160518000000,156,160518000000,BR_wheel_link,-21.529144201661794,-24.478934402717694,10.038118021638834,0.011686449724646402,0.018856050201772934,-0.42318394969713524
160519000000,157,160519000000,BR_wheel_link,21.84147218883338,20.355664760701103,6.3990356018886505,-0.0020119417059978337,-0.022995354494794305,0.4232054998274946
160520000000,158,160520000000,BR_wheel_link,-21.13819004889294,-24.809312903543496,10.269406067761519,0.004761676010589446,0.023912720355148027,-0.42242600830451443
160521000000,159,160521000000,BR_wheel_link,21.077555629762088,20.055881319343964,6.225332248960286,-0.008703383638601472,-0.025346962492622315,0.42237317405602515
160522000000,160,160522000000,BR_wheel_link,-20.963315356910886,-25.12936200126809,10.218585463843256,-0.002851834867311831,0.02750057441500677,-0.4215106229516538
160523000000,161,160523000000,BR_wheel_link,20.466282894516716,19.873554943430744,5.836578426283391,-0.013086177314326035,-0.025595843229105554,0.42143898371927246
160524000000,162,160524000000,BR_wheel_link,-21.171604620256613,-24.16325577912725,9.492027855177632,-0.006162822775913741,0.02664620502343251,-0.4213662762690855
160525000000,163,160525000000,BR_wheel_link,20.65311104642462,20.99098973467296,4.965474994761849,-0.012756481615986531,-0.0230727917831605,0.4221741192264689
160526000000,164,160526000000,BR_wheel_link,-21.554869337121204,-24.04664871050261,8.665262389463978,-0.0019242216165171978,0.023488364853482768,-0.4234137876335218
160527000000,165,160527000000,BR_wheel_link,21.05662347166979,21.014377994973955,4.178561890396061,-0.007938896265529967,-0.020693637517671552,0.42331836544544194
160528000000,166,160528000000,BR_wheel_link,-21.65956495879585,-24.0012485637171,8.778369655888849,0.0010528675562747696,0.019857190764376642,-0.4238631198431864
160529000000,167,160529000000,BR_wheel_link,21.52871960302289,20.97976272134292,4.274847354996253,-0.0040507467895148225,-0.021162655670798308,0.4232132330311454
160530000000,168,160530000000,BR_wheel_link,-21.296454152345532,-24.049475986776443,8.042486086804562,0.00778083487928177,0.019403494539876543,-0.42423496993216625
160531000000,169,160531000000,BR_wheel_link,21.67049183101537,20.90741915995717,3.565933439838516,0.0009208243886311714,-0.018833251759465906,0.4244881818838464
160532000000,170,160532000000,BR_wheel_link,-21.50164291954068,-24.05332359976845,7.710828615890235,0.01262761861365437,0.01841067161567331,-0.42452194378476066
160533000000,171,160533000000,BR_wheel_link,21.62666346585058,20.85817684556961,3.472475500784092,0.0038308288953706015,-0.018018803455225607,0.4245462819667701
160534000000,172,160534000000,BR_wheel_link,-21.484437604841673,-24.117967759780917,8.09841328875968,0.014363925895159297,0.01814203202374625,-0.424576586285374
160535000000,173,160535000000,BR_wheel_link,21.5267483856956,20.69099215680455,4.122259578599038,0.003352964149060175,-0.01870774278333268,0.42456191623065226
160536000000,174,160536000000,BR_wheel_link,-21.244195805212893,-24.347768498212254,9.230872754802501,0.01217571411902239,0.018570917794519384,-0.42455163645505095
160537000000,175,160537000000,BR_wheel_link,25.2782665631706,19.84506542196963,2.609074166733123,-0.08491681831569846,-0.025684300422313545,0.25392092112901155
160538000000,176,160538000000,BR_wheel_link,0.319521464678664,-2.2384503442787183,6.261729682384424,-0.026337911550809275,0.02917995986587007,-0.13776923355653936
160539000000,177,160539000000,BR_wheel_link,5.916735158353254,24.16519419331273,2.5384444207094874,0.014382272604078358,-0.018493419064919463,0.28911150170488276
160540000000,178,160540000000,BR_wheel_link,-19.51274885316821,-23.867458056558963,6.096077445161278,0.0287152154784481,0.010099250287557416,-0.4019336760034912
160541000000,179,160541000000,BR_wheel_link,22.016658172646512,21.531998138852828,1.6276163012732965,0.01809595052640971,-0.010299023914204366,0.4212422334904576
160542000000,180,160542000000,BR_wheel_link,-22.049099592221683,-23.37327749397795,6.227040841274604,0.029434546253926427,0.009657781982227576,-0.4243356297625407
160543000000,181,160543000000,BR_wheel_link,22.186065792544316,21.258771277714,1.904260196288103,0.01691880564231205,-0.01158904838585121,0.4250974143793568
160544000000,182,160544000000,BR_wheel_link,-21.812942793608116,-23.622583955399758,6.944569146397832,0.026620064506416668,0.013254387135959642,-0.42522383337564734
160545000000,183,160545000000,BR_wheel_link,21.5750884564119,20.790131682438332,2.2042806267227917,0.009890679096127319,-0.01456394702821469,0.42479793935528665
160546000000,184,160546000000,BR_wheel_link,-21.306668151970523,-24.506015765467573,8.422583309403654,0.012076089179100908,0.018265923653158454,-0.42393511736581163
160547000000,185,160547000000,BR_wheel_link,22.044321827809245,19.918041987773336,3.6072933853504074,-0.03490317101141398,-0.022078029829289275,0.37068597413905213
160548000000,186,160548000000,BR_wheel_link,-13.521529646434919,-26.61057473260826,10.622268326230902,-0.0034404120170195055,0.02063896072978182,-0.36141641196038965
160549000000,187,160549000000,BR_wheel_link,19.96683575993391,19.73947640266409,6.07014803887318,-0.013252166211792201,-0.01820689069786412,0.41185509528800957
160550000000,188,160550000000,BR_wheel_link,-20.503904009780527,-25.714315264267707,11.91159678634013,-0.004982168782004756,0.013364021471484753,-0.4198766364460982
160551000000,189,160551000000,BR_wheel_link,21.513924637479473,19.150996162417886,7.268059366260681,-0.012158172753347896,-0.015932282462900908,0.4216760083336223
160552000000,190,160552000000,BR_wheel_link,-20.70107826823765,-25.862674194744148,12.796295162349972,-0.0011875052318233348,0.011940210792767893,-0.4220202183269572
160553000000,191,160553000000,BR_wheel_link,21.682780675828354,19.00161188912679,7.6642562953779505,-0.008468394763090508,-0.014835086866697324,0.42277913837357467
160554000000,192,160554000000,BR_wheel_link,-20.793226457540655,-25.848007790985157,12.92796907481876,0.0024524896938566024,0.012575394342935099,-0.4229863849907717
160555000000,193,160555000000,BR_wheel_link,21.52313354024469,18.941918879337695,7.586189670359809,-0.005969697012583646,-0.013291131626419683,0.42381365935517235
160556000000,194,160556000000,BR_wheel_link,-23.081902790660294,1.0521033868748697,9.413455073591425,-0.03714143567037654,0.01842642839947567,-0.337267986202581
160557000000,195,160557000000,BR_wheel_link,13.103692313569477,21.1171648503549,3.4659065586585616,-0.08372639063966263,-0.02383310474579064,0.15319971975967614
160558000000,196,160558000000,BR_wheel_link,0.07777984896764836,-28.15889244909128,9.579399840149602,0.09605138118110684,0.02932575975157162,-0.06775835082163711
160559000000,197,160559000000,BR_wheel_link,1.8899377296510136,25.333202911150277,-1.422422442096672,-0.06807292593711907,-0.019760260486819264,0.053632404578248416
160560000000,198,160560000000,BR_wheel_link,4.072490973028338,-27.82969622526642,4.789930797672378,0.03005661333433986,0.009678279934109383,-0.19231560832830047
160561000000,199,160561000000,BR_wheel_link,18.686191415191654,23.256438057725298,-0.685439806960688,0.01893911707007831,0.005331791026994584,0.3848288268470023
160562000000,200,160562000000,BR_wheel_link,-23.009118725683297,-22.54891487034964,4.144285816229661,0.0305619946441844,-0.006129026251595811,-0.4177345874864555
160563000000,201,160563000000,BR_wheel_link,23.168350512650598,22.261251355727442,-0.4306118589640969,0.018611274073215986,0.007475997504465486,0.42318347916576055
160564000000,202,160564000000,BR_wheel_link,-23.600515861918563,-22.77596916109409,5.052545982031568,0.028963950235250443,-0.005107479608828355,-0.4241193743645718
160565000000,203,160565000000,BR_wheel_link,22.8990382087862,21.563588738286107,0.8443374445902975,0.014876454163101006,0.004712094145096393,0.42393154605312444
160566000000,204,160566000000,BR_wheel_link,-22.933278481256174,-23.617770912106042,6.923166349755986,0.023450713709412294,-0.004094159054853756,-0.42444115296517615
160567000000,205,160567000000,BR_wheel_link,23.889616931809684,20.865407343583016,0.6394956214519598,-0.01877633842175694,-0.00010308189373957739,0.3723475504757952
160568000000,206,160568000000,BR_wheel_link,-19.65904992736832,30.44129578709161,-0.3728785561425368,-0.0804274727143186,0.0145661059416357,-0.18223281969255184
160569000000,207,160569000000,BR_wheel_link,-4.016061466729911,26.147624681614886,1.1883976742441067,0.009500886335436632,-0.00945538479352417,0.20198032285522707
160570000000,208,160570000000,BR_wheel_link,-18.883302278169612,-24.53989830983363,7.130951994674215,0.023372899822323663,-0.003457596630771278,-0.3870313148695981
160571000000,209,160571000000,BR_wheel_link,22.11998218588228,21.24163734161296,1.8719754193176015,0.012090860234753316,0.005365137015138663,0.4174482753662276
160572000000,210,160572000000,BR_wheel_link,-22.581455651623976,-24.132582355734986,8.38811803971993,0.02271745485717268,-0.005351997877914253,-0.423420184763494
160573000000,211,160573000000,BR_wheel_link,22.819012510208246,20.5567390502711,3.1878153599660597,0.006959242833556835,-0.0011379528873711022,0.4244757148554763
160574000000,212,160574000000,BR_wheel_link,-21.58591082584816,-24.294288679074604,9.618079878404927,0.01463297876388925,-0.0005269965900573637,-0.4238633758594931
160575000000,213,160575000000,BR_wheel_link,22.219163332835492,20.314828032627297,4.272108198352363,-0.0013294651714855312,-0.0031390050987953016,0.4240625701402553
160576000000,214,160576000000,BR_wheel_link,-21.34201061662968,-24.63687237031995,11.027077476970877,0.0033999004936936844,0.0037320347636341017,-0.4233349834130772
160577000000,215,160577000000,BR_wheel_link,21.54940110873926,19.978697447256877,5.403985564981987,-0.010860333172481338,-0.005911507773953873,0.4232950855056828
160578000000,216,160578000000,BR_wheel_link,-20.993907273935328,-24.979855635347516,12.272162290804527,-0.0049653434080971824,0.0042932990963455596,-0.4229783040868568
160579000000,217,160579000000,BR_wheel_link,21.489906885035438,20.27259243372276,5.747774244337877,-0.015370571415869718,-0.0037886483630932425,0.42343497758992776
160580000000,218,160580000000,BR_wheel_link,-21.357744668071188,-24.52942699944608,12.262712644212048,-0.006350467815136517,0.0014260713680572736,-0.42320672312117413
160581000000,219,160581000000,BR_wheel_link,21.76391770781215,20.27361294246793,5.894052074392974,-0.014052858524673011,-0.00013329188363216758,0.42362214145873495
160582000000,220,160582000000,BR_wheel_link,-21.817108579881655,-24.4548007181486,12.242840689983863,-0.002965852048866161,-0.00011679865627801213,-0.42362684551000507
160583000000,221,160583000000,BR_wheel_link,21.86160329868061,20.36903177361479,5.936733798598511,-0.009763431675282673,-0.0009404744153454536,0.42381027961787004
160584000000,222,160584000000,BR_wheel_link,-21.59175157903539,-24.3856974360314,12.150677260064569,-0.0003887045698720042,-0.001162557616272513,-0.42456574841717803
160585000000,223,160585000000,BR_wheel_link,22.133680994487666,20.35265936459178,5.59155731273191,-0.007717280141073563,-0.0005081487270417015,0.4246177929802333
160586000000,224,160586000000,BR_wheel_link,-21.541613470027965,-24.352219830773663,11.766144076637788,0.002435581189040326,-0.0002668035497551112,-0.4247471038024423
160587000000,225,160587000000,BR_wheel_link,21.960086168331046,20.3206055410043,4.999494732736557,-0.005722070980177611,0.0013164405041571924,0.4247655793966577
160588000000,226,160588000000,BR_wheel_link,-23.834880238152323,2.376024515807681,6.948668741523928,-0.03890876287673392,0.006615925975080448,-0.33662054293760857
160589000000,227,160589000000,BR_wheel_link,13.406588841695804,22.237450737319637,0.7447590475982613,-0.0805782800206199,-0.013919911959510797,0.1515957048388936
160590000000,228,160590000000,BR_wheel_link,-1.2081956024587008,-27.340165655030006,9.018925225892303,0.10758995278075036,0.025136898012856148,-0.03881816493205132
160591000000,229,160591000000,BR_wheel_link,-1.6945381580299885,26.416704071126606,-3.2100106502297794,-0.06681984662925203,-0.014443144151291621,0.019388663326809663
160592000000,230,160592000000,BR_wheel_link,-0.10399957306310881,27.533725624332117,-3.158310026665958,-0.06024733271713234,0.016811811828371194,-0.0061120532591666145
160593000000,231,160593000000,BR_wheel_link,-2.18551539960915,-26.66921694653287,6.100639868996876,0.12123183601936947,-0.01192468165043071,-0.008422800552097078
160594000000,232,160594000000,BR_wheel_link,1.5166567665627482,27.80297818052311,-4.754136310471964,-0.05922606747051001,0.011100270702120744,0.011313371725049723
160595000000,233,160595000000,BR_wheel_link,-1.8057694463895644,-26.87873235351204,6.4612460477916995,0.11623319801842247,-0.0075851584624531355,-0.0124716946413211
160596000000,234,160596000000,BR_wheel_link,1.2619299582288608,27.730631140988905,-4.670936615209807,-0.06082943935659804,0.00611801382915467,0.012938641623403187
160597000000,235,160597000000,BR_wheel_link,-1.329577231070287,-26.982669860077102,7.09048208239734,0.11422857533510096,-0.005126979596841868,-0.01305358730131738
160598000000,236,160598000000,BR_wheel_link,1.1191497967729163,27.477989251801237,-3.878508564172629,-0.06929649133528824,0.003008804565158832,0.013143276604330442
160599000000,237,160599000000,BR_wheel_link,-1.1555321883907008,27.775462061212426,-3.787351294732869,-0.07106936147577506,-0.005901764974772906,-0.0012795299977362395
160600000000,238,160600000000,BR_wheel_link,0.031342528947940235,-27.19654569709056,8.585206147290027,0.10365290589691248,0.005530036302091061,-0.011958173465420547
160601000000,239,160601000000,BR_wheel_link,0.034605041012763176,27.293551914586292,-3.7720860805800207,-0.07374538667695507,-0.0003069220810588002,0.013491255478325763
160602000000,240,160602000000,BR_wheel_link,-0.9170154683363444,-27.186945955185532,8.386957665906461,0.1024476519508475,0.0023819922429768104,-0.013939775538127063
160603000000,241,160603000000,BR_wheel_link,0.2509145751492056,27.21461505825415,-3.8680329778395905,-0.0761346824656846,0.0005514415346414269,0.013619233378867
160604000000,242,160604000000,BR_wheel_link,-0.9462895402092644,-27.286981852112916,8.371889373883896,0.09987727633562475,-0.0001873419066185245,-0.013781173554816345
160605000000,243,160605000000,BR_wheel_link,0.5545586142459694,27.07748476410182,-3.860632387842035,-0.07993332557299705,0.0019353507270574684,0.01325027236838742
160606000000,244,160606000000,BR_wheel_link,-0.9897794592848875,-27.35931172687374,9.09700447544301,0.09554433198897196,-0.002132251433352437,-0.013098500809186746
160607000000,245,160607000000,BR_wheel_link,0.8003270939913051,27.0361623862548,-1.2481816316158088,-0.09074299839197421,0.00029045413735600216,0.01332453146415048
160608000000,246,160608000000,BR_wheel_link,-0.7012832120074525,-27.454702115777554,12.00907093035069,0.08389800299394919,-0.002427334497674315,-0.013010634644066158
160609000000,247,160609000000,BR_wheel_link,0.8173187232957082,26.844452463726377,-0.0009295649737912626,-0.09664817602140892,0.00445276894760807,0.012826697434250314
160610000000,248,160610000000,BR_wheel_link,-1.2944728619086079,-27.690308005946342,12.338312605745605,0.0794872469864321,-0.0009741989670534074,-0.013382813855331565
160611000000,249,160611000000,BR_wheel_link,0.4915593468789647,26.668252802740163,0.012162703782252333,-0.09646316995013102,0.003670248340671288,0.012896247749589265
160612000000,250,160612000000,BR_wheel_link,-1.2878914203482423,-27.83188988851392,12.534558861281731,0.07984434989846205,6.332430665161188e-05,-0.013618200500052406
160613000000,251,160613000000,BR_wheel_link,0.3593946604295073,26.516229657672522,0.07948231956842858,-0.09525044055697363,0.003075111700086509,0.012953507168211378
160614000000,252,160614000000,BR_wheel_link,-1.2304948298263076,-27.947326359910885,12.730328743236104,0.08153658362670509,2.6809680656233406e-05,-0.013660144189107295
160615000000,253,160615000000,BR_wheel_link,0.38056346205172237,26.38226559665352,0.17180258298683815,-0.09326351692183946,0.0027776460047893173,0.013021264007999588
160616000000,254,160616000000,BR_wheel_link,-1.1542800344366155,-28.038176896779095,12.908172174166422,0.08446041359282175,-0.0012568007061808397,-0.013316453535018598
160617000000,255,160617000000,BR_wheel_link,0.5498048993176654,26.274385478836972,0.2739692471905489,-0.0902523030603904,0.002587044789592781,0.013099247974473018
160618000000,256,160618000000,BR_wheel_link,-1.0629844245950455,-28.134076272335506,13.052109742263541,0.08695696710203393,-0.003051302010779789,-0.013083182445397256
160619000000,257,160619000000,BR_wheel_link,0.8058843467634533,26.158947698130138,0.35601834879246075,-0.08790962595326378,0.002407729025551954,0.013238282182672409
160620000000,258,160620000000,BR_wheel_link,-0.9109420970249343,-28.177032871832328,12.911056478658033,0.09028638065764728,-0.006594259749006885,-0.012696708207473897
160621000000,259,160621000000,BR_wheel_link,1.3599127036415508,26.099752164539243,0.20312492396655932,-0.08466471625729037,0.0017086896029497912,0.01342135833327084
160622000000,260,160622000000,BR_wheel_link,1.1378400958564654,-28.6156252464033,11.864404450500757,0.05176876427900855,-0.013580537316549693,-0.0918083928553699
160623000000,261,160623000000,BR_wheel_link,12.474387068812952,23.847125362936083,0.4959825382096294,-0.08312524365817414,0.009090642760579512,0.10594605192252167
160624000000,262,160624000000,BR_wheel_link,-2.2074429845329693,-28.03410978331507,13.587779874477345,0.0926742163964535,-0.005378321625665524,-0.02809250467036179
160625000000,263,160625000000,BR_wheel_link,1.4716121571937026,25.704890553032826,0.7585602286261482,-0.08240883117349507,-0.000955084811215691,0.016471844992866167
160626000000,264,160626000000,BR_wheel_link,-0.427245129255417,-28.458360554532224,13.592993986997879,0.09380207177372528,-0.004291598073310032,-0.013445341490804305
160627000000,265,160627000000,BR_wheel_link,1.2152867867253976,25.616753686856402,0.8774678800670354,-0.08375568121106233,0.002671032084413808,0.013274766779551065
160628000000,266,160628000000,BR_wheel_link,1.0178151825213133,-28.97514968042021,12.46456874561796,0.05073276114974914,-0.011939973567661471,-0.0954388357223221
160629000000,267,160629000000,BR_wheel_link,12.619161356154647,23.292844419320744,1.0744818749030187,-0.08287468606517155,0.010778419072603867,0.10949432590364822
160630000000,268,160630000000,BR_wheel_link,-2.5152153029985835,-28.146668270807027,13.144847949265689,0.09397546400988036,-0.002768781869844772,-0.029098381846952553
160631000000,269,160631000000,BR_wheel_link,1.063514591081458,25.45737197312857,0.19821519073897573,-0.08148769935526942,0.0003162547431443672,0.01628526682423019
160632000000,270,160632000000,BR_wheel_link,-0.7625283365674868,-28.48081521751106,12.929856923639445,0.09492556740538088,-0.0008472272073569908,-0.013762920733166721
160633000000,271,160633000000,BR_wheel_link,0.6841354426677032,25.490371711394378,-0.09058671028533101,-0.08076461014391939,0.0003186022490647853,0.013576044196256801
160634000000,272,160634000000,BR_wheel_link,1.0911939263737889,-1.5592467110718475,4.819543471708582,-0.03318180445678158,-0.00874432477042949,-0.0942463604487707
160635000000,273,160635000000,BR_wheel_link,8.035204483495873,24.607689245037296,1.176679642668489,0.009841775215028084,0.026740115549706008,0.2760338077268324
160636000000,274,160636000000,BR_wheel_link,-22.109337564690225,-23.660936213985703,7.42105355306029,0.018205218317466413,-0.03779439630055023,-0.39497361205381204
160637000000,275,160637000000,BR_wheel_link,24.13491395096164,22.20678969220277,-0.8976599239888745,0.015412271635269597,0.03721208997136477,0.4150117232289624
160638000000,276,160638000000,BR_wheel_link,-24.186924266154374,-22.661574255147983,6.207326139435726,0.020032913568023305,-0.03881953568309354,-0.418254029802318
160639000000,277,160639000000,BR_wheel_link,24.50511055391219,21.892240068104726,-1.1395339326878744,0.013499597646229955,0.03607749247849295,0.4197503275655151
160640000000,278,160640000000,BR_wheel_link,-24.04583292893343,-22.742836520502276,6.632568406881869,0.0188200226912994,-0.037655024297742194,-0.4196803389440571
160641000000,279,160641000000,BR_wheel_link,24.40831833499285,21.84947664406031,-0.7134036838011637,0.011995463104797235,0.03389976336451641,0.42020674276318
160642000000,280,160642000000,BR_wheel_link,-23.683238924109624,-22.730628701412037,7.761654669154646,0.015159867578491828,-0.03677882928648267,-0.41958044474560074
160643000000,281,160643000000,BR_wheel_link,24.345652585329525,21.851753185873072,0.7673281738080178,0.007431368956704704,0.0324498710226397,0.4205296900861386
160644000000,282,160644000000,BR_wheel_link,-23.410044186953908,-22.730800423124514,9.718934811193845,0.009714338108989288,-0.03720192916322361,-0.4194873734425113
160645000000,283,160645000000,BR_wheel_link,24.47861195771028,21.79933212814018,2.8423670531513787,0.002411947635471298,0.030041849856257234,0.4210028815930768
160646000000,284,160646000000,BR_wheel_link,-22.96565012802452,-22.79878826088185,11.270357088462607,0.006664184759659914,-0.03709518865790603,-0.41947244493589614
160647000000,285,160647000000,BR_wheel_link,24.479341639786266,21.6311751354675,3.149876258514119,0.0007023690526451263,0.03255460835660508,0.4208984466376923
160648000000,286,160648000000,BR_wheel_link,-23.265611222808715,-22.939796240254314,11.394616997066402,0.005435805414791275,-0.03720068600520452,-0.419672702532242
160649000000,287,160649000000,BR_wheel_link,24.33395676536454,21.474989615256426,3.250493722697544,-0.0006278970475826168,0.03456931675488972,0.42055088420527653
160650000000,288,160650000000,BR_wheel_link,-23.52340656575256,-23.070461380439312,11.525467783291214,0.004698137671816732,-0.037234192179854686,-0.4196609714080207
160651000000,289,160651000000,BR_wheel_link,24.17911585595672,21.329835478709146,3.3407188191050445,-0.001653197832587124,0.03617155446310876,0.4202604728076134
160652000000,290,160652000000,BR_wheel_link,-23.754397643561237,-23.208922201126658,11.668711250599163,0.0033280569393536754,-0.03672675784358218,-0.41980205458510783
160653000000,291,160653000000,BR_wheel_link,27.87155293601186,20.38023865584558,0.8180306759417794,-0.08709853030308369,0.018232940191584234,0.25140138050127975
160654000000,292,160654000000,BR_wheel_link,-0.325467130396661,-27.88767655655581,12.49380978385302,0.004576569388457038,-0.016801901982492012,-0.22337164560906123
160655000000,293,160655000000,BR_wheel_link,20.6605717035444,21.88416190564292,3.413884940685476,0.0007931969750368161,0.03594825686205915,0.3866277835750058
160656000000,294,160656000000,BR_wheel_link,-23.335406851703706,-23.507810018738162,11.873779304962053,0.007926108551593631,-0.04065547221884998,-0.4133811134014354
160657000000,295,160657000000,BR_wheel_link,24.363423145791067,21.128370645303576,3.587017460424635,0.004927032068304406,0.03971693411208006,0.4181413181334424
160658000000,296,160658000000,BR_wheel_link,-23.924206442273746,-23.367707228647685,12.09467407994225,0.012794544318588333,-0.039548423669844325,-0.4187225269010403
160659000000,297,160659000000,BR_wheel_link,24.089905359363964,21.07463269891806,3.7442403101536494,0.008096464712399202,0.043104643307197744,0.4188377263354772
160660000000,298,160660000000,BR_wheel_link,-24.544693280215572,-23.37682325259696,12.262297612399335,0.015656340557217523,-0.03924493428824675,-0.4192174361782894
160661000000,299,160661000000,BR_wheel_link,23.772604467727476,21.02725716770258,3.827177727069217,0.009862474667904159,0.04434901959602334,0.41821724762893214
160662000000,300,160662000000,BR_wheel_link,-24.84091457724524,-23.378153380466983,12.507406131212585,0.018799268807194496,-0.036776900911617914,-0.4190345727934323
160663000000,301,160663000000,BR_wheel_link,26.325875091193733,20.257201168440254,1.7422874693458572,-0.058541524580358814,0.027308572863854616,0.2826422404588998
160664000000,302,160664000000,BR_wheel_link,-10.082530200504953,27.801903853931396,0.6882038311398324,-0.07193510166512805,0.005147571751387409,-0.08253263131246902
160665000000,303,160665000000,BR_wheel_link,-1.2174713704334987,-28.41833942983773,14.947511530569761,0.10602918155243886,-0.004755434320445288,0.00411586242872333
160666000000,304,160666000000,BR_wheel_link,0.15093574086493125,25.72290602142232,0.6553124493056581,-0.0697695389700208,0.011841133547644002,0.007348641510421377
160667000000,305,160667000000,BR_wheel_link,-2.60765655440667,-27.887706672029207,13.901964343475365,0.10823452737400381,0.00042798672455839087,-0.011858851252280122
160668000000,306,160668000000,BR_wheel_link,-0.48763807882593274,25.750683211260487,-1.3032865270258116,-0.07133388193833078,0.007252611147143749,0.01030449213510702
160669000000,307,160669000000,BR_wheel_link,-2.4419154245750403,26.087752416240825,-1.4050521862846639,-0.06909657051306259,0.0035257392188853096,-0.0026578450833877757
160670000000,308,160670000000,BR_wheel_link,-1.8932028371218337,-27.949837320465193,14.072410111607706,0.10633026711798292,0.008208136889141425,-0.011592191729626012
160671000000,309,160671000000,BR_wheel_link,-1.4736587941024173,25.680002361398564,-1.5056569367300905,-0.0711720922066183,0.0017723476928895303,0.010622382334382776
160672000000,310,160672000000,BR_wheel_link,-1.7403812400714185,-27.742712796888952,14.506845356992763,0.11254164307151455,0.009528077135399254,-0.015765159778565137
160673000000,311,160673000000,BR_wheel_link,-1.1986152340853933,25.53182589599975,-1.8226061782271261,-0.07367769659188345,-0.006822202983228014,0.01225171493351205
160674000000,312,160674000000,BR_wheel_link,1.9688486487915298,-2.5720343215459915,5.400940237985871,-0.02551638451379705,-0.007364952441611286,-0.09773619799021967
160675000000,313,160675000000,BR_wheel_link,8.367186289546952,24.20586892218554,1.265635787622739,0.01691179931210651,0.02720663425286043,0.2801986009661152
160676000000,314,160676000000,BR_wheel_link,-21.069685258695554,-23.827797682541913,10.81487394288788,0.024465669736313655,-0.05179924425092075,-0.39455708501426345
160677000000,315,160677000000,BR_wheel_link,25.44596204900556,21.05693673936411,1.8003750102727918,0.017394660035736663,0.043764995938624957,0.41557655800521176
160678000000,316,160678000000,BR_wheel_link,-23.09556275582185,-23.47998890411693,10.77060153886,0.018619102432503493,-0.05377319541273147,-0.41759267857499094
160679000000,317,160679000000,BR_wheel_link,25.90148497759454,21.47658166117174,1.4171539530740824,0.005682058979906488,0.04388172084395187,0.42201580105221365
160680000000,318,160680000000,BR_wheel_link,-23.14758090679542,-22.87114521527081,10.599587887512605,0.006081298137422253,-0.04989555622100594,-0.4190910547425603
160681000000,319,160681000000,BR_wheel_link,25.10247034525063,21.22798580834679,1.2422503807340037,-0.0038310787133839243,0.0416476591870991,0.42036805091952356
160682000000,320,160682000000,BR_wheel_link,-22.902164035059155,-23.108593592931605,10.700498949113394,-0.002188092699827298,-0.04676156923576877,-0.41865708605855645
160683000000,321,160683000000,BR_wheel_link,24.587417182944513,22.173785617735525,0.6442887345284388,-0.012343925590167133,0.043411794131703096,0.4222347374593717
160684000000,322,160684000000,BR_wheel_link,-23.699489928020768,-21.973451344991666,10.296237278350135,-0.008032476490845878,-0.044856658120194966,-0.41974667213034805
160685000000,323,160685000000,BR_wheel_link,23.872230370272995,22.08944588825959,1.6984141169177724,-0.014488378386658191,0.04542689718738872,0.4195572345055188
160686000000,324,160686000000,BR_wheel_link,-23.843865625605602,-22.283788925224496,13.080618405260731,-0.010245243550401507,-0.04593565889191438,-0.420513117452935
160687000000,325,160687000000,BR_wheel_link,24.006184927816506,21.89534962217943,5.369637895865058,-0.01685883994723279,0.04256286926606434,0.41985111855790935
160688000000,326,160688000000,BR_wheel_link,-23.14164074613583,-22.222294941319284,15.808190918710151,-0.010584649681231772,-0.04371892133842258,-0.4207925792192146
160689000000,327,160689000000,BR_wheel_link,23.92396858686055,21.894445751662005,6.5154076224431705,-0.013648737494386687,0.043532135628519424,0.4205312911861932
160690000000,328,160690000000,BR_wheel_link,-23.238017642436134,-22.302413314127502,16.392620710229696,-0.007130827253244043,-0.042309317999478506,-0.420999615150575
160691000000,329,160691000000,BR_wheel_link,23.669867701978276,21.6538569761536,6.220339745172312,-0.010149700411170474,0.04360389639259038,0.420643306489812
160692000000,330,160692000000,BR_wheel_link,-23.219563844737156,-22.578961554817067,15.149063985091306,-0.0011605632477550954,-0.044267986051315183,-0.4205003734002567
160693000000,331,160693000000,BR_wheel_link,23.914274474781905,21.428641964767362,4.377716650572278,-0.0009872739111264801,0.042000504104750785,0.4215072089549971
160694000000,332,160694000000,BR_wheel_link,-22.914975129740856,-22.686321491932084,13.082527328606796,0.007873153665680682,-0.045270778730873186,-0.42043447473616335
160695000000,333,160695000000,BR_wheel_link,24.164343053274,21.11719410981866,1.7745370555026851,0.0019900720593707837,0.03736738138657212,0.4220497340971173
160696000000,334,160696000000,BR_wheel_link,-22.080787196773077,-22.847604093771867,10.933805797110908,0.009449385097266982,-0.04533951363043443,-0.4198799578357158
160697000000,335,160697000000,BR_wheel_link,24.248183594641596,21.106054728668624,0.20002931234202703,0.006068976052971142,0.04082063494928936,0.42182285791272983
160698000000,336,160698000000,BR_wheel_link,-22.504244708651612,-22.89024544063662,9.611358191080928,0.012192798469860204,-0.04514996690577822,-0.41998428176415786
160699000000,337,160699000000,BR_wheel_link,23.928248937007872,20.957875252256994,-0.313891447367828,0.00644404021306212,0.04314690193192827,0.42093393695886916
160700000000,338,160700000000,BR_wheel_link,-22.866404552538228,-22.899688984306824,9.383324680050386,0.011577985312032685,-0.044040048432545754,-0.4200543451952974
160701000000,339,160701000000,BR_wheel_link,27.444675521310614,19.955521462408917,-2.935955957709818,-0.0800489579449439,0.020566456192854913,0.25204365778191395
160702000000,340,160702000000,BR_wheel_link,-3.7528244255518595,27.274505650748548,-5.228016256494138,-0.07563093435970712,0.008759257268324666,-0.04497160635317014
160703000000,341,160703000000,BR_wheel_link,-1.187997174406763,-27.196867703566316,10.179033380739044,0.0979367052770183,-0.005563276138473802,-0.0013842154576422393
160704000000,342,160704000000,BR_wheel_link,0.6887647210238296,26.299964807426402,-6.24897640936525,-0.07755325889408958,0.013680877047626844,0.005486721385660998
160705000000,343,160705000000,BR_wheel_link,-2.1897428139811286,-26.610906303659878,10.01076707909298,0.10339503350941276,0.004175906783246832,-0.01286817065277592
160706000000,344,160706000000,BR_wheel_link,-0.5082019591843582,26.635383960926536,-6.982888436244165,-0.07153882448931997,0.011882791438266139,0.00878677572295295
160707000000,345,160707000000,BR_wheel_link,-2.283870129550437,-26.531544415814395,10.290260541973575,0.10537869973652303,0.0018037175650334617,-0.013380919754193187
160708000000,346,160708000000,BR_wheel_link,-0.14600622267474403,26.463487269327004,-6.458384735788365,-0.07112577931044811,0.009830658321690089,0.008885210450886423
160709000000,347,160709000000,BR_wheel_link,-1.9199496819450872,-26.729843937938387,10.865721848278554,0.10379567459137076,0.004319797722712758,-0.012379595101793643
160710000000,348,160710000000,BR_wheel_link,-0.5423343365634534,26.320616317714713,-6.630558175001316,-0.07464632348322282,0.00801497072730091,0.00933268286321032
160711000000,349,160711000000,BR_wheel_link,-2.036557213774366,26.711657640847097,-6.4645225841354765,-0.0718765155072198,0.002647079209971724,-0.0029443772930387666
160712000000,350,160712000000,BR_wheel_link,-1.212345144768751,-26.396521564715748,11.340084945918862,0.1125563039711824,0.007219698504060761,-0.012050420609988238
160713000000,351,160713000000,BR_wheel_link,-0.6172657892246697,26.799220692480606,-5.02374137403892,-0.06731884928481041,-0.001957805752895105,0.012025771622749452
160714000000,352,160714000000,BR_wheel_link,-0.5169571475156205,-26.100065460594017,13.549932311897527,0.10949741174442283,0.0028175524563277985,-0.013299960461602266
160715000000,353,160715000000,BR_wheel_link,0.3516699180645597,26.77966561245362,-3.1262250002278176,-0.07423097922649004,-0.01010242420660342,0.014881335716996836
160716000000,354,160716000000,BR_wheel_link,1.0705188658433582,-26.118631945697995,15.006523838636452,0.10631985744757412,-0.006725814458493626,-0.01014139688014915
160717000000,355,160717000000,BR_wheel_link,2.034595888903045,26.50569325811439,-3.11743618137249,-0.08064763881947619,-0.00889591763474456,0.015546704946027867
160718000000,356,160718000000,BR_wheel_link,1.3058568866719908,-26.46955702803928,14.883306566857991,0.09492099239757675,-0.00882151124678066,-0.009297551252407983
160719000000,357,160719000000,BR_wheel_link,2.201941231198727,26.195574908362318,-2.946862465929778,-0.09063302033896174,-0.0012423082637242277,0.013859592021134699
160720000000,358,160720000000,BR_wheel_link,0.1826564984683123,-26.73160751628927,14.897919468969302,0.08646048850959713,-0.009221743794566417,-0.009767187267763343
160721000000,359,160721000000,BR_wheel_link,1.8021455214831876,26.605637428298103,-3.0497268457227276,-0.09948368146796027,0.006906369506310099,0.011287333082469889
160722000000,360,160722000000,BR_wheel_link,-1.1240800268477822,-26.353903100968893,14.65589387378378,0.07817843606620149,-0.007751695861661406,-0.010141725042205564
160723000000,361,160723000000,BR_wheel_link,1.1435933953054631,26.563664975742086,-3.0127058922703185,-0.10212366750074676,0.010109033598857396,0.009537884156640785
160724000000,362,160724000000,BR_wheel_link,-1.7566177807011072,-26.37026989581019,14.75816974433062,0.07672641147004705,-0.0057299896245178875,-0.010585132819314133
160725000000,363,160725000000,BR_wheel_link,0.7252048284483876,26.459729623605387,-3.0097063817013874,-0.09963065839973206,0.007643350407859021,0.010157484613396727
160726000000,364,160726000000,BR_wheel_link,-1.5467189473502598,-26.395454881880827,14.943811533000044,0.08055178602421008,-0.005715301694194359,-0.010891267892618847
160727000000,365,160727000000,BR_wheel_link,0.7971401895599798,26.40189031536046,-2.9226334528058606,-0.09530447267304014,0.006635051795746315,0.010530655034790327
