%time,field.header.seq,field.header.stamp,field.header.frame_id,field.wrench.force.x,field.wrench.force.y,field.wrench.force.z,field.wrench.torque.x,field.wrench.torque.y,field.wrench.torque.z
160367000000,0,160363000000,FR_wheel_link,-31.13282977581733,9.166197171321778,8.514834208340321,0.003511685613327566,-0.058847294867013476,0.4230423694634396
160367000000,1,160364000000,FR_wheel_link,30.425190246583373,-9.317929780771042,6.921948934552079,0.00018097603489024958,0.0677607718473098,-0.4226942226821165
160367000000,2,160365000000,FR_wheel_link,-31.832376209405997,9.021513032863805,6.337555214673497,-0.006218021732932934,-0.06128982535642945,0.4225808465236017
160367000000,3,160366000000,FR_wheel_link,30.49210095018558,-9.315595134194911,6.905470993985559,0.0004523163620363711,0.07471672368472203,-0.42251327045838427
160367000000,4,160367000000,FR_wheel_link,-32.45639380945597,8.976286421624867,6.284343030955367,-0.008220662740457756,-0.07820089104658001,0.4222846708507185
160368000000,5,160368000000,FR_wheel_link,32.506447757871214,-9.285937174915734,10.22688166155071,0.004274000408708946,0.06904666447888516,-0.4228515167576478
160369000000,6,160369000000,FR_wheel_link,-31.235722656889223,8.971849513464624,6.777517657821605,-0.006774815692819952,-0.07395409800737462,0.42309278265500727
160370000000,7,160370000000,FR_wheel_link,32.31289619168118,-9.258059407550865,10.065003899298544,0.005713763427607908,0.06258312422200289,-0.42289243027482726
160371000000,8,160371000000,FR_wheel_link,-30.590795431379618,9.015918205950793,6.671828228239688,-0.005046653807942024,-0.06604095604884366,0.42287348015057863
160372000000,9,160372000000,FR_wheel_link,31.52564748450562,-9.26174950651369,8.896997821866112,0.004889574974204803,0.05954345208657148,-0.4228043834728094
160373000000,10,160373000000,FR_wheel_link,-30.564785363598613,9.03954749587703,5.83059648165927,-0.004603666323499201,-0.05665637888549419,0.42287602779967004
160374000000,11,160374000000,FR_wheel_link,30.411744237508394,-9.254608275735945,7.7044593923977684,0.004475040528943881,0.057651726603620466,-0.422789475670257
160375000000,12,160375000000,FR_wheel_link,-30.632693700721155,9.076119296106251,6.181356018435762,-0.0026354007248093523,-0.05340052065262789,0.42281518856150424
160376000000,13,160376000000,FR_wheel_link,29.97615632006985,-9.25192691774431,7.220560656765153,0.004255553052672121,0.0584794440445143,-0.4227746805774581
160377000000,14,160377000000,FR_wheel_link,-30.822651273745596,9.056849525637888,5.715236235779987,-0.003964056773164643,-0.05363510411069403,0.42278250074356016
160378000000,15,160378000000,FR_wheel_link,29.982459352142044,-9.245599014603487,7.584555767134717,0.004806094475420922,0.0574892534294464,-0.4227991065482565
160379000000,16,160379000000,FR_wheel_link,-30.799713865139708,9.102709111504073,5.729610928178107,-0.001625331622556863,-0.04860814454624993,0.4228442615312611
160380000000,17,160380000000,FR_wheel_link,29.639243813128235,-9.247808591818242,8.456847199416648,0.005381339956383087,0.045578785007468134,-0.42287592074983243
160381000000,18,160381000000,FR_wheel_link,-29.556501439304494,9.076920991716365,6.479974838541127,-0.002984323627193614,-0.044701593381316566,0.42272612258813635
160382000000,19,160382000000,FR_wheel_link,29.64704354603758,-9.295328203186713,8.753173066670634,0.003175191963340789,0.03860457190429606,-0.42272802185203256
160383000000,20,160383000000,FR_wheel_link,-28.832424377297055,9.029232218069602,6.550348218708512,-0.005891835860278632,-0.04211577502711325,0.4226227650802105
160384000000,21,160384000000,FR_wheel_link,29.59256217669944,-9.344381196341825,8.46016575452911,0.0009423661887184948,0.03715613944189838,-0.42255438710625975
160385000000,22,160385000000,FR_wheel_link,-28.77714332550059,9.011442929000435,6.241900927998377,-0.006774266551622525,-0.040190797956354746,0.4224975556416723
160386000000,23,160386000000,FR_wheel_link,29.246223761568196,-9.323770470872851,8.09134879475294,0.0016512387188110326,0.03780961877371277,-0.4227439854478156
160387000000,24,160387000000,FR_wheel_link,-28.82267520762614,9.04278068363958,6.138678094271676,-0.004498918572299873,-0.036942226015323876,0.42293462952494354
160388000000,25,160388000000,FR_wheel_link,28.847667512721017,-9.2736244913186,7.94440478168172,0.004552704248860057,0.03623827629462102,-0.4227214975449795
160389000000,26,160389000000,FR_wheel_link,-28.8031831709788,9.134485554994075,6.926721499289024,0.0005858419417943658,-0.03483823617974693,0.4227496268522596
160390000000,27,160390000000,FR_wheel_link,28.65897981226519,-9.244950407794818,7.5960933524356795,0.005545667486525027,0.036734683102179484,-0.4227700807739362
160391000000,28,160391000000,FR_wheel_link,-28.890910167333942,9.130708360088068,6.373366600987387,-5.6865788679838056e-05,-0.033678004381344565,0.42292204089830904
160392000000,29,160392000000,FR_wheel_link,28.413619586158397,-9.265193803163143,6.91586261886997,0.003588768014341363,0.036101325001758985,-0.42288464509678253
160393000000,30,160393000000,FR_wheel_link,-28.804106281641808,9.0502234840467,5.509136755944953,-0.005280257000651645,-0.03609695471110763,0.42266300870792
160394000000,31,160394000000,FR_wheel_link,28.697924306394274,-9.305333987692336,6.698778387428934,0.0016179913817623351,0.03929040475574947,-0.42261624186746294
160395000000,32,160395000000,FR_wheel_link,-29.10196433180123,9.00877970271858,5.0744239799353466,-0.007613789678375025,-0.040798840498739164,0.4225167559362242
160396000000,33,160396000000,FR_wheel_link,29.154894705847063,-9.291040240744557,7.481088252301106,0.002890907079953568,0.04036393478758853,-0.4227091946409243
160397000000,34,160397000000,FR_wheel_link,-29.013791597307655,9.024860454997375,6.010474833203391,-0.005580628318089706,-0.043356162493328236,0.4227868951025509
160398000000,35,160398000000,FR_wheel_link,29.507923274918696,-9.257121358554937,8.647470764570935,0.005853807880029453,0.04060318519553195,-0.42269043607154966
160399000000,36,160399000000,FR_wheel_link,-29.030062499648913,9.06296371271435,6.767360654797475,-0.003189481903726121,-0.04356668701787486,0.4226532989796667
160400000000,37,160400000000,FR_wheel_link,29.565257845427354,-9.232262195997793,9.053040512638608,0.007445265820326398,0.04343912491861081,-0.4226746396973007
160401000000,38,160401000000,FR_wheel_link,-29.327796533627087,9.095568879898659,7.327346643476376,-0.0009769937089813185,-0.044021938457252295,0.42294170236728795
160402000000,39,160402000000,FR_wheel_link,29.39809435363234,-9.244366127538811,8.138123547039958,0.005305656729394134,0.046601846752505297,-0.4228873096049449
160403000000,40,160403000000,FR_wheel_link,-29.764562984767284,9.06794085657713,5.997408753588978,-0.00389967083092338,-0.0429387776929435,0.422728907480941
160404000000,41,160404000000,FR_wheel_link,29.199008494546046,-9.296129904175821,6.752937719010055,0.0017734827596152826,0.04676488944338525,-0.42266807802294604
160405000000,42,160405000000,FR_wheel_link,-29.870866302339234,9.022055563876398,4.415423941349459,-0.0073653488683139085,-0.04358606889061056,0.4225825625867357
160406000000,43,160406000000,FR_wheel_link,29.278924204095397,-9.303638457494948,6.441538559337231,0.0013861617794963454,0.04324923964020078,-0.42278193825595256
160407000000,44,160407000000,FR_wheel_link,-29.3427450408597,9.034875650821046,4.821441736290814,-0.005801832908624144,-0.04341653069960377,0.4228387072356038
160408000000,45,160408000000,FR_wheel_link,29.530587100390456,-9.298434620586638,7.2621075517447276,0.0027825829245071354,0.03592564243974801,-0.4227455693962708
160409000000,46,160409000000,FR_wheel_link,-28.537987522156083,9.07694295432505,5.908978122804118,-0.002935790533387218,-0.03856593086208149,0.42267971933461734
160410000000,47,160410000000,FR_wheel_link,29.238312690491995,-9.257924907593571,8.248141855662366,0.005999377191706202,0.033533607681268125,-0.42269959879592534
160411000000,48,160411000000,FR_wheel_link,-28.46786034647542,9.146336770948361,7.652291430042804,0.0015704583779354367,-0.03594449398585038,0.4227946717956426
160412000000,49,160412000000,FR_wheel_link,28.803700025508952,-9.244880404355849,8.08573854038158,0.00537024210385634,0.03765628798112483,-0.42297719121683164
160413000000,50,160413000000,FR_wheel_link,-28.989326342529637,9.108593750699733,6.801435269059629,-0.0009952454144861653,-0.03323293910262338,0.42303433855466593
160414000000,51,160414000000,FR_wheel_link,28.308878989226695,-9.306220935285317,6.8675627948606275,0.0014554082165248194,0.03844820072140587,-0.4226978101272165
160415000000,52,160415000000,FR_wheel_link,-29.20829808582689,9.068131587610363,5.612113555469279,-0.004541655004660902,-0.03323355755801929,0.42263672084492077
160416000000,53,160416000000,FR_wheel_link,28.346307348706038,-9.343881052662065,6.088202174858847,-0.0007995152710516294,0.03650032720950801,-0.42259828766621516
160417000000,54,160417000000,FR_wheel_link,-28.98852273739954,9.040516693702164,4.498052297737253,-0.006387044289305866,-0.03434089198895317,0.42250317893632344
160418000000,55,160418000000,FR_wheel_link,28.575620852555097,-9.307054537644198,6.4357768312995525,0.001436177370075236,0.03126624662408448,-0.42279385868592656
160419000000,56,160419000000,FR_wheel_link,-28.194633813813276,9.06840338494432,5.337592770677243,-0.0039115051136926,-0.034571057128349784,0.42283266421430166
160420000000,57,160420000000,FR_wheel_link,28.843044386395754,-9.258533852022422,7.573723773033093,0.005264222214939917,0.027883923359973174,-0.42273070518082945
160421000000,58,160421000000,FR_wheel_link,-27.79719890020893,9.134160203771861,6.960773762796954,0.0004218209873435884,-0.03333639899242788,0.42271236464999407
160422000000,59,160422000000,FR_wheel_link,28.792479704666178,-9.239378810953689,8.020871011384378,0.006281741476885207,0.03120740758212194,-0.4226984133148785
160423000000,60,160423000000,FR_wheel_link,-28.221208544417514,9.128912492137673,7.151968119083808,0.00026351636454164854,-0.031466228449603645,0.4229063323875404
160424000000,61,160424000000,FR_wheel_link,28.300546623315753,-9.284045233738123,7.286393940148991,0.002942557169796177,0.0353254198545908,-0.42281048520039655
160425000000,62,160425000000,FR_wheel_link,-28.84318383745597,9.072479015072396,6.147406576606912,-0.003923823881224056,-0.03038659034818652,0.4226888811376562
160426000000,63,160426000000,FR_wheel_link,28.04547980904104,-9.343051311815934,6.452794119634294,-0.0005633668311292724,0.036173319424491354,-0.422600929209266
160427000000,64,160427000000,FR_wheel_link,-29.01893941902289,9.047055327948586,5.501251744745684,-0.005619693861865406,-0.03272498304262616,0.422544882055854
160428000000,65,160428000000,FR_wheel_link,28.319760367928463,-9.33558288479326,6.48929593575995,-4.37187034964962e-05,0.033468094632767495,-0.4227874564094787
160429000000,66,160429000000,FR_wheel_link,-28.52065764888513,9.039175365907198,5.188981181697594,-0.005567122222227551,-0.0343427802883521,0.42279722878915876
160430000000,67,160430000000,FR_wheel_link,28.716619390347965,-9.281332492299317,7.331729148345986,0.0039429966709620175,0.029178742041543564,-0.42272031615619965
160431000000,68,160431000000,FR_wheel_link,-27.98203462666815,9.110687173474549,6.156759709010546,-0.0011984121309402012,-0.03303190390678599,0.4226759287384465
160432000000,69,160432000000,FR_wheel_link,28.765783047571738,-9.23734500452369,7.941356254040599,0.00674499007743377,0.028385146095599393,-0.42272316789686104
160433000000,70,160433000000,FR_wheel_link,-27.869162598576604,9.152543828743214,7.224175762875727,0.0015304990908614677,-0.032034917899227404,0.4229034488891384
160434000000,71,160434000000,FR_wheel_link,28.49651555323534,-9.248443313664714,7.329120441523014,0.004874899921795429,0.03279267035327546,-0.4228254394440102
160435000000,72,160435000000,FR_wheel_link,-28.500780961451163,9.106659525790036,6.120232914863396,-0.00219820752852002,-0.02982288761260231,0.42272782683171345
160436000000,73,160436000000,FR_wheel_link,28.066282320092537,-9.321859959160797,6.244309555285529,0.0002761342380903272,0.03527907144994674,-0.4226155431466192
160437000000,74,160437000000,FR_wheel_link,-28.93613342376921,9.056730382203707,5.329529930336496,-0.0054565028118706465,-0.03089507959241304,0.42258715821862386
160438000000,75,160438000000,FR_wheel_link,28.177649509016465,-9.354390200872592,6.114724804380193,-0.0010984090399507953,0.03463600874744577,-0.422549616552299
160439000000,76,160439000000,FR_wheel_link,-28.715830593333774,9.04098655931043,5.3894363015600115,-0.005514354036878694,-0.034090059778229036,0.4227201348219087
160440000000,77,160440000000,FR_wheel_link,28.597607650220866,-9.30809703457678,7.042596352692796,0.001867798758628097,0.031088498368762423,-0.42288731363066295
160441000000,78,160441000000,FR_wheel_link,-28.18841819417674,9.071183012712211,5.98630802960427,-0.0034232031175826243,-0.034212579528899056,0.422655655852893
160442000000,79,160442000000,FR_wheel_link,28.81381245198659,-9.257821809997498,8.154672578570274,0.005947110145742143,0.02910953975360753,-0.42269265256246746
160443000000,80,160443000000,FR_wheel_link,-27.995295072093988,9.144492732159309,7.504744322959765,0.0013149458275967779,-0.03390543864490182,0.4227363111293264
160444000000,81,160444000000,FR_wheel_link,28.823519983043067,-9.238372919703018,8.05590590470141,0.006137944486094247,0.033575990902172254,-0.42272962452898644
160445000000,82,160445000000,FR_wheel_link,-28.503595883571908,9.121152749395733,6.795871794935568,-0.0002766655670584981,-0.03283831756065852,0.4229543400163725
160446000000,83,160446000000,FR_wheel_link,28.391198025894468,-9.291694260454896,6.714139651553025,0.0020597007870847496,0.03655180264469264,-0.4228646222193232
160447000000,84,160447000000,FR_wheel_link,-28.95468826494048,9.071656298114494,5.4096807813231855,-0.00437200550099436,-0.03140654479894995,0.4226974518909206
160448000000,85,160448000000,FR_wheel_link,28.15764772073258,-9.343144913599136,5.811109151468886,-0.000961487272852742,0.0354192617906439,-0.4226192579374398
160449000000,86,160449000000,FR_wheel_link,-28.88371439673231,9.041897536686623,4.771819337539649,-0.006214692931369113,-0.033213319893810545,0.42254259227674446
160450000000,87,160450000000,FR_wheel_link,28.420240816146418,-9.322747802978823,6.19467591214934,0.0004556281591245902,0.03261322165025995,-0.4227757648665116
160451000000,88,160451000000,FR_wheel_link,-28.394248878029984,9.054988512922163,5.233054499256974,-0.004715322560318284,-0.034223290481702875,0.422796215827279
160452000000,89,160452000000,FR_wheel_link,28.738868128881336,-9.270526566332352,7.568444968979792,0.004673734217130669,0.02875538725834913,-0.4227246835444764
160453000000,90,160453000000,FR_wheel_link,-27.91858027685847,9.128240818813797,7.11837967823232,0.0003406508006636875,-0.033865193648794645,0.42269480092943745
160454000000,91,160454000000,FR_wheel_link,28.8338361263972,-9.235976701174504,8.336599281883558,0.006806259031720465,0.031332983741125676,-0.4227118742664999
160455000000,92,160455000000,FR_wheel_link,-28.211447334584317,9.139779324403769,7.487277714823342,0.0010808589318904943,-0.0324999919202393,0.42291769028702403
160456000000,93,160456000000,FR_wheel_link,28.437371447850968,-9.271414842806939,7.545688742690558,0.0037393450243243974,0.035109159661306934,-0.4228310168552796
160457000000,94,160457000000,FR_wheel_link,-28.78197262176969,9.084104152439872,6.2132613713466975,-0.0033041990923824587,-0.030781465999409265,0.42270690544443335
160458000000,95,160458000000,FR_wheel_link,28.111470428369614,-9.339564361571638,6.306466520492523,-0.0005763792024839773,0.035965287786183735,-0.42261042524424186
160459000000,96,160459000000,FR_wheel_link,-28.980804579679255,9.04950602004461,5.301280254191958,-0.005702802415465104,-0.03254673261991438,0.4225578421514639
160460000000,97,160460000000,FR_wheel_link,28.29712771097676,-9.345239326237813,6.027934762544335,-0.0008509518013621443,0.03380862441008166,-0.42278142345053493
160461000000,98,160461000000,FR_wheel_link,-28.57386020790181,9.03130401412995,4.762666871660526,-0.00627295157440118,-0.03390705755813185,0.4227980338889232
160462000000,99,160462000000,FR_wheel_link,28.647149393017887,-9.293236894293875,6.886210463270528,0.0030234925291748936,0.02925028331134944,-0.42271667164232785
160463000000,100,160463000000,FR_wheel_link,-27.987667289401426,9.092748592742765,5.8866548724603565,-0.00223095102966451,-0.03378854358926232,0.42264458148266293
160464000000,101,160464000000,FR_wheel_link,28.84397983188603,-9.239177935625381,8.018592041299396,0.006934354086392524,0.028902281636421254,-0.42270861678685756
160465000000,102,160465000000,FR_wheel_link,-28.01585271537496,9.216358931677066,7.464210689567523,-0.05717936555153092,-0.03324540001745727,0.4228082231752774
160466000000,103,160466000000,FR_wheel_link,28.717515223527244,-9.30203773426718,7.800908307124265,-0.05398562411691495,0.03493572457891562,-0.42272544631210657
160467000000,104,160467000000,FR_wheel_link,-28.802661524864014,8.936911809905736,6.5259647717147615,-0.06247820486553569,-0.03104815754597906,0.4226611648745983
160468000000,105,160468000000,FR_wheel_link,28.184557034162285,-9.5906022522082,7.101809884943491,-0.0615398603255668,0.03746885217539771,-0.42231174064421334
160469000000,106,160469000000,FR_wheel_link,-29.213972193950358,8.601157886810517,6.36088337408921,-0.04889026423435736,-0.03223713269666709,0.4220751580798909
160470000000,107,160470000000,FR_wheel_link,28.391438270461357,-10.020562134157679,7.949633444680395,-0.004441137713446821,0.03280123711768422,-0.42226186889416933
160471000000,108,160471000000,FR_wheel_link,-28.6894136150449,8.272990731237297,6.4616547573650704,-0.00988097987295588,-0.03546311424443256,0.42184802777066943
160472000000,109,160472000000,FR_wheel_link,29.07898104046695,-10.271782049041079,9.194433374256128,0.004491548482671751,0.031172740942517273,-0.4220288830744399
160473000000,110,160473000000,FR_wheel_link,-28.550275166338857,7.998732100446672,7.776844629024304,0.0014035226073274257,-0.035640557938785934,0.42202980208109486
160474000000,111,160474000000,FR_wheel_link,29.28639196240202,-10.426035832350978,8.71254118602401,0.008924648285569685,0.03259829110005191,-0.4223016225373738
160475000000,112,160475000000,FR_wheel_link,-28.802252538902227,7.831643507388148,6.586542343089829,-0.0010752850108622536,-0.03982786240235606,0.4219421758731196
160476000000,113,160476000000,FR_wheel_link,29.559531632619176,-10.169387171511177,5.658983479422898,0.003155300720722595,0.043219468293721655,-0.42098896181003564
160477000000,114,160477000000,FR_wheel_link,-29.940311006182245,8.16664669046079,3.435855565218089,-0.0032022431566081917,-0.03877691532992113,0.4219320373079279
160478000000,115,160478000000,FR_wheel_link,29.396104869747305,-10.146034648139347,5.245453326138109,0.004345921977121889,0.04129892433091191,-0.42173177325804945
160479000000,116,160479000000,FR_wheel_link,-29.9029126516173,8.175632135616123,3.178172095294201,-0.0019686528352279276,-0.034057515381030044,0.42237603715597594
160480000000,117,160480000000,FR_wheel_link,29.075171533682745,-10.197390277265495,4.975502151973196,0.004080864217927834,0.03700098939336081,-0.42252780354802205
160481000000,118,160481000000,FR_wheel_link,-29.58435935664939,8.06636928348375,3.1054479236148578,-0.004392896452466052,-0.034503394107472385,0.4217266695123967
160482000000,119,160482000000,FR_wheel_link,29.10129134333149,-10.036100855514286,3.692860774590712,-0.0019071942920292847,0.036693079065260946,-0.42132457284404307
160483000000,120,160483000000,FR_wheel_link,-29.421240038247262,8.358635617030503,1.7773807439117855,-0.007972826232117466,-0.0310557844104955,0.4213697813038691
160484000000,121,160484000000,FR_wheel_link,28.86649686616745,-10.188141944389667,3.9823413789769786,-0.0020175446933518174,0.031136389711098736,-0.42182295581770246
160485000000,122,160485000000,FR_wheel_link,-28.99391739317048,8.112570498111413,2.352948634934811,-0.0076015009117935866,-0.029368570459108893,0.4212518937942294
160486000000,123,160486000000,FR_wheel_link,28.910740947300773,-10.650150301522432,5.2098400059522305,0.0003166353474013477,0.026713669819728777,-0.42213788620184506
160487000000,124,160487000000,FR_wheel_link,-28.697461146239075,7.767125715390126,3.4509378788673963,-0.005986988853069405,-0.028949873924826522,0.42165493577905866
160488000000,125,160488000000,FR_wheel_link,29.100106320021098,-11.25315772440092,7.202074162731746,0.005458424176076629,0.02394384665641223,-0.42222998815178286
160489000000,126,160489000000,FR_wheel_link,-28.586551908427055,7.315757346019428,4.786521618198038,-0.002229620705360906,-0.028068287337945516,0.4224255349934485
160490000000,127,160490000000,FR_wheel_link,29.201098710221878,-11.570150754274833,8.161326130872244,0.009532889274203288,0.02560560653055026,-0.4222326482377514
160491000000,128,160491000000,FR_wheel_link,-28.904066954100177,7.122521058823621,5.1431007059173375,3.860845212459601e-05,-0.028423277828533666,0.4227293997387653
160492000000,129,160492000000,FR_wheel_link,29.348812984457314,-11.731555917047714,8.522924120059486,0.011102634202668032,0.02758946174414826,-0.42247106573275656
160493000000,130,160493000000,FR_wheel_link,-29.2187231075517,7.0329007687028025,5.096010112735274,0.0001690766831784733,-0.0297769019374409,0.42269094124690987
160494000000,131,160494000000,FR_wheel_link,29.546637237208525,-11.766717470551784,8.430630211723324,0.010462814132388528,0.030109316375849935,-0.42234876602062904
160495000000,132,160495000000,FR_wheel_link,-33.53224908186237,6.790246308928967,7.517546408544781,-0.08602336934272038,-0.032332310939555596,0.2515969684567273
160496000000,133,160496000000,FR_wheel_link,9.513142637546546,12.993657055276818,11.261160131151035,-0.07394686231694518,0.033711778822615945,-0.04102152895656172
160497000000,134,160497000000,FR_wheel_link,-3.40378562966975,-17.334218737044022,4.101538993384314,0.11229844339999655,-0.025579441666315456,-0.003831964186111487
160498000000,135,160498000000,FR_wheel_link,1.650156426790818,11.784919239559635,10.808075201265039,-0.06043609832703114,0.020820445159740304,0.011199261899729192
160499000000,136,160499000000,FR_wheel_link,-1.0279821883970905,-17.242191790191782,4.529448350190494,0.11741765430415137,-0.016078279617025928,-0.012829769928356051
160500000000,137,160500000000,FR_wheel_link,0.5860342541874721,13.851086667084095,9.627923852096082,-0.06654415893084323,0.012940702486149144,0.01314484517236973
160501000000,138,160501000000,FR_wheel_link,0.037830260414398485,14.182374355462118,9.651597883993949,-0.06455381516626517,-0.008788950189260954,-0.0019702453299643716
160502000000,139,160502000000,FR_wheel_link,1.2999343430876353,-15.158523733889314,5.132803085075715,0.11188690706711807,0.005493093401836773,-0.011396231654334578
160503000000,140,160503000000,FR_wheel_link,-1.2391780257918357,13.786491218528981,9.903219081889716,-0.06431762206632204,-0.00344353610301287,0.013557810486918382
160504000000,141,160504000000,FR_wheel_link,1.2088713600894943,-15.162803906523834,5.1681612674506505,0.11029993165020006,0.0025829176635562847,-0.013726564443812357
160505000000,142,160505000000,FR_wheel_link,-1.0509174718223495,13.707441318762731,9.298276348546198,-0.07048934027395491,-0.0009928193957073617,0.013909370248996251
160506000000,143,160506000000,FR_wheel_link,1.027873595003474,-15.22788621730104,5.215162515592576,0.1067257254581102,0.0008956921374430433,-0.0138268232880353
160507000000,144,160507000000,FR_wheel_link,-0.8906473104989745,13.88084313451092,7.920041368487808,-0.0759147500372989,-0.0004065441152958038,0.013685792361951265
160508000000,145,160508000000,FR_wheel_link,0.9965074630226498,-15.264886421239034,4.03353579807504,0.1012190874807241,-0.0004004030423959894,-0.013636674943116139
160509000000,146,160509000000,FR_wheel_link,-0.72928445298294,13.700159483595556,6.177301373652261,-0.09022381681872975,-0.0004524376298473222,0.013573822662587078
160510000000,147,160510000000,FR_wheel_link,-0.8885423569159436,-1.5873381502574406,5.938179593273044,-0.044087622913880166,-0.001901874141791039,-0.09525121930064148
160511000000,148,160511000000,FR_wheel_link,-8.326307250938761,11.424543463515288,4.679542696326646,-0.0036223479321135046,0.0032581102997349676,0.2794517353905975
160512000000,149,160512000000,FR_wheel_link,23.55576636828536,-11.086350700187225,7.542511050726336,0.00914343135889794,-0.0026023661553504474,-0.3988411111932833
160513000000,150,160513000000,FR_wheel_link,-26.23319616344259,8.04553524579171,5.889475070517988,0.0008231003387285634,-0.0030851041525371318,0.41864454268239104
160514000000,151,160514000000,FR_wheel_link,27.491374318357092,-10.75592648430894,8.754927358332022,0.012481455540092952,0.007471674199838526,-0.4221328621766375
160515000000,152,160515000000,FR_wheel_link,-27.824465732353136,7.782170740437068,5.680941646230807,0.0015846389949642867,-0.010533525110070349,0.4228835626281855
160516000000,153,160516000000,FR_wheel_link,28.318742052662017,-10.929283792410299,9.002822556347015,0.012513087628477316,0.013463108818621903,-0.4231619644865145
160517000000,154,160517000000,FR_wheel_link,-28.421792484103783,7.6483870375385985,5.277451269030839,0.002258384938770285,-0.019628487918477395,0.42299139173363043
160518000000,155,160518000000,FR_wheel_link,29.295846818659236,-10.974828694371181,8.376828501752339,0.011686449724646861,0.01885605020177352,-0.42318394969713563
160519000000,156,160519000000,FR_wheel_link,-28.9551815591344,7.632883932667453,4.061839227947137,-0.0020119417059976065,-0.022995354494793965,0.42320549982749534
160520000000,157,160520000000,FR_wheel_link,29.503117982811435,-10.765084223397617,6.395122598513676,0.004761676010589812,0.02391272035514865,-0.4224260083045147
160521000000,158,160521000000,FR_wheel_link,-29.366827310893473,7.904130541192119,1.9955996409300478,-0.008703383638601334,-0.02534696249262194,0.42237317405602554
160522000000,159,160522000000,FR_wheel_link,29.503264702985867,-10.412813841276478,4.098910035858694,-0.002851834867311621,0.0275005744150074,-0.42151062295165387
160523000000,160,160523000000,FR_wheel_link,-29.593808145800857,8.175983304767362,0.3349143579855641,-0.013086177314326061,-0.025595843229105207,0.42143898371927285
160524000000,161,160524000000,FR_wheel_link,29.443276665519395,-10.255306291521501,3.460131437050289,-0.006162822775913552,0.02664620502343303,-0.4213662762690853
160525000000,162,160525000000,FR_wheel_link,-29.47007724210142,8.129674284587315,0.533981908790642,-0.012756481615986463,-0.023072791783160327,0.4221741192264691
160526000000,163,160526000000,FR_wheel_link,29.41399432130351,-10.501446348980489,4.2120668577989315,-0.0019242216165170057,0.023488364853483285,-0.42341378763352183
160527000000,164,160527000000,FR_wheel_link,-29.466594458660754,7.887897903913834,1.2133852874116176,-0.007938896265529878,-0.02069363751767133,0.4233183654454423
160528000000,165,160528000000,FR_wheel_link,29.355885157909174,-10.67416180707243,4.6167251240763205,0.0010528675562750587,0.01985719076437712,-0.4238631198431865
160529000000,166,160529000000,FR_wheel_link,-29.188148239340318,7.917488260378204,1.5378681380349455,-0.004050746789514718,-0.021162655670798156,0.4232132330311457
160530000000,167,160530000000,FR_wheel_link,29.43063590594583,-10.608146130825743,5.379020057282023,0.007780834879281962,0.019403494539877005,-0.4242349699321663
160531000000,168,160531000000,FR_wheel_link,-29.356797409693183,7.9058829839255855,2.3503503866799385,0.000920824388631318,-0.018833251759465625,0.4244881818838469
160532000000,169,160532000000,FR_wheel_link,29.304305600525606,-10.623730228678786,6.304970841361518,0.012627618613654756,0.018410671615673693,-0.42452194378476077
160533000000,170,160533000000,FR_wheel_link,-29.40654481333802,7.843578816451876,2.9699366151095163,0.0038308288953707663,-0.018018803455225385,0.4245462819667705
160534000000,171,160534000000,FR_wheel_link,29.32945560186054,-10.723241811381119,6.877695016355459,0.01436392589515966,0.018142032023746674,-0.4245765862853739
160535000000,172,160535000000,FR_wheel_link,-29.488167745819865,7.733877491655319,3.134187223799354,0.0033529641490603625,-0.018707742783332395,0.42456191623065304
160536000000,173,160536000000,FR_wheel_link,29.514220325417135,-10.843918982511527,6.864852266150264,0.012175714119022754,0.018570917794519918,-0.42455163645505084
160537000000,174,160537000000,FR_wheel_link,-33.59977154478476,7.4860359371504375,5.57785124472816,-0.08491681831569813,-0.025684300422313486,0.2539209211290125
160538000000,175,160538000000,FR_wheel_link,7.291409048511641,-0.9772061998436132,8.677078230565545,-0.02633791155080878,0.02917995986587044,-0.13776923355653942
160539000000,176,160539000000,FR_wheel_link,-12.625630970113505,10.53948597495079,5.207088770611404,0.014382272604078693,-0.018493419064919345,0.2891115017048822
160540000000,177,160540000000,FR_wheel_link,26.106116969607427,-11.829686807407159,9.837685009200193,0.02871521547844864,0.010099250287557792,-0.40193367600349106
160541000000,178,160541000000,FR_wheel_link,-28.29356211922146,7.344142906403996,5.607765819673292,0.018095950526410002,-0.010299023914204291,0.42124223349045803
160542000000,179,160542000000,FR_wheel_link,28.99472322414074,-11.475921803710811,9.951929239549361,0.029434546253926983,0.009657781982227961,-0.4243356297625409
160543000000,180,160543000000,FR_wheel_link,-28.981245974408985,7.1112205767314425,5.6151895418498805,0.016918805642312337,-0.011589048385851121,0.4250974143793578
160544000000,181,160544000000,FR_wheel_link,29.361897166376206,-11.473853955505053,9.469656096348116,0.02662006450641716,0.013254387135960064,-0.42522383337564784
160545000000,182,160545000000,FR_wheel_link,-29.528645628496452,7.223514869477125,4.3029476972879115,0.009890679096127565,-0.014563947028214617,0.42479793935528676
160546000000,183,160546000000,FR_wheel_link,29.445708170784858,-10.908582411071981,6.503486108342122,0.012076089179101232,0.018265923653158933,-0.4239351173658115
160547000000,184,160547000000,FR_wheel_link,-30.8891433752608,7.988956393339851,1.765404137391919,-0.0349031710114139,-0.02207802982928897,0.37068597413905297
160548000000,185,160548000000,FR_wheel_link,22.054584245285323,-11.65804292302452,3.943084188841748,-0.0034404120170193203,0.020638960729782403,-0.36141641196038915
160549000000,186,160549000000,FR_wheel_link,-27.979070970087587,8.405071352523244,0.34778660640260733,-0.013252166211792172,-0.018206890697863843,0.41185509528801034
160550000000,187,160550000000,FR_wheel_link,29.123890868672767,-10.169683559315594,3.7277791284578567,-0.00498216878200452,0.013364021471485535,-0.41987663644609835
160551000000,188,160551000000,FR_wheel_link,-28.87045551248212,8.018146185908968,0.5994647975265346,-0.012158172753347908,-0.01593228246290055,0.4216760083336231
160552000000,189,160552000000,FR_wheel_link,29.37145088775475,-10.443404959679233,4.576111075180535,-0.0011875052318230713,0.011940210792768616,-0.422020218326957
160553000000,190,160553000000,FR_wheel_link,-28.99916243013502,7.711936172808956,1.3415303712656756,-0.008468394763090433,-0.014835086866696994,0.4227791383735755
160554000000,191,160554000000,FR_wheel_link,29.42537358679742,-10.815121712393498,5.217383732399111,0.002452489693856919,0.012575394342935883,-0.42298638499077135
160555000000,192,160555000000,FR_wheel_link,-29.27916233591468,7.645420644792598,1.4957356219766882,-0.005969697012583579,-0.013291131626419265,0.4238136593551727
160556000000,193,160556000000,FR_wheel_link,31.354652870000606,2.8746101353720244,5.811723736956627,-0.0371414356703762,0.018426428399476183,-0.33726798620258264
160557000000,194,160557000000,FR_wheel_link,-21.301029150197003,9.706647260756105,4.851535420649313,-0.08372639063966235,-0.023833104745790423,0.15319971975967608
160558000000,195,160558000000,FR_wheel_link,5.852080059466781,-16.48220989985036,6.575014640874915,0.09605138118110713,0.029325759751572172,-0.06775835082163592
160559000000,196,160559000000,FR_wheel_link,-8.535643281516199,11.410393166727982,7.312718294787754,-0.06807292593711863,-0.019760260486819333,0.05363240457824755
160560000000,197,160560000000,FR_wheel_link,-0.3078385881915104,-17.065816797716835,9.315345999325743,0.030056613334340423,0.009678279934109671,-0.19231560832829914
160561000000,198,160561000000,FR_wheel_link,-22.92394644618801,9.378460350747007,5.613284977850565,0.01893911707007863,0.00533179102699452,0.38482882684700226
160562000000,199,160562000000,FR_wheel_link,26.869111812991072,-10.065732346510796,9.690624795656637,0.030561994644184912,-0.0061290262515955336,-0.4177345874864556
160563000000,200,160563000000,FR_wheel_link,-27.65418482452612,8.478886598919749,5.711497827471558,0.018611274073216312,0.0074759975044653435,0.42318347916576077
160564000000,201,160564000000,FR_wheel_link,27.816513515027662,-9.928692793387208,9.823684600497927,0.02896395023525104,-0.005107479608828022,-0.424119374364572
160565000000,202,160565000000,FR_wheel_link,-28.007723942561626,8.420915589264894,5.528774803617972,0.014876454163101294,0.004712094145096449,0.4239315460531246
160566000000,203,160566000000,FR_wheel_link,28.228421891911466,-9.993413765195976,8.960638921923875,0.02345071370941284,-0.004094159054853351,-0.424441152965176
160567000000,204,160567000000,FR_wheel_link,-29.436541807633695,8.330293724194922,4.78168607699374,-0.018776338421756678,-0.00010308189373956707,0.3723475504757954
160568000000,205,160568000000,FR_wheel_link,25.128137160395774,18.321767402476983,6.620076017629851,-0.08042747271431827,0.014566105941635567,-0.182232819692555
160569000000,206,160569000000,FR_wheel_link,-1.484859781431088,13.29900633367655,4.211498324687598,0.009500886335436895,-0.009455384793524082,0.2019803228552254
160570000000,207,160570000000,FR_wheel_link,23.292865626062646,-11.142308983566682,9.587195883530196,0.0233728998223241,-0.0034575966307708477,-0.38703131486959763
160571000000,208,160571000000,FR_wheel_link,-27.37542564179959,8.490104739964424,5.6567050347091365,0.012090860234753625,0.00536513701513868,0.4174482753662281
160572000000,209,160572000000,FR_wheel_link,28.02130593387947,-10.176021233920556,10.093968713364337,0.022717454857173185,-0.005351997877913809,-0.4234201847634944
160573000000,210,160573000000,FR_wheel_link,-28.27368364201832,8.071297441442978,5.402361580947691,0.006959242833557115,-0.001137952887370908,0.42447571485547686
160574000000,211,160574000000,FR_wheel_link,29.03042558082195,-10.432958561005238,9.29044126466844,0.014632978763889774,-0.0005269965900568262,-0.4238633758594932
160575000000,212,160575000000,FR_wheel_link,-28.71938510329679,7.915894173508114,3.819883432278571,-0.0013294651714853196,-0.003139005098795104,0.4240625701402553
160576000000,213,160576000000,FR_wheel_link,29.054003215986185,-10.421435135478871,6.6944890017145875,0.0033999004936940097,0.003732034763634747,-0.4233349834130772
160577000000,214,160577000000,FR_wheel_link,-29.06188780123755,7.993315635431864,1.363912146247851,-0.010860333172481277,-0.005911507773953564,0.42329508550568323
160578000000,215,160578000000,FR_wheel_link,29.198698845947636,-10.473655377568909,4.449940421740157,-0.0049653434080969006,0.00429329909634625,-0.4229783040868569
160579000000,216,160579000000,FR_wheel_link,-29.081229346852716,8.096082547581108,0.061672363682632986,-0.015370571415869677,-0.003788648363092937,0.42343497758992826
160580000000,217,160580000000,FR_wheel_link,29.028529754748572,-10.419883235882018,4.314314730535662,-0.0063504678151362496,0.0014260713680579603,-0.4232067231211746
160581000000,218,160581000000,FR_wheel_link,-28.858518536718933,8.036987868089055,0.2767695404258642,-0.01405285852467296,-0.0001332918836319733,0.4236221414587352
160582000000,219,160582000000,FR_wheel_link,28.80592609015812,-10.598681929924103,4.820916724987404,-0.0029658520488658894,-0.00011679865627727673,-0.4236268455100054
160583000000,220,160583000000,FR_wheel_link,-28.864563857748614,7.616379927986125,1.2583544779848426,-0.009763431675282574,-0.0009404744153451657,0.4238102796178705
160584000000,221,160584000000,FR_wheel_link,29.072624516635972,-10.958527859082071,5.868792866781292,-0.00038870456987166935,-0.0011625576162718402,-0.4245657484171774
160585000000,222,160585000000,FR_wheel_link,-28.95865902303888,7.365552142569517,1.8662069277148456,-0.007717280141073418,-0.0005081487270413998,0.42461779298023344
160586000000,223,160586000000,FR_wheel_link,29.068254034611613,-11.04728394690259,6.229557188587632,0.002435581189040658,-0.00026680354975431333,-0.42474710380244246
160587000000,224,160587000000,FR_wheel_link,-29.196270510655793,7.3760487879477905,1.8700205642930827,-0.005722070980177498,0.0013164405041574075,0.42476557939665743
160588000000,225,160588000000,FR_wheel_link,30.927408342937838,3.895732670246757,6.167942364396925,-0.03890876287673368,0.006615925975080958,-0.3366205429376102
160589000000,226,160589000000,FR_wheel_link,-20.84736888673288,9.487779144042753,5.3442812055534565,-0.08057828002061967,-0.013919911959510752,0.15159570483889356
160590000000,227,160590000000,FR_wheel_link,5.699289072355396,-15.732537458100394,5.24129659619667,0.10758995278075091,0.02513689801285666,-0.03881816493205016
160591000000,228,160591000000,FR_wheel_link,-4.05362600499094,12.875176438356451,6.996099299203427,-0.06681984662925168,-0.014443144151291804,0.019388663326808466
160592000000,229,160592000000,FR_wheel_link,2.327881939514312,13.6266168495239,8.973481457276367,-0.06024733271713188,0.016811811828371073,-0.006112053259168262
160593000000,230,160593000000,FR_wheel_link,-1.2749802903017349,-15.70359050194448,7.035206576699619,0.12123183601936992,-0.011924681650430364,-0.00842280055209549
160594000000,231,160594000000,FR_wheel_link,0.12948785107512326,15.675915477170175,9.789445404347841,-0.05922606747050946,0.011100270702120489,0.011313371725048165
160595000000,232,160595000000,FR_wheel_link,-0.06126013356612432,-13.58087941330483,7.308094886853736,0.11623319801842297,-0.0075851584624527435,-0.012471694641319588
160596000000,233,160596000000,FR_wheel_link,-0.27531360758397316,15.646240286642485,9.722617602540977,-0.06082943935659737,0.00611801382915443,0.012938641623401723
160597000000,234,160597000000,FR_wheel_link,0.49224173113202746,-13.596866889975916,7.3521513784273,0.11422857533510133,-0.005126979596841522,-0.013053587301315872
160598000000,235,160598000000,FR_wheel_link,-0.4065429033098842,15.364487141064421,8.202767933788685,-0.06929649133528779,0.0030088045651586073,0.01314327660432895
160599000000,236,160599000000,FR_wheel_link,1.1159978991304709,15.647650850492171,8.619091402001816,-0.07106936147577468,-0.005901764974773107,-0.001279529997737794
160600000000,237,160600000000,FR_wheel_link,1.1427857461149586,-14.0849403807614,6.21839993968415,0.10365290589691277,0.005530036302091532,-0.011958173465419093
160601000000,238,160601000000,FR_wheel_link,-1.375055782570446,15.090876940314402,7.934367803259896,-0.07374538667695461,-0.0003069220810589984,0.01349125547832437
160602000000,239,160602000000,FR_wheel_link,0.8937956944861132,-14.117395768034974,6.203687526586123,0.10244765195084772,0.0023819922429772615,-0.013939775538125585
160603000000,240,160603000000,FR_wheel_link,-1.168204085213532,14.947802171374128,7.553227136940436,-0.07613468246568418,0.0005514415346412107,0.01361923337886551
160604000000,241,160604000000,FR_wheel_link,0.9244163698734633,-14.251403592789025,5.889141258136652,0.09987727633562521,-0.00018734190661807764,-0.013781173554814924
160605000000,242,160605000000,FR_wheel_link,-0.8917818267484303,14.778497058472325,6.8299493728454825,-0.07993332557299669,0.001935350727057268,0.013250272368385926
160606000000,243,160606000000,FR_wheel_link,0.834487461620944,-14.443173838434861,5.090656568890139,0.09554433198897226,-0.0021322514333519333,-0.013098500809185265
160607000000,244,160607000000,FR_wheel_link,-0.6011248733824021,14.429781732469948,4.939752781220304,-0.09074299839197389,0.00029045413735591434,0.013324531464149032
160608000000,245,160608000000,FR_wheel_link,1.0998762822260257,-14.84095845649173,3.377447267617231,0.08389800299394942,-0.0024273344976736555,-0.013010634644064706
160609000000,246,160609000000,FR_wheel_link,-0.5811581272108515,14.334958880561729,4.924822733596959,-0.09664817602140871,0.004452768947608069,0.012826697434248873
160610000000,247,160610000000,FR_wheel_link,0.583683955204395,-14.932235186516644,3.3241034664911524,0.07948724698643235,-0.0009741989670527285,-0.01338281385533004
160611000000,248,160611000000,FR_wheel_link,-0.8608505499802152,14.264797348090807,5.328477868632646,-0.09646316995013078,0.0036702483406712916,0.012896247749587855
160612000000,249,160612000000,FR_wheel_link,0.6142991169430683,-15.021857564707778,3.4329318724024063,0.07984434989846217,6.332430665236492e-05,-0.01361820050005088
160613000000,250,160613000000,FR_wheel_link,-0.9765401720896133,14.191594084647042,5.451469378374401,-0.09525044055697329,0.0030751117000864963,0.012953507168209923
160614000000,251,160614000000,FR_wheel_link,0.6712736942359724,-15.066786967089593,3.737385632416899,0.08153658362670534,2.680968065691572e-05,-0.01366014418910576
160615000000,252,160615000000,FR_wheel_link,-0.9640885364901596,14.154373262862757,5.685473579019825,-0.09326351692183915,0.0027776460047893455,0.013021264007998181
160616000000,253,160616000000,FR_wheel_link,0.7469562065364242,-15.04838737421873,4.364977364750543,0.08446041359282201,-0.001256800706180169,-0.013316453535017026
160617000000,254,160617000000,FR_wheel_link,-0.7653334966439942,14.196429823926639,6.359673360499306,-0.09025230306039003,0.002587044789592839,0.013099247974471548
160618000000,255,160618000000,FR_wheel_link,0.8737978990367206,-15.016211167891605,5.1035044542448995,0.08695696710203428,-0.0030513020107790795,-0.013083182445395795
160619000000,256,160619000000,FR_wheel_link,-0.5069722864200362,14.234743296586036,7.082921404034838,-0.08790962595326335,0.002407729025552003,0.013238282182670952
160620000000,257,160620000000,FR_wheel_link,1.0383347945358161,-14.98044446409029,5.711940745464398,0.09028638065764757,-0.006594259749006203,-0.01269670820747235
160621000000,258,160621000000,FR_wheel_link,-0.04462752251299211,14.267390367967481,7.631059330999143,-0.08466471625728993,0.0017086896029497856,0.013421358333269377
160622000000,259,160622000000,FR_wheel_link,-0.6758948815991241,-14.994260121974625,7.329161056109309,0.051768764279009005,-0.013580537316549061,-0.09180839285536843
160623000000,260,160623000000,FR_wheel_link,-11.329896842158924,12.114040426203008,8.21532259053031,-0.08312524365817364,0.00909064276057955,0.10594605192252109
160624000000,261,160624000000,FR_wheel_link,3.3347161780309826,-14.735155779699472,6.0948939414066245,0.0926742163964538,-0.005378321625664791,-0.0280925046703603
160625000000,262,160625000000,FR_wheel_link,-0.5480587673258994,14.101927419972416,7.81043602683382,-0.08240883117349465,-0.0009550848112156479,0.0164718449928648
160626000000,263,160626000000,FR_wheel_link,1.5141293572435763,-15.263624785970826,6.5088379918247945,0.09380207177372558,-0.004291598073309229,-0.013445341490802776
160627000000,264,160627000000,FR_wheel_link,-0.29781312881387245,13.738287662226766,6.770255398398789,-0.08375568121106186,0.0026710320844138507,0.0132747667795496
160628000000,265,160628000000,FR_wheel_link,-1.0350136089838542,-15.541644989142586,6.603080043745467,0.05073276114974948,-0.011939973567660795,-0.09543883572232031
160629000000,266,160629000000,FR_wheel_link,-12.196837159849368,11.454910248240802,7.123982726089773,-0.08287468606517107,0.010778419072603938,0.10949432590364762
160630000000,267,160630000000,FR_wheel_link,3.106154491356502,-15.284043582848668,5.25950460100511,0.0939754640098807,-0.002768781869844003,-0.02909838184695115
160631000000,268,160631000000,FR_wheel_link,-1.0100898144481367,13.534189001337582,6.749693742342543,-0.08148769935526905,0.000316254743144351,0.016285266824228824
160632000000,269,160632000000,FR_wheel_link,1.1743448212076988,-15.708274997130522,5.395175833817089,0.09492556740538129,-0.0008472272073562749,-0.01376292073316519
160633000000,270,160633000000,FR_wheel_link,-0.7200494181873562,13.525823947520307,6.689184914422225,-0.08076461014391895,0.00031860224906476834,0.013576044196255474
160634000000,271,160634000000,FR_wheel_link,-0.8308842139149246,-1.9304894844097413,7.669888987539435,-0.03318180445678113,-0.008744324770429225,-0.0942463604487705
160635000000,272,160635000000,FR_wheel_link,-8.3177441050968,11.248706552172868,4.260752239836503,0.009841775215028317,0.026740115549706064,0.27603380772683145
160636000000,273,160636000000,FR_wheel_link,23.19427833435869,-10.796813053605693,7.638852439710879,0.018205218317466815,-0.03779439630054994,-0.3949736120538124
160637000000,274,160637000000,FR_wheel_link,-25.753518973058625,7.980322588959373,4.594057962330274,0.01541227163526981,0.037212089971364694,0.4150117232289627
160638000000,275,160638000000,FR_wheel_link,26.644972500455523,-8.885311946147867,8.278493746485085,0.02003291356802381,-0.03881953568309319,-0.4182540298023179
160639000000,276,160639000000,FR_wheel_link,-26.416331952907694,9.262059296663528,5.114736880621811,0.013499597646230243,0.03607749247849287,0.4197503275655152
160640000000,277,160640000000,FR_wheel_link,27.007158097694532,-8.865923368277704,8.246381643490189,0.018820022691299874,-0.037655024297741965,-0.41968033894405754
160641000000,278,160641000000,FR_wheel_link,-26.61304464582583,9.182581559638317,4.836658499636767,0.01199546310479751,0.03389976336451639,0.42020674276318043
160642000000,279,160642000000,FR_wheel_link,27.247597680603167,-8.967175364842058,7.7828799467443925,0.015159867578492246,-0.03677882928648231,-0.4195804447456008
160643000000,280,160643000000,FR_wheel_link,-26.696695454385804,8.892817008465888,4.381725616202386,0.007431368956704973,0.03244987102263974,0.4205296900861389
160644000000,281,160644000000,FR_wheel_link,27.478182786524247,-9.2340041074107,7.438916355688208,0.00971433810898966,-0.037201929163223214,-0.41948737344251213
160645000000,282,160645000000,FR_wheel_link,-26.619018909447377,8.636984288868346,4.002886807483987,0.00241194763547158,0.03004184985625743,0.42100288159307714
160646000000,283,160646000000,FR_wheel_link,27.830800577043334,-9.429717160106922,7.014168321937407,0.006664184759660274,-0.03709518865790539,-0.4194724449358957
160647000000,284,160647000000,FR_wheel_link,-26.676485628894742,8.525643855233211,3.114625122798234,0.0007023690526452878,0.03255460835660534,0.4208984466376927
160648000000,285,160648000000,FR_wheel_link,27.589762042400803,-9.58976828890462,6.201498825974355,0.005435805414791606,-0.037200686005203897,-0.4196727025322424
160649000000,286,160649000000,FR_wheel_link,-26.827308631585595,8.36846354621818,2.2616301224634516,-0.0006278970475824701,0.03456931675488999,0.4205508842052771
160650000000,287,160650000000,FR_wheel_link,27.361057360674206,-9.659322477599005,5.584232622702573,0.0046981376718170514,-0.03723419217985406,-0.41966097140802094
160651000000,288,160651000000,FR_wheel_link,-26.955207290785626,8.30551821895873,1.5828174399736799,-0.001653197832587043,0.03617155446310898,0.4202604728076136
160652000000,289,160652000000,FR_wheel_link,27.186281330136925,-9.724625488063218,4.776730803753377,0.0033280569393539673,-0.03672675784358162,-0.41980205458510833
160653000000,290,160653000000,FR_wheel_link,-31.11689817784866,8.426111712242161,3.694711146450033,-0.08709853030308352,0.018232940191584335,0.2514013805012805
160654000000,291,160654000000,FR_wheel_link,2.8757995865326014,-14.320608991359189,5.846904246127498,0.004576569388457343,-0.01680190198249127,-0.22337164560905945
160655000000,292,160655000000,FR_wheel_link,-22.592998592232743,8.982886349961607,2.091461282682652,0.0007931969750369485,0.035948256862059304,0.3866277835750061
160656000000,293,160656000000,FR_wheel_link,26.177556878796377,-9.92458024996895,6.057181792816856,0.007926108551593952,-0.040655472218849346,-0.4133811134014355
160657000000,294,160657000000,FR_wheel_link,-26.59978797836298,8.185888407047415,3.1572008483153002,0.004927032068304622,0.0397169341120803,0.4181413181334428
160658000000,295,160658000000,FR_wheel_link,26.814538876765003,-9.800479124925749,6.890404271169642,0.012794544318588683,-0.03954842366984375,-0.41872252690104067
160659000000,296,160659000000,FR_wheel_link,-27.000219472901,8.186836353142908,3.0760501234149427,0.008096464712399356,0.043104643307197994,0.41883772633547767
160660000000,297,160660000000,FR_wheel_link,26.48369586451171,-9.83561983033281,6.805199496621275,0.01565634055721789,-0.039244934288246054,-0.4192174361782898
160661000000,298,160661000000,FR_wheel_link,-27.147432986510847,8.13625529006172,3.035466310079086,0.009862474667904316,0.044349019596023505,0.41821724762893275
160662000000,299,160662000000,FR_wheel_link,26.30849155005223,-9.858285013801291,6.808604867305128,0.018799268807194874,-0.03677690091161727,-0.41903457279343254
160663000000,300,160663000000,FR_wheel_link,-30.615969204855407,8.295729062502328,4.7201492343252065,-0.05854152458035851,0.027308572863854626,0.2826422404589001
160664000000,301,160664000000,FR_wheel_link,11.262603350430334,16.00716450932542,4.767807243113325,-0.07193510166512782,0.00514757175138742,-0.0825326313124712
160665000000,302,160665000000,FR_wheel_link,-2.6495624292648206,-16.067919896883705,4.513201555166838,0.10602918155243908,-0.004755434320444503,0.004115862428724977
160666000000,303,160666000000,FR_wheel_link,-0.020128404313875164,13.787469297051272,5.325799401087786,-0.06976953897002057,0.011841133547644022,0.007348641510419941
160667000000,304,160667000000,FR_wheel_link,-0.32316882480557724,-15.778402686247569,4.954636962460551,0.10823452737400405,0.0004279867245591635,-0.0118588512522785
160668000000,305,160668000000,FR_wheel_link,-0.9543023560545789,13.704816691946231,4.844198381531707,-0.07133388193833048,0.007252611147143677,0.010304492135105607
160669000000,306,160669000000,FR_wheel_link,0.4731959557166376,13.919838967002736,5.1753408022813785,-0.0690965705130623,0.003525739218885207,-0.0026578450833892845
160670000000,307,160670000000,FR_wheel_link,0.12672715505922616,-15.73336439690264,4.034366762389704,0.10633026711798323,0.008208136889142226,-0.011592191729624434
160671000000,308,160671000000,FR_wheel_link,-1.5814832883537657,13.410878665217215,4.413902573529473,-0.0711720922066181,0.0017723476928894453,0.01062238233438141
160672000000,309,160672000000,FR_wheel_link,0.634935974108713,-16.296164409099305,5.867461308256449,0.11254164307151487,0.009528077135400043,-0.015765159778563645
160673000000,310,160673000000,FR_wheel_link,-2.0404576082188948,13.054520208908475,5.116648480230372,-0.07367769659188317,-0.0068222029832281155,0.012251714933510745
160674000000,311,160674000000,FR_wheel_link,-0.49240780705875553,-2.4007437186644713,7.984190765346286,-0.025516384513796606,-0.007364952441611035,-0.09773619799021956
160675000000,312,160675000000,FR_wheel_link,-9.25454432304149,9.860335837029895,5.519589450042344,0.016911799312106814,0.027206634252860528,0.2801986009661141
160676000000,313,160676000000,FR_wheel_link,23.942780287641465,-12.031272777408436,10.984225599452042,0.024465669736314238,-0.05179924425092017,-0.39455708501426345
160677000000,314,160677000000,FR_wheel_link,-25.474069327225937,6.497959132625165,7.141454181998296,0.017394660035737062,0.04376499593862509,0.41557655800521204
160678000000,315,160678000000,FR_wheel_link,27.088304683129408,-11.57170971142342,10.184314809436446,0.018619102432504073,-0.053773195412730936,-0.4175926785749913
160679000000,316,160679000000,FR_wheel_link,-26.236989141203868,7.480803926597694,5.309023191721611,0.00568205897990676,0.04388172084395199,0.42201580105221387
160680000000,317,160680000000,FR_wheel_link,27.64319286175523,-10.382050408317209,7.670670981141237,0.006081298137422711,-0.04989555622100534,-0.4190910547425606
160681000000,318,160681000000,FR_wheel_link,-26.6554515942085,7.583231849930638,2.494685769900573,-0.0038310787133837977,0.04164765918709908,0.4203680509195237
160682000000,319,160682000000,FR_wheel_link,27.561317307212118,-10.225875900990488,5.271145743576985,-0.0021880926998269976,-0.046761569235768095,-0.41865708605855656
160683000000,320,160683000000,FR_wheel_link,-26.955429646513345,8.807021281439809,0.3007493197802026,-0.012343925590167103,0.043411794131703256,0.4222347374593725
160684000000,321,160684000000,FR_wheel_link,27.58055942545196,-9.095785412319145,4.285394738403066,-0.00803247649084564,-0.04485665812019436,-0.419746672130348
160685000000,322,160685000000,FR_wheel_link,-27.07700017907331,8.732794081771777,0.5277126583546471,-0.014488378386658191,0.04542689718738885,0.419557234505519
160686000000,323,160686000000,FR_wheel_link,27.300600301980992,-9.284630763595269,5.242434599537901,-0.01024524355040127,-0.0459356588919137,-0.42051311745293546
160687000000,324,160687000000,FR_wheel_link,-27.31764686449859,8.457643516144485,2.2306321000853244,-0.01685883994723267,0.042562869266064576,0.41985111855790924
160688000000,325,160688000000,FR_wheel_link,27.516355586896974,-9.453393730588065,7.726847053206952,-0.010584649681231356,-0.04371892133842171,-0.4207925792192153
160689000000,326,160689000000,FR_wheel_link,-27.80892677700941,8.430364219673326,4.294606124811111,-0.01364873749438647,0.04353213562851983,0.4205312911861935
160690000000,327,160690000000,FR_wheel_link,27.317740431165046,-9.419024215769328,8.784403503221313,-0.0071308272532435105,-0.04230931799947764,-0.42099961515057555
160691000000,328,160691000000,FR_wheel_link,-28.091862128127314,8.338222780972394,4.356175562249881,-0.010149700411170264,0.043603896392590796,0.4206433064898127
160692000000,329,160692000000,FR_wheel_link,27.338285063797922,-9.459548900183119,8.841806632220358,-0.0011605632477545886,-0.04426798605131426,-0.42050037340025664
160693000000,330,160693000000,FR_wheel_link,-27.847560998570195,8.333854382129536,4.312705734601153,-0.0009872739111262464,0.042000504104750966,0.42150720895499727
160694000000,331,160694000000,FR_wheel_link,27.74167073399577,-9.447406544190862,8.839109941227376,0.007873153665681174,-0.04527077873087243,-0.4204344747361636
160695000000,332,160695000000,FR_wheel_link,-27.610698878094144,8.224165357249062,4.286066950480851,0.0019900720593710054,0.03736738138657212,0.42204973409711705
160696000000,333,160696000000,FR_wheel_link,28.35308159987718,-9.566254098030418,8.957362471249674,0.009449385097267499,-0.045339513630433724,-0.4198799578357159
160697000000,334,160697000000,FR_wheel_link,-27.572943032123305,8.134698514944994,4.263421163513164,0.006068976052971354,0.04082063494928938,0.4218228579127301
160698000000,335,160698000000,FR_wheel_link,28.079405762004647,-9.624056517977273,8.866290730593741,0.012192798469860698,-0.04514996690577764,-0.41998428176415803
160699000000,336,160699000000,FR_wheel_link,-27.72014561762435,8.053032693160326,4.1032200650845745,0.006444040213062358,0.04314690193192826,0.42093393695886977
160700000000,337,160700000000,FR_wheel_link,27.81259902155317,-9.704241467252395,8.43568797441976,0.011577985312033157,-0.044040048432545144,-0.42005434519529755
160701000000,338,160701000000,FR_wheel_link,-31.977738372693164,8.263470665325986,6.176352256350808,-0.08004895794494375,0.0205664561928547,0.25204365778191445
160702000000,339,160702000000,FR_wheel_link,7.519401882717666,15.104505725870787,6.70923966645331,-0.07563093435970673,0.00875925726832442,-0.04497160635317206
160703000000,340,160703000000,FR_wheel_link,-1.9646965666532232,-15.827236035276947,4.260482370373751,0.0979367052770187,-0.005563276138473274,-0.0013842154576406281
160704000000,341,160704000000,FR_wheel_link,-0.5471347079809519,14.42383998703707,4.112370769400901,-0.0775532588940894,0.013680877047626517,0.005486721385659572
160705000000,342,160705000000,FR_wheel_link,-1.2036755713922875,-15.036747184145076,4.258925075736255,0.10339503350941305,0.00417590678324737,-0.012868170652774335
160706000000,343,160706000000,FR_wheel_link,-2.21009549780485,14.412878595709357,3.9481795997709774,-0.07153882448931971,0.011882791438265787,0.008786775722951574
160707000000,344,160707000000,FR_wheel_link,-1.0555171604036235,-14.854393113843779,4.929710063846068,0.10537869973652328,0.0018037175650340385,-0.013380919754191615
160708000000,345,160708000000,FR_wheel_link,-1.9731318660437236,14.598947703638625,4.768298517058119,-0.07112577931044795,0.009830658321689703,0.00888521045088497
160709000000,346,160709000000,FR_wheel_link,-0.8195113182058634,-14.053787142036061,5.429739053679271,0.10379567459137108,0.00431979772271338,-0.012379595101792129
160710000000,347,160710000000,FR_wheel_link,-1.9611771104589861,15.336095032948554,4.880267727020341,-0.07464632348322238,0.008014970727300532,0.009332682863209004
160711000000,348,160711000000,FR_wheel_link,-0.19327845517027117,15.973615230930655,6.171475507324494,-0.07187651550721942,0.002647079209971362,-0.0029443772930402155
160712000000,349,160712000000,FR_wheel_link,-0.39296344708942565,-13.426950608262837,8.19164428081208,0.11255630397118303,0.007219698504061416,-0.012050420609986673
160713000000,350,160713000000,FR_wheel_link,-1.9771761969176833,15.880791493840364,7.468461921460673,-0.06731884928481004,-0.001957805752895387,0.012025771622748066
160714000000,351,160714000000,FR_wheel_link,0.7733737137905851,-13.511800003203188,8.759355437201206,0.10949741174442322,0.0028175524563285584,-0.01329996046160081
160715000000,352,160715000000,FR_wheel_link,-1.2535835261549007,15.72780817916233,7.659540378712795,-0.07423097922648962,-0.010102424206603624,0.014881335716995348
160716000000,353,160716000000,FR_wheel_link,2.1436143307829876,-13.158874328802218,11.509321491964759,0.10631985744757476,-0.006725814458492754,-0.010141396880147757
160717000000,354,160717000000,FR_wheel_link,0.24775088481127827,15.941923504746367,8.855477358455415,-0.08064763881947577,-0.008895917634744724,0.015546704946026387
160718000000,355,160718000000,FR_wheel_link,2.4674891472518183,-13.653100960284124,10.47922413376095,0.0949209923975773,-0.00882151124677986,-0.00929755125240663
160719000000,356,160719000000,FR_wheel_link,0.5592673019233989,15.353105195860195,6.40458676647159,-0.09063302033896134,-0.001242308263724388,0.013859592021133267
160720000000,357,160720000000,FR_wheel_link,1.7018266304509468,-14.359481498642147,7.624896640433059,0.08646048850959755,-0.00922174379456562,-0.009767187267761901
160721000000,358,160721000000,FR_wheel_link,0.31469161148277164,14.92810969225679,3.544100138022548,-0.0994836814679602,0.006906369506309941,0.011287333082468405
160722000000,359,160722000000,FR_wheel_link,0.6316172537193523,-14.629036173207563,4.959480194282284,0.0781784360662018,-0.00775169586166056,-0.01014172504220417
160723000000,360,160723000000,FR_wheel_link,-0.10083303991870159,14.692143236373212,2.7005035174923253,-0.10212366750074661,0.010109033598857226,0.009537884156639254
160724000000,361,160724000000,FR_wheel_link,0.07906755582253239,-14.783200472955587,4.455562139450791,0.07672641147004741,-0.005729989624517064,-0.01058513281931269
160725000000,362,160725000000,FR_wheel_link,-0.3741533158426318,14.751058512712447,3.370462723299976,-0.09963065839973183,0.007643350407858884,0.010157484613395251
160726000000,363,160726000000,FR_wheel_link,0.3594378281301383,-14.524832357498932,5.845175546814284,0.08055178602421043,-0.005715301694193528,-0.01089126789261734
160727000000,364,160727000000,FR_wheel_link,-0.3153909319581186,14.975498355881776,4.659688855808681,-0.09530447267303988,0.006635051795746165,0.010530655034788878
160728000000,365,160728000000,FR_wheel_link,0.5236859585272001,-14.26135826185206,7.117621738191511,0.08560403084002403,-0.006283966528379336,-0.010556912775963182
160729000000,366,160729000000,FR_wheel_link,-0.17135388965943585,15.279545338782707,6.029715346129253,-0.09025787937424666,0.006226900467399145,0.010760517105255753
