%time,field.name0,field.name1,field.pose0.position.x,field.pose0.position.y,field.pose0.position.z,field.pose0.orientation.x,field.pose0.orientation.y,field.pose0.orientation.z,field.pose0.orientation.w,field.pose1.position.x,field.pose1.position.y,field.pose1.position.z,field.pose1.orientation.x,field.pose1.orientation.y,field.pose1.orientation.z,field.pose1.orientation.w,field.twist0.linear.x,field.twist0.linear.y,field.twist0.linear.z,field.twist0.angular.x,field.twist0.angular.y,field.twist0.angular.z,field.twist1.linear.x,field.twist1.linear.y,field.twist1.linear.z,field.twist1.angular.x,field.twist1.angular.y,field.twist1.angular.z
160367000000,hina_ssi_visual_root,khm2,0.0,0.0,0.0,0.0,0.0,0.0,1.0,-0.00015410261929500198,-0.0035598099784678113,0.17423984877103618,-0.004095399272718168,-0.0050624227578146535,-0.707115073978542,0.7070685056859338,0.0,0.0,0.0,0.0,0.0,0.0,-0.0034572267471155394,-0.004194035841731611,-0.0015271064586420812,-0.03536421557272877,0.09744217590695388,-0.4881929674662082
160367000000,hina_ssi_visual_root,khm2,0.0,0.0,0.0,0.0,0.0,0.0,1.0,-0.00014886131490903003,-0.0035652057734194397,0.1742383394205932,-0.004069081014148822,-0.00511490878802156,-0.7069427414301171,0.7072405818581545,0.0,0.0,0.0,0.0,0.0,0.0,0.005241304385971947,-0.005395794951628398,-0.001509350442985299,-0.037345103088231066,-0.10828873015633304,0.4877535315982276
160367000000,hina_ssi_visual_root,khm2,0.0,0.0,0.0,0.0,0.0,0.0,1.0,-0.00015482282714993545,-0.0035695697812086293,0.1742369492334349,-0.004103025102892737,-0.005092463531769072,-0.707114962015249,0.7070683577238875,0.0,0.0,0.0,0.0,0.0,0.0,-0.0059615122409054115,-0.004364007789189714,-0.001390187158281932,-0.015918055399737584,0.0765780683204686,-0.48763789674669605
160367000000,hina_ssi_visual_root,khm2,0.0,0.0,0.0,0.0,0.0,0.0,1.0,-0.00015189515242734132,-0.0035751226507272516,0.17423675420752854,-0.004054866286945169,-0.0051537125998264415,-0.7069426096397072,0.7072405135324431,0.0,0.0,0.0,0.0,0.0,0.0,0.002927674722594126,-0.005552869518622091,-0.0001950259063577646,-0.01885979284450871,-0.15155447290219554,0.4881908412259485
160367000000,hina_ssi_visual_root,khm2,0.0,0.0,0.0,0.0,0.0,0.0,1.0,-0.00016124515406807163,-0.0035797239843278986,0.17423680718401838,-0.0040839495708866295,-0.005118451493885106,-0.7071147244009575,0.7070685181406149,0.0,0.0,0.0,0.0,0.0,0.0,-0.009350001640730323,-0.00460133360064712,5.297648983710983e-05,0.009096626840426558,0.08782795901028047,-0.48722055340165143
160368000000,hina_ssi_visual_root,khm2,0.0,0.0,0.0,0.0,0.0,0.0,1.0,-0.00015811722107432596,-0.0035854060996137454,0.17423872543198796,-0.004041738919775611,-0.00516478270930863,-0.706942011044147,0.7072411062621622,0.0,0.0,0.0,0.0,0.0,0.0,0.0031279329937456794,-0.005682115285846612,0.00191824796958843,-0.0061896918942519405,-0.1220367642620552,0.4891301091077069
160369000000,hina_ssi_visual_root,khm2,0.0,0.0,0.0,0.0,0.0,0.0,1.0,-0.00016506499743999264,-0.0035901013178889045,0.17424056535084687,-0.004073585224943613,-0.005121094457814605,-0.7071143793046725,0.7070689039093271,0.0,0.0,0.0,0.0,0.0,0.0,-0.006947776365666666,-0.004695218275158929,0.001839918858902884,0.017112584398695032,0.10365112941919918,-0.48796812045894017
160370000000,hina_ssi_visual_root,khm2,0.0,0.0,0.0,0.0,0.0,0.0,1.0,-0.00016000686605955862,-0.0035958284359806298,0.1742434977268594,-0.0040431265613742225,-0.005153265123214138,-0.7069419302844959,0.7072412630720929,0.0,0.0,0.0,0.0,0.0,0.0,0.005058131380434018,-0.005727118091725061,0.0029323760125252573,-0.0027859485133644793,-0.08539896816725366,0.48819604241690956
160371000000,hina_ssi_visual_root,khm2,0.0,0.0,0.0,0.0,0.0,0.0,1.0,-0.0001639478061565433,-0.003600508353873248,0.17424565247530546,-0.004079694725071572,-0.005106414216906377,-0.7071143066505622,0.7070690475157928,0.0,0.0,0.0,0.0,0.0,0.0,-0.003940940096984693,-0.004679917892618233,0.002154748446058917,0.014900735837865772,0.11480410461119231,-0.48807190783601695
160372000000,hina_ssi_visual_root,khm2,0.0,0.0,0.0,0.0,0.0,0.0,1.0,-0.00015724710484454866,-0.003606248038034322,0.1742483683075495,-0.004056465574697975,-0.005131006665933732,-0.7069419692286691,0.7072413095971747,0.0,0.0,0.0,0.0,0.0,0.0,0.006700701311994652,-0.005739684161073899,0.002715832244024807,-0.002284617809277599,-0.06446299886646922,0.4877647874315602
160373000000,hina_ssi_visual_root,khm2,0.0,0.0,0.0,0.0,0.0,0.0,1.0,-0.0001595159969689544,-0.003610925131720451,0.17424943673460208,-0.0040900852281433335,-0.005087784367567905,-0.7071143770784277,0.7070690513535737,0.0,0.0,0.0,0.0,0.0,0.0,-0.002268892124405746,-0.004677093686128871,0.001068427052572882,0.013928630797892836,0.10550503170746196,-0.4881167508813882
160374000000,hina_ssi_visual_root,khm2,0.0,0.0,0.0,0.0,0.0,0.0,1.0,-0.00015309850960103507,-0.0036166757314810257,0.17425063663591792,-0.004065584790645347,-0.005113375223538565,-0.7069421033693326,0.7072412508457616,0.0,0.0,0.0,0.0,0.0,0.0,0.006417487367919344,-0.005750599760574698,0.0011999013158255616,-0.001888683985080614,-0.0676767736837643,0.48760694765029305
160375000000,hina_ssi_visual_root,khm2,0.0,0.0,0.0,0.0,0.0,0.0,1.0,-0.0001557908724584607,-0.0036212959113495822,0.17425049474526094,-0.0040964673291381225,-0.00507710526902214,-0.7071144844377717,0.7070689838027215,0.0,0.0,0.0,0.0,0.0,0.0,-0.002692362857425624,-0.0046201798685564874,-0.00014189065696336434,0.0079608714379935,0.09180416051039769,-0.4880064166365358
160376000000,hina_ssi_visual_root,khm2,0.0,0.0,0.0,0.0,0.0,0.0,1.0,-0.00015056047694970298,-0.0036269959190136287,0.17425044037155557,-0.004068042673430546,-0.005110344015687239,-0.7069421914370838,0.7072411705910382,0.0,0.0,0.0,0.0,0.0,0.0,0.005230395508757707,-0.005700007664046268,-5.4373705360002966e-05,-0.007149598087164248,-0.08404314156320285,0.48771858567403603
160377000000,hina_ssi_visual_root,khm2,0.0,0.0,0.0,0.0,0.0,0.0,1.0,-0.0001547799312221654,-0.0036316113781408137,0.1742487788025204,-0.00409374574389205,-0.005079934213238806,-0.7071145371046809,0.7070689265760493,0.0,0.0,0.0,0.0,0.0,0.0,-0.004219454272462423,-0.0046154591271849775,-0.001661569035163556,0.006999504995135877,0.07619262939858978,-0.4878231609122839
160378000000,hina_ssi_visual_root,khm2,0.0,0.0,0.0,0.0,0.0,0.0,1.0,-0.00015106755099389096,-0.00363728729200193,0.1742475291583606,-0.00406190754408586,-0.005118539608038967,-0.7069421930356908,0.7072411449889437,0.0,0.0,0.0,0.0,0.0,0.0,0.003712380228274451,-0.005675913861116404,-0.0012496441598253,-0.009914224807649398,-0.09645907892949371,0.4879141267093516
160379000000,hina_ssi_visual_root,khm2,0.0,0.0,0.0,0.0,0.0,0.0,1.0,-0.00015676829577041188,-0.0036417978114533954,0.17424556818433218,-0.00408111262666741,-0.00510187906711256,-0.7071144821925093,0.7070688965181063,0.0,0.0,0.0,0.0,0.0,0.0,-0.005700744776520926,-0.004510519451465306,-0.0019609740284166864,-0.00324474758703832,0.04755684141131399,-0.48757135024907006
160380000000,hina_ssi_visual_root,khm2,0.0,0.0,0.0,0.0,0.0,0.0,1.0,-0.00015516771421140052,-0.003647345484335174,0.17424432902862028,-0.004057024317904597,-0.005141318078011623,-0.7069421114600923,0.7072410893369043,0.0,0.0,0.0,0.0,0.0,0.0,0.0016005815590113418,-0.005547672881778682,-0.0012391557119016197,-0.022064957115768096,-0.0866746398323635,0.4878437552951471
160381000000,hina_ssi_visual_root,khm2,0.0,0.0,0.0,0.0,0.0,0.0,1.0,-0.00016078686918299633,-0.003651764924129001,0.17424298328948545,-0.0040779642944124474,-0.005128397462061262,-0.7071142564765908,0.7070689485716671,0.0,0.0,0.0,0.0,0.0,0.0,-0.005619154971595806,-0.004419439793826822,-0.0013457391348111487,-0.010977622848817176,0.04471583085781758,-0.48720334132537374
160382000000,hina_ssi_visual_root,khm2,0.0,0.0,0.0,0.0,0.0,0.0,1.0,-0.0001590657651205379,-0.0036572872890886466,0.17424262495917706,-0.004061051731897428,-0.005161108810385104,-0.7069419324477922,0.707241101012702,0.0,0.0,0.0,0.0,0.0,0.0,0.001721104062458418,-0.005522364959645808,-0.0003583303084096559,-0.02270805580389115,-0.06700539274405756,0.48759310530031147
160383000000,hina_ssi_visual_root,khm2,0.0,0.0,0.0,0.0,0.0,0.0,1.0,-0.00016329599725479674,-0.0036617704390876074,0.1742425229244751,-0.004082909267948264,-0.005141100405889825,-0.7071140390132423,0.7070690452628408,0.0,0.0,0.0,0.0,0.0,0.0,-0.004230232134258842,-0.004483149998960702,-0.0001020347019791562,-0.0022484686928009624,0.05603168705759817,-0.48709666548514013
160384000000,hina_ssi_visual_root,khm2,0.0,0.0,0.0,0.0,0.0,0.0,1.0,-0.0001602581290041376,-0.0036674409211529093,0.17424348037880766,-0.0040660102879675804,-0.00516252680918224,-0.7069418442074425,0.7072411503764914,0.0,0.0,0.0,0.0,0.0,0.0,0.0030378682506591445,-0.005670482065301743,0.000957454332579601,-0.0067694925134822986,-0.05102317567228335,0.48725185541700283
160385000000,hina_ssi_visual_root,khm2,0.0,0.0,0.0,0.0,0.0,0.0,1.0,-0.00016308697603344455,-0.003672116509661867,0.17424455233126637,-0.0040846986328558375,-0.0051324202066175524,-0.7071139676089386,0.7070691693973415,0.0,0.0,0.0,0.0,0.0,0.0,-0.0028288470293069655,-0.004675588508957488,0.0010719524587238377,0.016511532192439875,0.0658329805810243,-0.4870644064974963
160386000000,hina_ssi_visual_root,khm2,0.0,0.0,0.0,0.0,0.0,0.0,1.0,-0.00015914283097883053,-0.003677965787931262,0.17424630027887725,-0.004064676301483449,-0.005145304018762388,-0.7069416260732055,0.7072415015948164,0.0,0.0,0.0,0.0,0.0,0.0,0.003944145054614032,-0.005849278269394855,0.0017479476108748886,0.009732491492207888,-0.043358745382978646,0.4877425744934493
160387000000,hina_ssi_visual_root,khm2,0.0,0.0,0.0,0.0,0.0,0.0,1.0,-0.00016110399654023925,-0.003682752007169355,0.17424766155404894,-0.004079145141810211,-0.005112945154607161,-0.7071139154394207,0.7070693947263519,0.0,0.0,0.0,0.0,0.0,0.0,-0.00196116556140872,-0.004786219238092892,0.00136127517170344,0.025659573064082716,0.06305663094382526,-0.4874513635841368
160388000000,hina_ssi_visual_root,khm2,0.0,0.0,0.0,0.0,0.0,0.0,1.0,-0.0001571152141623623,-0.0036886185284685557,0.17424920724111567,-0.004059988774636919,-0.005125096753470653,-0.7069417532425767,0.7072415481267549,0.0,0.0,0.0,0.0,0.0,0.0,0.003988782377876945,-0.005866521299200596,0.001545687066739217,0.009548598541266665,-0.04111054516416304,0.48722041241111835
160389000000,hina_ssi_visual_root,khm2,0.0,0.0,0.0,0.0,0.0,0.0,1.0,-0.00015902577358134674,-0.0036932516684186414,0.17425045324173138,-0.0040787242905331676,-0.005100199292230872,-0.7071140198187184,0.7070693848210051,0.0,0.0,0.0,0.0,0.0,0.0,-0.0019105594189844262,-0.004633139950085767,0.0012460006157026336,0.009068843101547068,0.05854336880970217,-0.4874812426074869
160390000000,hina_ssi_visual_root,khm2,0.0,0.0,0.0,0.0,0.0,0.0,1.0,-0.0001553306850200391,-0.003698924213655841,0.17425155730649905,-0.004064407860518137,-0.005121502288074256,-0.7069417850060256,0.7072415170332912,0.0,0.0,0.0,0.0,0.0,0.0,0.0036950885613076375,-0.00567254523719964,0.0011040647676581715,-0.010234579698387307,-0.04721127669869275,0.4873179532443489
160391000000,hina_ssi_visual_root,khm2,0.0,0.0,0.0,0.0,0.0,0.0,1.0,-0.00015775615592508006,-0.0037033746186016063,0.17425199344517003,-0.004085914622803357,-0.005106354418460065,-0.7071141142449905,0.7070692044501521,0.0,0.0,0.0,0.0,0.0,0.0,-0.0024254709050409405,-0.004450404945765166,0.00043613867098589096,-0.00863915471291281,0.04866863266827178,-0.4877301577528957
160392000000,hina_ssi_visual_root,khm2,0.0,0.0,0.0,0.0,0.0,0.0,1.0,-0.0001550223391206585,-0.0037089230016849346,0.17425192254395755,-0.004072877084083533,-0.005134448385012376,-0.7069418662060745,0.707241293277699,0.0,0.0,0.0,0.0,0.0,0.0,0.00273381680442157,-0.005548383083328324,-7.090121248813641e-05,-0.02164723549474291,-0.05500173945259428,0.48731818777673697
160393000000,hina_ssi_visual_root,khm2,0.0,0.0,0.0,0.0,0.0,0.0,1.0,-0.00015821496576038047,-0.003713423121296649,0.17425141442868017,-0.004092460171029661,-0.005117384254762796,-0.7071140262620187,0.707069174841935,0.0,0.0,0.0,0.0,0.0,0.0,-0.003192626639721984,-0.004500119611714421,-0.0005081152773759694,-0.0032073800279086664,0.048655284672071156,-0.4872129691184176
160394000000,hina_ssi_visual_root,khm2,0.0,0.0,0.0,0.0,0.0,0.0,1.0,-0.00015570046812873339,-0.0037190879575593654,0.17425038720717861,-0.0040716211497775,-0.005144957263583548,-0.706941813692385,0.7072412766300409,0.0,0.0,0.0,0.0,0.0,0.0,0.002514497631647089,-0.005664836262716648,-0.0010272215015547648,-0.0098791801012039,-0.06529221147998819,0.4873625558203008
160395000000,hina_ssi_visual_root,khm2,0.0,0.0,0.0,0.0,0.0,0.0,1.0,-0.00015964605603845266,-0.0037237894827708623,0.1742488118660945,-0.0040861061755107205,-0.005119344091562983,-0.7071139444854047,0.7070692791846402,0.0,0.0,0.0,0.0,0.0,0.0,-0.003945587909719278,-0.004701525211496742,-0.0015753410841043754,0.016095823140468604,0.0535379855245739,-0.4870180141812299
160396000000,hina_ssi_visual_root,khm2,0.0,0.0,0.0,0.0,0.0,0.0,1.0,-0.00015701205412692228,-0.0037296201612020703,0.1742471071377113,-0.004060387170474834,-0.00514105235194779,-0.7069416100331996,0.7072415731844446,0.0,0.0,0.0,0.0,0.0,0.0,0.002634001911530361,-0.0058306784312082,-0.0017047283832064084,0.005313354041550978,-0.06389860589844819,0.4878085215711612
160397000000,hina_ssi_visual_root,khm2,0.0,0.0,0.0,0.0,0.0,0.0,1.0,-0.0001606387353660663,-0.003734424594234624,0.1742454314708191,-0.004075233437331696,-0.005108970523801356,-0.7071138459804515,0.7070695154759203,0.0,0.0,0.0,0.0,0.0,0.0,-0.0036266812391440167,-0.004804433032553435,-0.0016756668921905742,0.024733871197075073,0.06320229008464927,-0.48730754645484
160398000000,hina_ssi_visual_root,khm2,0.0,0.0,0.0,0.0,0.0,0.0,1.0,-0.00015715425380905023,-0.003740265114397913,0.1742443907746175,-0.004052967875650091,-0.005127860906270249,-0.7069416112167742,0.7072417103255124,0.0,0.0,0.0,0.0,0.0,0.0,0.003484481557016068,-0.005840520163289339,-0.0010406962016161238,0.004414881709586332,-0.055038932164015696,0.4874681148072253
160399000000,hina_ssi_visual_root,khm2,0.0,0.0,0.0,0.0,0.0,0.0,1.0,-0.00015997123106159574,-0.0037450006272123277,0.17424384537670004,-0.004074241489133856,-0.0050954502543038675,-0.7071138234607665,0.7070696412756599,0.0,0.0,0.0,0.0,0.0,0.0,-0.002816977252545515,-0.004735512814414577,-0.0005453979174604509,0.016105084166815928,0.07276210356174433,-0.4873578163787762
160400000000,hina_ssi_visual_root,khm2,0.0,0.0,0.0,0.0,0.0,0.0,1.0,-0.0001555833283930167,-0.0037507185386203503,0.1742444190538975,-0.0040569829648096105,-0.005119049093713855,-0.7069415445161167,0.7072418178125263,0.0,0.0,0.0,0.0,0.0,0.0,0.004387902668579016,-0.005717911408022432,0.0005736771974820774,-0.00932087420828791,-0.05462108371511995,0.4874914310875376
160401000000,hina_ssi_visual_root,khm2,0.0,0.0,0.0,0.0,0.0,0.0,1.0,-0.0001580801460185475,-0.003755246040016932,0.17424599408488825,-0.004086296933691725,-0.005093363496098537,-0.7071139365948728,0.7070694736014054,0.0,0.0,0.0,0.0,0.0,0.0,-0.002496817625530788,-0.004527501396581784,0.0015750309907337015,-0.0047811253528327715,0.0746151242374475,-0.48802888613430895
160402000000,hina_ssi_visual_root,khm2,0.0,0.0,0.0,0.0,0.0,0.0,1.0,-0.00015370384232642187,-0.003760813906860297,0.1742483134135,-0.004071048304409977,-0.005124839968590491,-0.7069416518350462,0.7072415877772855,0.0,0.0,0.0,0.0,0.0,0.0,0.004376303692125629,-0.005567866843365055,0.002319328611749303,-0.023299623449161276,-0.0629158506409392,0.48745584658305563
160403000000,hina_ssi_visual_root,khm2,0.0,0.0,0.0,0.0,0.0,0.0,1.0,-0.0001569206331182093,-0.0037652838640661935,0.17425088183154716,-0.00409779547803369,-0.005104940186403039,-0.707113875761873,0.7070693844050497,0.0,0.0,0.0,0.0,0.0,0.0,-0.0032167907917874045,-0.004469957205896508,0.0025684180471593158,-0.00933431395049927,0.0627979979055205,-0.48751951041180114
160404000000,hina_ssi_visual_root,khm2,0.0,0.0,0.0,0.0,0.0,0.0,1.0,-0.00015356277731709927,-0.0037709089248279064,0.17425313724636338,-0.004075778613172097,-0.005138366771198325,-0.7069416224372783,0.7072414917702224,0.0,0.0,0.0,0.0,0.0,0.0,0.003357855801110021,-0.005625060761713103,0.002255414816228138,-0.016486066462125422,-0.0752377796486253,0.4874878714496991
160405000000,hina_ssi_visual_root,khm2,0.0,0.0,0.0,0.0,0.0,0.0,1.0,-0.00015800241029765056,-0.003775557620732815,0.17425431768257,-0.00409254172105492,-0.005115717989609327,-0.7071137872871609,0.7070694254174199,0.0,0.0,0.0,0.0,0.0,0.0,-0.0044396329805513,-0.0046486959049084784,0.001180436206603231,0.008678285780541249,0.0525657034156258,-0.48716289121399037
160406000000,hina_ssi_visual_root,khm2,0.0,0.0,0.0,0.0,0.0,0.0,1.0,-0.0001556571179385194,-0.003781384985739319,0.17425459282248776,-0.004064102896280079,-0.005141961864457983,-0.7069414136739391,0.7072417415060605,0.0,0.0,0.0,0.0,0.0,0.0,0.0023452923591311464,-0.0058273650065042565,0.0002751399177710924,0.002748427570989972,-0.0741575220266536,0.4879601805935758
160407000000,hina_ssi_visual_root,khm2,0.0,0.0,0.0,0.0,0.0,0.0,1.0,-0.0001601400603339512,-0.003786193538081552,0.17425354520952782,-0.004076038580191801,-0.005114092414571492,-0.7071136548016631,0.7070696649986494,0.0,0.0,0.0,0.0,0.0,0.0,-0.004482942395431795,-0.004808552342233139,-0.0010476129599445699,0.022893950895819776,0.0531269036497028,-0.4872775380325925
160408000000,hina_ssi_visual_root,khm2,0.0,0.0,0.0,0.0,0.0,0.0,1.0,-0.00015747112930161522,-0.003792142359318169,0.17425219046397342,-0.004052693450015503,-0.005128366980054564,-0.7069414388358137,0.707241880536403,0.0,0.0,0.0,0.0,0.0,0.0,0.0026689310323359796,-0.005948821236616985,-0.0013547455543971836,0.012468244404529963,-0.050036176420070314,0.4874444474951557
160409000000,hina_ssi_visual_root,khm2,0.0,0.0,0.0,0.0,0.0,0.0,1.0,-0.00016023789586087648,-0.0037969836073558933,0.17424998757124077,-0.004067478769394914,-0.005097321256126042,-0.7071136485032982,0.7070698416937513,0.0,0.0,0.0,0.0,0.0,0.0,-0.0027667665592612757,-0.0048412480377241895,-0.0022028927326470642,0.023353291391914537,0.061658001499509146,-0.4872338534907026
160410000000,hina_ssi_visual_root,khm2,0.0,0.0,0.0,0.0,0.0,0.0,1.0,-0.0001563627417065095,-0.003802863220539339,0.1742482984424123,-0.004053362453696403,-0.005109352956534875,-0.7069414378859262,0.7072420152712676,0.0,0.0,0.0,0.0,0.0,0.0,0.0038751541543669884,-0.0058796131834455735,-0.0016891288284743792,0.0025918822036848023,-0.03382201087651562,0.48726424376872823
160411000000,hina_ssi_visual_root,khm2,0.0,0.0,0.0,0.0,0.0,0.0,1.0,-0.00015777336014891465,-0.0038074746402376493,0.1742473464720759,-0.004079528451422755,-0.005084204207175205,-0.707113694830027,0.7070698203848198,0.0,0.0,0.0,0.0,0.0,0.0,-0.0014106184424051435,-0.0046114196983103265,-0.0009519703363871056,-0.0010896934151039407,0.0694121140111847,-0.48758936923698976
160412000000,hina_ssi_visual_root,khm2,0.0,0.0,0.0,0.0,0.0,0.0,1.0,-0.00015322454793784254,-0.0038131238931102636,0.17424754792153263,-0.0040713862050193814,-0.005106094530325466,-0.7069412757337061,0.7072420973591835,0.0,0.0,0.0,0.0,0.0,0.0,0.004548812211072112,-0.005649252872614274,0.0002014494567162961,-0.019791231909897546,-0.03931240291776818,0.48772490738517993
160413000000,hina_ssi_visual_root,khm2,0.0,0.0,0.0,0.0,0.0,0.0,1.0,-0.00015486401804287793,-0.0038175785910755755,0.17424858671777008,-0.004097497135127678,-0.005090983851518045,-0.7071135141674507,0.7070698483759646,0.0,0.0,0.0,0.0,0.0,0.0,-0.001639470105035382,-0.004454697965311745,0.0010387962374422827,-0.015212426118484522,0.05513006893956915,-0.48755808139579415
160414000000,hina_ssi_visual_root,khm2,0.0,0.0,0.0,0.0,0.0,0.0,1.0,-0.00015149092615217706,-0.003823197882640372,0.17425044070650003,-0.004083949908499393,-0.005119351494821504,-0.7069413225710274,0.7072418822686791,0.0,0.0,0.0,0.0,0.0,0.0,0.003373091890700868,-0.005619291564796826,0.00185398872995041,-0.0213040500840103,-0.056111913559817254,0.48716837758617215
160415000000,hina_ssi_visual_root,khm2,0.0,0.0,0.0,0.0,0.0,0.0,1.0,-0.00015476691568965897,-0.003827739223710994,0.17425245997791097,-0.00410060500064517,-0.005106667851051161,-0.707113488757253,0.7070697426701513,0.0,0.0,0.0,0.0,0.0,0.0,-0.003275989537481921,-0.004541341070621748,0.0020192714109299494,-0.005268434340005747,0.038320432687519675,-0.48718560593728377
160416000000,hina_ssi_visual_root,khm2,0.0,0.0,0.0,0.0,0.0,0.0,1.0,-0.0001529400898104053,-0.003833523240107446,0.1742544120050552,-0.00407725806945298,-0.005132687190435266,-0.7069413363569341,0.707241810443014,0.0,0.0,0.0,0.0,0.0,0.0,0.0018268258792536783,-0.005784016396451791,0.0019520271442321942,-0.004128520875202489,-0.06664359323953299,0.48724224797332494
160417000000,hina_ssi_visual_root,khm2,0.0,0.0,0.0,0.0,0.0,0.0,1.0,-0.00015739352721231786,-0.00383830808327156,0.17425524795835784,-0.0040832737134102555,-0.005114270449305481,-0.7071134543923023,0.707069822387392,0.0,0.0,0.0,0.0,0.0,0.0,-0.004453437401912566,-0.0047848431641144065,0.0008359533026278,0.017894458553172298,0.031386533292384916,-0.4868410205982919
160418000000,hina_ssi_visual_root,khm2,0.0,0.0,0.0,0.0,0.0,0.0,1.0,-0.00015627762974995818,-0.003844273031091811,0.1742554650293718,-0.004057792129762633,-0.005131155375980136,-0.7069411231472139,0.7072421466307667,0.0,0.0,0.0,0.0,0.0,0.0,0.0011158974623596699,-0.005964947820250977,0.00021707101396200093,0.011799997265345594,-0.056744410336983506,0.4878045734184401
160419000000,hina_ssi_visual_root,khm2,0.0,0.0,0.0,0.0,0.0,0.0,1.0,-0.00015998352260071454,-0.003849155035097013,0.17425426368890157,-0.004064766975263412,-0.005106154798096544,-0.7071133158616734,0.7070701262136054,0.0,0.0,0.0,0.0,0.0,0.0,-0.0037058928507563574,-0.0048820040052020425,-0.0012013404702436881,0.025853113537607303,0.042061764763404876,-0.4870549907606127
160420000000,hina_ssi_visual_root,khm2,0.0,0.0,0.0,0.0,0.0,0.0,1.0,-0.00015773136180270312,-0.0038550920649496473,0.17425274116736295,-0.0040484472075464325,-0.0051169633991144815,-0.7069411138952597,0.7072423122560678,0.0,0.0,0.0,0.0,0.0,0.0,0.0022521607980114135,-0.005937029852634179,-0.0015225215386268833,0.0074338417333621,-0.03520639004534727,0.4872823650651275
160421000000,hina_ssi_visual_root,khm2,0.0,0.0,0.0,0.0,0.0,0.0,1.0,-0.00015961397097952117,-0.0038598000479410028,0.17425081148742588,-0.004068125771632252,-0.00509224425911002,-0.7071132990656801,0.7070702240128356,0.0,0.0,0.0,0.0,0.0,0.0,-0.001882609176818045,-0.0047079829913554945,-0.001929679937058549,0.007483676726483963,0.05963271366478208,-0.48726733677881157
160422000000,hina_ssi_visual_root,khm2,0.0,0.0,0.0,0.0,0.0,0.0,1.0,-0.00015563235052808567,-0.0038655199241023138,0.1742493059289147,-0.004061880339402709,-0.005108262525935763,-0.7069410819467309,0.7072423300666187,0.0,0.0,0.0,0.0,0.0,0.0,0.003981620451435488,-0.005719876161311146,-0.00150555851120039,-0.014175186216854612,-0.028330522316792586,0.48713010239940085
160423000000,hina_ssi_visual_root,khm2,0.0,0.0,0.0,0.0,0.0,0.0,1.0,-0.00015660359608271138,-0.003870003833386639,0.174248304782786,-0.0040893146717366526,-0.005090724670987084,-0.707113395494449,0.7070700162926941,0.0,0.0,0.0,0.0,0.0,0.0,-0.0009712455546257107,-0.004483909284325522,-0.0010011461286952572,-0.013648372538941403,0.060435659776867406,-0.4877890131475725
160424000000,hina_ssi_visual_root,khm2,0.0,0.0,0.0,0.0,0.0,0.0,1.0,-0.0001525980496258138,-0.003875606689460455,0.17424818326427555,-0.004082339040818726,-0.005114797345471736,-0.7069412031701773,0.707242043869263,0.0,0.0,0.0,0.0,0.0,0.0,0.004005546456897581,-0.005602856073815817,-0.00012151851045329003,-0.024525920628610698,-0.04074747077587003,0.48705798472446205
160425000000,hina_ssi_visual_root,khm2,0.0,0.0,0.0,0.0,0.0,0.0,1.0,-0.0001545982124778495,-0.003880110549690385,0.1742486973749682,-0.004103030159980213,-0.00510177428557035,-0.7071133835130187,0.7070698691780155,0.0,0.0,0.0,0.0,0.0,0.0,-0.002000162852035703,-0.004503860229930084,0.000514110692642877,-0.010498599661336101,0.0445086473080714,-0.48729912738857206
160426000000,hina_ssi_visual_root,khm2,0.0,0.0,0.0,0.0,0.0,0.0,1.0,-0.00015202333544580293,-0.0038858480126773083,0.17424986762482597,-0.004084357997873198,-0.005127342545912795,-0.7069412443837869,0.707241900177913,0.0,0.0,0.0,0.0,0.0,0.0,0.002574877032046569,-0.005737462986923051,0.0011702498577704865,-0.010099005234194939,-0.05939585548845045,0.4871199796549041
160427000000,hina_ssi_visual_root,khm2,0.0,0.0,0.0,0.0,0.0,0.0,1.0,-0.00015578016468689206,-0.003890551944877471,0.17425120183945345,-0.004094081776368293,-0.005111200577397247,-0.707113391329955,0.7070698451531615,0.0,0.0,0.0,0.0,0.0,0.0,-0.003756829241089118,-0.004703932200162417,0.0013342146274798287,0.0094285638293835,0.03341024449539348,-0.4869962411894813
160428000000,hina_ssi_visual_root,khm2,0.0,0.0,0.0,0.0,0.0,0.0,1.0,-0.00015443248609776903,-0.003896483861278682,0.17425263699769397,-0.004068115568802037,-0.005131176186727653,-0.7069410857674572,0.707242124537692,0.0,0.0,0.0,0.0,0.0,0.0,0.0013476785891230426,-0.005931916401211204,0.0014351582405241585,0.008119078452777227,-0.0617984349379661,0.48773526977823595
160429000000,hina_ssi_visual_root,khm2,0.0,0.0,0.0,0.0,0.0,0.0,1.0,-0.000158491171942763,-0.0039013895411660732,0.17425312269562768,-0.004072455962938602,-0.00510764171363577,-0.707113284341571,0.7070701027523593,0.0,0.0,0.0,0.0,0.0,0.0,-0.004058685844993969,-0.004905679887391293,0.00048569793370590274,0.027503107042293477,0.036259552892789926,-0.4870267453276703
160430000000,hina_ssi_visual_root,khm2,0.0,0.0,0.0,0.0,0.0,0.0,1.0,-0.000156813588121872,-0.003907397392825208,0.17425343729313014,-0.004050523509521713,-0.005119889721883899,-0.7069410946235245,0.7072422984529612,0.0,0.0,0.0,0.0,0.0,0.0,0.0016775838208909835,-0.006007851659135111,0.000314597502469113,0.013337657946213133,-0.0451763626187143,0.48734795784846585
160431000000,hina_ssi_visual_root,khm2,0.0,0.0,0.0,0.0,0.0,0.0,1.0,-0.00015961018546325914,-0.003912236230822858,0.17425298859323776,-0.004062394080934186,-0.005095100539013681,-0.7071132704426507,0.707070265015244,0.0,0.0,0.0,0.0,0.0,0.0,-0.0027965973413871473,-0.004838837997649818,-0.00044869989236946857,0.018627635731167533,0.04869111943124867,-0.4870974426379481
160432000000,hina_ssi_visual_root,khm2,0.0,0.0,0.0,0.0,0.0,0.0,1.0,-0.00015659130106835688,-0.0039180815265509985,0.17425255995731564,-0.004052083450741982,-0.005108371591231055,-0.7069410441697868,0.7072424232379768,0.0,0.0,0.0,0.0,0.0,0.0,0.0030188843949022492,-0.005845295728141057,-0.0004286359221155264,-0.0045438656230770615,-0.030195071697549467,0.4872357870118164
160433000000,hina_ssi_visual_root,khm2,0.0,0.0,0.0,0.0,0.0,0.0,1.0,-0.00015790177995017414,-0.003922651018151283,0.17425215173946187,-0.0040775479258847325,-0.0050888732413836195,-0.7071133425203854,0.7070701505520464,0.0,0.0,0.0,0.0,0.0,0.0,-0.001310478881817262,-0.004569491600284022,-0.0004082178537642544,-0.008086545456122678,0.06042748712888625,-0.4877048675531464
160434000000,hina_ssi_visual_root,khm2,0.0,0.0,0.0,0.0,0.0,0.0,1.0,-0.00015388848197703554,-0.003928274263397976,0.1742519459023147,-0.004073686144844459,-0.005110304840092226,-0.7069411311464374,0.707242198231292,0.0,0.0,0.0,0.0,0.0,0.0,0.0040132979731385965,-0.0056232452466932325,-0.00020583714719051016,-0.025197697736423556,-0.0326132643002658,0.48705955881338686
160435000000,hina_ssi_visual_root,khm2,0.0,0.0,0.0,0.0,0.0,0.0,1.0,-0.00015526915030676224,-0.003932738417911281,0.1742517657243815,-0.004098818676740333,-0.005097251679354839,-0.7071133080011848,0.7070700017384375,0.0,0.0,0.0,0.0,0.0,0.0,-0.0013806683297266972,-0.004464154513305257,-0.00018017793319243143,-0.016737138785728262,0.05083519269214011,-0.48737027475230515
160436000000,hina_ssi_visual_root,khm2,0.0,0.0,0.0,0.0,0.0,0.0,1.0,-0.00015203760359293404,-0.003938403618805724,0.1742517753651516,-0.004086561409893041,-0.005122720530614974,-0.7069411553336304,0.7072420099554043,0.0,0.0,0.0,0.0,0.0,0.0,0.0032315467138281997,-0.005665200894442417,9.64077011117101e-06,-0.019030186483239113,-0.05018629244695144,0.4870403282705326
160437000000,hina_ssi_visual_root,khm2,0.0,0.0,0.0,0.0,0.0,0.0,1.0,-0.00015498797609922815,-0.003943021177576101,0.17425172006621248,-0.004100800649927314,-0.0051087597928481535,-0.7071133070642406,0.7070699081279599,0.0,0.0,0.0,0.0,0.0,0.0,-0.0029503725062941227,-0.004617558770377195,-5.5298939126762967e-05,-4.5176276786300486e-05,0.03670957480652546,-0.4870976060525795
160438000000,hina_ssi_visual_root,khm2,0.0,0.0,0.0,0.0,0.0,0.0,1.0,-0.00015312013700115266,-0.003948897010939294,0.17425174053019396,-0.004076818033567134,-0.005131039015256403,-0.7069411971767137,0.7072419640601793,0.0,0.0,0.0,0.0,0.0,0.0,0.0018678390980754822,-0.005875833363193075,2.0463981493985123e-05,0.002059501493818674,-0.06225323015800883,0.48714130602490247
160439000000,hina_ssi_visual_root,khm2,0.0,0.0,0.0,0.0,0.0,0.0,1.0,-0.00015711274817356712,-0.0039537442609814295,0.1742513458002668,-0.004082910714038561,-0.0051101630020567125,-0.707113526415362,0.7070697821535189,0.0,0.0,0.0,0.0,0.0,0.0,-0.003992611172414466,-0.004847250042135469,-0.0003947299271702051,0.021262777046956286,0.03497106579583839,-0.4874346584214646
160440000000,hina_ssi_visual_root,khm2,0.0,0.0,0.0,0.0,0.0,0.0,1.0,-0.00015561353609175693,-0.0039597588805958175,0.17425108211121207,-0.004058195606537713,-0.005124876907704383,-0.7069413292075397,0.7072419838664676,0.0,0.0,0.0,0.0,0.0,0.0,0.0014992120818101947,-0.006014619614388058,-0.0002636890547203941,0.013788065184482412,-0.05259420205019254,0.4874159676771876
160441000000,hina_ssi_visual_root,khm2,0.0,0.0,0.0,0.0,0.0,0.0,1.0,-0.00015895766601267588,-0.003964678313338975,0.17425019327952176,-0.004066091374919077,-0.005098670977845384,-0.7071135052897519,0.7070699831643474,0.0,0.0,0.0,0.0,0.0,0.0,-0.0033441299209189665,-0.004919432743157611,-0.00088883169031043,0.026252410242437428,0.04507114569241742,-0.4870227597455588
160442000000,hina_ssi_visual_root,khm2,0.0,0.0,0.0,0.0,0.0,0.0,1.0,-0.00015639335381551153,-0.003970636309556286,0.17424980118416666,-0.004050070500532206,-0.005110447822794368,-0.7069413034867036,0.707242160562075,0.0,0.0,0.0,0.0,0.0,0.0,0.0025643121971643526,-0.00595799621731072,-0.0003920953550896906,0.005644804100867026,-0.0361551331558374,0.48727453477578
160443000000,hina_ssi_visual_root,khm2,0.0,0.0,0.0,0.0,0.0,0.0,1.0,-0.00015830226270340466,-0.0039753347249645975,0.1742497330693109,-0.004071715334272719,-0.005087069253729884,-0.7071135067969394,0.7070700328581174,0.0,0.0,0.0,0.0,0.0,0.0,-0.0019089088878931123,-0.004698415408312333,-6.811485574981756e-05,0.002804087692944175,0.06051770477946423,-0.4873578631639401
160444000000,hina_ssi_visual_root,khm2,0.0,0.0,0.0,0.0,0.0,0.0,1.0,-0.00015430178965573102,-0.003981046058934879,0.17425038120802588,-0.004064575453495146,-0.005106961303746459,-0.7069412640785278,0.7072421419257185,0.0,0.0,0.0,0.0,0.0,0.0,0.004000473047673651,-0.005711333970281352,0.0006481387149770163,-0.018385946580930148,-0.035073850107022846,0.4872112680378325
160445000000,hina_ssi_visual_root,khm2,0.0,0.0,0.0,0.0,0.0,0.0,1.0,-0.00015575556805439464,-0.003985538470895102,0.17425138137771848,-0.0040920598175405165,-0.005091119144254425,-0.7071136058512894,0.7070697872008789,0.0,0.0,0.0,0.0,0.0,0.0,-0.0014537783986636153,-0.004492411960222554,0.0010001696925850314,-0.01611806100537436,0.058106739401336316,-0.4878735843283263
160446000000,hina_ssi_visual_root,khm2,0.0,0.0,0.0,0.0,0.0,0.0,1.0,-0.0001520841046587298,-0.003991179758332781,0.17425271674781484,-0.00408273416258867,-0.00511727973474677,-0.7069413934290044,0.7072418334534032,0.0,0.0,0.0,0.0,0.0,0.0,0.0036714633956648314,-0.005641287437679552,0.001335370096370067,-0.02415470275536521,-0.047022099709648,0.4871539656128193
160447000000,hina_ssi_visual_root,khm2,0.0,0.0,0.0,0.0,0.0,0.0,1.0,-0.00015461004711099285,-0.0039957389155239375,0.17425387322506602,-0.004101723972563108,-0.005104668761538168,-0.7071135719974109,0.707069667369737,0.0,0.0,0.0,0.0,0.0,0.0,-0.002525942452263049,-0.0045591571911559395,0.001156477251185074,-0.008673983265834458,0.04151941964898099,-0.4872637763911478
160448000000,hina_ssi_visual_root,khm2,0.0,0.0,0.0,0.0,0.0,0.0,1.0,-0.00015236575066373618,-0.0040015471976598644,0.1742547749625573,-0.004081756969819838,-0.005129338927053793,-0.7069414250201975,0.7072417201584075,0.0,0.0,0.0,0.0,0.0,0.0,0.002244296447256676,-0.005808282135926634,0.0009017374912887368,-0.006999174452037714,-0.05995618676212591,0.4871677807351305
160449000000,hina_ssi_visual_root,khm2,0.0,0.0,0.0,0.0,0.0,0.0,1.0,-0.00015621250431336212,-0.004006346416685156,0.174254778041373,-0.004090066017744318,-0.005111060913222236,-0.7071135700808541,0.7070696906414679,0.0,0.0,0.0,0.0,0.0,0.0,-0.0038467536496259464,-0.004799219025291177,3.078815668130369e-06,0.014451575388030179,0.034431865275820976,-0.48696038851838896
160450000000,hina_ssi_visual_root,khm2,0.0,0.0,0.0,0.0,0.0,0.0,1.0,-0.00015477628389388716,-0.004012358144571776,0.1742543092510239,-0.004064224442239669,-0.005128498009863947,-0.7069412761084324,0.7072419760746861,0.0,0.0,0.0,0.0,0.0,0.0,0.0014362204194749628,-0.006011727886620041,-0.0004687903490885742,0.011531682242555678,-0.058033834099746766,0.48770523527060905
160451000000,hina_ssi_visual_root,khm2,0.0,0.0,0.0,0.0,0.0,0.0,1.0,-0.00015852331640419718,-0.0040173148065184554,0.17425267126288038,-0.0040695281400255495,-0.0051035309918879175,-0.7071134785981662,0.7070699550234992,0.0,0.0,0.0,0.0,0.0,0.0,-0.003747032510310027,-0.004956661946678915,-0.0016379881434980623,0.028166452465710708,0.03965009483634072,-0.4870525788585447
160452000000,hina_ssi_visual_root,khm2,0.0,0.0,0.0,0.0,0.0,0.0,1.0,-0.00015649508042398077,-0.004023349015368376,0.17425101793165335,-0.004049870306739303,-0.005114695335290743,-0.7069412882136855,0.7072421462702154,0.0,0.0,0.0,0.0,0.0,0.0,0.0020282359802164,-0.006034208849920382,-0.0016533312270240255,0.011653927864523976,-0.04042954857947393,0.4873103282348842
160453000000,hina_ssi_visual_root,khm2,0.0,0.0,0.0,0.0,0.0,0.0,1.0,-0.00015881915959170827,-0.004028159998807851,0.17424928910308035,-0.004066722241459046,-0.005089632751366924,-0.7071134752490166,0.707070074695518,0.0,0.0,0.0,0.0,0.0,0.0,-0.0023240791677274905,-0.004810983439474618,-0.0017288285730012454,0.011966387460954965,0.05612243217440637,-0.48722025832846916
160454000000,hina_ssi_visual_root,khm2,0.0,0.0,0.0,0.0,0.0,0.0,1.0,-0.0001552091971102515,-0.004033969873405811,0.17424833268816128,-0.004058103829566133,-0.005106052973007366,-0.7069412448800393,0.7072422048377809,0.0,0.0,0.0,0.0,0.0,0.0,0.0036099624814567802,-0.005809874597961164,-0.000956414919064355,-0.011387445732379124,-0.03225590145143902,0.48721026248813587
160455000000,hina_ssi_visual_root,khm2,0.0,0.0,0.0,0.0,0.0,0.0,1.0,-0.00015653497470880274,-0.004038516403885089,0.17424813199822545,-0.004085275265633966,-0.005088667051468934,-0.707113557377589,0.7070698925611631,0.0,0.0,0.0,0.0,0.0,0.0,-0.001325777598551233,-0.0045465304792778926,-0.00020068993583281965,-0.013490771820941798,0.059851139213116696,-0.4877812521269575
160456000000,hina_ssi_visual_root,khm2,0.0,0.0,0.0,0.0,0.0,0.0,1.0,-0.00015264704755345925,-0.004044154366185232,0.174248907881412,-0.004079191201677076,-0.005113554336696587,-0.7069413439793334,0.7072419302713039,0.0,0.0,0.0,0.0,0.0,0.0,0.0038879271553434926,-0.005637962300142096,0.0007758831865697473,-0.02693958797897336,-0.04064038609023201,0.48709948941012343
160457000000,hina_ssi_visual_root,khm2,0.0,0.0,0.0,0.0,0.0,0.0,1.0,-0.00015465197014826753,-0.004048670520071338,0.17425020657405582,-0.004101928945899049,-0.005101603086109693,-0.7071135170074834,0.707069743299897,0.0,0.0,0.0,0.0,0.0,0.0,-0.002004922594808275,-0.0045161538861064,0.0012986926438213597,-0.014908441257849882,0.04588772709075528,-0.4873182063643383
160458000000,hina_ssi_visual_root,khm2,0.0,0.0,0.0,0.0,0.0,0.0,1.0,-0.00015196600146221836,-0.0040544177305264105,0.1742519251032996,-0.004085527039019533,-0.005127988348296351,-0.7069413645876204,0.7072417685907036,0.0,0.0,0.0,0.0,0.0,0.0,0.002685968686049183,-0.005747210455071882,0.0017185292437686545,-0.01446540293879104,-0.05734093946942913,0.4871141790746342
160459000000,hina_ssi_visual_root,khm2,0.0,0.0,0.0,0.0,0.0,0.0,1.0,-0.0001555413728407736,-0.004059130666522613,0.1742535107934214,-0.004097221454224411,-0.005112775663831546,-0.7071135079527455,0.7070696989492117,0.0,0.0,0.0,0.0,0.0,0.0,-0.0035753713785552244,-0.00471293599620254,0.0015856901218074468,0.005326902199058731,0.034881289478464625,-0.4870245061583662
160460000000,hina_ssi_visual_root,khm2,0.0,0.0,0.0,0.0,0.0,0.0,1.0,-0.0001540521090063904,-0.004065098201982096,0.17425483407298475,-0.004071919581822653,-0.005133145465650721,-0.7069412061618138,0.7072419680130893,0.0,0.0,0.0,0.0,0.0,0.0,0.0014892638343831904,-0.0059675354594823,0.0013232795633423017,0.006622618964491635,-0.06141486929510778,0.48771197453218346
160461000000,hina_ssi_visual_root,khm2,0.0,0.0,0.0,0.0,0.0,0.0,1.0,-0.00015806347125203087,-0.004070063581564162,0.17425486472310317,-0.004075622153751116,-0.005109698972761948,-0.7071134102745978,0.7070699437045079,0.0,0.0,0.0,0.0,0.0,0.0,-0.004011362245640473,-0.004965379582066104,3.0650118407212976e-05,0.028280315477121697,0.03523123573394843,-0.48703106635823173
160462000000,hina_ssi_visual_root,khm2,0.0,0.0,0.0,0.0,0.0,0.0,1.0,-0.00015645845603052378,-0.004076163427952977,0.17425443439337654,-0.004051922673324964,-0.0051210692591051495,-0.7069412344954739,0.7072421420859396,0.0,0.0,0.0,0.0,0.0,0.0,0.0016050152215070952,-0.006099846388814534,-0.00043032972663002364,0.017078315462812025,-0.04643240706871656,0.48734309740140286
160463000000,hina_ssi_visual_root,khm2,0.0,0.0,0.0,0.0,0.0,0.0,1.0,-0.0001593383262660808,-0.0040811323646173445,0.17425288053384866,-0.004061714807519121,-0.005093360933914287,-0.7071134115186585,0.7070701403663313,0.0,0.0,0.0,0.0,0.0,0.0,-0.00287987023555703,-0.004968936664367702,-0.0015538595278701776,0.025695081664419993,0.04988095748734272,-0.4870567603919638
160464000000,hina_ssi_visual_root,khm2,0.0,0.0,0.0,0.0,0.0,0.0,1.0,-0.00015626158703898975,-0.00408710857967255,0.1742514264585215,-0.004048947562608454,-0.0051045219665814285,-0.7069411930516741,0.7072423201744953,0.0,0.0,0.0,0.0,0.0,0.0,0.003076739227091051,-0.005976215055205794,-0.0014540753271506408,0.001914792517618564,-0.030686094580482465,0.48726311109429304
160465000000,hina_ssi_visual_root,khm2,0.0,0.0,0.0,0.0,0.0,0.0,1.0,-0.00015767859627196056,-0.004091700118416278,0.1742502291585735,-0.004077205594372493,-0.005085277024042878,-0.7071134080820429,0.7070701128337472,0.0,0.0,0.0,0.0,0.0,0.0,-0.00141700923297082,-0.004591538743727458,-0.0011972999480187718,-0.012396833168976835,0.06402255937619487,-0.4875207868924943
160466000000,hina_ssi_visual_root,khm2,0.0,0.0,0.0,0.0,0.0,0.0,1.0,-0.0001533722458842367,-0.0040974185309381765,0.1742500682398066,-0.004077130191053112,-0.005113236267391506,-0.7069411663432837,0.7072421220158459,0.0,0.0,0.0,0.0,0.0,0.0,0.004306350387723853,-0.00571841252189821,-0.00016091876690588376,-0.039783242344731636,-0.036490970545194665,0.487062741949807
160467000000,hina_ssi_visual_root,khm2,0.0,0.0,0.0,0.0,0.0,0.0,1.0,-0.000154993953800865,-0.004102269539703522,0.17425148333414933,-0.004109862422968158,-0.005106929349311142,-0.7071132333555006,0.7070699424505434,0.0,0.0,0.0,0.0,0.0,0.0,-0.0016217079166283054,-0.004851008765345161,0.001415094342744179,-0.03702634581920184,0.052036693421323554,-0.4872139013571712
160468000000,hina_ssi_visual_root,khm2,0.0,0.0,0.0,0.0,0.0,0.0,1.0,-0.00015177189261800995,-0.004108877953439994,0.1742557151686688,-0.004102301594720428,-0.005142583126072971,-0.7069412517305188,0.7072416783265143,0.0,0.0,0.0,0.0,0.0,0.0,0.003222061182855049,-0.0066084137364718736,0.0042318345194840845,-0.04007542152671311,-0.05794442532779784,0.48644980059529913
160469000000,hina_ssi_visual_root,khm2,0.0,0.0,0.0,0.0,0.0,0.0,1.0,-0.00015530156366573355,-0.004115367111485527,0.1742636959466738,-0.004121535621687254,-0.005134045389535787,-0.7071131123015477,0.7070697991947301,0.0,0.0,0.0,0.0,0.0,0.0,-0.0035296710477235966,-0.006489158045533589,0.00798077800499093,-0.014777440684305039,0.03609328827411037,-0.48637870290551505
160470000000,hina_ssi_visual_root,khm2,0.0,0.0,0.0,0.0,0.0,0.0,1.0,-0.0001535714965558856,-0.004124413108860126,0.17427617994735034,-0.004099499351837472,-0.005157178211632936,-0.7069410936231794,0.7072417463391291,0.0,0.0,0.0,0.0,0.0,0.0,0.0017300671098479563,-0.009045997374599183,0.012484000676540244,-0.001901612764517121,-0.06069378118138363,0.486847556166095
160471000000,hina_ssi_visual_root,khm2,0.0,0.0,0.0,0.0,0.0,0.0,1.0,-0.00015761265408353992,-0.004133963860596091,0.17429232292337146,-0.004105789593032011,-0.005128960057291768,-0.707112694489972,0.7070703455468064,0.0,0.0,0.0,0.0,0.0,0.0,-0.004041157527654305,-0.009550751735965094,0.016142976021117583,0.03136434200949811,0.04563293070149553,-0.48536337543156155
160472000000,hina_ssi_visual_root,khm2,0.0,0.0,0.0,0.0,0.0,0.0,1.0,-0.00015512601467596162,-0.00414627150510785,0.17431213758843542,-0.004082178094808439,-0.005141394409655133,-0.7069406157502379,0.7072424391170266,0.0,0.0,0.0,0.0,0.0,0.0,0.0024866394075783015,-0.012307644511759043,0.019814665063943394,0.015452994084628267,-0.04779754504342063,0.48706696934464605
160473000000,hina_ssi_visual_root,khm2,0.0,0.0,0.0,0.0,0.0,0.0,1.0,-0.00015805288165983663,-0.004159094622780569,0.1743347394928147,-0.004100608472843372,-0.005114496270640841,-0.7071121500352678,0.707071024869886,0.0,0.0,0.0,0.0,0.0,0.0,-0.0029268669838750025,-0.012823117672719068,0.022601904379282944,0.012325647111621329,0.060942294800029294,-0.4854011753207992
160474000000,hina_ssi_visual_root,khm2,0.0,0.0,0.0,0.0,0.0,0.0,1.0,-0.000154090389521919,-0.0041748052848598035,0.17435972742978142,-0.004091924854221998,-0.005135549691547908,-0.7069398141304201,0.7072432265335598,0.0,0.0,0.0,0.0,0.0,0.0,0.003962492137917657,-0.015710662079234734,0.0249879369667348,-0.017844949227289394,-0.03887829974979815,0.4875007299413162
160475000000,hina_ssi_visual_root,khm2,0.0,0.0,0.0,0.0,0.0,0.0,1.0,-0.00015586578012735533,-0.004191106816754759,0.17438505592710538,-0.004127869093808379,-0.005109063514022421,-0.7071109525584444,0.707072103069159,0.0,0.0,0.0,0.0,0.0,0.0,-0.0017753906054363312,-0.016301531894955795,0.025328497323955534,-0.01303704243348236,0.0851269727017753,-0.48460692870167843
160476000000,hina_ssi_visual_root,khm2,0.0,0.0,0.0,0.0,0.0,0.0,1.0,-0.00015013963502285535,-0.004210143428944493,0.17440884715872015,-0.004117385691002987,-0.005136674452554596,-0.7069394121934345,0.7072434723617047,0.0,0.0,0.0,0.0,0.0,0.0,0.0057261451044999774,-0.019036612189733692,0.023791231614774616,-0.024560992715358776,-0.05070444260945923,0.4852721045783159
160477000000,hina_ssi_visual_root,khm2,0.0,0.0,0.0,0.0,0.0,0.0,1.0,-0.00015249617240210636,-0.004229842235705949,0.17443099560196426,-0.00414854143705554,-0.005114884451384728,-0.7071112739900746,0.7070716185487351,0.0,0.0,0.0,0.0,0.0,0.0,-0.0023565373792510122,-0.019698806761455245,0.022148443244118785,-0.012910555858246194,0.07169136716525083,-0.48657625894218626
160478000000,hina_ssi_visual_root,khm2,0.0,0.0,0.0,0.0,0.0,0.0,1.0,-0.0001478594284471867,-0.004252396041866419,0.17445121022528023,-0.004136183021575646,-0.005146996848623288,-0.706939934973436,0.7072427650766082,0.0,0.0,0.0,0.0,0.0,0.0,0.004636743954919663,-0.022553806160469942,0.020214623315981818,-0.028270249036929675,-0.059716677548084345,0.4847300678139127
160479000000,hina_ssi_visual_root,khm2,0.0,0.0,0.0,0.0,0.0,0.0,1.0,-0.00015133480238783994,-0.00427563428385595,0.17446915629010182,-0.00416211625651541,-0.0051358513585143435,-0.7071122952597696,0.7070703654598677,0.0,0.0,0.0,0.0,0.0,0.0,-0.003475373940653245,-0.02323824198953214,0.01794606482157516,-0.020575679120434107,0.049231106864023454,-0.48791264951130076
160480000000,hina_ssi_visual_root,khm2,0.0,0.0,0.0,0.0,0.0,0.0,1.0,-0.00014854236434549045,-0.004301947940754151,0.17448509396299952,-0.004148508957505506,-0.005174051195146199,-0.7069408790827479,0.707241551769529,0.0,0.0,0.0,0.0,0.0,0.0,0.0027924380423494993,-0.026313656898201095,0.015937672897692018,-0.03511625497680641,-0.07007844088386526,0.4849602556299627
160481000000,hina_ssi_visual_root,khm2,0.0,0.0,0.0,0.0,0.0,0.0,1.0,-0.00015324284132581156,-0.004329134065828822,0.1744984650041648,-0.0041715578109193605,-0.00516508787742133,-0.7071125746169531,0.7070698174800227,0.0,0.0,0.0,0.0,0.0,0.0,-0.004700476980321114,-0.027186125074670456,0.013371041165290183,-0.019577302377999446,0.04206513118019532,-0.4859853064518049
160482000000,hina_ssi_visual_root,khm2,0.0,0.0,0.0,0.0,0.0,0.0,1.0,-0.00015133635256166152,-0.004359555176211138,0.1745089471339284,-0.004147969943275036,-0.005198934894866192,-0.7069415953973441,0.707240656437656,0.0,0.0,0.0,0.0,0.0,0.0,0.0019064887641500284,-0.03042111038231637,0.010482129763603009,-0.01485168141624508,-0.07803167102281842,0.4839193125029273
160483000000,hina_ssi_visual_root,khm2,0.0,0.0,0.0,0.0,0.0,0.0,1.0,-0.00015696333639776116,-0.004391079511806977,0.1745167399979498,-0.00415366343895546,-0.005184807100689405,-0.7071134185491261,0.7070689345199184,0.0,0.0,0.0,0.0,0.0,0.0,-0.00562698383609963,-0.03152433559583933,0.00779286402140573,0.012283707880871299,0.024822462750934193,-0.4860117882497364
160484000000,hina_ssi_visual_root,khm2,0.0,0.0,0.0,0.0,0.0,0.0,1.0,-0.00015641890180667205,-0.004426197466721961,0.17452238266533648,-0.004118278537042783,-0.005207706200704729,-0.7069421929947556,0.7072401680771421,0.0,0.0,0.0,0.0,0.0,0.0,0.0005444345910891116,-0.03511795491498399,0.00564266738667836,0.017301558714635124,-0.07922671222811434,0.4848568053571643
160485000000,hina_ssi_visual_root,khm2,0.0,0.0,0.0,0.0,0.0,0.0,1.0,-0.0001625442372587024,-0.004462816156412393,0.1745262127340608,-0.004111325166104243,-0.005184304288990426,-0.7071136174505679,0.7070689867406076,0.0,0.0,0.0,0.0,0.0,0.0,-0.006125335452030362,-0.036618689690431604,0.0038300687243118248,0.043298516875781824,0.020075410413770433,-0.4846274841027817
160486000000,hina_ssi_visual_root,khm2,0.0,0.0,0.0,0.0,0.0,0.0,1.0,-0.00016230138199220716,-0.004503496133185521,0.17452917066168205,-0.0040703328522999965,-0.005196226679057712,-0.7069417402316668,0.7072409826480602,0.0,0.0,0.0,0.0,0.0,0.0,0.00024285526649524877,-0.040679976773127874,0.002957927621247589,0.040739954673955366,-0.07163570880288339,0.48682248037179804
160487000000,hina_ssi_visual_root,khm2,0.0,0.0,0.0,0.0,0.0,0.0,1.0,-0.0001679326115953359,-0.004546046108956011,0.1745312660649594,-0.004059799170086038,-0.005163491305212619,-0.7071127614224249,0.7070702928434995,0.0,0.0,0.0,0.0,0.0,0.0,-0.005631229603128747,-0.042549975770489426,0.0020954032773473196,0.06157151077004241,0.028244085326567768,-0.48339891629388204
160488000000,hina_ssi_visual_root,khm2,0.0,0.0,0.0,0.0,0.0,0.0,1.0,-0.00016676782371886413,-0.004593197930684712,0.17453420834638445,-0.004023578503637151,-0.005169447861085709,-0.7069403938142106,0.7072427922705508,0.0,0.0,0.0,0.0,0.0,0.0,0.0011647878764717793,-0.04715182172870161,0.0029422814250571593,0.04241779118076318,-0.056466645745477,0.4881275527217842
160489000000,hina_ssi_visual_root,khm2,0.0,0.0,0.0,0.0,0.0,0.0,1.0,-0.00017107838189520255,-0.004642722258836839,0.17453770629661053,-0.004021760421846426,-0.005135371721688963,-0.7071114647018397,0.7070720118118154,0.0,0.0,0.0,0.0,0.0,0.0,-0.0043105581763384065,-0.04952432815212717,0.0034979502260707226,0.051145637721212917,0.04248734265892615,-0.4836959474931853
160490000000,hina_ssi_visual_root,khm2,0.0,0.0,0.0,0.0,0.0,0.0,1.0,-0.00016845170577743516,-0.004697329851816955,0.1745434814263862,-0.003996355214093905,-0.005147167742915953,-0.7069392027783626,0.7072442996478107,0.0,0.0,0.0,0.0,0.0,0.0,0.002626676117767378,-0.05460759298011529,0.005775129775687511,0.018860962363216067,-0.04945478520373253,0.4876124042812505
160491000000,hina_ssi_visual_root,khm2,0.0,0.0,0.0,0.0,0.0,0.0,1.0,-0.00017192160296644252,-0.004754731796738289,0.17455084196293574,-0.00400898744215762,-0.005120472958559012,-0.707110533797335,0.7070731233537427,0.0,0.0,0.0,0.0,0.0,0.0,-0.0034698971890073736,-0.05740194492133451,0.007360536549552163,0.02027061360455513,0.052488358748790945,-0.4847116572699549
160492000000,hina_ssi_visual_root,khm2,0.0,0.0,0.0,0.0,0.0,0.0,1.0,-0.00016829000685909386,-0.004817612990807689,0.17456130245567414,-0.0039969256210824694,-0.005144328595828088,-0.7069384273606459,0.7072450921637664,0.0,0.0,0.0,0.0,0.0,0.0,0.0036315961073486534,-0.0628811940693998,0.010460492738392354,-0.01706365742653668,-0.04765237444262003,0.4869003985251052
160493000000,hina_ssi_visual_root,khm2,0.0,0.0,0.0,0.0,0.0,0.0,1.0,-0.00017139953552977453,-0.004883619580230634,0.1745738463018571,-0.00402521787658974,-0.005127682269376398,-0.7071097833055077,0.7070737294294197,0.0,0.0,0.0,0.0,0.0,0.0,-0.003109528670680665,-0.06600658942294452,0.012543846182971942,-0.016090088134864615,0.06041494604539249,-0.4850912779685378
160494000000,hina_ssi_visual_root,khm2,0.0,0.0,0.0,0.0,0.0,0.0,1.0,-0.00016706856393423604,-0.004955397744444001,0.17458976856520242,-0.004024598554404813,-0.005164338945435918,-0.7069379248215135,0.7072452917190645,0.0,0.0,0.0,0.0,0.0,0.0,0.00433097159553849,-0.07177816421336695,0.015922263345314963,-0.05134609739667014,-0.04957083484118349,0.485961453577214
160495000000,hina_ssi_visual_root,khm2,0.0,0.0,0.0,0.0,0.0,0.0,1.0,-0.00017028990962240318,-0.0049958128297333875,0.17460784109451102,-0.003966908276002984,-0.00506171204566603,-0.7069706944218103,0.7072136027669718,0.0,0.0,0.0,0.0,0.0,0.0,-0.0032213456881671496,-0.04041508528938721,0.01807252930861651,0.2267874484955252,0.06300681849171338,-0.09138673567735292
160496000000,hina_ssi_visual_root,khm2,0.0,0.0,0.0,0.0,0.0,0.0,1.0,-0.00016684273135573235,-0.005004821541432829,0.17462853840415815,-0.003785830905241508,-0.004913983897417875,-0.7069713049678196,0.7072150268473594,0.0,0.0,0.0,0.0,0.0,0.0,0.003447178266670842,-0.0090087116994415,0.020697309647128723,0.4650171945240746,-0.047072505873052374,0.0018110683546213632
160497000000,hina_ssi_visual_root,khm2,0.0,0.0,0.0,0.0,0.0,0.0,1.0,-0.0001689999010053347,-0.00505267668798096,0.17464839414204594,-0.0037617898706172495,-0.0048651737040444,-0.7069674657246057,0.7072193304970725,0.0,0.0,0.0,0.0,0.0,0.0,-0.0021571696496023697,-0.04785514654813164,0.019855737887781284,0.10301402808013185,0.035117326826487404,0.01138215494687117
160498000000,hina_ssi_visual_root,khm2,0.0,0.0,0.0,0.0,0.0,0.0,1.0,-0.00016739527102674793,-0.0050675153466524375,0.17466702866259345,-0.0036453759067479434,-0.004770975007145587,-0.7069736323326917,0.7072144174281939,0.0,0.0,0.0,0.0,0.0,0.0,0.0016046299785867956,-0.014838658671477212,0.01863452054751226,0.2978742819413375,-0.031457692502732566,-0.015245011859663664
160499000000,hina_ssi_visual_root,khm2,0.0,0.0,0.0,0.0,0.0,0.0,1.0,-0.0001689972910220117,-0.005120318007528487,0.17468312585386891,-0.0036808228966457397,-0.004792546745233506,-0.7069682306361038,0.7072194877898623,0.0,0.0,0.0,0.0,0.0,0.0,-0.0016020199952637608,-0.05280266087604905,0.016097191275451915,-0.08065312072575116,0.01969624962137554,0.014628580219016186
160500000000,hina_ssi_visual_root,khm2,0.0,0.0,0.0,0.0,0.0,0.0,1.0,-0.00016827675507442974,-0.005138123676044296,0.17469682932675168,-0.003625970573637882,-0.0047527343795905575,-0.7069742790487722,0.7072139935102989,0.0,0.0,0.0,0.0,0.0,0.0,0.0007205359475819604,-0.017805668515808927,0.0137034728827549,0.1338949469283419,-0.021342727315561593,-0.0160909927491293
160501000000,hina_ssi_visual_root,khm2,0.0,0.0,0.0,0.0,0.0,0.0,1.0,-0.00016949387770171616,-0.005120944579644381,0.174708698604559,-0.0035075330142044434,-0.004629384276271833,-0.7069788362341465,0.707210853374288,0.0,0.0,0.0,0.0,0.0,0.0,-0.0012171226272864105,0.017179096399914842,0.011869277807338903,0.34195265061247027,0.0069423251471145715,-0.010654524644773324
160502000000,hina_ssi_visual_root,khm2,0.0,0.0,0.0,0.0,0.0,0.0,1.0,-0.000169415931266501,-0.00514024393431787,0.1747181190311942,-0.0035100766847707054,-0.00464007259777469,-0.706973642938774,0.7072159622617644,0.0,0.0,0.0,0.0,0.0,0.0,7.794643521515836e-05,-0.01929935467348874,0.009420426635183185,-0.01872290139703864,-0.011437418113296259,0.014620688374904392
160503000000,hina_ssi_visual_root,khm2,0.0,0.0,0.0,0.0,0.0,0.0,1.0,-0.00017022530717066909,-0.005124683564999892,0.17472592382859706,-0.00344356710065371,-0.00457320817469673,-0.7069797380621377,0.7072106316948336,0.0,0.0,0.0,0.0,0.0,0.0,-0.000809375904168077,0.015560369317977232,0.007804797402879643,0.18863519167219128,0.0004418715353129179,-0.016010457692690706
160504000000,hina_ssi_visual_root,khm2,0.0,0.0,0.0,0.0,0.0,0.0,1.0,-0.00017044949263619495,-0.0051460115735739035,0.1747321072266031,-0.003499475804947406,-0.004635332180014498,-0.7069741300844921,0.7072155589040355,0.0,0.0,0.0,0.0,0.0,0.0,-0.00022418546552587068,-0.02132800857401159,0.006183398006048205,-0.16693664531052843,-0.008733182683782299,0.01481540909541108
160505000000,hina_ssi_visual_root,khm2,0.0,0.0,0.0,0.0,0.0,0.0,1.0,-0.00017120393273748158,-0.005133210455619266,0.1747373029825273,-0.003476533334357362,-0.004615633955146934,-0.7069802049780313,0.7072097280216019,0.0,0.0,0.0,0.0,0.0,0.0,-0.0007544401012866377,0.012801117954636787,0.005195755924205455,0.06031832336660723,-0.004674258198690992,-0.016762259517837014
160506000000,hina_ssi_visual_root,khm2,0.0,0.0,0.0,0.0,0.0,0.0,1.0,-0.00017175541421829868,-0.005158018473372178,0.174742260777432,-0.003573838204494384,-0.004718949593348672,-0.7069744563163328,0.7072143079091721,0.0,0.0,0.0,0.0,0.0,0.0,-0.0005514814808171129,-0.024808017752911263,0.004957794904705123,-0.2837353496740305,-0.008464165804662178,0.014426911999612792
160507000000,hina_ssi_visual_root,khm2,0.0,0.0,0.0,0.0,0.0,0.0,1.0,-0.00017257832844172014,-0.005148664484998695,0.1747450853377368,-0.003585453815844777,-0.004734915853912332,-0.7069802620874797,0.7072083385477786,0.0,0.0,0.0,0.0,0.0,0.0,-0.000822914223421442,0.009353988373482593,0.002824560304819158,-0.03899280263679235,-0.00625709079633784,-0.01664772620700444
160508000000,hina_ssi_visual_root,khm2,0.0,0.0,0.0,0.0,0.0,0.0,1.0,-0.00017322294994587947,-0.005177009883538561,0.1747467049373307,-0.00371250580340079,-0.004866156413347952,-0.7069743627015492,0.7072126895815424,0.0,0.0,0.0,0.0,0.0,0.0,-0.0006446215041593461,-0.02834539853986591,0.001619599593880144,-0.36529809170482064,-0.005898833644402993,0.01423433305272312
160509000000,hina_ssi_visual_root,khm2,0.0,0.0,0.0,0.0,0.0,0.0,1.0,-0.00017385504341980692,-0.00517168258944181,0.17474659855970276,-0.0037376302313773405,-0.004893673828151002,-0.7069800202561933,0.7072067116729518,0.0,0.0,0.0,0.0,0.0,0.0,-0.0006320934739274534,0.005327294096750611,-0.00010637762794214571,-0.07443416715738292,-0.003496863240365781,-0.016494846785381875
160510000000,hina_ssi_visual_root,khm2,0.0,0.0,0.0,0.0,0.0,0.0,1.0,-0.00017429217941489875,-0.005151891111946549,0.17474615643487207,-0.0037120026855399784,-0.0048715885164924404,-0.7069083644302897,0.7072786247016666,0.0,0.0,0.0,0.0,0.0,0.0,-0.0004371359950918469,0.019791477495261417,-0.0004421248306933183,0.06731194153321682,-0.0037590807279510863,0.20311884442055392
160511000000,hina_ssi_visual_root,khm2,0.0,0.0,0.0,0.0,0.0,0.0,1.0,-0.00017495582422285825,-0.005133620115413184,0.17474616870836876,-0.003686619639500028,-0.004840629997317523,-0.7070642310190185,0.707123150766786,0.0,0.0,0.0,0.0,0.0,0.0,-0.000663644807959498,0.018270996533363996,1.2273496701666053e-05,0.08003984254166371,0.005233658276524133,-0.44027639878554903
160512000000,hina_ssi_visual_root,khm2,0.0,0.0,0.0,0.0,0.0,0.0,1.0,-0.00017399106196442344,-0.005119347191879916,0.17474862484469647,-0.0036628102000915283,-0.00482947147478669,-0.7068954407324997,0.7072920866928439,0.0,0.0,0.0,0.0,0.0,0.0,0.0009647622584348196,0.014272923533268048,0.0024561363277165304,0.04906349970348474,-0.015008663353001326,0.47775638444807655
160513000000,hina_ssi_visual_root,khm2,0.0,0.0,0.0,0.0,0.0,0.0,1.0,-0.00017554135294927121,-0.005106868747221558,0.1747531399109529,-0.003656169170281803,-0.004802471956058676,-0.7070671146223199,0.7071206856752081,0.0,0.0,0.0,0.0,0.0,0.0,-0.0015502909848477825,0.012478444658358479,0.004515066256433626,0.04796853999175305,0.025890894864715,-0.48530602069540746
160514000000,hina_ssi_visual_root,khm2,0.0,0.0,0.0,0.0,0.0,0.0,1.0,-0.00017333365100186864,-0.005098743987343754,0.1747613782020958,-0.0036421104390067923,-0.004811899514732636,-0.7068956083786728,0.7072921457994257,0.0,0.0,0.0,0.0,0.0,0.0,0.00220770194740258,0.008124759877803622,0.0082382911429158,0.006157072750084882,-0.030312800961687876,0.4852228409794901
160515000000,hina_ssi_visual_root,khm2,0.0,0.0,0.0,0.0,0.0,0.0,1.0,-0.00017564757413116955,-0.005092767882741145,0.1747722461148866,-0.0036553254357774,-0.004797112652955349,-0.7070676558283063,0.7071201852497332,0.0,0.0,0.0,0.0,0.0,0.0,-0.002313923129300902,0.005976104602609408,0.010867912790777241,0.002614959989320906,0.036692364452863245,-0.48672683818119467
160516000000,hina_ssi_visual_root,khm2,0.0,0.0,0.0,0.0,0.0,0.0,1.0,-0.00017288831883932062,-0.005091522230526827,0.17478716165116737,-0.0036536856447025767,-0.004826262650722302,-0.7068959936833978,0.7072916031485159,0.0,0.0,0.0,0.0,0.0,0.0,0.002759255291848926,0.0012456522143174196,0.01491553628076465,-0.039296772496466646,-0.04064440736629051,0.48540849160687394
160517000000,hina_ssi_visual_root,khm2,0.0,0.0,0.0,0.0,0.0,0.0,1.0,-0.00017565049899308886,-0.005092597656730829,0.1748042120056009,-0.0036910615184739025,-0.004821002979370321,-0.7070675044296733,0.7071199885272187,0.0,0.0,0.0,0.0,0.0,0.0,-0.0027621801537682507,-0.00107542620400276,0.017050354433519238,-0.0450337434401884,0.05737214817610496,-0.4856428184644921
160518000000,hina_ssi_visual_root,khm2,0.0,0.0,0.0,0.0,0.0,0.0,1.0,-0.00017145307761489196,-0.005098542797130286,0.17482438400249822,-0.0037058891961759067,-0.004865472900654399,-0.7068955915820349,0.7072914647870449,0.0,0.0,0.0,0.0,0.0,0.0,0.004197421378196908,-0.005945140399456199,0.020171996897337313,-0.08424809553156723,-0.03900034659853936,0.48580193263619503
160519000000,hina_ssi_visual_root,khm2,0.0,0.0,0.0,0.0,0.0,0.0,1.0,-0.00017366933207999352,-0.005107016754095338,0.17484591438762934,-0.00375931465673486,-0.004866235926961773,-0.7070668215900424,0.7071200019146469,0.0,0.0,0.0,0.0,0.0,0.0,-0.002216254465101558,-0.008473956965052768,0.021530385131115742,-0.07625812161023011,0.07151546851553789,-0.4851459834099262
160520000000,hina_ssi_visual_root,khm2,0.0,0.0,0.0,0.0,0.0,0.0,1.0,-0.00016837709602825934,-0.005120491470658471,0.17486912553886985,-0.0037759592454534355,-0.0049151621550998946,-0.7068955939713483,0.7072907482334687,0.0,0.0,0.0,0.0,0.0,0.0,0.005292236051734191,-0.01347471656313295,0.023211151240524898,-0.09311036100538019,-0.04270657675591851,0.48382094198607273
160521000000,hina_ssi_visual_root,khm2,0.0,0.0,0.0,0.0,0.0,0.0,1.0,-0.00017052473542376195,-0.005136562760291864,0.17489223451765504,-0.003826844604436309,-0.004909501624582533,-0.7070666817643466,0.7071194804224586,0.0,0.0,0.0,0.0,0.0,0.0,-0.0021476393955026157,-0.016071289633392903,0.023108978785195744,-0.06359023309855619,0.07697289701802804,-0.4846975305154309
160522000000,hina_ssi_visual_root,khm2,0.0,0.0,0.0,0.0,0.0,0.0,1.0,-0.00016498013081628194,-0.005157628259229169,0.17491518615270946,-0.0038275904240114046,-0.004948000130966098,-0.7068963646743737,0.7072894714728933,0.0,0.0,0.0,0.0,0.0,0.0,0.005544604607480003,-0.021065498937305555,0.02295163505441636,-0.05586807647433258,-0.05041870406461944,0.4815464269555807
160523000000,hina_ssi_visual_root,khm2,0.0,0.0,0.0,0.0,0.0,0.0,1.0,-0.00016761574750452112,-0.005181285590854404,0.17493674138922874,-0.0038584761747912197,-0.004926027198205746,-0.7070675380305521,0.7071183373955628,0.0,0.0,0.0,0.0,0.0,0.0,-0.0026356166882391665,-0.02365733162523491,0.02155523651928553,-0.012241291212174064,0.07174459417173955,-0.48456020623131685
