%time,field.header.seq,field.header.stamp,field.header.frame_id,field.wrench.force.x,field.wrench.force.y,field.wrench.force.z,field.wrench.torque.x,field.wrench.torque.y,field.wrench.torque.z
160367000000,0,160362000000,BL_wheel_link,-19.905233078141123,20.895293176291187,6.435818963673847,0.005913337908456726,0.06235503190843009,-0.4230039764952039
160367000000,1,160363000000,BL_wheel_link,19.50699957240042,-20.863925789471477,8.316337020780209,0.0035116856133272922,-0.0588472948670134,0.423042369463437
160367000000,2,160364000000,BL_wheel_link,-20.11228630320288,20.779146804064332,8.292293245912019,0.00018097603489008684,0.06776077184730979,-0.42269422268211415
160367000000,3,160365000000,BL_wheel_link,18.693078947004615,-21.07345576567615,9.734867164008218,-0.006218021732932986,-0.06128982535642952,0.4225808465235991
160367000000,4,160366000000,BL_wheel_link,-19.953817569317863,20.77709556596604,8.79675379531042,0.000452316362036256,0.07471672368472206,-0.4225132704583818
160367000000,5,160367000000,BL_wheel_link,18.06384589102328,-21.119304947438593,9.330042845059172,-0.00822066274045784,-0.07820089104658,0.42228467085071614
160368000000,6,160368000000,BL_wheel_link,-17.967499384133387,20.844817554299095,7.576281077276944,0.004274000408708588,0.06904666447888515,-0.4228515167576453
160369000000,7,160369000000,BL_wheel_link,19.43986712740133,-21.070205428732756,8.103004047841576,-0.006774815692820109,-0.07395409800737457,0.42309278265500483
160370000000,8,160370000000,BL_wheel_link,-18.241899378944964,20.88686038655854,6.670470963417017,0.005713763427607527,0.06258312422200296,-0.4228924302748248
160371000000,9,160371000000,BL_wheel_link,20.03147452853297,-21.034794757877506,7.465329058572834,-0.005046653807942246,-0.06604095604884377,0.42287348015057646
160372000000,10,160372000000,BL_wheel_link,-19.024877242420494,20.876231924705067,6.4949368639178635,0.004889574974204493,0.059543452086571524,-0.42280438347280686
160373000000,11,160373000000,BL_wheel_link,20.036835813391548,-21.029408273709336,7.457151397488567,-0.004603666323499327,-0.05665637888549418,0.42287602779966754
160374000000,12,160374000000,BL_wheel_link,-20.160359835548086,20.866158675920836,6.7702661348363415,0.004475040528943602,0.05765172660362043,-0.4227894756702543
160375000000,13,160375000000,BL_wheel_link,19.942995425088213,-20.995416208752776,7.698205039916882,-0.0026354007248094785,-0.053400520652628,0.42281518856150235
160376000000,14,160376000000,BL_wheel_link,-20.60393928319572,20.859164489633873,7.043754707727786,0.004255553052671926,0.0584794440445142,-0.4227746805774559
160377000000,15,160377000000,BL_wheel_link,19.740587508268746,-21.025001812872837,7.862535209044636,-0.003964056773164729,-0.053635104110694005,0.42278250074355794
160378000000,16,160378000000,BL_wheel_link,-20.600632103780583,20.869254772181094,7.138796120369233,0.0048060944754207136,0.05748925342944636,-0.42279910654825403
160379000000,17,160379000000,BL_wheel_link,19.76499731068447,-20.97624178220132,7.710200184874065,-0.0016253316225569871,-0.048608144546250016,0.4228442615312586
160380000000,18,160380000000,BL_wheel_link,-20.959364845951214,20.886868985346833,7.080108649487371,0.00538133995638282,0.04557878500746815,-0.42287592074983005
160381000000,19,160381000000,BL_wheel_link,21.027105374600648,-20.997942500343594,7.528121950564297,-0.0029843236271937293,-0.0447015933813166,0.42272612258813363
160382000000,20,160382000000,BL_wheel_link,-20.9114664260645,20.852899103422523,7.24357761746497,0.003175191963340539,0.03860457190429611,-0.4227280218520303
160383000000,21,160383000000,BL_wheel_link,21.756620950487,-21.053859597884973,7.708085838088261,-0.005891835860278803,-0.04211577502711335,0.42262276508020763
160384000000,22,160384000000,BL_wheel_link,-20.929753231362508,20.802142150950573,7.513210414438036,0.0009423661887182506,0.03715613944189831,-0.4225543871062575
160385000000,23,160385000000,BL_wheel_link,21.790043948969075,-21.085321963200528,7.802527855410142,-0.006774266551622647,-0.04019079795635475,0.4224975556416699
160386000000,24,160386000000,BL_wheel_link,-21.25444704636605,20.810086586363486,7.404666633399893,0.0016512387188107596,0.037809618773712673,-0.4227439854478134
160387000000,25,160387000000,BL_wheel_link,21.8110216079018,-21.035670908639304,7.411703282492019,-0.004498918572299983,-0.036942226015323876,0.42293462952494076
160388000000,26,160388000000,BL_wheel_link,-21.71881637271044,20.868077757398634,6.896110260286079,0.004552704248859809,0.03623827629462103,-0.42272149754497734
160389000000,27,160389000000,BL_wheel_link,21.781610125029367,-20.93432119768532,6.940851790168762,0.0005858419417941679,-0.03483823617974683,0.422749626852257
160390000000,28,160390000000,BL_wheel_link,-21.91538182092491,20.89559461172209,6.572629732990676,0.00554566748652479,0.036734683102179526,-0.422770080773934
160391000000,29,160391000000,BL_wheel_link,21.679341926141216,-20.936692035037115,6.860222895990609,-5.68657886799976e-05,-0.03367800438134456,0.42292204089830665
160392000000,30,160392000000,BL_wheel_link,-22.202897032414118,20.86027922548512,6.737755312447642,0.0035887680143411827,0.03610132500175895,-0.42288464509678025
160393000000,31,160393000000,BL_wheel_link,21.767045469321637,-21.043747171744666,7.104270828528469,-0.005280257000651738,-0.036096954711107555,0.42266300870791756
160394000000,32,160394000000,BL_wheel_link,-21.845373040078524,20.820756950949896,6.998282344675341,0.0016179913817621163,0.03929040475574954,-0.4226162418674609
160395000000,33,160395000000,BL_wheel_link,21.451946073224878,-21.09677291493441,7.276179150431931,-0.007613789678375099,-0.04079884049873907,0.4225167559362219
160396000000,34,160396000000,BL_wheel_link,-21.364345785938546,20.842762807011553,6.842394072815993,0.002890907079953358,0.04036393478758844,-0.42270919464092155
160397000000,35,160397000000,BL_wheel_link,21.59796262798994,-21.054524874187805,7.20256328802495,-0.005580628318089842,-0.043356162493328264,0.4227868951025484
160398000000,36,160398000000,BL_wheel_link,-21.042175937810587,20.894653998465785,6.766689529050587,0.005853807880029151,0.04060318519553197,-0.4226904360715472
160399000000,37,160399000000,BL_wheel_link,21.56284496434182,-21.010831063927554,7.282486278034068,-0.003189481903726245,-0.043566687017874826,0.4226532989796642
160400000000,38,160400000000,BL_wheel_link,-20.97591692607057,20.922240245322804,6.9439353800444135,0.007445265820326098,0.043439124918610815,-0.4226746396972979
160401000000,39,160401000000,BL_wheel_link,21.25102891528213,-20.960314094106938,7.6149877479437365,-0.0009769937089815163,-0.04402193845725236,0.42294170236728573
160402000000,40,160402000000,BL_wheel_link,-21.21157012404016,20.88266703245572,7.235008555910323,0.005305656729393874,0.04660184675250525,-0.4228873096049426
160403000000,41,160403000000,BL_wheel_link,20.808817827749397,-21.01875066479737,7.798973852096732,-0.0038996708309234976,-0.04293877769294336,0.4227289074809382
160404000000,42,160404000000,BL_wheel_link,-21.34717719690244,20.822080596543746,7.1117524807658645,0.0017734827596151638,0.04676488944338525,-0.4226680780229438
160405000000,43,160405000000,BL_wheel_link,20.67438627517994,-21.084994058625576,7.301153069605003,-0.007365348868313971,-0.043586068890610515,0.42258256258673327
160406000000,44,160406000000,BL_wheel_link,-21.256394540905283,20.816130828314137,6.368485101721957,0.0013861617794961294,0.04324923964020086,-0.4227819382559497
160407000000,45,160407000000,BL_wheel_link,21.269503528179545,-21.048520762955345,6.50103089727428,-0.005801832908624282,-0.04341653069960385,0.42283870723560135
160408000000,46,160408000000,BL_wheel_link,-21.03085703387279,20.847984773493643,5.7247939750685575,0.002782582924506884,0.035925642439748065,-0.4227455693962687
160409000000,47,160409000000,BL_wheel_link,22.060092155152173,-20.99689442692435,6.174772287783864,-0.0029357905333873315,-0.038565930862081474,0.42267971933461523
160410000000,48,160410000000,BL_wheel_link,-21.31617719987189,20.90614571584441,5.945182062892742,0.005999377191705866,0.03353360768126808,-0.4226995987959229
160411000000,49,160411000000,BL_wheel_link,22.156101228546408,-20.906954071543733,6.785287993128287,0.001570458377935219,-0.0359444939858504,0.42279467179563995
160412000000,50,160412000000,BL_wheel_link,-21.753812411167644,20.888586812780247,6.942031765692152,0.005370242103856112,0.03765628798112489,-0.4229771912168299
160413000000,51,160413000000,BL_wheel_link,21.65317458379919,-20.958719919154255,7.681680400491265,-0.0009952454144863073,-0.033232939102623434,0.4230343385546637
160414000000,52,160414000000,BL_wheel_link,-22.26616564381246,20.81236083499963,7.692336131822863,0.0014554082165246737,0.03844820072140589,-0.4226978101272147
160415000000,53,160415000000,BL_wheel_link,21.334592356046702,-21.035982768801354,7.879511251286833,-0.004541655004660993,-0.03323355755801916,0.4226367208449185
160416000000,54,160416000000,BL_wheel_link,-22.19753233706181,20.77183292103876,7.276739258138822,-0.0007995152710517749,0.03650032720950805,-0.42259828766621327
160417000000,55,160417000000,BL_wheel_link,21.53726997824042,-21.07306568959067,6.88134476051445,-0.006387044289305926,-0.03434089198895313,0.4225031789363208
160418000000,56,160418000000,BL_wheel_link,-21.958155957817866,20.82611156120118,6.0443682386584685,0.0014361773700750228,0.031266246624084504,-0.42279385868592445
160419000000,57,160419000000,BL_wheel_link,22.428594016541258,-21.005708481786357,5.808050961396063,-0.003911505113692707,-0.03457105712834979,0.42283266421429977
160420000000,58,160420000000,BL_wheel_link,-21.718112998130103,20.907142693951226,5.406508771814956,0.005264222214939622,0.027883923359973164,-0.422730705180827
160421000000,59,160421000000,BL_wheel_link,22.816105197973826,-20.921166101993624,5.770075199724725,0.0004218209873433219,-0.03333639899242788,0.4227123646499919
160422000000,60,160422000000,BL_wheel_link,-21.766665503827436,20.92399623021951,5.9919464255093295,0.006281741476884937,0.031207407582121916,-0.4226984133148762
160423000000,61,160423000000,BL_wheel_link,22.358832715924684,-20.930587267912614,6.864273116904639,0.0002635163645414621,-0.03146622844960371,0.4229063323875378
160424000000,62,160424000000,BL_wheel_link,-22.302877690985127,20.841815280857553,7.378973330891743,0.0029425571697959747,0.03532541985459082,-0.4228104852003943
160425000000,63,160425000000,BL_wheel_link,21.714980491487022,-21.026736261137263,8.033131944243742,-0.0039238238812241534,-0.030386590348186495,0.4226888811376539
160426000000,64,160426000000,BL_wheel_link,-22.505960376956736,20.77024310656455,7.970176900129636,-0.0005633668311293916,0.03617331942449136,-0.4226009292092637
160427000000,65,160427000000,BL_wheel_link,21.509862716444708,-21.065884696687572,7.890132681257235,-0.005619693861865467,-0.032724983042626214,0.42254488205585133
160428000000,66,160428000000,BL_wheel_link,-22.227863589054397,20.7813812550572,7.145145986142592,-4.371870349667304e-05,0.03346809463276744,-0.42278745640947657
160429000000,67,160429000000,BL_wheel_link,22.083068317025635,-21.05092052786361,6.640936350807804,-0.0055671222222276745,-0.0343427802883522,0.4227972287891565
160430000000,68,160430000000,BL_wheel_link,-21.846504482570154,20.87229034877131,5.8684507371610835,0.003942996670961793,0.029178742041543602,-0.4227203161561978
160431000000,69,160431000000,BL_wheel_link,22.61365706650555,-20.957659316789822,5.737994386843974,-0.0011984121309404105,-0.03303190390678597,0.42267592873844406
160432000000,70,160432000000,BL_wheel_link,-21.798189285835267,20.933543438326346,5.5167510394382795,0.006744990077433513,0.028385146095599473,-0.42272316789685926
160433000000,71,160433000000,BL_wheel_link,22.720051617640472,-20.893929736405894,6.003540825140692,0.0015304990908612264,-0.032034917899227466,0.42290344888913617
160434000000,72,160434000000,BL_wheel_link,-22.101742726524797,20.894520568391552,6.300662991166098,0.004874899921795161,0.03279267035327548,-0.42282543944400797
160435000000,73,160435000000,BL_wheel_link,22.0755791575605,-20.978820307966895,7.0630053926831495,-0.0021982075285201423,-0.029822887612602253,0.422727826831711
160436000000,74,160436000000,BL_wheel_link,-22.486025035340067,20.79862988400223,7.380441937942374,0.00027613423809015066,0.035279071449946714,-0.42261554314661703
160437000000,75,160437000000,BL_wheel_link,21.598627264078548,-21.0534935596908,7.735536234470696,-0.005456502811870673,-0.03089507959241308,0.4225871582186214
160438000000,76,160438000000,BL_wheel_link,-22.355789348554296,20.760917666576272,7.425423407964461,-0.0010984090399509417,0.034636008747445685,-0.42254961655229684
160439000000,77,160439000000,BL_wheel_link,21.807344640644757,-21.057752935119826,7.2236752463860565,-0.005514354036878768,-0.03409005977822896,0.42272013482190657
160440000000,78,160440000000,BL_wheel_link,-22.010343652739465,20.82107004321511,6.583231658712076,0.0018677987586278955,0.031088498368762443,-0.42288731363066046
160441000000,79,160441000000,BL_wheel_link,22.39584575506179,-21.010116634334793,6.387026418643759,-0.0034232031175827787,-0.03421257952889912,0.4226556558528907
160442000000,80,160442000000,BL_wheel_link,-21.74132677067755,20.908961849132602,5.977893584060899,0.005947110145741825,0.029109539753607513,-0.4226926525624651
160443000000,81,160443000000,BL_wheel_link,22.62180320654908,-20.90898479529684,6.275060234496265,0.0013149458275965571,-0.03390543864490172,0.42273631112932447
160444000000,82,160444000000,BL_wheel_link,-21.741910920974483,20.917784339259196,6.286600647461513,0.0061379444860939734,0.03357599090217223,-0.4227296245289846
160445000000,83,160445000000,BL_wheel_link,22.074282535124585,-20.940502094750883,6.915137464267231,-0.00027666556705869573,-0.03283831756065847,0.42295434001637
160446000000,84,160446000000,BL_wheel_link,-22.22434601581641,20.82684088639987,7.06631503383601,0.0020597007870845787,0.03655180264469268,-0.4228646222193208
160447000000,85,160447000000,BL_wheel_link,21.60442205707169,-21.028938653386554,7.4569614087760465,-0.004372005500994441,-0.031406544798950026,0.42269745189091834
160448000000,86,160448000000,BL_wheel_link,-22.395877404861757,20.770955218307687,7.193989585635222,-0.0009614872728528467,0.03541926179064397,-0.42261925793743743
160449000000,87,160449000000,BL_wheel_link,21.65003464545738,-21.0699929589832,7.075376042560487,-0.006214692931369176,-0.03321331989381062,0.42254259227674223
160450000000,88,160450000000,BL_wheel_link,-22.12311653679652,20.800743370560475,6.462481976034003,0.0004556281591244208,0.03261322165026002,-0.4227757648665097
160451000000,89,160451000000,BL_wheel_link,22.212744729554377,-21.029282983971274,6.267657611207808,-0.004715322560318388,-0.03422329048170278,0.42279621582727683
160452000000,90,160452000000,BL_wheel_link,-21.823670988814424,20.88796353004913,5.818833091823299,0.004673734217130421,0.028755387258349162,-0.42272468354447434
160453000000,91,160453000000,BL_wheel_link,22.687536943980277,-20.929234108823497,6.076526873616822,0.00034065080066345325,-0.03386519364879466,0.4226948009294352
160454000000,92,160454000000,BL_wheel_link,-21.72746506351435,20.92948022930592,6.121992722806525,0.006806259031720203,0.03133298374112562,-0.42271187426649787
160455000000,93,160455000000,BL_wheel_link,22.3710619920692,-20.91317455263568,6.841995327832452,0.0010808589318902558,-0.03249999192023918,0.4229176902870214
160456000000,94,160456000000,BL_wheel_link,-22.167289636343988,20.86007333176544,7.195159384334531,0.003739345024324179,0.03510915966130695,-0.4228310168552776
160457000000,95,160457000000,BL_wheel_link,21.783373733783915,-21.009524928325938,7.782924781538589,-0.003304199092382612,-0.0307814659994093,0.4227069054444311
160458000000,96,160458000000,BL_wheel_link,-22.439837050032953,20.77626091572813,7.706386952885985,-0.0005763792024841068,0.03596528778618372,-0.4226104252442397
160459000000,97,160459000000,BL_wheel_link,21.55137644937205,-21.061518697354767,7.669419919397126,-0.0057028024154652055,-0.03254673261991442,0.42255784215146186
160460000000,98,160460000000,BL_wheel_link,-22.250544779116083,20.767443678259305,6.97978182822373,-0.0008509518013623133,0.033808624410081645,-0.4227814234505326
160461000000,99,160461000000,BL_wheel_link,22.02721064905602,-21.063907208818033,6.535965401374661,-0.0062729515744012485,-0.033907057558131865,0.4227980338889212
160462000000,100,160462000000,BL_wheel_link,-21.91643261321736,20.85448108967039,5.789501616654668,0.0030234925291746546,0.029250283311349382,-0.42271667164232574
160463000000,101,160463000000,BL_wheel_link,22.604375328183917,-20.980200905700528,5.693930909013316,-0.002230951029664693,-0.03378854358926231,0.422644581482661
160464000000,102,160464000000,BL_wheel_link,-21.71479714990006,20.933641436356567,5.488445585125009,0.006934354086392244,0.028902281636421275,-0.4227086167868551
160465000000,103,160465000000,BL_wheel_link,22.616912329098056,-20.83020452643472,6.139516664709771,-0.05717936555153108,-0.033245400017457266,0.4228082231752749
160466000000,104,160466000000,BL_wheel_link,-21.85837451777426,20.833601967708432,6.771742027489666,-0.05398562411691524,0.03493572457891571,-0.42272544631210474
160467000000,105,160467000000,BL_wheel_link,21.763660890424003,-21.201981290443833,8.408877811069436,-0.06247820486553574,-0.0310481575459791,0.42266116487459643
160468000000,106,160468000000,BL_wheel_link,-22.330977719827974,20.33926990084122,9.577484826013551,-0.06153986032556694,0.037468852175397735,-0.42231174064421156
160469000000,107,160469000000,BL_wheel_link,21.22831929647156,-21.775019152394048,10.96077057510532,-0.048890264234357377,-0.0322371326966671,0.4220751580798883
160470000000,108,160470000000,BL_wheel_link,-22.04821984402569,19.751167326385946,10.720007108812332,-0.0044411377134469954,0.0328012371176842,-0.42226186889416695
160471000000,109,160471000000,BL_wheel_link,21.81193799749203,-22.21012455475044,10.502480639586324,-0.009880979872955942,-0.03546311424443266,0.42184802777066727
160472000000,110,160472000000,BL_wheel_link,-21.260679475822513,19.734890475312596,8.572199123415805,0.0044915484826714485,0.03117274094251724,-0.4220288830744376
160473000000,111,160473000000,BL_wheel_link,22.065048706839498,-21.967096374574822,8.514207426607804,0.0014035226073272344,-0.03564055793878588,0.42202980208109264
160474000000,112,160474000000,BL_wheel_link,-21.052664908733508,19.84001295527688,6.867403070030237,0.0089246482855694,0.03259829110005185,-0.4223016225373718
160475000000,113,160475000000,BL_wheel_link,21.914592520808995,-22.052385470594995,7.809101565890602,-0.0010752850108623607,-0.03982786240235607,0.4219421758731171
160476000000,114,160476000000,BL_wheel_link,-20.58995685929659,19.68517992401918,5.810331808061107,0.0031553007207224286,0.043219468293721613,-0.4209889618100335
160477000000,115,160477000000,BL_wheel_link,20.37470214079989,-22.243738561752465,7.218047511546555,-0.0032022431566081423,-0.03877691532992112,0.4219320373079258
160478000000,116,160478000000,BL_wheel_link,-21.017671244963235,19.547646365009815,5.379101412702236,0.0043459219771217455,0.04129892433091184,-0.42173177325804734
160479000000,117,160479000000,BL_wheel_link,20.270274938542727,-22.36928234736354,7.165693831272739,-0.001968652835227937,-0.03405751538102998,0.4223760371559735
160480000000,118,160480000000,BL_wheel_link,-21.535375634067886,19.35356241707077,5.482940903074724,0.004080864217927677,0.03700098939336088,-0.42252780354801966
160481000000,119,160481000000,BL_wheel_link,20.61485560146697,-22.61423080040036,7.338045242354118,-0.004392896452466014,-0.03450339410747235,0.42172666951239446
160482000000,120,160482000000,BL_wheel_link,-21.17728640910553,19.025850346311696,5.606908865575551,-0.0019071942920293474,0.036693079065260994,-0.42132457284404057
160483000000,121,160483000000,BL_wheel_link,20.470180564496044,-22.92149250157954,7.538566098635113,-0.007972826232117378,-0.031055784410495415,0.4213697813038668
160484000000,122,160484000000,BL_wheel_link,-21.450943900911586,18.796006957569684,5.98821836262339,-0.0020175446933518716,0.031136389711098715,-0.42182295581770035
160485000000,123,160485000000,BL_wheel_link,21.039043475595992,-23.121955937412807,7.83207273648342,-0.007601500911793526,-0.029368570459108956,0.42125189379422723
160486000000,124,160486000000,BL_wheel_link,-21.256865289940123,18.637805162126025,6.367866992628396,0.0003166353474012451,0.026713669819728822,-0.42213788620184306
160487000000,125,160487000000,BL_wheel_link,21.63963160877332,-23.28977051585443,8.214739829171556,-0.005986988853069353,-0.028949873924826463,0.42165493577905655
160488000000,126,160488000000,BL_wheel_link,-20.933946349886487,18.539418466409654,6.822304023331145,0.005458424176076468,0.023943846656412245,-0.4222299881517806
160489000000,127,160489000000,BL_wheel_link,21.988034334107404,-23.430095072169813,8.742044299894332,-0.0022296207053609943,-0.028068287337945634,0.4224255349934459
160490000000,128,160490000000,BL_wheel_link,-20.87043082005215,18.40856488864366,7.175661728311447,0.009532889274203045,0.025605606530550162,-0.4222326482377492
160491000000,129,160491000000,BL_wheel_link,21.60446555986964,-23.614207924663695,9.299930824207577,3.860845212463011e-05,-0.02842327782853368,0.42272939973876317
160492000000,130,160492000000,BL_wheel_link,-20.826184795709672,18.200363076444212,7.537900301882989,0.011102634202667806,0.027589461744148256,-0.42247106573275417
160493000000,131,160493000000,BL_wheel_link,21.17876433777676,-23.854275391798947,9.857805369903843,0.00016907668317847553,-0.029776901937440915,0.42269094124690715
160494000000,132,160494000000,BL_wheel_link,-20.6283313805639,17.94381679211705,7.862575190650979,0.010462814132388356,0.0301093163758499,-0.4223487660206268
160495000000,133,160495000000,BL_wheel_link,24.515068808030566,28.680447741195447,6.894313580766526,-0.08602336934272066,-0.032332310939555575,0.2515969684567249
160496000000,134,160496000000,BL_wheel_link,-1.7116101274123436,22.384016436171144,4.099318658157064,-0.07394686231694562,0.033711778822616015,-0.04102152895656114
160497000000,135,160497000000,BL_wheel_link,-3.045594478883196,-26.97138291367939,7.523793632706283,0.11229844339999653,-0.025579441666315504,-0.0038319641861115908
160498000000,136,160498000000,BL_wheel_link,2.7092324106609706,25.580658455233173,-0.6080242132668622,-0.06043609832703173,0.020820445159740346,0.011199261899729206
160499000000,137,160499000000,BL_wheel_link,-2.6533216742937737,-26.005785960197585,4.978476218345736,0.11741765430415128,-0.01607827961702593,-0.01282976992835607
160500000000,138,160500000000,BL_wheel_link,2.105474999657332,25.950770420995905,-1.4412474293312911,-0.06654415893084377,0.012940702486149147,0.013144845172369746
160501000000,139,160501000000,BL_wheel_link,-2.2332699950482553,25.642693519598193,-0.8003755703543849,-0.06455381516626582,-0.008788950189260951,-0.001970245329964342
160502000000,140,160502000000,BL_wheel_link,0.19960382220722758,-26.364246850024678,4.6776629843823905,0.11188690706711789,0.005493093401836765,-0.011396231654334546
160503000000,141,160503000000,BL_wheel_link,0.23320181300270576,25.9077969930075,-0.864497625537944,-0.06431762206632265,-0.0034435361030128652,0.01355781048691831
160504000000,142,160504000000,BL_wheel_link,-0.5213509459836948,-26.827120618082372,5.770494688669965,0.11029993165019998,0.002582917663556285,-0.013726564443812336
160505000000,143,160505000000,BL_wheel_link,0.4548282330834808,25.08435773869681,0.7359443554399712,-0.07048934027395538,-0.0009928193957073619,0.013909370248996203
160506000000,144,160506000000,BL_wheel_link,-0.7777762769424312,-27.55909720780258,7.531668164583613,0.10672572545811006,0.000895692137443063,-0.013826823288035188
160507000000,145,160507000000,BL_wheel_link,0.5901491632874596,24.966492915038245,0.5968441392429717,-0.0759147500372994,-0.0004065441152958084,0.013685792361951216
160508000000,146,160508000000,BL_wheel_link,-0.7768262456770283,-27.667657425550647,7.775488151788099,0.10121908748072432,-0.0004004030423959655,-0.013636674943116085
160509000000,147,160509000000,BL_wheel_link,0.7559750637780738,24.586893700314562,2.7948919101408443,-0.09022381681873007,-0.00045243762984734136,0.013573822662587047
160510000000,148,160510000000,BL_wheel_link,1.1313567911445226,24.391535885279367,5.1076514761532765,-0.04408762291388032,-0.0019018741417910305,-0.09525121930064159
160511000000,149,160511000000,BL_wheel_link,7.994636321237603,-26.08730077106693,8.173100585007658,-0.003622347932113565,0.0032581102997349346,0.2794517353905967
160512000000,150,160512000000,BL_wheel_link,-21.3983661809458,19.708092487262146,6.974864564102438,0.009143431358897737,-0.002602366155350436,-0.39884111119328136
160513000000,151,160513000000,BL_wheel_link,23.087337880133525,-22.94224315432737,8.847076037013272,0.0008231003387284948,-0.0030851041525371795,0.418644542682389
160514000000,152,160514000000,BL_wheel_link,-22.84647454693588,19.042576775309673,7.11016581250392,0.012481455540092634,0.007471674199838533,-0.42213286217663526
160515000000,153,160515000000,BL_wheel_link,22.36370348460928,-23.01797867952014,9.504898406284424,0.0015846389949642444,-0.010533525110070411,0.4228835626281832
160516000000,154,160516000000,BL_wheel_link,-22.154358034456113,18.818281199475937,7.25703888650738,0.012513087628477007,0.01346310881862193,-0.4231619644865129
160517000000,155,160517000000,BL_wheel_link,21.8156732382572,-22.994264792303845,8.867199396914804,0.0022583849387702525,-0.01962848791847729,0.4229913917336285
160518000000,156,160518000000,BL_wheel_link,-20.98141162429959,18.82112183372393,6.019444645745091,0.011686449724646577,0.018856050201773514,-0.42318394969713324
160519000000,157,160519000000,BL_wheel_link,21.311320633461065,-23.242830649630857,9.296448666716229,-0.0020119417059975843,-0.02299535449479398,0.42320549982749284
160520000000,158,160520000000,BL_wheel_link,-20.582380047811874,18.51194029961523,6.085548604518313,0.004761676010589628,0.023912720355148635,-0.42242600830451243
160521000000,159,160521000000,BL_wheel_link,20.550922240643665,-23.578332506993632,9.632886388106911,-0.008703383638601195,-0.025346962492621996,0.4223731740560228
160522000000,160,160522000000,BL_wheel_link,-20.398703517110242,18.192942514406457,6.04807614340067,-0.002851834867311691,0.02750057441500734,-0.42151062295165204
160523000000,161,160523000000,BL_wheel_link,19.941973604315667,-23.826026869515204,9.701551070941717,-0.013086177314325776,-0.025595843229105204,0.42143898371927074
160524000000,162,160524000000,BL_wheel_link,-20.585278473076418,18.9902565512476,5.650301059504721,-0.0061628227759136095,0.026646205023433008,-0.4213662762690838
160525000000,163,160525000000,BL_wheel_link,20.107310498270373,-22.921663203443867,9.127534393662165,-0.012756481615986278,-0.02307279178316022,0.42217411922646686
160526000000,164,160526000000,BL_wheel_link,-20.968564518279173,18.98116638103002,5.292124471213738,-0.0019242216165170456,0.023488364853483233,-0.42341378763351994
160527000000,165,160527000000,BL_wheel_link,20.52296836691955,-22.78562876826841,8.506281361353938,-0.007938896265529724,-0.02069363751767138,0.42331836544544044
160528000000,166,160528000000,BL_wheel_link,-21.085136884688687,18.97939111389388,4.71445763327972,0.0010528675562749034,0.01985719076437717,-0.4238631198431843
160529000000,167,160529000000,BL_wheel_link,21.10131493551853,-22.336376028201254,6.988169478353751,-0.004050746789514626,-0.021162655670798065,0.4232132330311434
160530000000,168,160530000000,BL_wheel_link,-20.844437832183083,19.47197258668004,3.1710511941854578,0.007780834879281842,0.019403494539877053,-0.42423496993216414
160531000000,169,160531000000,BL_wheel_link,21.232232746539115,-22.34000014229197,6.787473975381041,0.0009208243886313587,-0.018833251759465684,0.4244881818838448
160532000000,170,160532000000,BL_wheel_link,-21.0536259474751,19.477648887401866,3.020683111576434,0.01262761861365449,0.01841067161567377,-0.4245219437847585
160533000000,171,160533000000,BL_wheel_link,21.19248393818996,-22.351706827954693,6.889933781923229,0.0038308288953707885,-0.018018803455225378,0.42454628196676825
160534000000,172,160534000000,BL_wheel_link,-21.040635521749085,19.41911650333619,3.264950634092668,0.01436392589515939,0.01814203202374672,-0.4245765862853717
160535000000,173,160535000000,BL_wheel_link,21.101462962563073,-22.464489388270145,7.459013193820174,0.0033529641490603807,-0.018707742783332437,0.4245619162306502
160536000000,174,160536000000,BL_wheel_link,-20.812485913016335,19.230068894312385,3.898379455814745,0.012175714119022457,0.018570917794519946,-0.42455163645504873
160537000000,175,160537000000,BL_wheel_link,24.769842962637057,29.912326050842363,2.84285317053604,-0.08491681831569836,-0.025684300422313427,0.2539209211290098
160538000000,176,160538000000,BL_wheel_link,0.39854429790390794,23.52405256335268,2.406984627815908,-0.026337911550809247,0.029179959865870367,-0.1377692335565394
160539000000,177,160539000000,BL_wheel_link,5.7947462987488505,-25.229807666300918,6.7834468852934675,0.01438227260407857,-0.018493419064919303,0.2891115017048814
160540000000,178,160540000000,BL_wheel_link,-19.06219377501215,20.36259423958902,2.23835808054649,0.02871521547844817,0.010099250287557794,-0.40193367600348906
160541000000,179,160541000000,BL_wheel_link,21.567158220500893,-21.94111018788861,5.5393791057664945,0.01809595052640987,-0.010299023914204335,0.4212422334904559
160542000000,180,160542000000,BL_wheel_link,-21.522160811434528,19.706719102031382,2.2319171116434404,0.029434546253926507,0.009657781982227968,-0.4243356297625386
160543000000,181,160543000000,BL_wheel_link,21.703718187620847,-22.16358958058446,6.347317021062362,0.01691880564231223,-0.011589048385851137,0.42509741437935505
160544000000,182,160544000000,BL_wheel_link,-21.304451759483477,19.473125278484897,2.7276748599797114,0.026620064506416685,0.01325438713595996,-0.4252238333756457
160545000000,183,160545000000,BL_wheel_link,21.0935359359847,-22.577160774774878,7.576172003740369,0.009890679096127538,-0.014563947028214612,0.42479793935528465
160546000000,184,160546000000,BL_wheel_link,-20.812640068215547,18.793374119249467,3.951272771039447,0.012076089179101005,0.018265923653158874,-0.42393511736580947
160547000000,185,160547000000,BL_wheel_link,21.55667281518521,3.9104446872663865,6.543921988528952,-0.03490317101141376,-0.022078029829288984,0.37068597413905047
160548000000,186,160548000000,BL_wheel_link,-13.181170063189843,19.772345756854634,4.915622679290746,-0.003440412017019352,0.02063896072978238,-0.3614164119603877
160549000000,187,160549000000,BL_wheel_link,19.562510613986188,-23.795264801653857,9.917965305801156,-0.013252166211791918,-0.01820689069786385,0.4118550952880081
160550000000,188,160550000000,BL_wheel_link,-20.098492169130566,18.29495436765639,5.108531908014397,-0.004982168782004652,0.013364021471485478,-0.4198766364460963
160551000000,189,160551000000,BL_wheel_link,21.102026954817955,-23.63676741807662,9.972950949038978,-0.012158172753347627,-0.015932282462900467,0.42167600833362073
160552000000,190,160552000000,BL_wheel_link,-20.325105036700972,18.2474542871774,5.218124713209236,-0.0011875052318231982,0.01194021079276858,-0.4220202183269547
160553000000,191,160553000000,BL_wheel_link,21.262132252302038,-23.617658474411485,10.134522793701516,-0.008468394763090225,-0.014835086866696899,0.42277913837357306
160554000000,192,160554000000,BL_wheel_link,-20.421280590122482,18.22057978032431,5.2879759300286615,0.0024524896938567524,0.012575394342935827,-0.4229863849907696
160555000000,193,160555000000,BL_wheel_link,21.09196074133604,-23.626891420714145,10.257363234376545,-0.005969697012583354,-0.013291131626419263,0.4238136593551707
160556000000,194,160556000000,BL_wheel_link,-22.671570700162334,17.901622595739756,3.9995318869195686,-0.03714143567037643,0.018426428399476228,-0.3372679862025803
160557000000,195,160557000000,BL_wheel_link,12.812065717780378,26.86012636447116,3.26131110619605,-0.08372639063966252,-0.02383310474579043,0.15319971975967467
160558000000,196,160558000000,BL_wheel_link,0.17793030723242886,-29.632719352063546,9.056594837373149,0.09605138118110707,0.02932575975157218,-0.06775835082163559
160559000000,197,160559000000,BL_wheel_link,1.792735833844972,25.654002653077065,0.8749461394389908,-0.06807292593711907,-0.019760260486819378,0.05363240457824698
160560000000,198,160560000000,BL_wheel_link,4.099313506032511,25.45641258970772,0.9355904064811391,0.030056613334339868,0.009678279934109637,-0.1923156083282992
160561000000,199,160561000000,BL_wheel_link,18.267917585684035,-22.16705694344526,4.618196340225509,0.018939117070078528,0.005331791026994579,0.38482882684700076
160562000000,200,160562000000,BL_wheel_link,-22.472183296764587,20.611452898058996,0.5588705696176153,0.030561994644184423,-0.006129026251595589,-0.4177345874864534
160563000000,201,160563000000,BL_wheel_link,22.63661518389763,-21.428620418922193,4.953192160241736,0.0186112740732161,0.007475997504465399,0.4231834791657583
160564000000,202,160564000000,BL_wheel_link,-23.024854142917356,20.017014364413058,1.4541102057785877,0.02896395023525052,-0.00510747960882807,-0.4241193743645699
160565000000,203,160565000000,BL_wheel_link,22.348995906641555,-22.095849958123907,6.5589813190137365,0.014876454163101198,0.004712094145096504,0.42393154605312255
160566000000,204,160566000000,BL_wheel_link,-22.442511708447114,19.59206621566544,2.02554310552435,0.02345071370941235,-0.004094159054853305,-0.424441152965174
160567000000,205,160567000000,BL_wheel_link,23.36504875066794,4.253338637230539,4.267489340553923,-0.01877633842175681,-0.00010308189373959305,0.3723475504757932
160568000000,206,160568000000,BL_wheel_link,-19.23227196977992,20.087126495469796,0.421889750534608,-0.08042747271431855,0.014566105941635633,-0.18223281969255323
160569000000,207,160569000000,BL_wheel_link,-3.960048546430595,-27.37612742445321,8.356618864982105,0.009500886335436838,-0.009455384793524115,0.2019803228552257
160570000000,208,160570000000,BL_wheel_link,-18.46743913139844,20.399072721471285,3.25484958468348,0.023372899822323743,-0.003457596630770834,-0.38703131486959597
160571000000,209,160571000000,BL_wheel_link,21.6503437697358,-22.289570154872543,8.001036352539879,0.01209086023475354,0.005365137015138793,0.41744827536622586
160572000000,210,160572000000,BL_wheel_link,-22.17137812710932,19.590243208447564,3.653215620764392,0.022717454857172758,-0.005351997877913802,-0.4234201847634921
160573000000,211,160573000000,BL_wheel_link,22.41788140738083,-22.254915376056477,8.960087920161397,0.006959242833557091,-0.0011379528873707936,0.4244757148554747
160574000000,212,160574000000,BL_wheel_link,-21.190320674038315,19.359751823133067,4.524230057299397,0.0146329787638894,-0.0005269965900568712,-0.423863375859491
160575000000,213,160575000000,BL_wheel_link,21.821831032060988,-22.52918638456476,10.356930433413941,-0.0013294651714852272,-0.0031390050987950657,0.42406257014025317
160576000000,214,160576000000,BL_wheel_link,-20.95562600697646,18.996592013403504,5.392109113600425,0.0033999004936938293,0.00373203476363474,-0.4233349834130752
160577000000,215,160577000000,BL_wheel_link,21.15850708082547,-22.905042694537638,11.034237482787136,-0.010860333172481034,-0.005911507773953512,0.4232950855056814
160578000000,216,160578000000,BL_wheel_link,-20.61974499399062,18.663704966453384,5.2706382673004555,-0.004965343408097015,0.0042932990963461945,-0.42297830408685466
160579000000,217,160579000000,BL_wheel_link,21.09372115717832,-22.593793330850616,10.921718685407761,-0.015370571415869411,-0.0037886483630929233,0.4234349775899257
160580000000,218,160580000000,BL_wheel_link,-20.97327021385018,19.091850815192025,5.252015993905093,-0.006350467815136358,0.0014260713680579187,-0.4232067231211724
160581000000,219,160581000000,BL_wheel_link,21.35805030163407,-22.573217705954686,10.950928499590239,-0.014052858524672723,-0.00013329188363186577,0.42362214145873284
160582000000,220,160582000000,BL_wheel_link,-21.420915361292426,19.149805759619213,5.3665584263433805,-0.0029658520488660255,-0.00011679865627729403,-0.4236268455100032
160583000000,221,160583000000,BL_wheel_link,21.45092147062471,-22.49035848091959,10.82796898020619,-0.009763431675282323,-0.0009404744153451101,0.42381027961786805
160584000000,222,160584000000,BL_wheel_link,-21.19241947396836,19.180692283858107,5.440202332030144,-0.00038870456987184874,-0.0011625576162717882,-0.42456574841717554
160585000000,223,160585000000,BL_wheel_link,21.714253737212502,-22.4384262987111,10.84390286201355,-0.007717280141073254,-0.0005081487270414171,0.42461779298023156
160586000000,224,160586000000,BL_wheel_link,-21.13909154532158,19.198229919718216,5.1311891604451745,0.0024355811890404643,-0.000266803549754348,-0.42474710380244063
160587000000,225,160587000000,BL_wheel_link,21.537324449789285,-22.410798363013004,10.771079185358381,-0.0057220709801773075,0.0013164405041574388,0.42476557939665543
160588000000,226,160588000000,BL_wheel_link,-23.397543907947252,18.875088967787452,3.550365430441654,-0.03890876287673389,0.006615925975080923,-0.33662054293760796
160589000000,227,160589000000,BL_wheel_link,13.125840821254782,27.74433997895928,1.7881566058083311,-0.08057828002061984,-0.013919911959510756,0.15159570483889198
160590000000,228,160590000000,BL_wheel_link,-1.1040475448699263,-27.410218583787092,9.035502997863174,0.10758995278075074,0.02513689801285665,-0.03881816493204977
160591000000,229,160591000000,BL_wheel_link,-1.713618473311723,25.292476284741813,-0.6225521017463181,-0.06681984662925218,-0.014443144151291797,0.019388663326808265
160592000000,230,160592000000,BL_wheel_link,-0.06430015353394176,25.027706484374445,-2.8051034101383814,-0.0602473327171325,0.016811811828371048,-0.006112053259168149
160593000000,231,160593000000,BL_wheel_link,-2.1738276907901435,-25.24097090338414,6.851552330569917,0.12123183601936982,-0.011924681650430357,-0.008422800552095506
160594000000,232,160594000000,BL_wheel_link,1.5067216400420884,26.0805771871162,-4.621708553136354,-0.059226067470510235,0.011100270702120482,0.01131337172504812
160595000000,233,160595000000,BL_wheel_link,-1.791307104748764,-25.69994474674762,7.053831226073371,0.11623319801842272,-0.007585158462452744,-0.012471694641319519
160596000000,234,160596000000,BL_wheel_link,1.2403120248151411,25.98404137096049,-4.265569778430202,-0.06082943935659817,0.006118013829154408,0.01293864162340161
160597000000,235,160597000000,BL_wheel_link,-1.3168317061327874,-25.873442370241538,7.409423659929134,0.11422857533510124,-0.0051269795968414715,-0.01305358730131585
160598000000,236,160598000000,BL_wheel_link,1.0964196613162276,25.85899085560363,-3.4301834628685905,-0.0692964913352884,0.0030088045651585874,0.013143276604328909
160599000000,237,160599000000,BL_wheel_link,-1.1385543488819048,25.50189085517765,-2.6108704400826586,-0.0710693614757751,-0.005901764974773105,-0.0012795299977377314
160600000000,238,160600000000,BL_wheel_link,0.04370114718332944,-25.936134719865528,9.239654674810149,0.10365290589691269,0.005530036302091521,-0.01195817346541902
160601000000,239,160601000000,BL_wheel_link,0.008488393895828603,25.820300623483302,-1.1242032249940572,-0.07374538667695517,-0.0003069220810590088,0.013491255478324301
160602000000,240,160602000000,BL_wheel_link,-0.9056345306387986,-26.085066872446678,10.26739207294044,0.10244765195084786,0.002381992242977259,-0.013939775538125547
160603000000,241,160603000000,BL_wheel_link,0.21056844401566052,25.64134806469456,-0.9287149459444151,-0.07613468246568465,0.0005514415346412103,0.013619233378865498
160604000000,242,160604000000,BL_wheel_link,-0.9427725749109364,-26.240287607977677,10.540864158031598,0.09987727633562507,-0.00018734190661805463,-0.01378117355481486
160605000000,243,160605000000,BL_wheel_link,0.5056740356046521,25.456715783139785,-0.7859353868483702,-0.07993332557299714,0.0019353507270572572,0.013250272368385855
160606000000,244,160606000000,BL_wheel_link,-0.9942180365616802,-26.37070040272542,10.996546572058291,0.09554433198897236,-0.0021322514333519294,-0.013098500809185183
160607000000,245,160607000000,BL_wheel_link,0.7480143898940984,25.20832931376337,-0.030921451128004276,-0.0907429983919742,0.000290454137355946,0.013324531464148961
160608000000,246,160608000000,BL_wheel_link,-0.7016784385201915,-26.580367687983305,12.42209381252926,0.08389800299394962,-0.0024273344976736416,-0.01301063464406458
160609000000,247,160609000000,BL_wheel_link,0.7722381871694928,25.10832275786939,2.300199586300211,-0.09664817602140889,0.004452768947608078,0.012826697434248791
160610000000,248,160610000000,BL_wheel_link,-1.2995910060694333,-26.68469738487962,14.824671840917393,0.07948724698643259,-0.0009741989670526796,-0.01338281385532999
160611000000,249,160611000000,BL_wheel_link,0.43415435437279254,24.95410121590599,3.242842460472856,-0.09646316995013098,0.0036702483406712712,0.012896247749587707
160612000000,250,160612000000,BL_wheel_link,-1.300636000473722,-26.87433750507745,15.18855373378162,0.07984434989846242,6.332430665232442e-05,-0.0136182005000508
160613000000,251,160613000000,BL_wheel_link,0.289297802054508,24.760340829521976,3.3488752473857515,-0.09525044055697361,0.0030751117000865093,0.012953507168209866
160614000000,252,160614000000,BL_wheel_link,-1.2492190645656398,-27.005319929213325,15.170488369467911,0.08153658362670549,2.6809680656947553e-05,-0.013660144189105725
160615000000,253,160615000000,BL_wheel_link,0.30416786658096295,24.607612036940537,3.1567105379441736,-0.09326351692183937,0.002777646004789308,0.013021264007998107
160616000000,254,160616000000,BL_wheel_link,-1.180026007146074,-27.15212590670341,14.9850833811685,0.08446041359282211,-0.0012568007061801057,-0.01331645353501695
160617000000,255,160617000000,BL_wheel_link,0.4672252884837939,24.424732849977083,2.9302169422377604,-0.09025230306039023,0.0025870447895928054,0.01309924797447148
160618000000,256,160618000000,BL_wheel_link,-1.091471901294251,-27.280881774206446,14.922174426547475,0.08695696710203446,-0.0030513020107790618,-0.013083182445395691
160619000000,257,160619000000,BL_wheel_link,0.7221158103857932,24.25168801280999,2.8273984253787354,-0.08790962595326378,0.0024077290255519806,0.013238282182670907
160620000000,258,160620000000,BL_wheel_link,-0.9320998675298359,-27.317454055157853,14.102912384833408,0.09028638065764769,-0.006594259749006156,-0.012696708207472315
160621000000,259,160621000000,BL_wheel_link,1.2944715778730116,24.20892311539015,1.7149994956336858,-0.0846647162572903,0.0017086896029497535,0.01342135833326937
160622000000,260,160622000000,BL_wheel_link,1.09840745636123,-3.5697788550048113,9.573135065628968,0.051768764279008866,-0.013580537316549034,-0.0918083928553685
160623000000,261,160623000000,BL_wheel_link,12.156543363706902,26.275260174883233,1.2669208873248832,-0.08312524365817407,0.009090642760579614,0.1059460519225202
160624000000,262,160624000000,BL_wheel_link,-2.158312781090584,-27.789621832118666,13.936463153346116,0.0926742163964538,-0.005378321625664868,-0.02809250467036009
160625000000,263,160625000000,BL_wheel_link,1.4311360623932383,24.09258618209366,1.5790663961891185,-0.08240883117349503,-0.0009550848112155734,0.016471844992864696
160626000000,264,160626000000,BL_wheel_link,-0.41188252899870526,-27.530360547144998,14.138345608499836,0.09380207177372574,-0.004291598073309257,-0.013445341490802667
160627000000,265,160627000000,BL_wheel_link,1.190957108897116,23.865915916359313,1.5297118334253224,-0.08375568121106239,0.002671032084413846,0.01327476677954955
160628000000,266,160628000000,BL_wheel_link,1.003459919448771,-1.8486172922903248,9.345456148115408,0.05073276114974942,-0.0119399735676608,-0.09543883572232054
160629000000,267,160629000000,BL_wheel_link,12.307373551356445,26.01570276218766,1.1929881837584346,-0.0828746860651714,0.010778419072603934,0.10949432590364665
160630000000,268,160630000000,BL_wheel_link,-2.4507568150965287,-27.941886156178885,13.795114631282964,0.0939754640098809,-0.002768781869843992,-0.029098381846950974
160631000000,269,160631000000,BL_wheel_link,1.035347126098386,23.831970552797433,1.3007844697957556,-0.08148769935526946,0.00031625474314433727,0.01628526682422872
160632000000,270,160632000000,BL_wheel_link,-0.737795458380043,-27.625996828832637,13.80909364561606,0.0949255674053815,-0.0008472272073562677,-0.013762920733165129
160633000000,271,160633000000,BL_wheel_link,0.6654570130448846,23.71706337080093,1.1980911071183011,-0.08076461014391927,0.00031860224906479133,0.013576044196255401
160634000000,272,160634000000,BL_wheel_link,1.0862798915736283,23.818702276918025,2.300156985418076,-0.03318180445678148,-0.008744324770429225,-0.09424636044877065
160635000000,273,160635000000,BL_wheel_link,7.883367310195048,-25.21105743819215,8.941168940284376,0.009841775215028327,0.026740115549706053,0.2760338077268307
160636000000,274,160636000000,BL_wheel_link,-21.658139144193886,20.25765918094338,1.4012935806159703,0.018205218317466475,-0.03779439630054983,-0.3949736120538104
160637000000,275,160637000000,BL_wheel_link,23.653478966353163,-21.137677456992872,6.192127979020331,0.015412271635269705,0.037212089971364784,0.41501172322896057
160638000000,276,160638000000,BL_wheel_link,-23.687836438518666,20.188811180306548,-0.2622275738249237,0.020032913568023322,-0.03881953568309324,-0.41825402980231613
160639000000,277,160639000000,BL_wheel_link,24.003555067904827,-21.274058187265922,6.735417136384756,0.013499597646230122,0.03607749247849284,0.4197503275655129
160640000000,278,160640000000,BL_wheel_link,-23.53636999034525,20.023380830268582,-0.04793400392150201,0.018820022691299395,-0.03765502429774176,-0.4196803389440552
160641000000,279,160641000000,BL_wheel_link,23.912132618971576,-21.222340816801495,6.83057453550126,0.011995463104797432,0.03389976336451637,0.4202067427631786
160642000000,280,160642000000,BL_wheel_link,-23.17568540615465,20.053820825493297,0.2328811369106932,0.015159867578491837,-0.03677882928648228,-0.4195804447455988
160643000000,281,160643000000,BL_wheel_link,23.844431028763232,-21.244577728881968,7.807795339007143,0.0074313689567049365,0.03244987102263977,0.4205296900861372
160644000000,282,160644000000,BL_wheel_link,-22.89717397870364,19.98820186992861,1.2829836150756289,0.009714338108989334,-0.03720192916322321,-0.41948737344250997
160645000000,283,160645000000,BL_wheel_link,23.959765240934082,-21.3366591486709,8.715745212629326,0.002411947635471582,0.03004184985625741,0.4210028815930749
160646000000,284,160646000000,BL_wheel_link,-22.454686044163918,19.856386570978835,1.4022601835958963,0.006664184759659971,-0.03709518865790535,-0.41947244493589386
160647000000,285,160647000000,BL_wheel_link,23.945121143319703,-21.447984341950484,8.749467077512834,0.0007023690526453761,0.032554608356605154,0.42089844663769016
160648000000,286,160648000000,BL_wheel_link,-22.755110305986317,19.752928395968695,1.4416162268592485,0.00543580541479133,-0.037200686005203897,-0.4196727025322402
160649000000,287,160649000000,BL_wheel_link,23.785368795748933,-21.549307196831307,8.817078841684062,-0.0006278970475823443,0.03456931675488992,0.4205508842052751
160650000000,288,160650000000,BL_wheel_link,-23.013841807907692,19.664223463505262,1.488946788404341,0.004698137671816763,-0.03723419217985403,-0.41966097140801906
160651000000,289,160651000000,BL_wheel_link,23.61671213627452,-21.64169895435202,8.902627073080895,-0.0016531978325868854,0.0361715544631089,0.4202604728076117
160652000000,290,160652000000,BL_wheel_link,-23.244482767868142,19.55636928753746,1.517486804184718,0.0033280569393537183,-0.036726757843581516,-0.41980205458510605
160653000000,291,160653000000,BL_wheel_link,27.201630607909475,29.977060795554465,-2.267199329130543,-0.08709853030308383,0.01823294019158432,0.2514013805012779
160654000000,292,160654000000,BL_wheel_link,-0.2831790741248754,24.00179736586218,0.9412727736894878,0.004576569388457059,-0.0168019019824913,-0.2233716456090594
160655000000,293,160655000000,BL_wheel_link,20.1893713528652,-22.428490294548965,9.07991845372241,0.0007931969750370648,0.03594825686205938,0.3866277835750043
160656000000,294,160656000000,BL_wheel_link,-22.84617945916124,19.636286152047717,1.759627272789885,0.007926108551593666,-0.04065547221884928,-0.4133811134014333
160657000000,295,160657000000,BL_wheel_link,23.791426199788212,-21.649271985856966,9.138466577094738,0.004927032068304666,0.039716934112080285,0.4181413181334403
160658000000,296,160658000000,BL_wheel_link,-23.445152997164147,19.622891841910896,1.6428710565031899,0.012794544318588341,-0.039548423669843645,-0.4187225269010385
160659000000,297,160659000000,BL_wheel_link,23.501991305194434,-21.602162954859107,9.199372679810688,0.008096464712399446,0.04310464330719801,0.4188377263354753
160660000000,298,160660000000,BL_wheel_link,-24.053922972278794,19.62091357232538,1.6962653524223639,0.015656340557217565,-0.03924493428824617,-0.4192174361782877
160661000000,299,160661000000,BL_wheel_link,23.17593230299871,-21.61687901362303,9.31098319918561,0.009862474667904424,0.04434901959602355,0.4182172476289307
160662000000,300,160662000000,BL_wheel_link,-24.33285573216675,19.6530993142308,1.6912208539627331,0.018799268807194524,-0.0367769009116172,-0.4190345727934306
160663000000,301,160663000000,BL_wheel_link,25.64640758116315,31.620499765593824,-2.039445501438825,-0.05854152458035887,0.02730857286385464,0.2826422404588976
160664000000,302,160664000000,BL_wheel_link,-9.886055558063608,22.301398732324465,-1.6437355049493125,-0.07193510166512807,0.005147571751387429,-0.0825326313124704
160665000000,303,160665000000,BL_wheel_link,-1.2261598385551633,-26.01625951550197,12.80829996993872,0.10602918155243912,-0.004755434320444494,0.004115862428724914
160666000000,304,160666000000,BL_wheel_link,0.13257171347806024,24.427544117055596,-2.1071348336028324,-0.06976953897002096,0.011841133547644003,0.007348641510419871
160667000000,305,160667000000,BL_wheel_link,-2.5761403464077155,-26.37143193199072,12.939693055743597,0.10823452737400419,0.00042798672455915545,-0.011858851252278495
160668000000,306,160668000000,BL_wheel_link,-0.4824537851120659,24.38730668326818,-1.8864729698791725,-0.07133388193833083,0.007252611147143676,0.0103044921351056
160669000000,307,160669000000,BL_wheel_link,-2.4019710445717455,24.130318227508347,-1.7511252994318172,-0.06909657051306267,0.0035257392188852233,-0.0026578450833891682
160670000000,308,160670000000,BL_wheel_link,-1.8626457379599357,-26.41555748160279,12.648860850780032,0.10633026711798343,0.008208136889142244,-0.011592191729624406
160671000000,309,160671000000,BL_wheel_link,-1.4578028358584494,24.313070066200986,-1.6082995850802666,-0.0711720922066185,0.001772347692889438,0.01062238233438136
160672000000,310,160672000000,BL_wheel_link,-1.6958615310027956,-26.374558193332273,12.767117208030722,0.11254164307151483,0.009528077135400076,-0.015765159778563506
160673000000,311,160673000000,BL_wheel_link,-1.1821484213344613,24.23510367713666,-1.3043442325040255,-0.07367769659188364,-0.006822202983228128,0.012251714933510644
160674000000,312,160674000000,BL_wheel_link,1.9701959453056375,24.3358422404273,-0.3285200131980527,-0.025516384513796998,-0.007364952441611007,-0.09773619799021964
160675000000,313,160675000000,BL_wheel_link,8.242551369569012,-24.69982910870265,10.22485419798448,0.016911799312106787,0.02720663425286048,0.2801986009661134
160676000000,314,160676000000,BL_wheel_link,-20.59437939785801,20.157444355863735,1.6497830935976256,0.024465669736313634,-0.05179924425092007,-0.39455708501426134
160677000000,315,160677000000,BL_wheel_link,24.9615168053907,-21.54666934043926,9.695142788901437,0.017394660035736975,0.04376499593862505,0.41557655800520976
160678000000,316,160678000000,BL_wheel_link,-22.588035379489938,19.38569600115069,1.8582327460089791,0.01861910243250353,-0.053773195412730894,-0.4175926785749891
160679000000,317,160679000000,BL_wheel_link,25.40788629783382,-20.94679993675009,9.945713043353662,0.0056820589799067775,0.04388172084395191,0.4220158010522118
160680000000,318,160680000000,BL_wheel_link,-22.659484429979166,19.82344573947677,1.7331842834779927,0.006081298137422312,-0.04989555622100526,-0.4190910547425584
160681000000,319,160681000000,BL_wheel_link,24.611666540817552,-21.245666803589838,10.051711860209,-0.0038310787133836507,0.04164765918709916,0.42036805091952134
160682000000,320,160682000000,BL_wheel_link,-22.42014138635081,19.589278302476284,1.5463498526963424,-0.0021880926998272578,-0.04676156923576808,-0.41865708605855406
160683000000,321,160683000000,BL_wheel_link,24.094845294710506,-20.369216579668553,9.505555502254554,-0.012343925590166881,0.043411794131703145,0.42223473745936985
160684000000,322,160684000000,BL_wheel_link,-23.19828690779286,20.609396091788675,1.674917582012517,-0.008032476490845845,-0.04485665812019429,-0.41974667213034594
160685000000,323,160685000000,BL_wheel_link,23.423659838818242,-20.13718214750241,11.503784886818721,-0.01448837838665789,0.04542689718738878,0.41955723450551685
160686000000,324,160686000000,BL_wheel_link,-23.46689370536533,20.894657265686636,4.111423842139331,-0.010245243550401389,-0.045935658891913665,-0.4205131174529331
160687000000,325,160687000000,BL_wheel_link,23.63207996866368,-19.793599474164733,14.225030863475213,-0.016858839947232414,0.04256286926606467,0.4198511185579074
160688000000,326,160688000000,BL_wheel_link,-22.804802771173016,21.29094645473385,6.79354919554269,-0.01058464968123157,-0.04371892133842174,-0.420792579219213
160689000000,327,160689000000,BL_wheel_link,23.53590216118048,-19.445595096610134,16.201017287989874,-0.013648737494386274,0.04353213562851975,0.42053129118619104
160690000000,328,160690000000,BL_wheel_link,-22.89721215045913,21.388469536162965,7.54148245397542,-0.00713082725324383,-0.04230931799947763,-0.4209996151505733
160691000000,329,160691000000,BL_wheel_link,23.28285723925477,-19.590134453270917,15.908930182324111,-0.010149700411170044,0.043603896392590775,0.42064330648981046
160692000000,330,160692000000,BL_wheel_link,-22.868685406599237,21.025191530631723,5.86743384431506,-0.0011605632477549306,-0.044267986051314274,-0.42050037340025465
160693000000,331,160693000000,BL_wheel_link,23.518481983402538,-20.04172305908949,12.876099001527342,-0.0009872739111261386,0.04200050410475092,0.4215072089549951
160694000000,332,160694000000,BL_wheel_link,-22.557946415710372,20.55929042528794,2.72468819865292,0.00787315366568075,-0.04527077873087244,-0.42043447473616125
160695000000,333,160695000000,BL_wheel_link,23.757342973355115,-20.395082256436005,11.02108623341173,0.0019900720593710674,0.03736738138657226,0.4220497340971154
160696000000,334,160696000000,BL_wheel_link,-21.726242753260685,20.25738866736765,1.242025294807216,0.009449385097267017,-0.04533951363043378,-0.41987995783571375
160697000000,335,160697000000,BL_wheel_link,23.827159948015943,-20.568894066667916,10.099968096895429,0.006068976052971423,0.040820634949289426,0.42182285791272806
160698000000,336,160698000000,BL_wheel_link,-22.165538642014894,20.090352407903037,0.9346937786572356,0.012192798469860256,-0.04514996690577776,-0.4199842817641562
160699000000,337,160699000000,BL_wheel_link,23.53532815175577,-20.711231730627294,10.575498606662196,0.0064440402130624104,0.04314690193192828,0.4209339369588671
160700000000,338,160700000000,BL_wheel_link,-22.513749700172543,19.98274725497845,1.3191466298398085,0.011577985312032744,-0.044040048432545206,-0.4200543451952955
160701000000,339,160701000000,BL_wheel_link,26.96632607411503,30.349098079844712,-2.4886366218390306,-0.08004895794494415,0.020566456192854687,0.252043657781912
160702000000,340,160702000000,BL_wheel_link,-3.6129428736442635,23.467673917595096,-2.411666055010407,-0.07563093435970714,0.008759257268324388,-0.044971606353171587
160703000000,341,160703000000,BL_wheel_link,-1.15830183243303,-25.384748524356983,12.653766813446826,0.09793670527701871,-0.005563276138473253,-0.0013842154576406806
160704000000,342,160704000000,BL_wheel_link,0.6735336788355066,25.375081561286148,-4.163450245465642,-0.0775532588940897,0.013680877047626532,0.00548672138565947
160705000000,343,160705000000,BL_wheel_link,-2.1668999909527793,-24.891077720066033,11.828996017598344,0.10339503350941316,0.004175906783247387,-0.012868170652774307
160706000000,344,160706000000,BL_wheel_link,-0.5151205057511481,25.56931035243087,-4.585303362544834,-0.07153882448932004,0.011882791438265754,0.008786775722951482
160707000000,345,160707000000,BL_wheel_link,-2.2667620838463347,-24.82818566556942,11.721456294157061,0.10537869973652327,0.001803717565034028,-0.013380919754191641
160708000000,346,160708000000,BL_wheel_link,-0.1490209574809783,25.595424015067188,-4.449448906301288,-0.07112577931044826,0.009830658321689738,0.00888521045088491
160709000000,347,160709000000,BL_wheel_link,-1.895782894620719,-24.663051693566054,12.562832378540593,0.10379567459137123,0.004319797722713381,-0.012379595101792101
160710000000,348,160710000000,BL_wheel_link,-0.5316459695071667,25.726000612538694,-3.333108924614179,-0.07464632348322284,0.008014970727300527,0.009332682863208878
160711000000,349,160711000000,BL_wheel_link,-1.9977053459659064,25.48084772073623,-3.1695939306740284,-0.07187651550721996,0.002647079209971367,-0.0029443772930401835
160712000000,350,160712000000,BL_wheel_link,-1.1935560998082648,-24.46628303658709,12.452325768978618,0.11255630397118284,0.0072196985040614186,-0.012050420609986671
160713000000,351,160713000000,BL_wheel_link,-0.6207877812114434,25.639441706360948,-3.6783936579675878,-0.06731884928481059,-0.001957805752895396,0.01202577162274799
160714000000,352,160714000000,BL_wheel_link,-0.4908413760154848,-24.750378183735037,12.457930597019343,0.10949741174442304,0.002817552456328599,-0.01329996046160077
160715000000,353,160715000000,BL_wheel_link,0.37662275359433645,25.429550390595356,-3.424462813002222,-0.07423097922649012,-0.010102424206603651,0.014881335716995346
160716000000,354,160716000000,BL_wheel_link,1.106200252323316,-24.759637386079255,13.350235336333013,0.10631985744757448,-0.00672581445849275,-0.010141396880147749
160717000000,355,160717000000,BL_wheel_link,2.006328682538731,25.178011907923395,-2.2241978495363735,-0.08064763881947631,-0.008895917634744732,0.015546704946026358
160718000000,356,160718000000,BL_wheel_link,1.2993569946924113,-25.197049553646153,15.31775003257581,0.09492099239757723,-0.008821511246779882,-0.009297551252406538
160719000000,357,160719000000,BL_wheel_link,2.143312451216566,24.42967282182561,-0.9545587315321118,-0.09063302033896191,-0.0012423082637243777,0.013859592021133217
160720000000,358,160720000000,BL_wheel_link,0.18293899487321447,-25.729119476661754,16.421817751158404,0.08646048850959756,-0.009221743794565578,-0.00976718726776183
160721000000,359,160721000000,BL_wheel_link,1.795502394238833,24.9429053763509,-0.6778383669292364,-0.0994836814679604,0.006906369506309899,0.011287333082468307
160722000000,360,160722000000,BL_wheel_link,-1.1120188644021687,-25.104672877919338,17.28368588506247,0.07817843606620203,-0.0077516958616605965,-0.010141725042204048
160723000000,361,160723000000,BL_wheel_link,1.1449464100243942,25.085830709081723,0.36844221612522565,-0.10212366750074679,0.01010903359885724,0.009537884156639257
160724000000,362,160724000000,BL_wheel_link,-1.7489701692364188,-24.923342084874957,18.34156056216145,0.07672641147004763,-0.0057299896245170834,-0.010585132819312601
160725000000,363,160725000000,BL_wheel_link,0.7107703182514606,24.978303964781766,0.8489433391070619,-0.09963065839973183,0.007643350407858885,0.010157484613395183
160726000000,364,160726000000,BL_wheel_link,-1.545135660094964,-25.047050594274758,18.61469075095672,0.08055178602421062,-0.005715301694193541,-0.01089126789261732
160727000000,365,160727000000,BL_wheel_link,0.7741598921887598,24.832130289685416,0.9686591814063472,-0.09530447267304014,0.0066350517957461715,0.010530655034788892
