%time,field.header.seq,field.header.stamp,field.header.frame_id,field.wrench.force.x,field.wrench.force.y,field.wrench.force.z,field.wrench.torque.x,field.wrench.torque.y,field.wrench.torque.z
160367000000,0,160362000000,FL_wheel_link,30.778857955629757,8.259696776925486,3.6059021045733655,0.005913337908456658,0.062355031908429996,-0.4230039764952046
160367000000,1,160363000000,FL_wheel_link,-31.109629128535122,-8.220284621797905,5.22732365841335,0.0035116856133272155,-0.058847294867013504,0.42304236946343826
160367000000,2,160364000000,FL_wheel_link,30.41255783939929,8.161874150169028,3.243410820102162,0.0001809760348899316,0.06776077184730979,-0.4226942226821154
160367000000,3,160365000000,FL_wheel_link,-31.775917297696314,-8.403071107070694,4.080679112510535,-0.006218021732933155,-0.06128982535642969,0.4225808465236005
160367000000,4,160366000000,FL_wheel_link,30.533716987394758,8.15800399168509,4.677798589142183,0.00045231636203615125,0.07471672368472188,-0.4225132704583828
160367000000,5,160367000000,FL_wheel_link,-32.33296282265511,-8.441631865944892,3.6939463036958067,-0.008220662740457997,-0.07820089104658003,0.4222846708507176
160368000000,6,160368000000,FL_wheel_link,32.66714041912576,8.22697597293265,3.2158276969872066,0.004274000408708473,0.06904666447888494,-0.4228515167576466
160369000000,7,160369000000,FL_wheel_link,-31.245560493789416,-8.390649146209208,3.2469251239899632,-0.006774815692820251,-0.0739540980073746,0.42309278265500605
160370000000,8,160370000000,FL_wheel_link,32.31897323744448,8.261191512859508,2.9243319471024742,0.005713763427607411,0.06258312422200284,-0.4228924302748258
160371000000,9,160371000000,FL_wheel_link,-30.601841273567164,-8.362449232363275,3.064907425448754,-0.005046653807942352,-0.06604095604884369,0.4228734801505777
160372000000,10,160372000000,FL_wheel_link,31.53090591404242,8.244940098841077,3.2518388371492466,0.004889574974204387,0.059543452086571455,-0.42280438347280824
160373000000,11,160373000000,FL_wheel_link,-30.575993010166645,-8.357408550630874,3.0450551533334975,-0.0046036663234994375,-0.056656378885494116,0.42287602779966926
160374000000,12,160374000000,FL_wheel_link,30.4199997004816,8.231188228924067,3.8365116665047054,0.004475040528943526,0.05765172660362037,-0.42278947567025577
160375000000,13,160375000000,FL_wheel_link,-30.645123728670068,-8.329305511870555,3.612411585867066,-0.002635400724809587,-0.05340052065262814,0.42281518856150363
160376000000,14,160376000000,FL_wheel_link,29.988046568139893,8.22319299846376,4.207083216721365,0.004255553052671847,0.05847944404451416,-0.4227746805774573
160377000000,15,160377000000,FL_wheel_link,-30.833675893200958,-8.35295541942565,3.388055227856964,-0.003964056773164855,-0.05363510411069397,0.42278250074355933
160378000000,16,160378000000,FL_wheel_link,29.996611438846905,8.23155651402966,4.372603024890591,0.004806094475420628,0.05748925342944622,-0.42279910654825525
160379000000,17,160379000000,FL_wheel_link,-30.81676870082895,-8.33014686568582,5.075436763205174,-0.0016253316225570522,-0.04860814454625011,0.42284426153125976
160380000000,18,160380000000,FL_wheel_link,29.618167570943854,8.25249669888292,4.02487766074787,0.005381339956382748,0.045578785007467974,-0.42287592074983155
160381000000,19,160381000000,FL_wheel_link,-29.53447275577867,-8.353148502258284,4.624062749256536,-0.0029843236271938187,-0.044701593381316636,0.4227261225881352
160382000000,20,160382000000,FL_wheel_link,29.603442611189916,8.229970506852501,3.3948179241322762,0.0031751919633404165,0.03860457190429607,-0.4227280218520313
160383000000,21,160383000000,FL_wheel_link,-28.787415948100517,-8.40491492559067,4.126537473604352,-0.005891835860278896,-0.04211577502711353,0.4226227650802098
160384000000,22,160384000000,FL_wheel_link,29.531041159393624,8.193156748388537,3.1109531737793716,0.000942366188718135,0.03715613944189824,-0.4225543871062591
160385000000,23,160385000000,FL_wheel_link,-28.714641311200683,-8.42947971598172,4.005087887854758,-0.006774266551622769,-0.040190797956354975,0.42249755564167124
160386000000,24,160386000000,FL_wheel_link,29.36578516114947,8.188080956717675,3.2423281905606802,0.0016512387188106431,0.0378096187737127,-0.4227439854478145
160387000000,25,160387000000,FL_wheel_link,-28.813438787733954,-8.37789303122004,4.1953949551448115,-0.004498918572300082,-0.03694222601532406,0.42293462952494254
160388000000,26,160388000000,FL_wheel_link,28.820049875521978,8.243145128800062,3.6749846438432496,0.004552704248859706,0.036238276294620744,-0.4227214975449785
160389000000,27,160389000000,FL_wheel_link,-28.77699622759916,-8.297929795662775,4.986291606081405,0.0005858419417941202,-0.03483823617974705,0.4227496268522585
160390000000,28,160390000000,FL_wheel_link,28.631059453771687,8.26041864310508,3.9500917229469152,0.005545667486524707,0.03673468310217932,-0.42277008077393535
160391000000,29,160391000000,FL_wheel_link,-28.980017693828962,-8.2996307300286,4.942984802884576,-5.686578868004551e-05,-0.033678004381344676,0.4229220408983082
160392000000,30,160392000000,FL_wheel_link,28.39443774666154,8.226957860933274,3.6518473806938996,0.0035887680143410986,0.03610132500175881,-0.4228846450967817
160393000000,31,160393000000,FL_wheel_link,-28.789591188302925,-8.401059512699048,4.55213617287761,-0.0052802570006517955,-0.03609695471110771,0.4226630087079193
160394000000,32,160394000000,FL_wheel_link,28.674316677432262,8.20002149980743,3.2793967728048345,0.0016179913817620157,0.03929040475574939,-0.42261624186746194
160395000000,33,160395000000,FL_wheel_link,-29.072285936948635,-8.445585717935579,4.177122028237493,-0.007613789678375185,-0.04079884049873916,0.422516755936223
160396000000,34,160396000000,FL_wheel_link,29.23337843453806,8.213419285230977,3.304305620405324,0.002890907079953259,0.04036393478758843,-0.4227091946409227
160397000000,35,160397000000,FL_wheel_link,-29.00406908267711,-8.403080531501203,4.484653169468792,-0.005580628318089899,-0.0433561624933284,0.42278689510254996
160398000000,36,160398000000,FL_wheel_link,29.478976547221055,8.264148764375253,3.862651341612882,0.005853807880029083,0.0406031851955319,-0.4226904360715484
160399000000,37,160399000000,FL_wheel_link,-29.00274813656451,-8.36836241912506,4.951240664182976,-0.003189481903726325,-0.04356668701787503,0.4226532989796657
160400000000,38,160400000000,FL_wheel_link,29.5321654166246,8.285441048626803,4.468662041519037,0.007445265820326055,0.043439124918610635,-0.42267463969729935
160401000000,39,160401000000,FL_wheel_link,-29.43469182191167,-8.321104231320241,5.616507493593956,-0.000976993708981572,-0.04402193845725251,0.42294170236728723
160402000000,40,160402000000,FL_wheel_link,29.378376408551322,8.245854906780528,4.3450234230402875,0.005305656729393786,0.046601846752505116,-0.4228873096049438
160403000000,41,160403000000,FL_wheel_link,-29.748070198274785,-8.378461699803886,5.245178162523362,-0.003899670830923552,-0.04293877769294343,0.4227289074809399
160404000000,42,160404000000,FL_wheel_link,29.184605059637516,8.197387138757326,3.506207776649067,0.0017734827596150434,0.046764889443385256,-0.42266807802294504
160405000000,43,160405000000,FL_wheel_link,-29.842917249169567,-8.438419626440252,4.3140477785455476,-0.0073653488683140264,-0.04358606889061062,0.4225825625867346
160406000000,44,160406000000,FL_wheel_link,29.36237034021539,8.18902222411305,3.0289108259995743,0.0013861617794960332,0.04324923964020075,-0.4227819382559511
160407000000,45,160407000000,FL_wheel_link,-29.33310369550727,-8.400869450504361,4.077449136516388,-0.005801832908624342,-0.04341653069960392,0.42283870723560246
160408000000,46,160408000000,FL_wheel_link,29.50294434958869,8.21390427448287,3.2928982818314827,0.002782582924506806,0.035925642439748016,-0.42274556939627006
160409000000,47,160409000000,FL_wheel_link,-28.512264604117796,-8.358599823396089,4.357527830294831,-0.0029357905333873818,-0.038565930862081745,0.4226797193346164
160410000000,48,160410000000,FL_wheel_link,29.203649812555174,8.261908970725937,4.168883474603188,0.005999377191705813,0.03353360768126798,-0.42269959879592417
160411000000,49,160411000000,FL_wheel_link,-28.431623835729933,-8.286848151232315,5.729320125188224,0.0015704583779352012,-0.03594449398585052,0.4227946717956414
160412000000,50,160412000000,FL_wheel_link,28.936777918845756,8.246097973729702,4.886459892475047,0.005370242103856058,0.03765628798112479,-0.42297719121683086
160413000000,51,160413000000,FL_wheel_link,-28.982365162563138,-8.328142565045312,5.952410234083746,-0.0009952454144863568,-0.03323293910262359,0.4230343385546651
160414000000,52,160414000000,FL_wheel_link,28.295573201727443,8.180107138583503,4.582060052461623,0.0014554082165245848,0.038448200721405874,-0.42269781012721586
160415000000,53,160415000000,FL_wheel_link,-29.192511371330284,-8.39724891018659,5.347272321023226,-0.004541655004661059,-0.03323355755801938,0.4226367208449199
160416000000,54,160416000000,FL_wheel_link,28.332603395798863,8.152017041007273,3.7043630666465366,-0.0007995152710518878,0.036500327209507966,-0.42259828766621443
160417000000,55,160417000000,FL_wheel_link,-28.967629723893932,-8.430024174956813,4.461561161825927,-0.006387044289305994,-0.03434089198895326,0.42250317893632194
160418000000,56,160418000000,FL_wheel_link,28.667912858928315,8.18402893928014,3.3781134240464508,0.0014361773700749495,0.03126624662408441,-0.42279385868592584
160419000000,57,160419000000,FL_wheel_link,-28.186630801774555,-8.36674165726303,4.004709305653428,-0.003911505113692772,-0.034571057128349965,0.42283266421430094
160420000000,58,160420000000,FL_wheel_link,28.81531196151579,8.260679813932398,3.6921873262666614,0.00526422221493959,0.027883923359973046,-0.4227307051808284
160421000000,59,160421000000,FL_wheel_link,-27.773131328981997,-8.298810010990834,4.79123500180458,0.0004218209873433093,-0.033336398992428004,0.42271236464999296
160422000000,60,160422000000,FL_wheel_link,28.762220142125866,8.273530802384526,4.39060710507202,0.006281741476884888,0.03120740758212178,-0.4226984133148777
160423000000,61,160423000000,FL_wheel_link,-28.31836323276146,-8.298298467102514,5.5933424863548415,0.00026351636454142953,-0.03146622844960375,0.42290633238753905
160424000000,62,160424000000,FL_wheel_link,28.283801553129173,8.203396601441339,4.667321266012207,0.002942557169795898,0.0353254198545907,-0.4228104852003955
160425000000,63,160425000000,FL_wheel_link,-28.83293743341114,-8.38754401117134,5.525057651548841,-0.003923823881224225,-0.03038659034818679,0.4226888811376553
160426000000,64,160426000000,FL_wheel_link,28.03554101988859,8.149307253720302,4.227010706335603,-0.0005633668311294865,0.03617331942449131,-0.42260092920926484
160427000000,65,160427000000,FL_wheel_link,-28.99803280327225,-8.421172865918507,5.1362513869924316,-0.005619693861865555,-0.03272498304262641,0.42254488205585294
160428000000,66,160428000000,FL_wheel_link,28.39844263086353,8.156545397414606,3.706681976451826,-4.371870349676596e-05,0.03346809463276742,-0.4227874564094776
160429000000,67,160429000000,FL_wheel_link,-28.51295887045129,-8.402588148229457,4.1988264148558905,-0.005567122222227741,-0.034342780288352255,0.4227972287891573
160430000000,68,160430000000,FL_wheel_link,28.691479711776577,8.23389282044616,3.715708695798726,0.003942996670961731,0.02917874204154346,-0.42272031615619926
160431000000,69,160431000000,FL_wheel_link,-27.96404213502035,-8.331813622979208,4.715419478638636,-0.0011984121309404332,-0.033031903906786134,0.4226759287384456
160432000000,70,160432000000,FL_wheel_link,28.73236263567203,8.281402471385135,4.141111948016047,0.006744990077433477,0.028385146095599396,-0.4227231678968603
160433000000,71,160433000000,FL_wheel_link,-27.96076104789379,-8.278187606215418,5.342514779143161,0.0015304990908612068,-0.03203491789922757,0.42290344888913733
160434000000,72,160434000000,FL_wheel_link,28.47799399439355,8.244391905394844,4.423988256066331,0.004874899921795126,0.03279267035327543,-0.4228254394440094
160435000000,73,160435000000,FL_wheel_link,-28.490572574100714,-8.350674259371377,5.368703848842731,-0.00219820752852019,-0.029822887612602517,0.4227278268317123
160436000000,74,160436000000,FL_wheel_link,28.056192909239048,8.16847064656041,4.1569285644154075,0.000276134238090081,0.03527907144994675,-0.42261554314661826
160437000000,75,160437000000,FL_wheel_link,-28.91835031880872,-8.413882305351922,5.103157440379862,-0.00545650281187075,-0.030895079592413333,0.4225871582186231
160438000000,76,160438000000,FL_wheel_link,28.163449342308525,8.14608164792411,3.748407797982201,-0.001098409039951032,0.03463600874744565,-0.42254961655229817
160439000000,77,160439000000,FL_wheel_link,-28.80898822726674,-8.413823407660743,4.617719954154375,-0.005514354036878833,-0.03409005977822918,0.4227201348219075
160440000000,78,160440000000,FL_wheel_link,28.57797426774416,8.191155140374525,3.744020286808343,0.0018677987586278016,0.031088498368762367,-0.4228873136306617
160441000000,79,160441000000,FL_wheel_link,-28.173251099178923,-8.36887360939094,4.392392618117102,-0.0034232031175828277,-0.03421257952889923,0.4226556558528922
160442000000,80,160442000000,FL_wheel_link,28.78399760097891,8.263460192801189,4.230372234027978,0.005947110145741777,0.029109539753607375,-0.4226926525624662
160443000000,81,160443000000,FL_wheel_link,-27.96371898998948,-8.288754572172751,5.33531852314927,0.001314945827596525,-0.03390543864490186,0.42273631112932586
160444000000,82,160444000000,FL_wheel_link,28.79527870486349,8.268177553436717,4.646941590140571,0.00613794448609393,0.03357599090217215,-0.4227296245289856
160445000000,83,160445000000,FL_wheel_link,-28.620680924773524,-8.304149050781051,5.620206331134167,-0.0002766655670587232,-0.03283831756065867,0.4229543400163717
160446000000,84,160446000000,FL_wheel_link,28.37586218347642,8.18861367168602,4.366082881457569,0.0020597007870844916,0.03655180264469246,-0.42286462221932236
160447000000,85,160447000000,FL_wheel_link,-28.944152968198797,-8.39201857905698,5.209315258252628,-0.004372005500994502,-0.03140654479895018,0.4226974518909195
160448000000,86,160448000000,FL_wheel_link,28.145197952562533,8.147780192888638,3.721275402790637,-0.0009614872728529321,0.03541926179064382,-0.4226192579374387
160449000000,87,160449000000,FL_wheel_link,-28.863198852390365,-8.425254161592022,4.486665745635173,-0.006214692931369237,-0.033213319893810676,0.4225425922767435
160450000000,88,160450000000,FL_wheel_link,28.495847239625725,8.16656040618804,3.4990002565614633,0.00045562815912433206,0.03261322165025995,-0.42277576486651064
160451000000,89,160451000000,FL_wheel_link,-28.386481539826907,-8.385566927847494,4.1552397922286195,-0.004715322560318452,-0.03422329048170291,0.42279621582727844
160452000000,90,160452000000,FL_wheel_link,28.713139777539066,8.24605311442272,3.868816061737007,0.0046737342171303525,0.02875538725834902,-0.42272468354447523
160453000000,91,160453000000,FL_wheel_link,-27.894485330563903,-8.30444150947755,4.982524891705451,0.00034065080066343227,-0.033865193648794756,0.4226948009294364
160454000000,92,160454000000,FL_wheel_link,28.8035947202327,8.278181489088215,4.618881553386773,0.006806259031720161,0.031332983741125545,-0.42271187426649887
160455000000,93,160455000000,FL_wheel_link,-28.31230709510855,-8.285858217508178,5.781445385678282,0.0010808589318902337,-0.03249999192023936,0.42291769028702275
160456000000,94,160456000000,FL_wheel_link,28.419905349209536,8.217528045359385,4.751703923272621,0.0037393450243240972,0.03510915966130677,-0.42283101685527835
160457000000,95,160457000000,FL_wheel_link,-28.771407154791977,-8.37415237096429,5.514400644557552,-0.003304199092382652,-0.030781465999409466,0.42270690544443223
160458000000,96,160458000000,FL_wheel_link,28.101182413256712,8.152016137056902,4.105130884986182,-0.000576379202484219,0.03596528778618358,-0.4226104252442407
160459000000,97,160459000000,FL_wheel_link,-28.96007122651323,-8.418981545390722,4.979009348228107,-0.005702802415465264,-0.032546732619914566,0.42255784215146297
160460000000,98,160460000000,FL_wheel_link,28.37318974968327,8.145705035005289,3.521967723815187,-0.0008509518013624218,0.03380862441008159,-0.42278142345053427
160461000000,99,160461000000,FL_wheel_link,-28.566294345326174,-8.414263707541464,4.0303577104120425,-0.006272951574401317,-0.033907057558131885,0.4227980338889219
160462000000,100,160462000000,FL_wheel_link,28.623485136718383,8.21799213207273,3.564095658907888,0.003023492529174594,0.029250283311349264,-0.4227166716423274
160463000000,101,160463000000,FL_wheel_link,-27.965828414613465,-8.347041573204734,4.273267940474956,-0.0022309510296647348,-0.033788543589262345,0.4226445814826619
160464000000,102,160464000000,FL_wheel_link,28.811029173226363,8.281020468483835,4.203880722758093,0.006934354086392222,0.028902281636421227,-0.42270861678685656
160465000000,103,160465000000,FL_wheel_link,-27.981596765809183,-8.219154349393678,5.481857083637836,-0.05717936555153114,-0.03324540001745738,0.422808223175277
160466000000,104,160466000000,FL_wheel_link,28.696862810260775,8.211896740823835,4.822115785572268,-0.05398562411691531,0.0349357245789156,-0.42272544631210557
160467000000,105,160467000000,FL_wheel_link,-28.786294824793515,-8.461004113227784,6.090921911662469,-0.062478204865535784,-0.031048157545979296,0.42266116487459776
160468000000,106,160468000000,FL_wheel_link,28.16994916240631,7.941633978903801,5.029196510522859,-0.06153986032556708,0.037468852175397575,-0.42231174064421273
160469000000,107,160469000000,FL_wheel_link,-29.186164802090282,-8.750198705640953,6.549533128415603,-0.04889026423435753,-0.03223713269666736,0.42207515807988977
160470000000,108,160470000000,FL_wheel_link,28.345113686681465,7.687933784062631,5.002505029348171,-0.004441137713447158,0.03280123711768412,-0.4222618688941684
160471000000,109,160471000000,FL_wheel_link,-28.618788894020497,-8.911209894453318,5.7702339130585845,-0.00988097987295609,-0.03546311424443296,0.4218480277706685
160472000000,110,160472000000,FL_wheel_link,29.00592788831076,7.545463627137087,5.023988074521972,0.004491548482671363,0.031172740942517138,-0.42202888307443914
160473000000,111,160473000000,FL_wheel_link,-28.45837182109779,-9.039043351347194,6.446375208313537,0.0014035226073271768,-0.03564055793878607,0.4220298020810939
160474000000,112,160474000000,FL_wheel_link,29.209128651309406,7.357680368764387,5.125656134849738,0.008924648285569362,0.032598291100051746,-0.42230162253737313
160475000000,113,160475000000,FL_wheel_link,-28.67071175311555,-8.8687282439614,4.147645660919241,-0.0010752850108624711,-0.03982786240235617,0.4219421758731183
160476000000,114,160476000000,FL_wheel_link,29.50337288194398,7.5643177572210245,2.3267359680254405,0.0031553007207223436,0.04321946829372151,-0.4209889618100346
160477000000,115,160477000000,FL_wheel_link,-29.867440959509096,-9.041517490343043,4.432474596200556,-0.00320224315660823,-0.038776915329921294,0.42193203730792683
160478000000,116,160478000000,FL_wheel_link,29.371819224903906,7.420917226815827,2.5163740131252186,0.004345921977121675,0.04129892433091179,-0.4217317732580486
160479000000,117,160479000000,FL_wheel_link,-29.841926262847736,-9.090700505543289,4.286580647663676,-0.001968652835228018,-0.03405751538103016,0.42237603715597477
160480000000,118,160480000000,FL_wheel_link,29.053190888239193,7.33252146405466,2.4608007777114462,0.004080864217927592,0.03700098939336072,-0.42252780354802133
160481000000,119,160481000000,FL_wheel_link,-29.435654983304058,-8.9225019285143,3.228165736293288,-0.004392896452466134,-0.034503394107472406,0.4217266695123955
160482000000,120,160482000000,FL_wheel_link,29.07931411451699,7.567614123203715,1.0335202161874748,-0.0019071942920294816,0.03669307906526096,-0.4213245728440416
160483000000,121,160483000000,FL_wheel_link,-29.388937178695144,-9.038108733846888,3.2854860596204447,-0.007972826232117494,-0.03105578441049567,0.4213697813038679
160484000000,122,160484000000,FL_wheel_link,28.834185346770607,7.479182236401433,1.2722439156622456,-0.0020175446933520394,0.031136389711098677,-0.4218229558177012
160485000000,123,160485000000,FL_wheel_link,-28.93975555924873,-9.133765922335026,3.488900380576896,-0.007601500911793601,-0.029368570459109143,0.42125189379422845
160486000000,124,160486000000,FL_wheel_link,28.838046739472148,7.353547612095083,1.748950008283311,0.00031663534740112697,0.026713669819728787,-0.42213788620184384
160487000000,125,160487000000,FL_wheel_link,-28.59308028665138,-9.167481069170295,3.6057249827379954,-0.0059869888530694765,-0.028949873924826636,0.4216549357790577
160488000000,126,160488000000,FL_wheel_link,28.989724960782144,7.017232016307987,2.651907268187784,0.0054584241760763505,0.02394384665641212,-0.42222998815178187
160489000000,127,160489000000,FL_wheel_link,-28.47609537161517,-9.478351627093405,4.484232540160413,-0.0022296207053610993,-0.028068287337945683,0.4224255349934475
160490000000,128,160490000000,FL_wheel_link,29.098479333326598,6.562711391313343,4.027706007013274,0.00953288927420299,0.02560560653055013,-0.4222326482377505
160491000000,129,160491000000,FL_wheel_link,-28.81966433534106,-9.818506601130725,5.571435967321623,3.860845212452165e-05,-0.028423277828533957,0.42272939973876467
160492000000,130,160492000000,FL_wheel_link,29.25852063915481,6.250466635126332,4.714293193188927,0.011102634202667718,0.027589461744148138,-0.42247106573275556
160493000000,131,160493000000,FL_wheel_link,-29.143148283469642,-9.9812023793596,5.961244672317152,0.00016907668317835966,-0.02977690193744111,0.42269094124690887
160494000000,132,160494000000,FL_wheel_link,29.465419673361925,6.12431428950934,4.72966786321287,0.010462814132388271,0.030109316375849775,-0.4223487660206278
160495000000,133,160495000000,FL_wheel_link,-33.45525280330023,17.737732465626195,8.054459278966991,-0.08602336934272063,-0.03233231093955579,0.2515969684567269
160496000000,134,160496000000,FL_wheel_link,9.501143523898225,10.245948421935513,8.06727358932466,-0.07394686231694557,0.03371177882261572,-0.041021528956561214
160497000000,135,160497000000,FL_wheel_link,-3.385782321186141,-16.181753330042728,5.24669848335678,0.11229844339999649,-0.02557944166631562,-0.003831964186112027
160498000000,136,160498000000,FL_wheel_link,1.6555665885430237,11.265306586056193,8.993311545836264,-0.06043609832703153,0.020820445159740082,0.011199261899729534
160499000000,137,160499000000,FL_wheel_link,-1.0166807160980433,-16.505485209765308,5.048871115061469,0.11741765430415131,-0.01607827961702606,-0.012829769928356567
160500000000,138,160500000000,FL_wheel_link,0.5919136785206239,13.331544285039683,8.659318388489256,-0.0665441589308435,0.01294070248614889,0.013144845172370127
160501000000,139,160501000000,FL_wheel_link,0.044056902679857034,13.007593068053062,9.754705819130235,-0.06455381516626552,-0.00878895018926123,-0.001970245329964017
160502000000,140,160502000000,FL_wheel_link,1.3026586313151507,-14.400770901741517,4.258475394704368,0.11188690706711793,0.005493093401836637,-0.01139623165433497
160503000000,141,160503000000,FL_wheel_link,-1.234276016609022,13.329350359764899,9.658101455126543,-0.06431762206632236,-0.003443536103013138,0.013557810486918733
160504000000,142,160504000000,FL_wheel_link,1.2102471632950194,-14.513071584720793,4.474098775698689,0.11029993165019993,0.0025829176635561607,-0.013726564443812766
160505000000,143,160505000000,FL_wheel_link,-1.0470059765780655,13.28961631462201,8.70721907053544,-0.07048934027395516,-0.0009928193957075978,0.013909370248996628
160506000000,144,160506000000,FL_wheel_link,1.0285086205390788,-14.585258643578905,4.520471798938229,0.10672572545810992,0.0008956921374429226,-0.01382682328803568
160507000000,145,160507000000,FL_wheel_link,-0.8876954421757993,13.431201580616355,7.325763656681624,-0.07591475003729917,-0.0004065441152960047,0.013685792361951664
160508000000,146,160508000000,FL_wheel_link,0.9962606687326218,-14.587896543139989,3.113827467661416,0.10121908748072393,-0.00040040304239605555,-0.013636674943116541
160509000000,147,160509000000,FL_wheel_link,-0.7264805311236552,13.288345124543302,5.325912614522226,-0.09022381681872992,-0.0004524376298474821,0.013573822662587411
160510000000,148,160510000000,FL_wheel_link,-0.8867886476802622,12.839553052297067,4.3964737464711385,-0.04408762291388035,-0.0019018741417911604,-0.09525121930064115
160511000000,149,160511000000,FL_wheel_link,-8.313358520125867,-12.583126546096953,4.815742428985046,-0.0036223479321136564,0.0032581102997348136,0.27945173539059703
160512000000,150,160512000000,FL_wheel_link,23.518367869181457,7.602950991261317,5.676211210705188,0.009143431358897698,-0.002602366155350575,-0.3988411111932825
160513000000,151,160513000000,FL_wheel_link,-26.22588723463343,-9.491180988618735,6.400109938287429,0.0008231003387284326,-0.0030851041525373295,0.41864454268239004
160514000000,152,160514000000,FL_wheel_link,27.4486081871075,6.850070614835202,6.537565979574493,0.012481455540092633,0.007471674199838266,-0.42213286217663654
160515000000,153,160515000000,FL_wheel_link,-27.811905497294102,-9.57546446916239,7.1929567419838545,0.0015846389949641904,-0.010533525110070564,0.4228835626281846
160516000000,154,160516000000,FL_wheel_link,28.276274827675056,6.626872054214411,6.386927689898771,0.012513087628476997,0.013463108818621675,-0.4231619644865136
160517000000,155,160517000000,FL_wheel_link,-28.397403355562886,-9.65696449487916,7.09292099686639,0.002258384938770212,-0.019628487918477436,0.42299139173362943
160518000000,156,160518000000,FL_wheel_link,29.26514048100661,6.5176390173639,5.648992317937608,0.011686449724646551,0.01885605020177334,-0.4231839496971349
160519000000,157,160519000000,FL_wheel_link,-28.908790695777714,-9.59709965381733,6.1296563812972344,-0.002011941705997674,-0.0229953544947941,0.423205499827494
160520000000,158,160520000000,FL_wheel_link,29.52400724510163,6.5699635875349855,4.048836779650135,0.004761676010589569,0.023912720355148586,-0.422426008304514
160521000000,159,160521000000,FL_wheel_link,-29.339107290057655,-9.475823416450396,4.693915011108068,-0.008703383638601342,-0.025346962492622097,0.4223731740560245
160522000000,160,160522000000,FL_wheel_link,29.580592128334423,6.749400441951301,2.226572065322078,-0.0028518348673117833,0.027500574415007365,-0.4215106229516526
160523000000,161,160523000000,FL_wheel_link,-29.599653836720627,-9.387971498951675,3.711357570797376,-0.013086177314325933,-0.025595843229105297,0.4214389837192717
160524000000,162,160524000000,FL_wheel_link,29.5492878275748,6.703811151897971,1.4452673767424544,-0.006162822775913708,0.02664620502343296,-0.42136627626908474
160525000000,163,160525000000,FL_wheel_link,-29.482151758726623,-9.409476045355854,3.7285681431842184,-0.012756481615986425,-0.02307279178316025,0.4221741192264682
160526000000,164,160526000000,FL_wheel_link,29.431382754309688,6.797829012058842,1.7092835661931711,-0.0019242216165171488,0.023488364853483185,-0.423413787633521
160527000000,165,160527000000,FL_wheel_link,-29.44608625198066,-9.460710483363695,4.1134238107382695,-0.007938896265529842,-0.020693637517671365,0.42331836544544144
160528000000,166,160528000000,FL_wheel_link,29.324699254423507,6.825493442215546,2.3099909425163165,0.0010528675562748453,0.019857190764377107,-0.4238631198431854
160529000000,167,160529000000,FL_wheel_link,-29.16586340956433,-9.407307751372201,4.800605893184872,-0.004050746789514685,-0.021162655670798267,0.42321323303114444
160530000000,168,160530000000,FL_wheel_link,29.400238007703525,6.877268071455413,3.245823578622657,0.0077808348792818465,0.019403494539877008,-0.42423496993216553
160531000000,169,160531000000,FL_wheel_link,-29.335729397765647,-9.366900888279423,5.612468972157965,0.0009208243886313223,-0.018833251759465836,0.4244881818838459
160532000000,170,160532000000,FL_wheel_link,29.27800015621906,6.806187424954252,4.252976364036097,0.01262761861365451,0.018410671615673665,-0.42452194378476055
160533000000,171,160533000000,FL_wheel_link,-29.3862265106188,-9.439101881237665,6.323119156899381,0.003830828895370781,-0.018018803455225565,0.4245462819667695
160534000000,172,160534000000,FL_wheel_link,29.307469430183666,6.657890250931605,4.866318683540823,0.01436392589515943,0.018142032023746632,-0.4245765862853729
160535000000,173,160535000000,FL_wheel_link,-29.468759252292198,-9.564665664743181,6.656123021363615,0.0033529641490603664,-0.01870774278333258,0.42456191623065176
160536000000,174,160536000000,FL_wheel_link,29.49775885595162,6.4878371386973885,4.871439753670212,0.012175714119022494,0.01857091779451976,-0.4245516364550497
160537000000,175,160537000000,FL_wheel_link,-33.58199414786374,18.108302680603394,7.662171996241504,-0.08491681831569825,-0.0256843004223137,0.25392092112901177
160538000000,176,160538000000,FL_wheel_link,7.315683503689247,10.815109408841042,7.08923695698706,-0.026337911550809088,0.029179959865870218,-0.13776923355653906
160539000000,177,160539000000,FL_wheel_link,-12.593337933790075,-12.94924849836498,8.211133798968968,0.01438227260407861,-0.018493419064919497,0.2891115017048815
160540000000,178,160540000000,FL_wheel_link,26.070212694267816,6.704779950723677,6.540072810795383,0.028715215478448308,0.010099250287557603,-0.40193367600348967
160541000000,179,160541000000,FL_wheel_link,-28.272884769684655,-10.016985345505304,8.041509759373119,0.018095950526409908,-0.01029902391420444,0.4212422334904573
160542000000,180,160542000000,FL_wheel_link,28.940725818562786,6.0377188456849815,6.575318155437974,0.029434546253926608,0.009657781982227727,-0.42433562976254025
160543000000,181,160543000000,FL_wheel_link,-28.94385301797687,-10.005295671924143,7.902461960253246,0.016918805642312233,-0.01158904838585148,0.42509741437935644
160544000000,182,160544000000,FL_wheel_link,29.319281792860107,5.894582597890628,6.274847431084,0.02662006450641686,0.013254387135959922,-0.4252238333756469
160545000000,183,160545000000,FL_wheel_link,-29.438055518468442,-9.784815320471017,6.580936971599566,0.009890679096127472,-0.014563947028214778,0.4247979393552861
160546000000,184,160546000000,FL_wheel_link,29.48549108701132,6.281274448704632,3.7554777691597265,0.012076089179101022,0.01826592365315886,-0.4239351173658106
160547000000,185,160547000000,FL_wheel_link,-30.842819821005293,-11.66272308748983,4.920190847969893,-0.03490317101141383,-0.022078029829289116,0.37068597413905185
160548000000,186,160548000000,FL_wheel_link,22.106319305008366,8.358591955103218,1.2887471715077847,-0.0034404120170194712,0.02063896072978241,-0.36141641196038854
160549000000,187,160549000000,FL_wheel_link,-27.957764798858204,-9.433200548136902,3.670631903980467,-0.013252166211792092,-0.01820689069786395,0.41185509528800907
160550000000,188,160550000000,FL_wheel_link,29.20828333710568,6.829384515829956,1.578346878868783,-0.00498216878200471,0.013364021471485462,-0.4198766364460977
160551000000,189,160551000000,FL_wheel_link,-28.88180867995112,-9.542296416805764,4.455851505771343,-0.012158172753347829,-0.015932282462900592,0.4216760083336219
160552000000,190,160552000000,FL_wheel_link,29.467847139754973,6.337125055043648,2.891370755485165,-0.0011875052318232626,0.01194021079276849,-0.4220202183269563
160553000000,191,160553000000,FL_wheel_link,-29.001198197259132,-9.853721669322029,5.569317512465132,-0.008468394763090364,-0.014835086866697166,0.4227791383735742
160554000000,192,160554000000,FL_wheel_link,29.48542118283345,6.066653117216191,3.8289793838421375,0.002452489693856713,0.012575394342935833,-0.4229863849907707
160555000000,193,160555000000,FL_wheel_link,-29.289918328990844,-10.069687516828973,6.453675079510315,-0.00596969701258347,-0.013291131626419405,0.42381365935517223
160556000000,194,160556000000,FL_wheel_link,31.451586565464027,5.702215175097451,6.230130191766856,-0.03714143567037637,0.01842642839947609,-0.3372679862025818
160557000000,195,160557000000,FL_wheel_link,-21.299467552176573,15.119272989953865,8.501048726510568,-0.08372639063966243,-0.023833104745790704,0.15319971975967597
160558000000,196,160558000000,FL_wheel_link,5.894157003108553,-2.104418046026873,4.8423302145530345,0.09605138118110697,0.029325759751572023,-0.06775835082163584
160559000000,197,160559000000,FL_wheel_link,-8.52391617207715,12.618062518946987,9.198185889337362,-0.06807292593711883,-0.019760260486819597,0.05363240457824762
160560000000,198,160560000000,FL_wheel_link,-0.29270765662729203,11.06499983754202,5.509674208254616,0.03005661333433994,0.00967827993410949,-0.19231560832829878
160561000000,199,160561000000,FL_wheel_link,-22.9152289814021,-9.67307957187575,7.862968103389804,0.018939117070078546,0.005331791026994385,0.3848288268470019
160562000000,200,160562000000,FL_wheel_link,26.83813771762951,7.6198942322282335,6.806899616141397,0.030561994644184635,-0.0061290262515957174,-0.41773458748645487
160563000000,201,160563000000,FL_wheel_link,-27.647969096936393,-8.797799759984835,7.896994050069868,0.018611274073216198,0.007475997504465177,0.42318347916575966
160564000000,202,160564000000,FL_wheel_link,27.784408427397942,7.451142548509872,6.810597203652714,0.028963950235250644,-0.005107479608828303,-0.4241193743645711
160565000000,203,160565000000,FL_wheel_link,-27.996705746964146,-8.844158234273559,7.652072063844603,0.014876454163101228,0.00471209414509614,0.4239315460531238
160566000000,204,160566000000,FL_wheel_link,28.208133665621588,7.307519533138038,6.0001829293215305,0.02345071370941243,-0.0040941590548533155,-0.4244411529651752
160567000000,205,160567000000,FL_wheel_link,-29.394878662883922,-11.24731944573891,6.965324823055112,-0.018776338421756748,-0.00010308189373981338,0.37234755047579454
160568000000,206,160568000000,FL_wheel_link,25.12063477410717,8.712087458593103,5.73787141034991,-0.08042747271431835,0.014566105941635498,-0.18223281969255406
160569000000,207,160569000000,FL_wheel_link,-1.4560467282767169,-14.212235542210674,7.320818468376953,0.009500886335436848,-0.009455384793524348,0.2019803228552249
160570000000,208,160570000000,FL_wheel_link,23.272827778465324,7.935726649012373,6.129380389709256,0.02337289982232382,-0.0034575966307710247,-0.3870313148695969
160571000000,209,160571000000,FL_wheel_link,-27.364504977355427,-9.069483606830751,7.735303720819962,0.012090860234753538,0.005365137015138465,0.41744827536622675
160572000000,210,160572000000,FL_wheel_link,27.989018630490996,7.1995346797145245,6.5355280725605756,0.02271745485717283,-0.005351997877913913,-0.4234201847634934
160573000000,211,160573000000,FL_wheel_link,-28.289032457328027,-9.379161167792857,6.507884327721326,0.00695924283355702,-0.0011379528873710573,0.4244757148554764
160574000000,212,160574000000,FL_wheel_link,29.051571446745623,6.609089635910453,4.364306123343793,0.014632978763889387,-0.0005269965900569024,-0.42386337585949224
160575000000,213,160575000000,FL_wheel_link,-28.71404032138881,-9.416605011648869,5.611377331429883,-0.0013294651714853712,-0.0031390050987953086,0.4240625701402545
160576000000,214,160576000000,FL_wheel_link,29.118042798207146,6.611345065140965,2.824228515132533,0.003399900493693751,0.0037320347636347192,-0.4233349834130762
160577000000,215,160577000000,FL_wheel_link,-29.065066526948645,-9.360261141971419,4.436323656720084,-0.010860333172481208,-0.005911507773953693,0.4232950855056822
160578000000,216,160578000000,FL_wheel_link,29.243303074578204,6.690927493494263,1.3961930087078072,-0.004965343408097119,0.00429329909634624,-0.42297830408685555
160579000000,217,160579000000,FL_wheel_link,-29.11693494556619,-9.391356368259938,4.173176499875978,-0.015370571415869626,-0.003788648363093159,0.4234349775899267
160580000000,218,160580000000,FL_wheel_link,29.083551613152764,6.603967607864883,1.4220571866027047,-0.006350467815136457,0.001426071368058023,-0.42320672312117336
160581000000,219,160581000000,FL_wheel_link,-28.91574224547947,-9.58344386464999,4.6085548790123365,-0.014052858524672904,-0.00013329188363204962,0.4236221414587341
160582000000,220,160582000000,FL_wheel_link,28.895568583897692,6.226253540033412,2.424737295974681,-0.0029658520488660928,-0.0001167986562773148,-0.42362684551000407
160583000000,221,160583000000,FL_wheel_link,-28.89411343265846,-9.840289036306318,5.408357289301537,-0.009763431675282517,-0.0009404744153452593,0.4238102796178692
160584000000,222,160584000000,FL_wheel_link,29.073617171899603,6.197087871829165,2.4582363541608707,-0.0003887045698719363,-0.0011625576162718088,-0.42456574841717654
160585000000,223,160585000000,FL_wheel_link,-28.946542715762163,-9.799799117467781,5.408961350819375,-0.0077172801410733995,-0.0005081487270416322,0.4246177929802326
160586000000,224,160586000000,FL_wheel_link,29.042629868238045,6.256568070870074,2.8858156289246097,0.002435581189040401,-0.0002668035497543618,-0.42474710380244146
160587000000,225,160587000000,FL_wheel_link,-29.184702391870516,-9.739261986510618,5.82482064546469,-0.0057220709801774575,0.0013164405041572028,0.42476557939665643
160588000000,226,160588000000,FL_wheel_link,30.89601216359433,6.311771141504302,4.842584832831899,-0.038908762876733796,0.0066159259750807565,-0.3366205429376094
160589000000,227,160589000000,FL_wheel_link,-20.82932837532448,15.524308168216253,7.720476236569388,-0.08057828002061987,-0.013919911959510995,0.1515957048388934
160590000000,228,160590000000,FL_wheel_link,5.711769942830514,-16.17201426237039,5.032509867928013,0.10758995278075063,0.02513689801285652,-0.038818164932050425
160591000000,229,160591000000,FL_wheel_link,-4.037418463913312,12.798103151408334,9.10263776774286,-0.06681984662925175,-0.014443144151292041,0.019388663326808685
160592000000,230,160592000000,FL_wheel_link,2.331659732045965,12.72742375257784,9.583968446220819,-0.06024733271713213,0.016811811828370767,-0.00611205325916784
160593000000,231,160593000000,FL_wheel_link,-1.264084083044612,-14.730346753669963,8.427197483498704,0.12123183601936958,-0.011924681650430617,-0.008422800552095955
160594000000,232,160594000000,FL_wheel_link,0.1366078088802527,15.161257814357738,9.771792274437267,-0.0592260674705097,0.011100270702120208,0.011313371725048564
160595000000,233,160595000000,FL_wheel_link,-0.054123307474018154,-12.890640375343038,7.70778144984607,0.11623319801842283,-0.00758515846245297,-0.012471694641319933
160596000000,234,160596000000,FL_wheel_link,-0.2700892816771277,15.119423878716852,9.274427277441204,-0.06082943935659766,0.0061180138291541675,0.012938641623402088
160597000000,235,160597000000,FL_wheel_link,0.49587433174754025,-13.035988813688634,7.156994708269575,0.11422857533510114,-0.005126979596841675,-0.01305358730131622
160598000000,236,160598000000,FL_wheel_link,-0.4030167988335837,14.77205917146884,7.4248283307910805,-0.06929649133528804,0.003008804565158402,0.013143276604329346
160599000000,237,160599000000,FL_wheel_link,1.1171687054952038,14.208557634918515,6.717950047398349,-0.07106936147577494,-0.005901764974773285,-0.0012795299977373768
160600000000,238,160600000000,FL_wheel_link,1.144077720760903,-13.457785916811822,5.109006503301546,0.10365290589691256,0.005530036302091371,-0.011958173465419436
160601000000,239,160601000000,FL_wheel_link,-1.372373350672651,14.491947930900908,7.086542603159943,-0.0737453866769549,-0.0003069220810592172,0.013491255478324714
160602000000,240,160602000000,FL_wheel_link,0.8951842762597817,-13.624059865051391,4.9428624542638175,0.10244765195084754,0.002381992242977157,-0.013939775538125952
160603000000,241,160603000000,FL_wheel_link,-1.165032349263273,14.295585246536291,6.034665466845406,-0.07613468246568451,0.0005514415346410436,0.013619233378865937
160604000000,242,160604000000,FL_wheel_link,0.9274223914275016,-13.791549637037797,3.8064078731850257,0.09987727633562489,-0.00018734190661818468,-0.013781173554815273
160605000000,243,160605000000,FL_wheel_link,-0.8792946023556143,14.186845306441645,4.668820740965931,-0.07993332557299683,0.0019353507270571293,0.013250272368386287
160606000000,244,160606000000,FL_wheel_link,0.8370109348217663,-13.996978201099406,3.0537674089716464,0.09554433198897197,-0.002132251433352004,-0.013098500809185632
160607000000,245,160607000000,FL_wheel_link,-0.5891719683578693,13.890109907527298,3.567266720763835,-0.0907429983919741,0.0002904541373558399,0.013324531464149398
160608000000,246,160608000000,FL_wheel_link,1.1010530353566221,-14.355906834809238,2.006032403391954,0.08389800299394927,-0.0024273344976737093,-0.013010634644065065
160609000000,247,160609000000,FL_wheel_link,-0.5754853048507852,13.72204243310583,3.3101874636702484,-0.09664817602140896,0.004452768947607996,0.012826697434249235
160610000000,248,160610000000,FL_wheel_link,0.5866905080491578,-14.440704445063258,1.7250872620933915,0.07948724698643225,-0.0009741989670527649,-0.013382813855330446
160611000000,249,160611000000,FL_wheel_link,-0.852651427757309,13.647139316519105,3.4648133781657036,-0.09646316995013082,0.0036702483406711984,0.012896247749588158
160612000000,250,160612000000,FL_wheel_link,0.6195747394236499,-14.500669027990995,1.8479167598139752,0.07984434989846194,6.332430665228163e-05,-0.013618200500051253
160613000000,251,160613000000,FL_wheel_link,-0.9644950323820359,13.619016451769383,3.773360234954508,-0.09525044055697345,0.0030751117000863883,0.012953507168210232
160614000000,252,160614000000,FL_wheel_link,0.6776181260361528,-14.541817524751924,2.2071561433047666,0.08153658362670511,2.680968065686538e-05,-0.01366014418910616
160615000000,253,160615000000,FL_wheel_link,-0.9511739960843261,13.59108694986855,4.186560557871038,-0.09326351692183937,0.002777646004789233,0.013021264007998534
160616000000,254,160616000000,FL_wheel_link,0.7510862870154937,-14.576385746230331,2.730054284907496,0.08446041359282179,-0.0012568007061802102,-0.01331645353501742
160617000000,255,160617000000,FL_wheel_link,-0.7568054071851504,13.552848731429352,4.664962196057586,-0.09025230306039014,0.002587044789592697,0.013099247974471902
160618000000,256,160618000000,FL_wheel_link,0.8754274391277133,-14.635006844233303,3.008581508288322,0.08695696710203402,-0.003051302010779143,-0.01308318244539612
160619000000,257,160619000000,FL_wheel_link,-0.502037679711724,13.49567852738394,4.841361390815083,-0.08790962595326367,0.0024077290255518414,0.013238282182671318
160620000000,258,160620000000,FL_wheel_link,1.0387179480623687,-14.674833185262296,3.1004096072678475,0.0902863806576473,-0.006594259749006267,-0.012696708207472747
160621000000,259,160621000000,FL_wheel_link,-0.04188236146073811,13.459638493215348,4.776533164220951,-0.08466471625729023,0.0017086896029496542,0.013421358333269757
160622000000,260,160622000000,FL_wheel_link,-0.6739224701172772,-1.2172913791360105,2.584305761277892,0.05176876427900863,-0.013580537316549134,-0.09180839285536849
160623000000,261,160623000000,FL_wheel_link,-11.33235220489568,15.52764883034987,4.638405412737067,-0.08312524365817395,0.009090642760579424,0.10594605192252125
160624000000,262,160624000000,FL_wheel_link,3.327496181695881,-15.244126239762819,3.7271510107238166,0.09267421639645362,-0.005378321625664886,-0.028092504670360695
160625000000,263,160625000000,FL_wheel_link,-0.5534405623304361,13.304019038958316,5.5021349953170375,-0.08240883117349487,-0.0009550848112157874,0.016471844992865137
160626000000,264,160626000000,FL_wheel_link,1.510132071268743,-14.98695442872481,3.688448164297388,0.09380207177372543,-0.0042915980733093575,-0.013445341490803153
160627000000,265,160627000000,FL_wheel_link,-0.29850274691888223,13.135778547881307,5.461687218760316,-0.08375568121106208,0.0026710320844137003,0.013274766779549963
160628000000,266,160628000000,FL_wheel_link,-1.0333961465192236,-1.9606366775989403,3.346269466798393,0.050732761149749186,-0.011939973567660888,-0.09543883572232044
160629000000,267,160629000000,FL_wheel_link,-12.199561186312682,15.287088714074043,5.232625814979798,-0.08287468606517129,0.010778419072603775,0.10949432590364767
160630000000,268,160630000000,FL_wheel_link,3.103308429099869,-15.521101901317401,3.892204546774016,0.09397546400988063,-0.002768781869844126,-0.02909838184695151
160631000000,269,160631000000,FL_wheel_link,-1.0111248715260546,13.065087374273938,5.584222856603039,-0.08148769935526937,0.000316254743144203,0.016285266824229122
160632000000,270,160632000000,FL_wheel_link,1.171645930850676,-15.237101215711718,3.898249127658914,0.09492556740538098,-0.0008472272073563893,-0.013762920733165606
160633000000,271,160633000000,FL_wheel_link,-0.7216818899601013,12.942675200979064,5.564681492469318,-0.08076461014391911,0.00031860224906462946,0.013576044196255809
160634000000,272,160634000000,FL_wheel_link,-0.8306367483412331,12.503075212572911,4.056391662655807,-0.03318180445678143,-0.008744324770429345,-0.09424636044877022
160635000000,273,160635000000,FL_wheel_link,-8.309557083448809,-12.562720126795295,7.388119957671813,0.009841775215028279,0.026740115549705828,0.2760338077268305
160636000000,274,160636000000,FL_wheel_link,23.1692682983482,7.602833105274213,3.944832404276606,0.018205218317466534,-0.03779439630054994,-0.39497361205381115
160637000000,275,160637000000,FL_wheel_link,-25.76105547830972,-9.393575048412771,7.11992096406728,0.015412271635269814,0.03721208997136446,0.41501172322896174
160638000000,276,160638000000,FL_wheel_link,26.618007132843076,8.290867881567854,3.83608888412466,0.020032913568023454,-0.03881953568309321,-0.4182540298023171
160639000000,277,160639000000,FL_wheel_link,-26.417507915554328,-7.94522094653765,6.847296964775936,0.01349959764623014,0.03607749247849262,0.41975032756551417
160640000000,278,160640000000,FL_wheel_link,26.973717084264283,8.331863521909746,3.6111598996839627,0.018820022691299513,-0.03765502429774182,-0.4196803389440567
160641000000,279,160641000000,FL_wheel_link,-26.59756334883179,-7.9205834886560655,6.781564520020889,0.011995463104797434,0.033899763364516194,0.4202067427631792
160642000000,280,160642000000,FL_wheel_link,27.207241103833557,8.224734404730082,3.3497240279657547,0.015159867578491916,-0.03677882928648222,-0.41958044474560013
160643000000,281,160643000000,FL_wheel_link,-26.678949849680087,-8.151490055065405,6.7089176842432625,0.007431368956704894,0.03244987102263953,0.42052969008613844
160644000000,282,160644000000,FL_wheel_link,27.43396816042445,7.970473207192214,3.1352800121682733,0.00971433810898937,-0.03720192916322314,-0.41948737344251097
160645000000,283,160645000000,FL_wheel_link,-26.60353034568014,-8.360630459739783,6.685278172781854,0.0024119476354714903,0.0300418498562572,0.42100288159307603
160646000000,284,160646000000,FL_wheel_link,27.78295729093457,7.805652597708994,3.0711122238931403,0.006664184759660003,-0.03709518865790532,-0.41947244493589475
160647000000,285,160647000000,FL_wheel_link,-26.660037965040978,-8.48718500904638,6.678453353016158,0.0007023690526453091,0.032554608356605064,0.4208984466376917
160648000000,286,160648000000,FL_wheel_link,27.54496665500996,7.685621817329801,3.078432231590061,0.005435805414791377,-0.0372006860052038,-0.41967270253224104
160649000000,287,160649000000,FL_wheel_link,-26.796276307198923,-8.601960821972698,6.681837919891165,-0.0006278970475824275,0.03456931675488971,0.420550884205276
160650000000,288,160650000000,FL_wheel_link,27.326826155820488,7.605569677094485,3.216676498300943,0.004698137671816824,-0.03723419217985407,-0.4196609714080199
160651000000,289,160651000000,FL_wheel_link,-26.899780739307257,-8.698847162615628,6.729388310750901,-0.001653197832586936,0.03617155446310868,0.4202604728076123
160652000000,290,160652000000,FL_wheel_link,27.16844876068238,7.492341116108922,3.2060295988154586,0.0033280569393537673,-0.03672675784358165,-0.4198020545851068
160653000000,291,160653000000,FL_wheel_link,-31.04018997062705,18.94313954110192,4.986890252058969,-0.08709853030308361,0.018232940191584137,0.25140138050128036
160654000000,292,160654000000,FL_wheel_link,2.9153274555866777,11.983323134997283,2.660471876320589,0.004576569388457082,-0.016801901982491374,-0.22337164560905934
160655000000,293,160655000000,FL_wheel_link,-22.554862652972705,-9.522674171441583,7.28210967542526,0.0007931969750370201,0.0359482568620592,0.38662778357500516
160656000000,294,160656000000,FL_wheel_link,26.16824866051796,7.586594939858579,4.179223916017445,0.007926108551593735,-0.040655472218849284,-0.41338111340143474
160657000000,295,160657000000,FL_wheel_link,-26.563571649112063,-8.817164009942122,8.31069140197302,0.00492703206830464,0.03971693411208003,0.41814131813344163
160658000000,296,160658000000,FL_wheel_link,26.81695182573476,7.368241316766424,5.767718226709201,0.012794544318588454,-0.03954842366984354,-0.41872252690103967
160659000000,297,160659000000,FL_wheel_link,-26.887840867992495,-9.030700828508156,9.93833314336683,0.008096464712399451,0.04310464330719767,0.41883772633547656
160660000000,298,160660000000,FL_wheel_link,26.498246763861754,7.156981396313601,7.2325055631072095,0.015656340557217697,-0.039244934288246276,-0.41921743617828866
160661000000,299,160661000000,FL_wheel_link,-26.989234917251302,-9.210898362262393,10.78634896895033,0.009862474667904464,0.044349019596023186,0.41821724762893203
160662000000,300,160662000000,FL_wheel_link,26.337184448779986,6.765802511640202,8.714712090821111,0.018799268807194715,-0.03677690091161747,-0.41903457279343204
160663000000,301,160663000000,FL_wheel_link,-30.432485644132516,0.9009837221016193,11.543340082587754,-0.058541524580358495,0.027308572863854377,0.2826422404588992
160664000000,302,160664000000,FL_wheel_link,11.364115377541614,10.276033788752459,10.899887583287072,-0.07193510166512782,0.005147571751387147,-0.0825326313124707
160665000000,303,160665000000,FL_wheel_link,-2.6096071730378063,-16.011992101074334,10.482063376066074,0.10602918155243901,-0.004755434320444764,0.004115862428724493
160666000000,304,160666000000,FL_wheel_link,0.07723886647500501,11.86215124188424,10.752932785819976,-0.06976953897002061,0.011841133547643747,0.007348641510420223
160667000000,305,160667000000,FL_wheel_link,-0.32197113627029395,-16.56535115488717,10.336653110396822,0.10823452737400407,0.00042798672455888337,-0.011858851252279017
160668000000,306,160668000000,FL_wheel_link,-0.9775653224290807,12.146208201428577,9.249386546699002,-0.07133388193833053,0.007252611147143392,0.010304492135105953
160669000000,307,160669000000,FL_wheel_link,0.41350424320428986,11.641610619945174,9.945309237246367,-0.0690965705130624,0.0035257392188849457,-0.002657845083388942
160670000000,308,160670000000,FL_wheel_link,0.0359582186146304,-16.786769563192706,10.0045336037915,0.10633026711798327,0.008208136889141956,-0.011592191729624916
160671000000,309,160671000000,FL_wheel_link,-1.7525582424519028,11.964588274054998,9.513324828908845,-0.0711720922066181,0.0017723476928891723,0.010622382334381725
160672000000,310,160672000000,FL_wheel_link,0.5249965583494863,-16.542547092979458,11.517711308812244,0.1125416430715148,0.009528077135399719,-0.01576515977856404
160673000000,311,160673000000,FL_wheel_link,-2.0831077456291247,12.777986630128785,7.649862654954055,-0.07367769659188324,-0.006822202983228342,0.01225171493351101
160674000000,312,160674000000,FL_wheel_link,-0.4601270447602628,12.192768452038656,4.963564345515869,-0.025516384513796883,-0.007364952441611168,-0.09773619799021928
160675000000,313,160675000000,FL_wheel_link,-9.221059657146606,-13.518475844246517,9.112712868672084,0.01691179931210678,0.027206634252860244,0.28019860096611326
160676000000,314,160676000000,FL_wheel_link,24.08095092659935,6.673431569100724,4.738566319109937,0.024465669736313735,-0.0517992442509203,-0.3945570850142625
160677000000,315,160677000000,FL_wheel_link,-25.538585152298385,-10.363118154305095,7.6174578298404585,0.017394660035736875,0.04376499593862479,0.4155765580052108
160678000000,316,160678000000,FL_wheel_link,27.304463673167803,6.538417137796942,2.6876648799988385,0.01861910243250357,-0.05377319541273091,-0.41759267857499066
160679000000,317,160679000000,FL_wheel_link,-26.237830249356097,-9.586554884309823,5.358524201464937,0.005682058979906646,0.043881720843951755,0.4220158010522128
160680000000,318,160680000000,FL_wheel_link,27.651850237952022,7.108149044676777,0.6171192478006676,0.006081298137422272,-0.049895556221005354,-0.41909105474255953
160681000000,319,160681000000,FL_wheel_link,-26.630897406625355,-9.090216378640596,3.452782458344831,-0.0038310787133838285,0.04164765918709899,0.420368050919523
160682000000,320,160682000000,FL_wheel_link,27.522316222431467,7.53385366713709,-1.08195831578225,-0.002188092699827323,-0.046761569235768095,-0.4186570860585558
160683000000,321,160683000000,FL_wheel_link,-26.981510366218323,-8.71789592028312,2.8766206528664884,-0.012343925590167056,0.04341179413170311,0.4222347374593711
160684000000,322,160684000000,FL_wheel_link,27.62859091936929,7.602319545382576,-0.8849920597140875,-0.008032476490845916,-0.04485665812019429,-0.41974667213034716
160685000000,323,160685000000,FL_wheel_link,-27.141627817869576,-9.04868236470325,3.824682352884047,-0.014488378386658096,0.04542689718738861,0.4195572345055177
160686000000,324,160686000000,FL_wheel_link,27.36386935635381,7.421028814753907,0.7845694270212872,-0.010245243550401488,-0.04593565889191373,-0.42051311745293474
160687000000,325,160687000000,FL_wheel_link,-27.341485393356564,-8.996017831468645,5.739819179425382,-0.016858839947232643,0.04256286926606453,0.41985111855790885
160688000000,326,160688000000,FL_wheel_link,27.494235541478407,7.604947749784341,2.463120307795378,-0.010584649681231696,-0.04371892133842173,-0.4207925792192143
160689000000,327,160689000000,FL_wheel_link,-27.80525983494471,-8.7430670765008,7.807364498016181,-0.01364873749438646,0.043532135628519535,0.4205312911861926
160690000000,328,160690000000,FL_wheel_link,27.30000717211434,7.711367595732744,4.03411223029488,-0.00713082725324392,-0.04230931799947753,-0.42099961515057405
160691000000,329,160691000000,FL_wheel_link,-28.087644543339497,-8.741565995409728,8.575852819893981,-0.010149700411170241,0.04360389639259058,0.42064330648981146
160692000000,330,160692000000,FL_wheel_link,27.321768342300068,7.664338143484927,4.056226386336407,-0.0011605632477549818,-0.04426798605131426,-0.42050037340025587
160693000000,331,160693000000,FL_wheel_link,-27.863492025825803,-8.849883462327883,8.735708356881434,-0.0009872739111262583,0.042000504104750785,0.4215072089549964
160694000000,332,160694000000,FL_wheel_link,27.724601858890928,7.655481369744611,4.00053238132539,0.00787315366568078,-0.04527077873087254,-0.42043447473616224
160695000000,333,160695000000,FL_wheel_link,-27.63414195484657,-8.921075624829928,6.268051086352421,0.0019900720593709455,0.03736738138657192,0.4220497340971162
160696000000,334,160696000000,FL_wheel_link,28.318699627648282,7.467673301260736,1.4430978777959724,0.009449385097267022,-0.045339513630433675,-0.41987995783571486
160697000000,335,160697000000,FL_wheel_link,-27.613763931719692,-8.90463184638611,6.17959072334232,0.006068976052971307,0.040820634949289114,0.4218228579127292
160698000000,336,160698000000,FL_wheel_link,28.032117773776065,7.463952805944766,1.406575681198119,0.012192798469860247,-0.045149966905777654,-0.41998428176415736
160699000000,337,160699000000,FL_wheel_link,-27.773760448347932,-8.948307196524272,6.181230230678181,0.006444040213062276,0.043146901931928064,0.420933936958869
160700000000,338,160700000000,FL_wheel_link,27.76769610092675,7.431517403016882,1.4970482893299284,0.01157798531203273,-0.04404004843254516,-0.4200543451952967
160701000000,339,160701000000,FL_wheel_link,-32.03591627444432,19.062851687489296,3.1701924612768333,-0.08004895794494396,0.0205664561928547,0.252043657781914
160702000000,340,160702000000,FL_wheel_link,7.471391254181595,12.239560037209618,3.4673182021416475,-0.07563093435970697,0.008759257268324322,-0.04497160635317142
160703000000,341,160703000000,FL_wheel_link,-1.9805881128583545,-14.243280528238225,4.347609319177928,0.0979367052770186,-0.005563276138473389,-0.0013842154576410824
160704000000,342,160704000000,FL_wheel_link,-0.5876690474330201,14.817830395944073,4.68548369168463,-0.07755325889408947,0.01368087704762642,0.005486721385659939
160705000000,343,160705000000,FL_wheel_link,-1.2125551556020628,-13.093812299939723,7.759816318743049,0.10339503350941309,0.004175906783247151,-0.012868170652774775
160706000000,344,160706000000,FL_wheel_link,-2.207067077680347,15.598793771167232,7.567036597045647,-0.07153882448931977,0.01188279143826555,0.008786775722951971
160707000000,345,160707000000,FL_wheel_link,-1.0338570022965272,-13.072036101207287,8.27910246463776,0.1053786997365233,0.001803717565033805,-0.01338091975419202
160708000000,346,160708000000,FL_wheel_link,-1.9301024273529837,15.695323346043056,7.432898713377654,-0.07112577931044793,0.009830658321689514,0.008885210450885386
160709000000,347,160709000000,FL_wheel_link,-0.8133531784156381,-13.104028248550547,8.275784668536016,0.10379567459137104,0.004319797722713132,-0.012379595101792505
160710000000,348,160710000000,FL_wheel_link,-1.9520361836322786,15.492644738786215,6.566062465414453,-0.07464632348322259,0.008014970727300364,0.009332682863209391
160711000000,349,160711000000,FL_wheel_link,-0.18670239016483398,15.320976082643496,7.1090668335827205,-0.07187651550721962,0.0026470792099711708,-0.0029443772930398053
160712000000,350,160712000000,FL_wheel_link,-0.3850927630685855,-12.495772662872168,10.658954301772527,0.11255630397118283,0.007219698504061137,-0.012050420609987044
160713000000,351,160713000000,FL_wheel_link,-1.9466760736734985,16.17566730913001,9.116430580778022,-0.0673188492848102,-0.0019578057528956473,0.012025771622748462
160714000000,352,160714000000,FL_wheel_link,0.7960229814803129,-12.764009359593853,10.072955362554037,0.109497411744423,0.0028175524563283,-0.013299960461601146
160715000000,353,160715000000,FL_wheel_link,-1.177815374300442,15.619332844998647,6.807454491508507,-0.07423097922648979,-0.010102424206603813,0.014881335716995764
160716000000,354,160716000000,FL_wheel_link,2.169978919049553,-13.470420788885509,7.291412891471392,0.10631985744757431,-0.006725814458492977,-0.010141396880148099
160717000000,355,160717000000,FL_wheel_link,0.3118475871170077,14.760708419611495,2.8221342535301894,-0.08064763881947634,-0.008895917634744819,0.015546704946026809
160718000000,356,160718000000,FL_wheel_link,2.4908998451425943,-14.426548918103865,3.0619364347212628,0.09492099239757679,-0.008821511246779943,-0.009297551252406978
160719000000,357,160719000000,FL_wheel_link,0.5824381980919037,14.282314648653319,0.4092282616675771,-0.09063302033896166,-0.0012423082637243845,0.013859592021133675
160720000000,358,160720000000,FL_wheel_link,1.7085574431015695,-14.695492125405337,1.6972344005912832,0.08646048850959709,-0.009221743794565673,-0.009767187267762288
160721000000,359,160721000000,FL_wheel_link,0.308917782317064,14.11477534072489,-0.19250665404164402,-0.0994836814679603,0.006906369506309934,0.011287333082468792
160722000000,360,160722000000,FL_wheel_link,0.6296469495851971,-14.814991640338372,1.5302432715894172,0.07817843606620152,-0.0077516958616606286,-0.010141725042204541
160723000000,361,160723000000,FL_wheel_link,-0.10541785554298583,14.002096124177893,0.1457733209161993,-0.10212366750074676,0.010109033598857215,0.009537884156639684
160724000000,362,160724000000,FL_wheel_link,0.07712088833614815,-14.901998373115283,2.140030345686459,0.0767264114700471,-0.005729989624517139,-0.010585132819313087
160725000000,363,160725000000,FL_wheel_link,-0.37619205015819723,13.94520038224532,0.8130440673702516,-0.09963065839973195,0.007643350407858851,0.01015748461339563
160726000000,364,160726000000,FL_wheel_link,0.35879500623833843,-14.737244451326072,2.8137930162110334,0.08055178602421019,-0.005715301694193609,-0.010891267892617778
160727000000,365,160727000000,FL_wheel_link,-0.3161737708218645,14.16122255541782,1.6856953025091481,-0.09530447267304018,0.0066350517957461195,0.010530655034789314
160728000000,366,160728000000,FL_wheel_link,0.5223704170288163,-14.533202657798066,3.900718454679064,0.08560403084002371,-0.006283966528379433,-0.010556912775963555
