%time,field.header.seq,field.header.stamp,field.header.frame_id,field.name0,field.name1,field.name2,field.name3,field.position0,field.position1,field.position2,field.position3,field.velocity0,field.velocity1,field.velocity2,field.velocity3,field.effort0,field.effort1,field.effort2,field.effort3
160367000000,1620,160363000000,,BL_TO_BASELINK,BR_TO_BASELINK,FL_TO_BASELINK,FR_TO_BASELINK,0.0,0.0,0.0,0.0,1.3877787807814457e-17,6.938893903907228e-18,-2.0816681711721685e-17,-4.163336342344337e-17,0.0,0.0,0.0,0.0
160367000000,1621,160364000000,,BL_TO_BASELINK,BR_TO_BASELINK,FL_TO_BASELINK,FR_TO_BASELINK,0.0,0.0,0.0,0.0,-6.938893903907228e-18,0.0,-2.0816681711721685e-17,-2.7755575615628914e-17,0.0,0.0,0.0,0.0
160367000000,1622,160365000000,,BL_TO_BASELINK,BR_TO_BASELINK,FL_TO_BASELINK,FR_TO_BASELINK,0.0,0.0,0.0,0.0,-1.0408340855860843e-17,-2.42861286636753e-17,1.734723475976807e-17,2.7755575615628914e-17,0.0,0.0,0.0,0.0
160367000000,1623,160366000000,,BL_TO_BASELINK,BR_TO_BASELINK,FL_TO_BASELINK,FR_TO_BASELINK,0.0,0.0,0.0,0.0,0.0,-6.938893903907228e-18,3.469446951953614e-18,-6.938893903907228e-18,0.0,0.0,0.0,0.0
160367000000,1624,160367000000,,BL_TO_BASELINK,BR_TO_BASELINK,FL_TO_BASELINK,FR_TO_BASELINK,0.0,0.0,0.0,0.0,0.0,-5.204170427930421e-18,1.0408340855860843e-17,-3.469446951953614e-18,0.0,0.0,0.0,0.0
160368000000,1625,160368000000,,BL_TO_BASELINK,BR_TO_BASELINK,FL_TO_BASELINK,FR_TO_BASELINK,0.0,0.0,0.0,0.0,-7.806255641895632e-18,-2.0816681711721685e-17,-1.9081958235744878e-17,4.336808689942018e-18,0.0,0.0,0.0,0.0
160369000000,1626,160369000000,,BL_TO_BASELINK,BR_TO_BASELINK,FL_TO_BASELINK,FR_TO_BASELINK,0.0,0.0,0.0,0.0,-1.0408340855860843e-17,-3.469446951953614e-18,-1.0408340855860843e-17,-6.938893903907228e-18,0.0,0.0,0.0,0.0
160370000000,1627,160370000000,,BL_TO_BASELINK,BR_TO_BASELINK,FL_TO_BASELINK,FR_TO_BASELINK,0.0,0.0,0.0,0.0,-2.211772431870429e-17,-3.599551212651875e-17,2.168404344971009e-18,3.382710778154774e-17,0.0,0.0,0.0,0.0
160371000000,1628,160371000000,,BL_TO_BASELINK,BR_TO_BASELINK,FL_TO_BASELINK,FR_TO_BASELINK,0.0,0.0,0.0,0.0,1.734723475976807e-18,-5.204170427930421e-18,-8.673617379884035e-18,-2.42861286636753e-17,0.0,0.0,0.0,0.0
160372000000,1629,160372000000,,BL_TO_BASELINK,BR_TO_BASELINK,FL_TO_BASELINK,FR_TO_BASELINK,0.0,0.0,0.0,0.0,-1.929879867024198e-17,8.673617379884035e-18,3.3176586478056436e-17,2.927345865710862e-17,0.0,0.0,0.0,0.0
160373000000,1630,160373000000,,BL_TO_BASELINK,BR_TO_BASELINK,FL_TO_BASELINK,FR_TO_BASELINK,0.0,0.0,0.0,0.0,-6.938893903907228e-18,3.8163916471489756e-17,2.7755575615628914e-17,2.7755575615628914e-17,0.0,0.0,0.0,0.0
160374000000,1631,160374000000,,BL_TO_BASELINK,BR_TO_BASELINK,FL_TO_BASELINK,FR_TO_BASELINK,0.0,0.0,0.0,0.0,7.806255641895632e-18,1.7780915628762273e-17,1.1275702593849246e-17,-1.6479873021779667e-17,0.0,0.0,0.0,0.0
160375000000,1632,160375000000,,BL_TO_BASELINK,BR_TO_BASELINK,FL_TO_BASELINK,FR_TO_BASELINK,0.0,0.0,0.0,0.0,1.3010426069826053e-17,1.6479873021779667e-17,-8.673617379884035e-19,-9.540979117872439e-18,0.0,0.0,0.0,0.0
160376000000,1633,160376000000,,BL_TO_BASELINK,BR_TO_BASELINK,FL_TO_BASELINK,FR_TO_BASELINK,0.0,0.0,0.0,0.0,-6.938893903907228e-18,5.204170427930421e-18,-1.1275702593849246e-17,9.540979117872439e-18,0.0,0.0,0.0,0.0
160377000000,1634,160377000000,,BL_TO_BASELINK,BR_TO_BASELINK,FL_TO_BASELINK,FR_TO_BASELINK,0.0,0.0,0.0,0.0,0.0,0.0,-4.336808689942018e-18,-5.204170427930421e-18,0.0,0.0,0.0,0.0
160378000000,1635,160378000000,,BL_TO_BASELINK,BR_TO_BASELINK,FL_TO_BASELINK,FR_TO_BASELINK,0.0,0.0,0.0,0.0,-1.0408340855860843e-17,-3.469446951953614e-18,-3.469446951953614e-18,-3.469446951953614e-18,0.0,0.0,0.0,0.0
160379000000,1636,160379000000,,BL_TO_BASELINK,BR_TO_BASELINK,FL_TO_BASELINK,FR_TO_BASELINK,0.0,0.0,0.0,0.0,8.673617379884035e-19,8.673617379884035e-19,-6.071532165918825e-18,-3.469446951953614e-18,0.0,0.0,0.0,0.0
160380000000,1637,160380000000,,BL_TO_BASELINK,BR_TO_BASELINK,FL_TO_BASELINK,FR_TO_BASELINK,0.0,0.0,0.0,0.0,6.938893903907228e-18,0.0,-2.7755575615628914e-17,-2.7755575615628914e-17,0.0,0.0,0.0,0.0
160381000000,1638,160381000000,,BL_TO_BASELINK,BR_TO_BASELINK,FL_TO_BASELINK,FR_TO_BASELINK,0.0,0.0,0.0,0.0,-6.938893903907228e-18,-1.3877787807814457e-17,-6.938893903907228e-18,0.0,0.0,0.0,0.0,0.0
160382000000,1639,160382000000,,BL_TO_BASELINK,BR_TO_BASELINK,FL_TO_BASELINK,FR_TO_BASELINK,0.0,0.0,0.0,0.0,3.469446951953614e-18,1.734723475976807e-17,6.938893903907228e-18,6.938893903907228e-18,0.0,0.0,0.0,0.0
160383000000,1640,160383000000,,BL_TO_BASELINK,BR_TO_BASELINK,FL_TO_BASELINK,FR_TO_BASELINK,0.0,0.0,0.0,0.0,-2.6020852139652106e-18,-9.107298248878237e-18,-6.5052130349130266e-18,-1.6479873021779667e-17,0.0,0.0,0.0,0.0
160384000000,1641,160384000000,,BL_TO_BASELINK,BR_TO_BASELINK,FL_TO_BASELINK,FR_TO_BASELINK,0.0,0.0,0.0,0.0,4.336808689942018e-18,1.9081958235744878e-17,-1.5612511283791264e-17,-5.204170427930421e-18,0.0,0.0,0.0,0.0
160385000000,1642,160385000000,,BL_TO_BASELINK,BR_TO_BASELINK,FL_TO_BASELINK,FR_TO_BASELINK,0.0,0.0,0.0,0.0,0.0,0.0,1.0408340855860843e-17,2.0816681711721685e-17,0.0,0.0,0.0,0.0
160386000000,1643,160386000000,,BL_TO_BASELINK,BR_TO_BASELINK,FL_TO_BASELINK,FR_TO_BASELINK,0.0,0.0,0.0,0.0,5.204170427930421e-18,1.734723475976807e-18,-3.469446951953614e-18,-1.9081958235744878e-17,0.0,0.0,0.0,0.0
160387000000,1644,160387000000,,BL_TO_BASELINK,BR_TO_BASELINK,FL_TO_BASELINK,FR_TO_BASELINK,0.0,0.0,0.0,0.0,-6.938893903907228e-18,1.3877787807814457e-17,-1.0408340855860843e-17,3.469446951953614e-18,0.0,0.0,0.0,0.0
160388000000,1645,160388000000,,BL_TO_BASELINK,BR_TO_BASELINK,FL_TO_BASELINK,FR_TO_BASELINK,0.0,0.0,0.0,0.0,-8.673617379884035e-18,-1.734723475976807e-18,5.204170427930421e-18,8.673617379884035e-18,0.0,0.0,0.0,0.0
160389000000,1646,160389000000,,BL_TO_BASELINK,BR_TO_BASELINK,FL_TO_BASELINK,FR_TO_BASELINK,0.0,0.0,0.0,0.0,8.673617379884035e-18,1.3877787807814457e-17,-6.938893903907228e-18,-2.42861286636753e-17,0.0,0.0,0.0,0.0
160390000000,1647,160390000000,,BL_TO_BASELINK,BR_TO_BASELINK,FL_TO_BASELINK,FR_TO_BASELINK,0.0,0.0,0.0,0.0,-3.469446951953614e-18,5.204170427930421e-18,5.204170427930421e-18,5.204170427930421e-18,0.0,0.0,0.0,0.0
160391000000,1648,160391000000,,BL_TO_BASELINK,BR_TO_BASELINK,FL_TO_BASELINK,FR_TO_BASELINK,0.0,0.0,0.0,0.0,-1.734723475976807e-18,3.469446951953614e-18,3.469446951953614e-18,1.5612511283791264e-17,0.0,0.0,0.0,0.0
160392000000,1649,160392000000,,BL_TO_BASELINK,BR_TO_BASELINK,FL_TO_BASELINK,FR_TO_BASELINK,0.0,0.0,0.0,0.0,-3.469446951953614e-18,-1.3877787807814457e-17,-3.469446951953614e-18,-6.938893903907228e-18,0.0,0.0,0.0,0.0
160393000000,1650,160393000000,,BL_TO_BASELINK,BR_TO_BASELINK,FL_TO_BASELINK,FR_TO_BASELINK,0.0,0.0,0.0,0.0,-8.673617379884035e-18,-1.9081958235744878e-17,-8.673617379884035e-18,1.5612511283791264e-17,0.0,0.0,0.0,0.0
160394000000,1651,160394000000,,BL_TO_BASELINK,BR_TO_BASELINK,FL_TO_BASELINK,FR_TO_BASELINK,0.0,0.0,0.0,0.0,1.734723475976807e-18,3.469446951953614e-18,1.734723475976807e-18,1.734723475976807e-18,0.0,0.0,0.0,0.0
160395000000,1652,160395000000,,BL_TO_BASELINK,BR_TO_BASELINK,FL_TO_BASELINK,FR_TO_BASELINK,0.0,0.0,0.0,0.0,-5.204170427930421e-18,5.204170427930421e-18,8.673617379884035e-18,-1.734723475976807e-18,0.0,0.0,0.0,0.0
160396000000,1653,160396000000,,BL_TO_BASELINK,BR_TO_BASELINK,FL_TO_BASELINK,FR_TO_BASELINK,0.0,0.0,0.0,0.0,3.469446951953614e-18,7.806255641895632e-18,7.806255641895632e-18,2.6020852139652106e-18,0.0,0.0,0.0,0.0
160397000000,1654,160397000000,,BL_TO_BASELINK,BR_TO_BASELINK,FL_TO_BASELINK,FR_TO_BASELINK,0.0,0.0,0.0,0.0,0.0,-6.938893903907228e-18,-6.938893903907228e-18,-3.469446951953614e-18,0.0,0.0,0.0,0.0
160398000000,1655,160398000000,,BL_TO_BASELINK,BR_TO_BASELINK,FL_TO_BASELINK,FR_TO_BASELINK,0.0,0.0,0.0,0.0,1.734723475976807e-18,-5.204170427930421e-18,-1.474514954580286e-17,-2.6020852139652106e-17,0.0,0.0,0.0,0.0
160399000000,1656,160399000000,,BL_TO_BASELINK,BR_TO_BASELINK,FL_TO_BASELINK,FR_TO_BASELINK,0.0,0.0,0.0,0.0,-1.0408340855860843e-17,-2.0816681711721685e-17,1.0408340855860843e-17,1.3877787807814457e-17,0.0,0.0,0.0,0.0
160400000000,1657,160400000000,,BL_TO_BASELINK,BR_TO_BASELINK,FL_TO_BASELINK,FR_TO_BASELINK,0.0,0.0,0.0,0.0,5.204170427930421e-18,-3.469446951953614e-18,-3.469446951953614e-18,8.673617379884035e-18,0.0,0.0,0.0,0.0
160401000000,1658,160401000000,,BL_TO_BASELINK,BR_TO_BASELINK,FL_TO_BASELINK,FR_TO_BASELINK,0.0,0.0,0.0,0.0,0.0,0.0,2.6020852139652106e-18,-1.214306433183765e-17,0.0,0.0,0.0,0.0
160402000000,1659,160402000000,,BL_TO_BASELINK,BR_TO_BASELINK,FL_TO_BASELINK,FR_TO_BASELINK,0.0,0.0,0.0,0.0,-1.0408340855860843e-17,6.938893903907228e-18,1.734723475976807e-17,1.3877787807814457e-17,0.0,0.0,0.0,0.0
160403000000,1660,160403000000,,BL_TO_BASELINK,BR_TO_BASELINK,FL_TO_BASELINK,FR_TO_BASELINK,0.0,0.0,0.0,0.0,5.204170427930421e-18,1.734723475976807e-18,-1.734723475976807e-18,-1.3877787807814457e-17,0.0,0.0,0.0,0.0
160404000000,1661,160404000000,,BL_TO_BASELINK,BR_TO_BASELINK,FL_TO_BASELINK,FR_TO_BASELINK,0.0,0.0,0.0,0.0,-1.734723475976807e-17,1.0408340855860843e-17,2.0816681711721685e-17,4.163336342344337e-17,0.0,0.0,0.0,0.0
160405000000,1662,160405000000,,BL_TO_BASELINK,BR_TO_BASELINK,FL_TO_BASELINK,FR_TO_BASELINK,0.0,0.0,0.0,0.0,-1.734723475976807e-18,6.938893903907228e-18,-1.3877787807814457e-17,-1.3877787807814457e-17,0.0,0.0,0.0,0.0
160406000000,1663,160406000000,,BL_TO_BASELINK,BR_TO_BASELINK,FL_TO_BASELINK,FR_TO_BASELINK,0.0,0.0,0.0,0.0,-1.3444106938820255e-17,-1.5178830414797062e-17,-8.239936510889834e-18,4.336808689942018e-18,0.0,0.0,0.0,0.0
160407000000,1664,160407000000,,BL_TO_BASELINK,BR_TO_BASELINK,FL_TO_BASELINK,FR_TO_BASELINK,0.0,0.0,0.0,0.0,1.0408340855860843e-17,-1.734723475976807e-17,-1.734723475976807e-17,-3.8163916471489756e-17,0.0,0.0,0.0,0.0
160408000000,1665,160408000000,,BL_TO_BASELINK,BR_TO_BASELINK,FL_TO_BASELINK,FR_TO_BASELINK,0.0,0.0,0.0,0.0,1.734723475976807e-18,5.204170427930421e-18,1.0408340855860843e-17,6.938893903907228e-18,0.0,0.0,0.0,0.0
160409000000,1666,160409000000,,BL_TO_BASELINK,BR_TO_BASELINK,FL_TO_BASELINK,FR_TO_BASELINK,0.0,0.0,0.0,0.0,3.469446951953614e-18,2.42861286636753e-17,3.469446951953614e-17,6.938893903907228e-18,0.0,0.0,0.0,0.0
160410000000,1667,160410000000,,BL_TO_BASELINK,BR_TO_BASELINK,FL_TO_BASELINK,FR_TO_BASELINK,0.0,0.0,0.0,0.0,0.0,-3.469446951953614e-18,-1.0408340855860843e-17,-2.0816681711721685e-17,0.0,0.0,0.0,0.0
160411000000,1668,160411000000,,BL_TO_BASELINK,BR_TO_BASELINK,FL_TO_BASELINK,FR_TO_BASELINK,0.0,0.0,0.0,0.0,8.673617379884035e-18,1.3444106938820255e-17,1.3010426069826053e-17,-4.7704895589362195e-18,0.0,0.0,0.0,0.0
160412000000,1669,160412000000,,BL_TO_BASELINK,BR_TO_BASELINK,FL_TO_BASELINK,FR_TO_BASELINK,0.0,0.0,0.0,0.0,0.0,-1.0408340855860843e-17,-1.3877787807814457e-17,-3.469446951953614e-18,0.0,0.0,0.0,0.0
160413000000,1670,160413000000,,BL_TO_BASELINK,BR_TO_BASELINK,FL_TO_BASELINK,FR_TO_BASELINK,0.0,0.0,0.0,0.0,6.938893903907228e-18,6.938893903907228e-18,6.938893903907228e-18,-3.469446951953614e-18,0.0,0.0,0.0,0.0
160414000000,1671,160414000000,,BL_TO_BASELINK,BR_TO_BASELINK,FL_TO_BASELINK,FR_TO_BASELINK,0.0,0.0,0.0,0.0,-1.0408340855860843e-17,-1.3877787807814457e-17,-6.938893903907228e-18,1.0408340855860843e-17,0.0,0.0,0.0,0.0
160415000000,1672,160415000000,,BL_TO_BASELINK,BR_TO_BASELINK,FL_TO_BASELINK,FR_TO_BASELINK,0.0,0.0,0.0,0.0,1.0408340855860843e-17,6.938893903907228e-18,1.0408340855860843e-17,6.938893903907228e-18,0.0,0.0,0.0,0.0
160416000000,1673,160416000000,,BL_TO_BASELINK,BR_TO_BASELINK,FL_TO_BASELINK,FR_TO_BASELINK,0.0,0.0,0.0,0.0,-4.336808689942018e-18,-5.204170427930421e-18,1.214306433183765e-17,-3.903127820947816e-18,0.0,0.0,0.0,0.0
160417000000,1674,160417000000,,BL_TO_BASELINK,BR_TO_BASELINK,FL_TO_BASELINK,FR_TO_BASELINK,0.0,0.0,0.0,0.0,3.469446951953614e-18,6.938893903907228e-18,1.3877787807814457e-17,1.0408340855860843e-17,0.0,0.0,0.0,0.0
160418000000,1675,160418000000,,BL_TO_BASELINK,BR_TO_BASELINK,FL_TO_BASELINK,FR_TO_BASELINK,0.0,0.0,0.0,0.0,1.734723475976807e-18,-1.5612511283791264e-17,-8.673617379884035e-18,-8.673617379884035e-18,0.0,0.0,0.0,0.0
160419000000,1676,160419000000,,BL_TO_BASELINK,BR_TO_BASELINK,FL_TO_BASELINK,FR_TO_BASELINK,0.0,0.0,0.0,0.0,0.0,1.0408340855860843e-17,2.0816681711721685e-17,2.42861286636753e-17,0.0,0.0,0.0,0.0
160420000000,1677,160420000000,,BL_TO_BASELINK,BR_TO_BASELINK,FL_TO_BASELINK,FR_TO_BASELINK,0.0,0.0,0.0,0.0,-6.938893903907228e-18,-1.214306433183765e-17,-5.204170427930421e-18,1.214306433183765e-17,0.0,0.0,0.0,0.0
160421000000,1678,160421000000,,BL_TO_BASELINK,BR_TO_BASELINK,FL_TO_BASELINK,FR_TO_BASELINK,0.0,0.0,0.0,0.0,1.3010426069826053e-17,8.673617379884035e-18,-1.734723475976807e-17,-1.734723475976807e-17,0.0,0.0,0.0,0.0
160422000000,1679,160422000000,,BL_TO_BASELINK,BR_TO_BASELINK,FL_TO_BASELINK,FR_TO_BASELINK,0.0,0.0,0.0,0.0,1.734723475976807e-18,0.0,8.673617379884035e-18,1.734723475976807e-18,0.0,0.0,0.0,0.0
160423000000,1680,160423000000,,BL_TO_BASELINK,BR_TO_BASELINK,FL_TO_BASELINK,FR_TO_BASELINK,0.0,0.0,0.0,0.0,3.469446951953614e-18,6.938893903907228e-18,-1.734723475976807e-18,-1.214306433183765e-17,0.0,0.0,0.0,0.0
160424000000,1681,160424000000,,BL_TO_BASELINK,BR_TO_BASELINK,FL_TO_BASELINK,FR_TO_BASELINK,0.0,0.0,0.0,0.0,-6.938893903907228e-18,-6.938893903907228e-18,-1.3877787807814457e-17,-2.0816681711721685e-17,0.0,0.0,0.0,0.0
160425000000,1682,160425000000,,BL_TO_BASELINK,BR_TO_BASELINK,FL_TO_BASELINK,FR_TO_BASELINK,0.0,0.0,0.0,0.0,-3.469446951953614e-18,-5.204170427930421e-18,2.6020852139652106e-17,1.9081958235744878e-17,0.0,0.0,0.0,0.0
160426000000,1683,160426000000,,BL_TO_BASELINK,BR_TO_BASELINK,FL_TO_BASELINK,FR_TO_BASELINK,0.0,0.0,0.0,0.0,1.734723475976807e-18,1.734723475976807e-18,-6.938893903907228e-18,0.0,0.0,0.0,0.0,0.0
160427000000,1684,160427000000,,BL_TO_BASELINK,BR_TO_BASELINK,FL_TO_BASELINK,FR_TO_BASELINK,0.0,0.0,0.0,0.0,-1.734723475976807e-18,-5.204170427930421e-18,-1.734723475976807e-18,5.204170427930421e-18,0.0,0.0,0.0,0.0
160428000000,1685,160428000000,,BL_TO_BASELINK,BR_TO_BASELINK,FL_TO_BASELINK,FR_TO_BASELINK,0.0,0.0,0.0,0.0,1.214306433183765e-17,1.5612511283791264e-17,8.673617379884035e-18,1.734723475976807e-18,0.0,0.0,0.0,0.0
160429000000,1686,160429000000,,BL_TO_BASELINK,BR_TO_BASELINK,FL_TO_BASELINK,FR_TO_BASELINK,0.0,0.0,0.0,0.0,6.938893903907228e-18,6.938893903907228e-18,1.3877787807814457e-17,-6.938893903907228e-18,0.0,0.0,0.0,0.0
160430000000,1687,160430000000,,BL_TO_BASELINK,BR_TO_BASELINK,FL_TO_BASELINK,FR_TO_BASELINK,0.0,0.0,0.0,0.0,-1.214306433183765e-17,-1.3877787807814457e-17,-1.0408340855860843e-17,-1.3877787807814457e-17,0.0,0.0,0.0,0.0
160431000000,1688,160431000000,,BL_TO_BASELINK,BR_TO_BASELINK,FL_TO_BASELINK,FR_TO_BASELINK,0.0,0.0,0.0,0.0,1.3877787807814457e-17,6.938893903907228e-18,-3.469446951953614e-18,-2.7755575615628914e-17,0.0,0.0,0.0,0.0
160432000000,1689,160432000000,,BL_TO_BASELINK,BR_TO_BASELINK,FL_TO_BASELINK,FR_TO_BASELINK,0.0,0.0,0.0,0.0,4.7704895589362195e-18,1.3010426069826053e-18,-1.734723475976807e-18,8.239936510889834e-18,0.0,0.0,0.0,0.0
160433000000,1690,160433000000,,BL_TO_BASELINK,BR_TO_BASELINK,FL_TO_BASELINK,FR_TO_BASELINK,0.0,0.0,0.0,0.0,-1.734723475976807e-18,0.0,1.3877787807814457e-17,6.938893903907228e-18,0.0,0.0,0.0,0.0
160434000000,1691,160434000000,,BL_TO_BASELINK,BR_TO_BASELINK,FL_TO_BASELINK,FR_TO_BASELINK,0.0,0.0,0.0,0.0,-3.469446951953614e-18,-3.469446951953614e-18,3.469446951953614e-18,3.469446951953614e-18,0.0,0.0,0.0,0.0
160435000000,1692,160435000000,,BL_TO_BASELINK,BR_TO_BASELINK,FL_TO_BASELINK,FR_TO_BASELINK,0.0,0.0,0.0,0.0,-1.0408340855860843e-17,6.938893903907228e-18,3.469446951953614e-18,1.0408340855860843e-17,0.0,0.0,0.0,0.0
160436000000,1693,160436000000,,BL_TO_BASELINK,BR_TO_BASELINK,FL_TO_BASELINK,FR_TO_BASELINK,0.0,0.0,0.0,0.0,6.938893903907228e-18,1.3877787807814457e-17,-1.3877787807814457e-17,-2.42861286636753e-17,0.0,0.0,0.0,0.0
160437000000,1694,160437000000,,BL_TO_BASELINK,BR_TO_BASELINK,FL_TO_BASELINK,FR_TO_BASELINK,0.0,0.0,0.0,0.0,-1.0625181290357943e-17,1.3769367590565906e-17,2.4069288229178198e-17,3.133344278483108e-17,0.0,0.0,0.0,0.0
160438000000,1695,160438000000,,BL_TO_BASELINK,BR_TO_BASELINK,FL_TO_BASELINK,FR_TO_BASELINK,0.0,0.0,0.0,0.0,-4.336808689942018e-19,7.806255641895632e-18,-2.6020852139652106e-18,-3.0357660829594124e-18,0.0,0.0,0.0,0.0
160439000000,1696,160439000000,,BL_TO_BASELINK,BR_TO_BASELINK,FL_TO_BASELINK,FR_TO_BASELINK,0.0,0.0,0.0,0.0,3.469446951953614e-18,3.469446951953614e-18,-3.469446951953614e-18,-3.469446951953614e-18,0.0,0.0,0.0,0.0
160440000000,1697,160440000000,,BL_TO_BASELINK,BR_TO_BASELINK,FL_TO_BASELINK,FR_TO_BASELINK,0.0,0.0,0.0,0.0,-3.469446951953614e-18,6.938893903907228e-18,8.673617379884035e-18,5.204170427930421e-18,0.0,0.0,0.0,0.0
160441000000,1698,160441000000,,BL_TO_BASELINK,BR_TO_BASELINK,FL_TO_BASELINK,FR_TO_BASELINK,0.0,0.0,0.0,0.0,6.938893903907228e-18,0.0,3.469446951953614e-18,-6.938893903907228e-18,0.0,0.0,0.0,0.0
160442000000,1699,160442000000,,BL_TO_BASELINK,BR_TO_BASELINK,FL_TO_BASELINK,FR_TO_BASELINK,0.0,0.0,0.0,0.0,-1.3010426069826053e-17,-1.734723475976807e-17,-9.540979117872439e-18,-9.540979117872439e-18,0.0,0.0,0.0,0.0
160443000000,1700,160443000000,,BL_TO_BASELINK,BR_TO_BASELINK,FL_TO_BASELINK,FR_TO_BASELINK,0.0,0.0,0.0,0.0,3.0357660829594124e-18,8.673617379884035e-18,2.6020852139652106e-18,1.3010426069826053e-18,0.0,0.0,0.0,0.0
160444000000,1701,160444000000,,BL_TO_BASELINK,BR_TO_BASELINK,FL_TO_BASELINK,FR_TO_BASELINK,0.0,0.0,0.0,0.0,3.469446951953614e-18,-6.938893903907228e-18,3.469446951953614e-18,-3.469446951953614e-18,0.0,0.0,0.0,0.0
160445000000,1702,160445000000,,BL_TO_BASELINK,BR_TO_BASELINK,FL_TO_BASELINK,FR_TO_BASELINK,0.0,0.0,0.0,0.0,-6.938893903907228e-18,0.0,-1.0408340855860843e-17,-1.0408340855860843e-17,0.0,0.0,0.0,0.0
160446000000,1703,160446000000,,BL_TO_BASELINK,BR_TO_BASELINK,FL_TO_BASELINK,FR_TO_BASELINK,0.0,0.0,0.0,0.0,-6.938893903907228e-18,-1.3877787807814457e-17,-6.938893903907228e-18,-1.0408340855860843e-17,0.0,0.0,0.0,0.0
160447000000,1704,160447000000,,BL_TO_BASELINK,BR_TO_BASELINK,FL_TO_BASELINK,FR_TO_BASELINK,0.0,0.0,0.0,0.0,-8.673617379884035e-18,2.2551405187698492e-17,2.0816681711721685e-17,1.9081958235744878e-17,0.0,0.0,0.0,0.0
160448000000,1705,160448000000,,BL_TO_BASELINK,BR_TO_BASELINK,FL_TO_BASELINK,FR_TO_BASELINK,0.0,0.0,0.0,0.0,-8.673617379884035e-18,-8.673617379884035e-19,-8.673617379884035e-19,4.336808689942018e-18,0.0,0.0,0.0,0.0
160449000000,1706,160449000000,,BL_TO_BASELINK,BR_TO_BASELINK,FL_TO_BASELINK,FR_TO_BASELINK,0.0,0.0,0.0,0.0,-3.469446951953614e-18,-1.734723475976807e-17,-1.3877787807814457e-17,-6.938893903907228e-18,0.0,0.0,0.0,0.0
160450000000,1707,160450000000,,BL_TO_BASELINK,BR_TO_BASELINK,FL_TO_BASELINK,FR_TO_BASELINK,0.0,0.0,0.0,0.0,0.0,1.214306433183765e-17,5.204170427930421e-18,3.469446951953614e-18,0.0,0.0,0.0,0.0
160451000000,1708,160451000000,,BL_TO_BASELINK,BR_TO_BASELINK,FL_TO_BASELINK,FR_TO_BASELINK,0.0,0.0,0.0,0.0,-1.3877787807814457e-17,1.734723475976807e-17,6.938893903907228e-18,2.0816681711721685e-17,0.0,0.0,0.0,0.0
160452000000,1709,160452000000,,BL_TO_BASELINK,BR_TO_BASELINK,FL_TO_BASELINK,FR_TO_BASELINK,0.0,0.0,0.0,0.0,-1.5612511283791264e-17,2.0816681711721685e-17,2.0816681711721685e-17,4.5102810375396984e-17,0.0,0.0,0.0,0.0
160453000000,1710,160453000000,,BL_TO_BASELINK,BR_TO_BASELINK,FL_TO_BASELINK,FR_TO_BASELINK,0.0,0.0,0.0,0.0,5.204170427930421e-18,1.3877787807814457e-17,5.204170427930421e-18,2.949029909160572e-17,0.0,0.0,0.0,0.0
160454000000,1711,160454000000,,BL_TO_BASELINK,BR_TO_BASELINK,FL_TO_BASELINK,FR_TO_BASELINK,0.0,0.0,0.0,0.0,8.673617379884035e-18,6.938893903907228e-18,5.204170427930421e-18,5.204170427930421e-18,0.0,0.0,0.0,0.0
160455000000,1712,160455000000,,BL_TO_BASELINK,BR_TO_BASELINK,FL_TO_BASELINK,FR_TO_BASELINK,0.0,0.0,0.0,0.0,1.214306433183765e-17,2.2551405187698492e-17,-3.469446951953614e-18,-1.9081958235744878e-17,0.0,0.0,0.0,0.0
160456000000,1713,160456000000,,BL_TO_BASELINK,BR_TO_BASELINK,FL_TO_BASELINK,FR_TO_BASELINK,0.0,0.0,0.0,0.0,-3.469446951953614e-18,6.938893903907228e-18,1.734723475976807e-17,1.734723475976807e-17,0.0,0.0,0.0,0.0
160457000000,1714,160457000000,,BL_TO_BASELINK,BR_TO_BASELINK,FL_TO_BASELINK,FR_TO_BASELINK,0.0,0.0,0.0,0.0,1.5612511283791264e-17,5.204170427930421e-18,-3.122502256758253e-17,-4.5102810375396984e-17,0.0,0.0,0.0,0.0
160458000000,1715,160458000000,,BL_TO_BASELINK,BR_TO_BASELINK,FL_TO_BASELINK,FR_TO_BASELINK,0.0,0.0,0.0,0.0,-3.469446951953614e-18,-5.204170427930421e-18,-5.204170427930421e-18,1.0408340855860843e-17,0.0,0.0,0.0,0.0
160459000000,1716,160459000000,,BL_TO_BASELINK,BR_TO_BASELINK,FL_TO_BASELINK,FR_TO_BASELINK,0.0,0.0,0.0,0.0,3.469446951953614e-18,-1.734723475976807e-18,-1.6479873021779667e-17,0.0,0.0,0.0,0.0,0.0
160460000000,1717,160460000000,,BL_TO_BASELINK,BR_TO_BASELINK,FL_TO_BASELINK,FR_TO_BASELINK,0.0,0.0,0.0,0.0,8.673617379884035e-19,-4.336808689942018e-18,8.673617379884035e-19,-1.0408340855860843e-17,0.0,0.0,0.0,0.0
160461000000,1718,160461000000,,BL_TO_BASELINK,BR_TO_BASELINK,FL_TO_BASELINK,FR_TO_BASELINK,0.0,0.0,0.0,0.0,-6.938893903907228e-18,-6.938893903907228e-18,-1.3877787807814457e-17,3.469446951953614e-18,0.0,0.0,0.0,0.0
160462000000,1719,160462000000,,BL_TO_BASELINK,BR_TO_BASELINK,FL_TO_BASELINK,FR_TO_BASELINK,0.0,0.0,0.0,0.0,-6.938893903907228e-18,-6.938893903907228e-18,0.0,0.0,0.0,0.0,0.0,0.0
160463000000,1720,160463000000,,BL_TO_BASELINK,BR_TO_BASELINK,FL_TO_BASELINK,FR_TO_BASELINK,0.0,0.0,0.0,0.0,6.938893903907228e-18,6.938893903907228e-18,1.0408340855860843e-17,-6.938893903907228e-18,0.0,0.0,0.0,0.0
160464000000,1721,160464000000,,BL_TO_BASELINK,BR_TO_BASELINK,FL_TO_BASELINK,FR_TO_BASELINK,0.0,0.0,0.0,0.0,1.3010426069826053e-18,8.673617379884035e-19,8.673617379884035e-19,-5.637851296924623e-18,0.0,0.0,0.0,0.0
160465000000,1722,160465000000,,BL_TO_BASELINK,BR_TO_BASELINK,FL_TO_BASELINK,FR_TO_BASELINK,0.00019999999341191455,0.00019999999341191455,0.00019999999341191455,0.00019999999341191455,0.19999997582425946,0.19999997582425952,0.19999997582425952,0.19999997582425946,0.0,0.0,0.0,0.0
160466000000,1723,160466000000,,BL_TO_BASELINK,BR_TO_BASELINK,FL_TO_BASELINK,FR_TO_BASELINK,0.0005999999600332373,0.0005999999600332373,0.0005999999600332373,0.0005999999600332373,0.3999999474805326,0.3999999474805326,0.3999999474805326,0.3999999474805326,0.0,0.0,0.0,0.0
160467000000,1724,160467000000,,BL_TO_BASELINK,BR_TO_BASELINK,FL_TO_BASELINK,FR_TO_BASELINK,0.0011999999077021428,0.0011999999077021428,0.0011999999077021428,0.0011999999077021428,0.5999999222748839,0.5999999222748839,0.5999999222748839,0.5999999222748839,0.0,0.0,0.0,0.0
160468000000,1725,160468000000,,BL_TO_BASELINK,BR_TO_BASELINK,FL_TO_BASELINK,FR_TO_BASELINK,0.0019999998172490763,0.0019999998172490763,0.0019999998172490763,0.0019999998172490763,0.7999998941482024,0.7999998941482024,0.7999998941482024,0.7999998941482024,0.0,0.0,0.0,0.0
160469000000,1726,160469000000,,BL_TO_BASELINK,BR_TO_BASELINK,FL_TO_BASELINK,FR_TO_BASELINK,0.0029336918174367455,0.0029336918174367455,0.0029336918174367455,0.0029336918174367455,0.9336920037742397,0.9336920037742397,0.9336920037742397,0.9336920037742397,0.0,0.0,0.0,0.0
160470000000,1727,160470000000,,BL_TO_BASELINK,BR_TO_BASELINK,FL_TO_BASELINK,FR_TO_BASELINK,0.0038673838119445136,0.0038673838119445136,0.0038673838119445136,0.0038673838119445136,0.9336920004864718,0.9336920004864718,0.9336920004864718,0.9336920004864718,0.0,0.0,0.0,0.0
160471000000,1728,160471000000,,BL_TO_BASELINK,BR_TO_BASELINK,FL_TO_BASELINK,FR_TO_BASELINK,0.004801075801815102,0.004801075801815102,0.004801075801815102,0.004801075801815102,0.9336920033348122,0.9336920033348122,0.9336920033348122,0.9336920033348122,0.0,0.0,0.0,0.0
160472000000,1729,160472000000,,BL_TO_BASELINK,BR_TO_BASELINK,FL_TO_BASELINK,FR_TO_BASELINK,0.0057347677937293895,0.0057347677937293895,0.0057347677937293895,0.0057347677937293895,0.9336920014741448,0.9336920014741448,0.9336920014741448,0.9336920014741448,0.0,0.0,0.0,0.0
160473000000,1730,160473000000,,BL_TO_BASELINK,BR_TO_BASELINK,FL_TO_BASELINK,FR_TO_BASELINK,0.006668459787407599,0.006668459787407599,0.006668459787407599,0.006668459787407599,0.9336920022283147,0.9336920022283147,0.9336920022283147,0.9336920022283147,0.0,0.0,0.0,0.0
160474000000,1731,160474000000,,BL_TO_BASELINK,BR_TO_BASELINK,FL_TO_BASELINK,FR_TO_BASELINK,0.007602151786953115,0.007602151786953115,0.007602151786953115,0.007602151786953115,0.9336920017812277,0.9336920017812277,0.9336920017812277,0.9336920017812277,0.0,0.0,0.0,0.0
160475000000,1732,160475000000,,BL_TO_BASELINK,BR_TO_BASELINK,FL_TO_BASELINK,FR_TO_BASELINK,0.008535843785519859,0.008535843785519859,0.008535843785519859,0.008535843785519859,0.933692000861549,0.933692000861549,0.933692000861549,0.933692000861549,0.0,0.0,0.0,0.0
160476000000,1733,160476000000,,BL_TO_BASELINK,BR_TO_BASELINK,FL_TO_BASELINK,FR_TO_BASELINK,0.009469535786798211,0.009469535786798211,0.009469535786798211,0.009469535786798211,0.9336920023249404,0.9336920023249404,0.9336920023249404,0.9336920023249404,0.0,0.0,0.0,0.0
160477000000,1734,160477000000,,BL_TO_BASELINK,BR_TO_BASELINK,FL_TO_BASELINK,FR_TO_BASELINK,0.01040322778544045,0.01040322778544045,0.01040322778544045,0.01040322778544045,0.9336920010136478,0.9336920010136478,0.9336920010136478,0.9336920010136478,0.0,0.0,0.0,0.0
160478000000,1735,160478000000,,BL_TO_BASELINK,BR_TO_BASELINK,FL_TO_BASELINK,FR_TO_BASELINK,0.011336919787342303,0.011336919787342303,0.011336919787342303,0.011336919787342303,0.933692001991917,0.933692001991917,0.933692001991917,0.9336920019919172,0.0,0.0,0.0,0.0
160479000000,1736,160479000000,,BL_TO_BASELINK,BR_TO_BASELINK,FL_TO_BASELINK,FR_TO_BASELINK,0.01227061178791633,0.01227061178791633,0.01227061178791633,0.01227061178791633,0.9336920016638489,0.9336920016638489,0.9336920016638489,0.9336920016638489,0.0,0.0,0.0,0.0
160480000000,1737,160480000000,,BL_TO_BASELINK,BR_TO_BASELINK,FL_TO_BASELINK,FR_TO_BASELINK,0.01320430379088311,0.01320430379088311,0.01320430379088311,0.01320430379088311,0.9336920012429852,0.9336920012429852,0.9336920012429852,0.9336920012429852,0.0,0.0,0.0,0.0
160481000000,1738,160481000000,,BL_TO_BASELINK,BR_TO_BASELINK,FL_TO_BASELINK,FR_TO_BASELINK,0.014137995791827507,0.014137995791827507,0.014137995791827507,0.014137995791827507,0.9336920028412006,0.9336920028412006,0.9336920028412006,0.9336920028412006,0.0,0.0,0.0,0.0
160482000000,1739,160482000000,,BL_TO_BASELINK,BR_TO_BASELINK,FL_TO_BASELINK,FR_TO_BASELINK,0.01507168779075485,0.01507168779075485,0.01507168779075485,0.01507168779075485,0.9336920014304125,0.9336920014304125,0.9336920014304125,0.9336920014304125,0.0,0.0,0.0,0.0
160483000000,1740,160483000000,,BL_TO_BASELINK,BR_TO_BASELINK,FL_TO_BASELINK,FR_TO_BASELINK,0.01600537978506633,0.01600537978506633,0.01600537978506633,0.01600537978506633,0.9336920033398433,0.9336920033398431,0.9336920033398431,0.9336920033398433,0.0,0.0,0.0,0.0
160484000000,1741,160484000000,,BL_TO_BASELINK,BR_TO_BASELINK,FL_TO_BASELINK,FR_TO_BASELINK,0.016939071776886472,0.016939071776886472,0.016939071776886472,0.016939071776886472,0.9336920012185138,0.9336920012185139,0.9336920012185139,0.9336920012185139,0.0,0.0,0.0,0.0
160485000000,1742,160485000000,,BL_TO_BASELINK,BR_TO_BASELINK,FL_TO_BASELINK,FR_TO_BASELINK,0.017872763764370525,0.017872763764370525,0.017872763764370525,0.017872763764370525,0.9336920040163468,0.9336920040163468,0.9336920040163468,0.9336920040163468,0.0,0.0,0.0,0.0
160486000000,1743,160486000000,,BL_TO_BASELINK,BR_TO_BASELINK,FL_TO_BASELINK,FR_TO_BASELINK,0.01880645575072304,0.01880645575072304,0.01880645575072304,0.01880645575072304,0.9336920011162105,0.9336920011162105,0.9336920011162105,0.9336920011162105,0.0,0.0,0.0,0.0
160487000000,1744,160487000000,,BL_TO_BASELINK,BR_TO_BASELINK,FL_TO_BASELINK,FR_TO_BASELINK,0.019740147733808833,0.019740147733808833,0.019740147733808833,0.019740147733808833,0.9336920041260119,0.9336920041260119,0.9336920041260119,0.9336920041260119,0.0,0.0,0.0,0.0
160488000000,1745,160488000000,,BL_TO_BASELINK,BR_TO_BASELINK,FL_TO_BASELINK,FR_TO_BASELINK,0.020673839719971276,0.020673839719971276,0.020673839719971276,0.020673839719971276,0.9336920015290275,0.9336920015290275,0.9336920015290275,0.9336920015290276,0.0,0.0,0.0,0.0
160489000000,1746,160489000000,,BL_TO_BASELINK,BR_TO_BASELINK,FL_TO_BASELINK,FR_TO_BASELINK,0.02160753170512475,0.02160753170512475,0.02160753170512475,0.02160753170512475,0.9336920031999698,0.9336920031999698,0.9336920031999698,0.9336920031999698,0.0,0.0,0.0,0.0
160490000000,1747,160490000000,,BL_TO_BASELINK,BR_TO_BASELINK,FL_TO_BASELINK,FR_TO_BASELINK,0.022541223697058577,0.022541223697059465,0.022541223697058577,0.022541223697059465,0.9336920021098726,0.9336920021098726,0.9336920021098726,0.9336920021098725,0.0,0.0,0.0,0.0
160491000000,1748,160491000000,,BL_TO_BASELINK,BR_TO_BASELINK,FL_TO_BASELINK,FR_TO_BASELINK,0.023474915688967535,0.023474915688967535,0.023474915688967535,0.023474915688967535,0.9336920022140669,0.9336920022140669,0.9336920022140669,0.9336920022140669,0.0,0.0,0.0,0.0
160492000000,1749,160492000000,,BL_TO_BASELINK,BR_TO_BASELINK,FL_TO_BASELINK,FR_TO_BASELINK,0.02440860768889852,0.02440860768889852,0.02440860768889852,0.02440860768889852,0.9336920024010726,0.9336920024010726,0.9336920024010726,0.9336920024010726,0.0,0.0,0.0,0.0
160493000000,1750,160493000000,,BL_TO_BASELINK,BR_TO_BASELINK,FL_TO_BASELINK,FR_TO_BASELINK,0.02534229968853019,0.02534229968853019,0.02534229968853019,0.02534229968853019,0.9336920017237622,0.9336920017237622,0.9336920017237622,0.9336920017237622,0.0,0.0,0.0,0.0
160494000000,1751,160494000000,,BL_TO_BASELINK,BR_TO_BASELINK,FL_TO_BASELINK,FR_TO_BASELINK,0.02627599169548489,0.02627599169548489,0.02627599169548489,0.02627599169548489,0.9336920025938805,0.9336920025938805,0.9336920025938806,0.9336920025938805,0.0,0.0,0.0,0.0
160495000000,1752,160495000000,,BL_TO_BASELINK,BR_TO_BASELINK,FL_TO_BASELINK,FR_TO_BASELINK,0.027209683687918762,0.027209683687918762,0.027209683687918762,0.027209683687918762,0.9336921177260201,0.9336921177260201,0.9336921177260201,0.9336921177260201,0.0,0.0,0.0,0.0
160496000000,1753,160496000000,,BL_TO_BASELINK,BR_TO_BASELINK,FL_TO_BASELINK,FR_TO_BASELINK,0.02814337559375346,0.02814337559375346,0.02814337559375346,0.02814337559375346,0.9336921249292154,0.9336921249292154,0.9336921249292154,0.9336921249292154,0.0,0.0,0.0,0.0
160497000000,1754,160497000000,,BL_TO_BASELINK,BR_TO_BASELINK,FL_TO_BASELINK,FR_TO_BASELINK,0.029077067626769093,0.029077067626769093,0.029077067626769093,0.029077067626769093,0.9336921254920487,0.9336921254920487,0.9336921254920485,0.9336921254920487,0.0,0.0,0.0,0.0
160498000000,1755,160498000000,,BL_TO_BASELINK,BR_TO_BASELINK,FL_TO_BASELINK,FR_TO_BASELINK,0.030010759599006676,0.030010759599006676,0.030010759599006676,0.030010759599006676,0.933692125324712,0.933692125324712,0.933692125324712,0.933692125324712,0.0,0.0,0.0,0.0
160499000000,1756,160499000000,,BL_TO_BASELINK,BR_TO_BASELINK,FL_TO_BASELINK,FR_TO_BASELINK,0.030944451673203588,0.030944451673203588,0.030944451673203588,0.030944451673203588,0.9336921258572981,0.9336921258572981,0.9336921258572981,0.9336921258572981,0.0,0.0,0.0,0.0
160500000000,1757,160500000000,,BL_TO_BASELINK,BR_TO_BASELINK,FL_TO_BASELINK,FR_TO_BASELINK,0.03187814369787656,0.03187814369787656,0.03187814369787656,0.03187814369787656,0.9336921256490235,0.9336921256490235,0.9336921256490235,0.9336921256490235,0.0,0.0,0.0,0.0
160501000000,1758,160501000000,,BL_TO_BASELINK,BR_TO_BASELINK,FL_TO_BASELINK,FR_TO_BASELINK,0.03281183565425394,0.03281183565425394,0.03281183565425394,0.03281183565425394,0.9336921259653767,0.9336921259653764,0.9336921259653764,0.9336921259653764,0.0,0.0,0.0,0.0
160502000000,1759,160502000000,,BL_TO_BASELINK,BR_TO_BASELINK,FL_TO_BASELINK,FR_TO_BASELINK,0.033745527716445345,0.033745527716445345,0.033745527716445345,0.033745527716445345,0.9336921259591907,0.9336921259591908,0.9336921259591908,0.9336921259591908,0.0,0.0,0.0,0.0
160503000000,1760,160503000000,,BL_TO_BASELINK,BR_TO_BASELINK,FL_TO_BASELINK,FR_TO_BASELINK,0.03467921972521015,0.03467921972521015,0.03467921972521015,0.03467921972521015,0.9336921259256256,0.9336921259256256,0.9336921259256256,0.9336921259256256,0.0,0.0,0.0,0.0
160504000000,1761,160504000000,,BL_TO_BASELINK,BR_TO_BASELINK,FL_TO_BASELINK,FR_TO_BASELINK,0.03561291181328574,0.03561291181328574,0.03561291181328574,0.03561291181328574,0.9336921259685523,0.9336921259685526,0.9336921259685524,0.9336921259685524,0.0,0.0,0.0,0.0
160505000000,1762,160505000000,,BL_TO_BASELINK,BR_TO_BASELINK,FL_TO_BASELINK,FR_TO_BASELINK,0.03654660385747377,0.03654660385747377,0.03654660385747377,0.03654660385747377,0.9336921259267629,0.9336921259267628,0.9336921259267629,0.9336921259267629,0.0,0.0,0.0,0.0
160506000000,1763,160506000000,,BL_TO_BASELINK,BR_TO_BASELINK,FL_TO_BASELINK,FR_TO_BASELINK,0.03748029595871927,0.03748029595871927,0.03748029595871927,0.03748029595871927,0.9336921259692881,0.9336921259692883,0.9336921259692881,0.9336921259692881,0.0,0.0,0.0,0.0
160507000000,1764,160507000000,,BL_TO_BASELINK,BR_TO_BASELINK,FL_TO_BASELINK,FR_TO_BASELINK,0.03841398802505225,0.03841398802505225,0.03841398802505225,0.03841398802505225,0.9336921259380803,0.9336921259380803,0.9336921259380803,0.9336921259380803,0.0,0.0,0.0,0.0
160508000000,1765,160508000000,,BL_TO_BASELINK,BR_TO_BASELINK,FL_TO_BASELINK,FR_TO_BASELINK,0.03934768013172185,0.03934768013172185,0.03934768013172185,0.03934768013172185,0.9336921259796984,0.9336921259796984,0.9336921259796984,0.9336921259796984,0.0,0.0,0.0,0.0
160509000000,1766,160509000000,,BL_TO_BASELINK,BR_TO_BASELINK,FL_TO_BASELINK,FR_TO_BASELINK,0.04028137220484762,0.04028137220484762,0.04028137220484762,0.04028137220484762,0.9336921259537111,0.9336921259537111,0.9336921259537111,0.9336921259537111,0.0,0.0,0.0,0.0
160510000000,1767,160510000000,,BL_TO_BASELINK,BR_TO_BASELINK,FL_TO_BASELINK,FR_TO_BASELINK,0.04121506423770338,0.04121506423770338,0.04121506423770338,0.04121506423770338,0.9336921067012744,0.9336921067012744,0.9336921067012744,0.9336921067012744,0.0,0.0,0.0,0.0
160511000000,1768,160511000000,,BL_TO_BASELINK,BR_TO_BASELINK,FL_TO_BASELINK,FR_TO_BASELINK,0.042148756227985196,0.042148756227985196,0.042148756227985196,0.042148756227985196,0.933692027436404,0.933692027436404,0.933692027436404,0.933692027436404,0.0,0.0,0.0,0.0
160512000000,1769,160512000000,,BL_TO_BASELINK,BR_TO_BASELINK,FL_TO_BASELINK,FR_TO_BASELINK,0.04308244821513707,0.04308244821513707,0.04308244821513707,0.04308244821513707,0.9336920068545391,0.9336920068545391,0.9336920068545391,0.9336920068545391,0.0,0.0,0.0,0.0
160513000000,1770,160513000000,,BL_TO_BASELINK,BR_TO_BASELINK,FL_TO_BASELINK,FR_TO_BASELINK,0.044016140201762255,0.044016140201762255,0.044016140201762255,0.044016140201762255,0.9336920043467134,0.9336920043467134,0.9336920043467134,0.9336920043467134,0.0,0.0,0.0,0.0
160514000000,1771,160514000000,,BL_TO_BASELINK,BR_TO_BASELINK,FL_TO_BASELINK,FR_TO_BASELINK,0.04494983219683846,0.044949832196839345,0.04494983219683846,0.044949832196839345,0.9336920028509422,0.9336920028509422,0.9336920028509422,0.9336920028509422,0.0,0.0,0.0,0.0
160515000000,1772,160515000000,,BL_TO_BASELINK,BR_TO_BASELINK,FL_TO_BASELINK,FR_TO_BASELINK,0.04588352419321229,0.04588352419321229,0.04588352419321229,0.04588352419321229,0.933692003065932,0.933692003065932,0.933692003065932,0.933692003065932,0.0,0.0,0.0,0.0
160516000000,1773,160516000000,,BL_TO_BASELINK,BR_TO_BASELINK,FL_TO_BASELINK,FR_TO_BASELINK,0.04681721619770407,0.04681721619770407,0.04681721619770407,0.04681721619770407,0.9336920025136521,0.9336920025136521,0.9336920025136521,0.9336920025136521,0.0,0.0,0.0,0.0
160517000000,1774,160517000000,,BL_TO_BASELINK,BR_TO_BASELINK,FL_TO_BASELINK,FR_TO_BASELINK,0.04775090820368,0.04775090820368,0.04775090820368,0.04775090820368,0.933692002500291,0.933692002500291,0.933692002500291,0.933692002500291,0.0,0.0,0.0,0.0
160518000000,1775,160518000000,,BL_TO_BASELINK,BR_TO_BASELINK,FL_TO_BASELINK,FR_TO_BASELINK,0.04868460021666987,0.04868460021666987,0.04868460021666987,0.04868460021666987,0.9336920024589893,0.9336920024589893,0.9336920024589893,0.9336920024589893,0.0,0.0,0.0,0.0
160519000000,1776,160519000000,,BL_TO_BASELINK,BR_TO_BASELINK,FL_TO_BASELINK,FR_TO_BASELINK,0.0496182922282129,0.0496182922282129,0.0496182922282129,0.0496182922282129,0.9336920018250713,0.9336920018250713,0.9336920018250713,0.9336920018250713,0.0,0.0,0.0,0.0
160520000000,1777,160520000000,,BL_TO_BASELINK,BR_TO_BASELINK,FL_TO_BASELINK,FR_TO_BASELINK,0.05055198424319052,0.05055198424319052,0.05055198424319052,0.05055198424319052,0.9336920032907368,0.9336920032907368,0.9336920032907368,0.9336920032907368,0.0,0.0,0.0,0.0
160521000000,1778,160521000000,,BL_TO_BASELINK,BR_TO_BASELINK,FL_TO_BASELINK,FR_TO_BASELINK,0.05148567625234968,0.05148567625234968,0.05148567625234968,0.05148567625234968,0.9336920017444044,0.9336920017444044,0.9336920017444044,0.9336920017444044,0.0,0.0,0.0,0.0
160522000000,1779,160522000000,,BL_TO_BASELINK,BR_TO_BASELINK,FL_TO_BASELINK,FR_TO_BASELINK,0.05241936826083293,0.05241936826083293,0.05241936826083293,0.05241936826083293,0.9336920039724237,0.9336920039724237,0.9336920039724237,0.9336920039724237,0.0,0.0,0.0,0.0
160523000000,1780,160523000000,,BL_TO_BASELINK,BR_TO_BASELINK,FL_TO_BASELINK,FR_TO_BASELINK,0.0533530602599841,0.0533530602599841,0.0533530602599841,0.0533530602599841,0.9336920022577988,0.9336920022577988,0.9336920022577988,0.9336920022577988,0.0,0.0,0.0,0.0
160524000000,1781,160524000000,,BL_TO_BASELINK,BR_TO_BASELINK,FL_TO_BASELINK,FR_TO_BASELINK,0.054286752255588766,0.054286752255588766,0.054286752255588766,0.054286752255588766,0.9336920038596106,0.9336920038596106,0.9336920038596106,0.9336920038596106,0.0,0.0,0.0,0.0
160525000000,1782,160525000000,,BL_TO_BASELINK,BR_TO_BASELINK,FL_TO_BASELINK,FR_TO_BASELINK,0.05522044424076533,0.05522044424076533,0.05522044424076533,0.05522044424076533,0.9336920018800317,0.9336920018800317,0.9336920018800317,0.9336920018800315,0.0,0.0,0.0,0.0
160526000000,1783,160526000000,,BL_TO_BASELINK,BR_TO_BASELINK,FL_TO_BASELINK,FR_TO_BASELINK,0.0561541362246345,0.0561541362246345,0.0561541362246345,0.0561541362246345,0.9336920023566441,0.9336920023566441,0.9336920023566441,0.9336920023566441,0.0,0.0,0.0,0.0
160527000000,1784,160527000000,,BL_TO_BASELINK,BR_TO_BASELINK,FL_TO_BASELINK,FR_TO_BASELINK,0.05708782820209457,0.05708782820209457,0.05708782820209457,0.05708782820209457,0.933692002205505,0.933692002205505,0.933692002205505,0.933692002205505,0.0,0.0,0.0,0.0
160528000000,1785,160528000000,,BL_TO_BASELINK,BR_TO_BASELINK,FL_TO_BASELINK,FR_TO_BASELINK,0.05802152018025453,0.05802152018025453,0.05802152018025453,0.05802152018025453,0.9336920019464771,0.9336920019464771,0.9336920019464771,0.9336920019464771,0.0,0.0,0.0,0.0
160529000000,1786,160529000000,,BL_TO_BASELINK,BR_TO_BASELINK,FL_TO_BASELINK,FR_TO_BASELINK,0.058955212155458625,0.058955212155458625,0.058955212155458625,0.058955212155458625,0.9336920026718201,0.9336920026718201,0.9336920026718201,0.9336920026718198,0.0,0.0,0.0,0.0
160530000000,1787,160530000000,,BL_TO_BASELINK,BR_TO_BASELINK,FL_TO_BASELINK,FR_TO_BASELINK,0.059888904136244925,0.059888904136244925,0.059888904136244925,0.059888904136244925,0.9336920011459026,0.9336920011459025,0.9336920011459025,0.9336920011459026,0.0,0.0,0.0,0.0
160531000000,1788,160531000000,,BL_TO_BASELINK,BR_TO_BASELINK,FL_TO_BASELINK,FR_TO_BASELINK,0.06082259611832885,0.06082259611832885,0.06082259611832885,0.06082259611832885,0.9336920022408489,0.9336920022408488,0.9336920022408488,0.9336920022408489,0.0,0.0,0.0,0.0
160532000000,1789,160532000000,,BL_TO_BASELINK,BR_TO_BASELINK,FL_TO_BASELINK,FR_TO_BASELINK,0.061756288109583224,0.061756288109583224,0.061756288109583224,0.061756288109583224,0.9336920012960954,0.9336920012960954,0.9336920012960954,0.9336920012960954,0.0,0.0,0.0,0.0
160533000000,1790,160533000000,,BL_TO_BASELINK,BR_TO_BASELINK,FL_TO_BASELINK,FR_TO_BASELINK,0.06268998010403681,0.06268998010403681,0.06268998010403681,0.06268998010403681,0.9336920021357689,0.9336920021357689,0.9336920021357689,0.9336920021357689,0.0,0.0,0.0,0.0
160534000000,1791,160534000000,,BL_TO_BASELINK,BR_TO_BASELINK,FL_TO_BASELINK,FR_TO_BASELINK,0.06362367210786868,0.06362367210786868,0.06362367210786868,0.06362367210786868,0.9336920013478021,0.9336920013478021,0.9336920013478021,0.9336920013478021,0.0,0.0,0.0,0.0
160535000000,1792,160535000000,,BL_TO_BASELINK,BR_TO_BASELINK,FL_TO_BASELINK,FR_TO_BASELINK,0.06455736411416879,0.06455736411416879,0.06455736411416879,0.06455736411416879,0.9336920020147735,0.9336920020147736,0.9336920020147735,0.9336920020147735,0.0,0.0,0.0,0.0
160536000000,1793,160536000000,,BL_TO_BASELINK,BR_TO_BASELINK,FL_TO_BASELINK,FR_TO_BASELINK,0.06549105612748285,0.06549105612748285,0.06549105612748285,0.06549105612748285,0.9336920014337111,0.9336920014337111,0.9336920014337111,0.9336920014337111,0.0,0.0,0.0,0.0
160537000000,1794,160537000000,,BL_TO_BASELINK,BR_TO_BASELINK,FL_TO_BASELINK,FR_TO_BASELINK,0.06642474813306976,0.06642474813306976,0.06642474813306976,0.06642474813306976,0.9336921179285976,0.9336921179285976,0.9336921179285976,0.9336921179285976,0.0,0.0,0.0,0.0
160538000000,1795,160538000000,,BL_TO_BASELINK,BR_TO_BASELINK,FL_TO_BASELINK,FR_TO_BASELINK,0.06735844010476821,0.06735844010476821,0.06735844010476821,0.06735844010476821,0.9336921047695608,0.9336921047695608,0.9336921047695608,0.9336921047695608,0.0,0.0,0.0,0.0
160539000000,1796,160539000000,,BL_TO_BASELINK,BR_TO_BASELINK,FL_TO_BASELINK,FR_TO_BASELINK,0.068292132049665,0.068292132049665,0.068292132049665,0.068292132049665,0.9336920207596024,0.9336920207596024,0.9336920207596024,0.9336920207596024,0.0,0.0,0.0,0.0
160540000000,1797,160540000000,,BL_TO_BASELINK,BR_TO_BASELINK,FL_TO_BASELINK,FR_TO_BASELINK,0.0692258240168604,0.0692258240168604,0.0692258240168604,0.0692258240168604,0.9336920091813105,0.9336920091813105,0.9336920091813105,0.9336920091813105,0.0,0.0,0.0,0.0
160541000000,1798,160541000000,,BL_TO_BASELINK,BR_TO_BASELINK,FL_TO_BASELINK,FR_TO_BASELINK,0.07015951599454073,0.07015951599454073,0.07015951599454073,0.07015951599454073,0.9336919995742552,0.9336919995742552,0.9336919995742552,0.9336919995742552,0.0,0.0,0.0,0.0
160542000000,1799,160542000000,,BL_TO_BASELINK,BR_TO_BASELINK,FL_TO_BASELINK,FR_TO_BASELINK,0.07109320799654384,0.07109320799654384,0.07109320799654384,0.07109320799654384,0.9336920042365955,0.9336920042365955,0.9336920042365954,0.9336920042365955,0.0,0.0,0.0,0.0
160543000000,1800,160543000000,,BL_TO_BASELINK,BR_TO_BASELINK,FL_TO_BASELINK,FR_TO_BASELINK,0.0720269000067173,0.0720269000067173,0.0720269000067173,0.0720269000067173,0.9336919995556776,0.9336919995556777,0.9336919995556777,0.9336919995556777,0.0,0.0,0.0,0.0
160544000000,1801,160544000000,,BL_TO_BASELINK,BR_TO_BASELINK,FL_TO_BASELINK,FR_TO_BASELINK,0.07296059203272875,0.07296059203272875,0.07296059203272875,0.07296059203272875,0.933692003159536,0.933692003159536,0.9336920031595359,0.9336920031595359,0.0,0.0,0.0,0.0
160545000000,1802,160545000000,,BL_TO_BASELINK,BR_TO_BASELINK,FL_TO_BASELINK,FR_TO_BASELINK,0.0738942840616783,0.0738942840616783,0.0738942840616783,0.0738942840616783,0.9336920005940393,0.9336920005940393,0.9336920005940393,0.9336920005940393,0.0,0.0,0.0,0.0
160546000000,1803,160546000000,,BL_TO_BASELINK,BR_TO_BASELINK,FL_TO_BASELINK,FR_TO_BASELINK,0.07482797609667013,0.07482797609667013,0.07482797609667013,0.07482797609667013,0.9336920033382002,0.9336920033382001,0.9336920033382001,0.9336920033382001,0.0,0.0,0.0,0.0
160547000000,1804,160547000000,,BL_TO_BASELINK,BR_TO_BASELINK,FL_TO_BASELINK,FR_TO_BASELINK,0.07576166814103935,0.07576166814103935,0.07576166814103935,0.07576166814103935,0.9336920528120081,0.9336920528120081,0.9336920528120081,0.9336920528120081,0.0,0.0,0.0,0.0
160548000000,1805,160548000000,,BL_TO_BASELINK,BR_TO_BASELINK,FL_TO_BASELINK,FR_TO_BASELINK,0.07669536016662803,0.07669536016662803,0.07669536016662803,0.07669536016662803,0.9336920184148879,0.933692018414888,0.933692018414888,0.933692018414888,0.0,0.0,0.0,0.0
160549000000,1806,160549000000,,BL_TO_BASELINK,BR_TO_BASELINK,FL_TO_BASELINK,FR_TO_BASELINK,0.07762905217562732,0.07762905217562732,0.07762905217562732,0.07762905217562732,0.9336920009014668,0.9336920009014669,0.9336920009014669,0.9336920009014669,0.0,0.0,0.0,0.0
160550000000,1807,160550000000,,BL_TO_BASELINK,BR_TO_BASELINK,FL_TO_BASELINK,FR_TO_BASELINK,0.07856274418509734,0.07856274418509734,0.07856274418509734,0.07856274418509734,0.9336920075356765,0.9336920075356765,0.9336920075356764,0.9336920075356764,0.0,0.0,0.0,0.0
160551000000,1808,160551000000,,BL_TO_BASELINK,BR_TO_BASELINK,FL_TO_BASELINK,FR_TO_BASELINK,0.07949643618265778,0.07949643618265778,0.07949643618265778,0.07949643618265778,0.9336919999968384,0.9336919999968384,0.9336919999968384,0.9336919999968384,0.0,0.0,0.0,0.0
160552000000,1809,160552000000,,BL_TO_BASELINK,BR_TO_BASELINK,FL_TO_BASELINK,FR_TO_BASELINK,0.08043012818251594,0.08043012818251594,0.08043012818251594,0.08043012818251594,0.9336920059704267,0.9336920059704267,0.9336920059704267,0.9336920059704266,0.0,0.0,0.0,0.0
160553000000,1810,160553000000,,BL_TO_BASELINK,BR_TO_BASELINK,FL_TO_BASELINK,FR_TO_BASELINK,0.08136382017320809,0.08136382017320809,0.08136382017320809,0.08136382017320809,0.9336919998741189,0.9336919998741189,0.9336919998741189,0.9336919998741189,0.0,0.0,0.0,0.0
160554000000,1811,160554000000,,BL_TO_BASELINK,BR_TO_BASELINK,FL_TO_BASELINK,FR_TO_BASELINK,0.08229751216826386,0.08229751216826386,0.08229751216826386,0.08229751216826386,0.9336920049059473,0.9336920049059473,0.9336920049059473,0.9336920049059473,0.0,0.0,0.0,0.0
160555000000,1812,160555000000,,BL_TO_BASELINK,BR_TO_BASELINK,FL_TO_BASELINK,FR_TO_BASELINK,0.08323120415628793,0.08323120415628793,0.08323120415628793,0.08323120415628793,0.9336919997024563,0.9336919997024563,0.9336919997024563,0.9336919997024563,0.0,0.0,0.0,0.0
160556000000,1813,160556000000,,BL_TO_BASELINK,BR_TO_BASELINK,FL_TO_BASELINK,FR_TO_BASELINK,0.08416489615363432,0.08416489615363432,0.08416489615363432,0.08416489615363432,0.9336920808467064,0.9336920808467064,0.9336920808467064,0.9336920808467064,0.0,0.0,0.0,0.0
160557000000,1814,160557000000,,BL_TO_BASELINK,BR_TO_BASELINK,FL_TO_BASELINK,FR_TO_BASELINK,0.08509858807666859,0.08509858807666859,0.08509858807666859,0.08509858807666859,0.9336921216727295,0.9336921216727295,0.9336921216727295,0.9336921216727295,0.0,0.0,0.0,0.0
160558000000,1815,160558000000,,BL_TO_BASELINK,BR_TO_BASELINK,FL_TO_BASELINK,FR_TO_BASELINK,0.08603228010568742,0.08603228010568742,0.08603228010568742,0.08603228010568742,0.9336921218480453,0.9336921218480453,0.9336921218480453,0.9336921218480453,0.0,0.0,0.0,0.0
160559000000,1816,160559000000,,BL_TO_BASELINK,BR_TO_BASELINK,FL_TO_BASELINK,FR_TO_BASELINK,0.08696597206575518,0.08696597206575518,0.08696597206575518,0.08696597206575518,0.9336921248237836,0.9336921248237838,0.9336921248237836,0.9336921248237838,0.0,0.0,0.0,0.0
160560000000,1817,160560000000,,BL_TO_BASELINK,BR_TO_BASELINK,FL_TO_BASELINK,FR_TO_BASELINK,0.08789966402223914,0.08789966402223914,0.08789966402223914,0.08789966402223914,0.933692049437326,0.9336920494373258,0.9336920494373258,0.9336920494373258,0.0,0.0,0.0,0.0
160561000000,1818,160561000000,,BL_TO_BASELINK,BR_TO_BASELINK,FL_TO_BASELINK,FR_TO_BASELINK,0.08883335597281228,0.08883335597281228,0.08883335597281228,0.08883335597281228,0.9336920003639559,0.9336920003639559,0.9336920003639559,0.9336920003639559,0.0,0.0,0.0,0.0
160562000000,1819,160562000000,,BL_TO_BASELINK,BR_TO_BASELINK,FL_TO_BASELINK,FR_TO_BASELINK,0.08976704795605972,0.08976704795605972,0.08976704795605972,0.08976704795605972,0.9336920106345572,0.9336920106345572,0.9336920106345572,0.9336920106345572,0.0,0.0,0.0,0.0
160563000000,1820,160563000000,,BL_TO_BASELINK,BR_TO_BASELINK,FL_TO_BASELINK,FR_TO_BASELINK,0.09070073994630778,0.09070073994630778,0.09070073994630778,0.09070073994630778,0.9336919966348508,0.9336919966348508,0.9336919966348508,0.9336919966348508,0.0,0.0,0.0,0.0
160564000000,1821,160564000000,,BL_TO_BASELINK,BR_TO_BASELINK,FL_TO_BASELINK,FR_TO_BASELINK,0.09163443196095322,0.09163443196095322,0.09163443196095322,0.09163443196095322,0.9336920070721062,0.9336920070721062,0.9336920070721062,0.9336920070721062,0.0,0.0,0.0,0.0
160565000000,1822,160565000000,,BL_TO_BASELINK,BR_TO_BASELINK,FL_TO_BASELINK,FR_TO_BASELINK,0.09256812397943293,0.09256812397943293,0.09256812397943293,0.09256812397943293,0.9336919988361886,0.9336919988361886,0.9336919988361886,0.9336919988361886,0.0,0.0,0.0,0.0
160566000000,1823,160566000000,,BL_TO_BASELINK,BR_TO_BASELINK,FL_TO_BASELINK,FR_TO_BASELINK,0.09350181601178242,0.09350181601178242,0.09350181601178242,0.09350181601178242,0.9336920049660563,0.9336920049660563,0.9336920049660563,0.9336920049660563,0.0,0.0,0.0,0.0
160567000000,1824,160567000000,,BL_TO_BASELINK,BR_TO_BASELINK,FL_TO_BASELINK,FR_TO_BASELINK,0.09443550805899115,0.09443550805899115,0.09443550805899115,0.09443550805899115,0.933692051645878,0.933692051645878,0.933692051645878,0.933692051645878,0.0,0.0,0.0,0.0
160568000000,1825,160568000000,,BL_TO_BASELINK,BR_TO_BASELINK,FL_TO_BASELINK,FR_TO_BASELINK,0.09536920008721772,0.09536920008721772,0.09536920008721772,0.09536920008721772,0.9336921234495947,0.9336921234495947,0.9336921234495947,0.9336921234495947,0.0,0.0,0.0,0.0
160569000000,1826,160569000000,,BL_TO_BASELINK,BR_TO_BASELINK,FL_TO_BASELINK,FR_TO_BASELINK,0.09630289208583864,0.09630289208583864,0.09630289208583864,0.09630289208583864,0.933692047507048,0.933692047507048,0.933692047507048,0.9336920475070478,0.0,0.0,0.0,0.0
160570000000,1827,160570000000,,BL_TO_BASELINK,BR_TO_BASELINK,FL_TO_BASELINK,FR_TO_BASELINK,0.09723658407844304,0.09723658407844304,0.09723658407844304,0.09723658407844304,0.933692000085893,0.933692000085893,0.933692000085893,0.933692000085893,0.0,0.0,0.0,0.0
160571000000,1828,160571000000,,BL_TO_BASELINK,BR_TO_BASELINK,FL_TO_BASELINK,FR_TO_BASELINK,0.09817027608524853,0.09817027608524853,0.09817027608524853,0.09817027608524853,0.9336920110738408,0.9336920110738408,0.9336920110738408,0.9336920110738408,0.0,0.0,0.0,0.0
160572000000,1829,160572000000,,BL_TO_BASELINK,BR_TO_BASELINK,FL_TO_BASELINK,FR_TO_BASELINK,0.0991039680979684,0.0991039680979684,0.0991039680979684,0.0991039680979684,0.933691995973823,0.933691995973823,0.933691995973823,0.933691995973823,0.0,0.0,0.0,0.0
160573000000,1830,160573000000,,BL_TO_BASELINK,BR_TO_BASELINK,FL_TO_BASELINK,FR_TO_BASELINK,0.10003766012027793,0.10003766012027793,0.10003766012027793,0.10003766012027793,0.9336920072664285,0.9336920072664285,0.9336920072664285,0.9336920072664285,0.0,0.0,0.0,0.0
160574000000,1831,160574000000,,BL_TO_BASELINK,BR_TO_BASELINK,FL_TO_BASELINK,FR_TO_BASELINK,0.10097135214518804,0.10097135214518804,0.10097135214518804,0.10097135214518804,0.933691998742158,0.933691998742158,0.933691998742158,0.933691998742158,0.0,0.0,0.0,0.0
160575000000,1832,160575000000,,BL_TO_BASELINK,BR_TO_BASELINK,FL_TO_BASELINK,FR_TO_BASELINK,0.10190504417293589,0.10190504417293589,0.10190504417293589,0.10190504417293589,0.9336920053258411,0.9336920053258411,0.9336920053258411,0.9336920053258411,0.0,0.0,0.0,0.0
160576000000,1833,160576000000,,BL_TO_BASELINK,BR_TO_BASELINK,FL_TO_BASELINK,FR_TO_BASELINK,0.10283873619984263,0.10283873619984263,0.10283873619984263,0.10283873619984263,0.9336920008451105,0.9336920008451105,0.9336920008451105,0.9336920008451105,0.0,0.0,0.0,0.0
160577000000,1834,160577000000,,BL_TO_BASELINK,BR_TO_BASELINK,FL_TO_BASELINK,FR_TO_BASELINK,0.10377242822356969,0.10377242822356969,0.10377242822356969,0.10377242822356969,0.9336920043410204,0.9336920043410204,0.9336920043410204,0.9336920043410204,0.0,0.0,0.0,0.0
160578000000,1835,160578000000,,BL_TO_BASELINK,BR_TO_BASELINK,FL_TO_BASELINK,FR_TO_BASELINK,0.10470612024354331,0.10470612024354331,0.10470612024354331,0.10470612024354331,0.9336920019403709,0.9336920019403709,0.9336920019403708,0.9336920019403708,0.0,0.0,0.0,0.0
160579000000,1836,160579000000,,BL_TO_BASELINK,BR_TO_BASELINK,FL_TO_BASELINK,FR_TO_BASELINK,0.1056398122558333,0.1056398122558333,0.1056398122558333,0.1056398122558333,0.933692003352855,0.933692003352855,0.933692003352855,0.933692003352855,0.0,0.0,0.0,0.0
160580000000,1837,160580000000,,BL_TO_BASELINK,BR_TO_BASELINK,FL_TO_BASELINK,FR_TO_BASELINK,0.10657350426385293,0.10657350426385293,0.10657350426385293,0.10657350426385293,0.9336920025549407,0.9336920025549407,0.9336920025549407,0.9336920025549407,0.0,0.0,0.0,0.0
160581000000,1838,160581000000,,BL_TO_BASELINK,BR_TO_BASELINK,FL_TO_BASELINK,FR_TO_BASELINK,0.1075071962628229,0.1075071962628229,0.1075071962628229,0.1075071962628229,0.9336920026950128,0.9336920026950128,0.9336920026950128,0.9336920026950128,0.0,0.0,0.0,0.0
160582000000,1839,160582000000,,BL_TO_BASELINK,BR_TO_BASELINK,FL_TO_BASELINK,FR_TO_BASELINK,0.10844088825973497,0.10844088825973497,0.10844088825973497,0.10844088825973497,0.9336920027567225,0.9336920027567224,0.9336920027567224,0.9336920027567224,0.0,0.0,0.0,0.0
160583000000,1840,160583000000,,BL_TO_BASELINK,BR_TO_BASELINK,FL_TO_BASELINK,FR_TO_BASELINK,0.10937458024938884,0.10937458024938884,0.10937458024938884,0.10937458024938884,0.9336920023123358,0.9336920023123358,0.9336920023123358,0.9336920023123358,0.0,0.0,0.0,0.0
160584000000,1841,160584000000,,BL_TO_BASELINK,BR_TO_BASELINK,FL_TO_BASELINK,FR_TO_BASELINK,0.11030827223854711,0.11030827223854711,0.11030827223854711,0.11030827223854711,0.933692001959242,0.933692001959242,0.933692001959242,0.933692001959242,0.0,0.0,0.0,0.0
160585000000,1842,160585000000,,BL_TO_BASELINK,BR_TO_BASELINK,FL_TO_BASELINK,FR_TO_BASELINK,0.11124196422184607,0.11124196422184607,0.11124196422184607,0.11124196422184607,0.9336920020453684,0.9336920020453684,0.9336920020453684,0.9336920020453684,0.0,0.0,0.0,0.0
160586000000,1843,160586000000,,BL_TO_BASELINK,BR_TO_BASELINK,FL_TO_BASELINK,FR_TO_BASELINK,0.11217565620697556,0.11217565620697556,0.11217565620697556,0.11217565620697556,0.9336920019448792,0.9336920019448792,0.9336920019448792,0.9336920019448792,0.0,0.0,0.0,0.0
160587000000,1844,160587000000,,BL_TO_BASELINK,BR_TO_BASELINK,FL_TO_BASELINK,FR_TO_BASELINK,0.11310934818763663,0.11310934818763663,0.11310934818763663,0.11310934818763663,0.9336920020048919,0.9336920020048919,0.9336920020048919,0.9336920020048917,0.0,0.0,0.0,0.0
160588000000,1845,160588000000,,BL_TO_BASELINK,BR_TO_BASELINK,FL_TO_BASELINK,FR_TO_BASELINK,0.11404304017266487,0.11404304017266487,0.11404304017266487,0.11404304017266487,0.9336920807080318,0.9336920807080318,0.9336920807080318,0.9336920807080318,0.0,0.0,0.0,0.0
160589000000,1846,160589000000,,BL_TO_BASELINK,BR_TO_BASELINK,FL_TO_BASELINK,FR_TO_BASELINK,0.11497673208336678,0.11497673208336678,0.11497673208336678,0.11497673208336678,0.933692123168071,0.933692123168071,0.933692123168071,0.9336921231680713,0.0,0.0,0.0,0.0
160590000000,1847,160590000000,,BL_TO_BASELINK,BR_TO_BASELINK,FL_TO_BASELINK,FR_TO_BASELINK,0.11591042411554575,0.11591042411554575,0.11591042411554575,0.11591042411554575,0.9336921248466907,0.933692124846691,0.933692124846691,0.9336921248466907,0.0,0.0,0.0,0.0
160591000000,1848,160591000000,,BL_TO_BASELINK,BR_TO_BASELINK,FL_TO_BASELINK,FR_TO_BASELINK,0.11684411607993361,0.11684411607993361,0.11684411607993361,0.11684411607993361,0.9336921258926425,0.9336921258926425,0.9336921258926425,0.9336921258926425,0.0,0.0,0.0,0.0
160592000000,1849,160592000000,,BL_TO_BASELINK,BR_TO_BASELINK,FL_TO_BASELINK,FR_TO_BASELINK,0.11777780796372728,0.11777780796372728,0.11777780796372728,0.11777780796372728,0.9336921250453936,0.9336921250453936,0.9336921250453936,0.9336921250453936,0.0,0.0,0.0,0.0
160593000000,1850,160593000000,,BL_TO_BASELINK,BR_TO_BASELINK,FL_TO_BASELINK,FR_TO_BASELINK,0.11871149999137565,0.11871149999137565,0.11871149999137565,0.11871149999137565,0.9336921259745871,0.9336921259745873,0.9336921259745873,0.9336921259745873,0.0,0.0,0.0,0.0
160594000000,1851,160594000000,,BL_TO_BASELINK,BR_TO_BASELINK,FL_TO_BASELINK,FR_TO_BASELINK,0.11964519195754875,0.11964519195754875,0.11964519195754875,0.11964519195754875,0.933692125309395,0.933692125309395,0.933692125309395,0.933692125309395,0.0,0.0,0.0,0.0
160595000000,1852,160595000000,,BL_TO_BASELINK,BR_TO_BASELINK,FL_TO_BASELINK,FR_TO_BASELINK,0.12057888402794426,0.12057888402794426,0.12057888402794426,0.12057888402794426,0.9336921258981388,0.9336921258981389,0.9336921258981389,0.9336921258981389,0.0,0.0,0.0,0.0
160596000000,1853,160596000000,,BL_TO_BASELINK,BR_TO_BASELINK,FL_TO_BASELINK,FR_TO_BASELINK,0.12151257605197507,0.12151257605197507,0.12151257605197507,0.12151257605197507,0.9336921255990618,0.9336921255990618,0.9336921255990618,0.9336921255990618,0.0,0.0,0.0,0.0
160597000000,1854,160597000000,,BL_TO_BASELINK,BR_TO_BASELINK,FL_TO_BASELINK,FR_TO_BASELINK,0.12244626814815707,0.12244626814815707,0.12244626814815707,0.12244626814815707,0.9336921259161297,0.9336921259161297,0.9336921259161297,0.9336921259161297,0.0,0.0,0.0,0.0
160598000000,1855,160598000000,,BL_TO_BASELINK,BR_TO_BASELINK,FL_TO_BASELINK,FR_TO_BASELINK,0.1233799602081751,0.1233799602081751,0.1233799602081751,0.1233799602081751,0.9336921258337778,0.9336921258337778,0.9336921258337777,0.9336921258337778,0.0,0.0,0.0,0.0
160599000000,1856,160599000000,,BL_TO_BASELINK,BR_TO_BASELINK,FL_TO_BASELINK,FR_TO_BASELINK,0.12431365220707136,0.12431365220707136,0.12431365220707136,0.12431365220707136,0.9336921260793034,0.9336921260793034,0.9336921260793034,0.9336921260793034,0.0,0.0,0.0,0.0
160600000000,1857,160600000000,,BL_TO_BASELINK,BR_TO_BASELINK,FL_TO_BASELINK,FR_TO_BASELINK,0.12524734428695883,0.12524734428695972,0.12524734428695883,0.12524734428695972,0.9336921258009814,0.9336921258009814,0.9336921258009814,0.9336921258009814,0.0,0.0,0.0,0.0
160601000000,1858,160601000000,,BL_TO_BASELINK,BR_TO_BASELINK,FL_TO_BASELINK,FR_TO_BASELINK,0.12618103631452815,0.12618103631452815,0.12618103631452815,0.12618103631452815,0.9336921259054842,0.9336921259054842,0.933692125905484,0.933692125905484,0.0,0.0,0.0,0.0
160602000000,1859,160602000000,,BL_TO_BASELINK,BR_TO_BASELINK,FL_TO_BASELINK,FR_TO_BASELINK,0.1271147284076246,0.1271147284076246,0.1271147284076246,0.1271147284076246,0.9336921257110737,0.9336921257110739,0.9336921257110737,0.9336921257110737,0.0,0.0,0.0,0.0
160603000000,1860,160603000000,,BL_TO_BASELINK,BR_TO_BASELINK,FL_TO_BASELINK,FR_TO_BASELINK,0.12804842045685128,0.12804842045685128,0.12804842045685128,0.12804842045685128,0.9336921257926877,0.9336921257926876,0.9336921257926877,0.9336921257926877,0.0,0.0,0.0,0.0
160604000000,1861,160604000000,,BL_TO_BASELINK,BR_TO_BASELINK,FL_TO_BASELINK,FR_TO_BASELINK,0.12898211255791914,0.12898211255791914,0.12898211255791914,0.12898211255791914,0.9336921257703129,0.9336921257703128,0.9336921257703129,0.9336921257703129,0.0,0.0,0.0,0.0
160605000000,1862,160605000000,,BL_TO_BASELINK,BR_TO_BASELINK,FL_TO_BASELINK,FR_TO_BASELINK,0.1299158046213451,0.1299158046213451,0.1299158046213451,0.1299158046213451,0.9336921257486644,0.9336921257486644,0.9336921257486644,0.9336921257486644,0.0,0.0,0.0,0.0
160606000000,1863,160606000000,,BL_TO_BASELINK,BR_TO_BASELINK,FL_TO_BASELINK,FR_TO_BASELINK,0.13084949672619484,0.13084949672619484,0.13084949672619484,0.13084949672619484,0.9336921258700134,0.9336921258700134,0.9336921258700134,0.9336921258700134,0.0,0.0,0.0,0.0
160607000000,1864,160607000000,,BL_TO_BASELINK,BR_TO_BASELINK,FL_TO_BASELINK,FR_TO_BASELINK,0.13178318879284312,0.131783188792844,0.13178318879284312,0.131783188792844,0.9336921259295272,0.9336921259295272,0.9336921259295272,0.9336921259295272,0.0,0.0,0.0,0.0
160608000000,1865,160608000000,,BL_TO_BASELINK,BR_TO_BASELINK,FL_TO_BASELINK,FR_TO_BASELINK,0.13271688089626732,0.13271688089626732,0.13271688089626732,0.13271688089626732,0.9336921260051408,0.9336921260051408,0.9336921260051408,0.9336921260051408,0.0,0.0,0.0,0.0
