%time,field.header.seq,field.header.stamp,field.header.frame_id,field.wrench.force.x,field.wrench.force.y,field.wrench.force.z,field.wrench.torque.x,field.wrench.torque.y,field.wrench.torque.z
1788202000000,12444,1788200000000,FL_wheel_link,0.17865431707316842,0.014909380366594931,-0.32790090966510743,0.024413646999416345,-0.008752906890717824,0.020360942358510693
1788202000000,12445,1788201000000,FL_wheel_link,-0.5948863560815327,-1.3339342589554803,1.4362797779956034,-0.18892329558383839,0.03854237627237003,-0.05105959586658892
1788202000000,12446,1788202000000,FL_wheel_link,-0.025578910588122308,0.003888302285247036,-0.03038034111625682,0.0021567897819363283,0.0029815872537237347,-0.002646949081248612
1788203000000,12447,1788203000000,FL_wheel_link,0.17866671580168605,0.014880668440000612,-0.3279216428396385,0.024413920024780624,-0.008753305290453976,0.02036206908866479
1788204000000,12448,1788204000000,FL_wheel_link,-0.5948677387174475,-1.3338989299928894,1.436502518766902,-0.18893871640082993,0.03854082825071479,-0.05105878624337583
1788205000000,12449,1788205000000,FL_wheel_link,-0.025580976232738535,0.003888234912105643,-0.0303678547345914,0.0021560704995253355,0.002981706452064537,-0.002647055077633508
1788206000000,12450,1788206000000,FL_wheel_link,0.17867902012065048,0.014851442916750866,-0.32794227214002336,0.024414182773860774,-0.008753700820033534,0.0203632003942613
1788207000000,12451,1788207000000,FL_wheel_link,-0.5948440013474398,-1.3338683810490293,1.4366851519673354,-0.1889511957378207,0.038538792197580864,-0.051057398985611485
1788208000000,12452,1788208000000,FL_wheel_link,-0.025583204164581593,0.003888348552840324,-0.03035649551998666,0.0021554297736494643,0.002981834487760072,-0.002647175784088645
1788209000000,12453,1788209000000,FL_wheel_link,0.1786915509507791,0.014823174951470158,-0.32796321169024784,0.024414472999980504,-0.008754104780510981,0.020364329567393653
1788210000000,12454,1788210000000,FL_wheel_link,-0.5948242286248688,-1.3338357556332299,1.436883419519265,-0.18896482571689696,0.03853712009528426,-0.05105643377397852
1788211000000,12455,1788211000000,FL_wheel_link,-0.025585460217024614,0.0038884403546098354,-0.030344791993542203,0.0021547653635543484,0.002981967549670235,-0.002647300417302193
1788212000000,12456,1788212000000,FL_wheel_link,0.1787040269791261,0.014794737738746348,-0.3279840502375075,0.02441475482837286,-0.008754506031494021,0.020365456599164937
1788213000000,12457,1788213000000,FL_wheel_link,-0.5948057902297839,-1.3338005383930676,1.4371020256372335,-0.18897994211886676,0.038535578406253365,-0.0510556411791271
1788213000000,12458,1788214000000,FL_wheel_link,-0.025587747989670093,0.0038885713018285183,-0.03033161891217586,0.0021540008348488243,0.0029821106837341375,-0.0026474320118637226
1788215000000,12459,1788215000000,FL_wheel_link,0.17871645414979237,0.01476552369989987,-0.3280048481994156,0.02441502970443146,-0.008754906096841281,0.02036659935698614
1788216000000,12460,1788216000000,FL_wheel_link,-0.5947848194485803,-1.3337665639477798,1.4373116281142295,-0.18899439845464802,0.03853379166025554,-0.051054577165375176
1788217000000,12461,1788217000000,FL_wheel_link,-0.025590162965794423,0.003888854201160513,-0.030317873263552408,0.0021531985941483913,0.0029822676656214636,-0.002647578352879358
1788218000000,12462,1788218000000,FL_wheel_link,0.17872898356996747,0.01473620899297393,-0.328025806618199,0.02441531573586138,-0.008755310452749972,0.020367755279527628
1788219000000,12463,1788219000000,FL_wheel_link,-0.594762547093235,-1.3337347649058027,1.4375039773935074,-0.18900759578970694,0.03853186917775028,-0.051053347955382564
1788220000000,12464,1788220000000,FL_wheel_link,-0.025592692306621135,0.0038892411577046942,-0.030304641388982992,0.002152432528231301,0.0029824325893005156,-0.0026477355328601857
1788221000000,12465,1788221000000,FL_wheel_link,0.17874162977007016,0.01470736925971608,-0.32804689840621554,0.024415613766496064,-0.008755718465985787,0.02036890950153467
1788222000000,12466,1788222000000,FL_wheel_link,-0.5947420056307781,-1.333702362061436,1.4376999597905502,-0.1890210626011331,0.038530105050855516,-0.05105229885782033
1788223000000,12467,1788223000000,FL_wheel_link,-0.02559526678348386,0.0038896476699246045,-0.030291369488665926,0.002151663944381515,0.0029826023919793747,-0.002647897782537246
1788223000000,12468,1788224000000,FL_wheel_link,0.17875428625719691,0.014678576529975975,-0.3280679733917577,0.024415910648193383,-0.008756126061755933,0.020370062291028123
1788225000000,12469,1788225000000,FL_wheel_link,-0.5947230466565684,-1.3336680922707427,1.4379120209151117,-0.18903570995854554,0.03852849697407957,-0.05105143686496101
1788226000000,12470,1788226000000,FL_wheel_link,-0.02559775821531905,0.0038899783035993233,-0.030277620909570015,0.002150862192378889,0.002982767102187386,-0.0026480523370700903
1788227000000,12471,1788227000000,FL_wheel_link,0.17876685477878543,0.01464935958569091,-0.3280889218158093,0.024416195994146107,-0.008756530219050611,0.020371216859413663
1788227000000,12472,1788228000000,FL_wheel_link,-0.5947016103458773,-1.3336355694189828,1.438110024580585,-0.18904932641095784,0.03852665888763141,-0.05105030591030059
1788229000000,12473,1788229000000,FL_wheel_link,-0.025600277172749725,0.003890360648928173,-0.03026423451720397,0.0021500856517623025,0.0029829322568397164,-0.0026482090101535467
1788230000000,12474,1788230000000,FL_wheel_link,0.17877949792182662,0.014620413896592119,-0.32810997416935456,0.02441649022370175,-0.008756937192983455,0.020372371831379375
1788231000000,12475,1788231000000,FL_wheel_link,-0.5946804176878063,-1.3336035046961021,1.4383034287562109,-0.18906260785850526,0.038524838656626974,-0.051049192483462326
1788232000000,12476,1788232000000,FL_wheel_link,-0.02560285385133272,0.0038907863756794782,-0.03025101883784918,0.0021493211628444285,0.002983102081818755,-0.0026483715433978927
1788233000000,12477,1788233000000,FL_wheel_link,0.17879218400882668,0.01459166895331861,-0.3281310710829674,0.024416788608951846,-0.008757345395816431,0.020373525303884175
1788234000000,12478,1788234000000,FL_wheel_link,-0.5946610914949668,-1.333569686038135,1.4385115721461557,-0.1890769713800558,0.0385231973215563,-0.05104829136709857
1788235000000,12479,1788235000000,FL_wheel_link,-0.02560537255118121,0.0038911488375116357,-0.03023738814513721,0.0021485278177074654,0.0029832688327579037,-0.002648528865008648
1788236000000,12480,1788236000000,FL_wheel_link,0.1788047911672085,0.014562572560089259,-0.32815205681702686,0.024417076960107118,-0.008757750576074873,0.020374679716619992
1788237000000,12481,1788237000000,FL_wheel_link,-0.5946403449886362,-1.3335365521416462,1.4387146923796335,-0.18909096576476417,0.03852142672782506,-0.05104724120578984
1788238000000,12482,1788238000000,FL_wheel_link,-0.025607877695358144,0.0038915176524738637,-0.03022386110539072,0.0021477416454440583,0.0029834335461497393,-0.002648684436041069
1788239000000,12483,1788239000000,FL_wheel_link,0.17881741714570196,0.01453351471316176,-0.3281730767309932,0.024417367914368285,-0.008758156667454036,0.020375835199147416
1788240000000,12484,1788240000000,FL_wheel_link,-0.594618845128599,-1.3335044545450887,1.4389087581303432,-0.18910429693303102,0.03851958143244626,-0.051046100948407724
1788241000000,12485,1788241000000,FL_wheel_link,-0.025610438641780725,0.003891937733899034,-0.030210609147835934,0.0021469747348536435,0.002983602008272952,-0.0026488453250497787
1788242000000,12486,1788242000000,FL_wheel_link,0.1788301017928612,0.014504713141480403,-0.32819417190681205,0.024417665564595542,-0.008758564808527726,0.02037698965270678
1788243000000,12487,1788243000000,FL_wheel_link,-0.5945989383005704,-1.3334711422757113,1.4391127185202761,-0.18911835477944067,0.03851788587472615,-0.05104513672016775
1788244000000,12488,1788244000000,FL_wheel_link,-0.025612976309699036,0.0038923228349468566,-0.03019709519230232,0.002146189668712861,0.0029837698243995138,-0.0026490043257252137
1788245000000,12489,1788245000000,FL_wheel_link,0.17884273816206347,0.01447570694299222,-0.3282151960061296,0.024417956856787465,-0.00875897102053895,0.020378144264885722
1788246000000,12490,1788246000000,FL_wheel_link,-0.5945786339743762,-1.3334377108081916,1.4393182239867917,-0.18913252528013388,0.03851615702653912,-0.051044136117554574
1788247000000,12491,1788247000000,FL_wheel_link,-0.02561548236647017,0.0038926886338541402,-0.030183508713143993,0.002145399531511148,0.0029839349280939365,-0.002649160038949331
1788248000000,12492,1788248000000,FL_wheel_link,0.1788553587558699,0.014446598466292863,-0.3282362052213339,0.024418246439936963,-0.008759376812189999,0.020379300056753483
1788249000000,12493,1788249000000,FL_wheel_link,-0.5945572068560409,-1.33340536978861,1.4395145327936578,-0.1891460213883313,0.03851432073883956,-0.05104300821975597
1788250000000,12494,1788250000000,FL_wheel_link,-0.025618028907857502,0.0038930979200512235,-0.030170183782175217,0.0021446276739613777,0.0029841023317697868,-0.002649319424720271
1788251000000,12495,1788251000000,FL_wheel_link,0.17886803324239875,0.0144177110779274,-0.32825728761464384,0.02441854239284298,-0.008759784589731697,0.020380455403618606
1788252000000,12496,1788252000000,FL_wheel_link,-0.5945367757862392,-1.3333724604179256,1.439715206614076,-0.1891598385867185,0.038512576318473615,-0.05104198721549254
1788253000000,12497,1788253000000,FL_wheel_link,-0.025620579202287802,0.003893499297021251,-0.030156757592754782,0.002143848875205336,0.0029842707334399076,-0.002649479431128347
1788254000000,12498,1788254000000,FL_wheel_link,0.17888069192440856,0.014388761309760925,-0.32827834222307123,0.024418835876261438,-0.008760191616741958,0.020381610447257423
1788255000000,12499,1788255000000,FL_wheel_link,-0.5945166483114552,-1.3333389937922486,1.4399208552326959,-0.18917402042007753,0.038510863520042765,-0.05104100541081583
1788256000000,12500,1788256000000,FL_wheel_link,-0.02562309606943817,0.0038938722523557605,-0.030143175075871657,0.0021430592038685914,0.002984436786371291,-0.0026496361658117423
1788257000000,12501,1788257000000,FL_wheel_link,0.17889331981622225,0.014359654337953758,-0.32829935771193647,0.024419125592540416,-0.00876059757050611,0.02038276645461066
1788258000000,12502,1788258000000,FL_wheel_link,-0.5944954827042486,-1.3333063504768425,1.440119753217989,-0.1891877069536409,0.03850905310493111,-0.05103990899809424
1788259000000,12503,1788259000000,FL_wheel_link,-0.025625633405768185,0.0038942726336318855,-0.030129773965868127,0.00214228220469348,0.0029846036667855245,-0.0026497946071788983
1788260000000,12504,1788260000000,FL_wheel_link,0.17890598470865687,0.014330686269542248,-0.328320425566188,0.024419419739516238,-0.008761004940055887,0.020383922525262547
1788261000000,12505,1788261000000,FL_wheel_link,-0.5944746857302976,-1.3332736716507785,1.440318602000033,-0.1892013906674006,0.03850727517605766,-0.05103884943780164
1788262000000,12506,1788262000000,FL_wheel_link,-0.025628189286643673,0.003894683390129171,-0.030116392672316514,0.0021415066913289633,0.0029847722342690145,-0.0026499549636426994
1788263000000,12507,1788263000000,FL_wheel_link,0.17891865760430342,0.014301754616571915,-0.3283414989827292,0.024419714360950057,-0.008761412464472842,0.020385078152426985
1788264000000,12508,1788264000000,FL_wheel_link,-0.594454514391795,-1.3332403314789232,1.4405230802036573,-0.1892154874305292,0.03850555782018857,-0.05103786222236055
1788265000000,12509,1788265000000,FL_wheel_link,-0.025630719901709398,0.0038950684117789493,-0.030102848298903737,0.0021407198652978895,0.002984939311859433,-0.0026501129529667147
1788266000000,12510,1788266000000,FL_wheel_link,0.17893129978536523,0.014272675122672496,-0.32836253025970863,0.024420005037781977,-0.008761818838641109,0.020386234399806805
1788267000000,12511,1788267000000,FL_wheel_link,-0.59443363388868,-1.3332074336248454,1.4407240859657457,-0.18922932926769775,0.03850377494706646,-0.051036798841518
1788268000000,12512,1788268000000,FL_wheel_link,-0.025633253853321582,0.003895464255380942,-0.030089388635710597,0.002139938965458036,0.0029851061397295243,-0.0026502710408102814
1788269000000,12513,1788269000000,FL_wheel_link,0.17894395942427857,0.01424364711509107,-0.3283835879197274,0.024420297800480422,-0.008762225920936402,0.02038739103609388
1788270000000,12514,1788270000000,FL_wheel_link,-0.5944126510262149,-1.333174821870673,1.4409224752037684,-0.18924297973984852,0.03850198070401212,-0.05103572105623913
1788271000000,12515,1788271000000,FL_wheel_link,-0.025635810159670848,0.0038958786404983763,-0.03007601405714233,0.0021391640797757635,0.0029852746115573065,-0.002650431290610818
1788272000000,12516,1788272000000,FL_wheel_link,0.17895663928017685,0.014214702028067377,-0.3284046696590661,0.024420592631965894,-0.008762633658652232,0.02038854731429554
1788273000000,12517,1788273000000,FL_wheel_link,-0.5943923085162255,-1.333141669085655,1.441125336062403,-0.189256958586781,0.03850024721383914,-0.051034715057114814
1788274000000,12518,1788274000000,FL_wheel_link,-0.02563835316289337,0.0038962762310603377,-0.030062516982514158,0.0021383807288062316,0.0029854425225872517,-0.0026505903677768966
1788275000000,12519,1788275000000,FL_wheel_link,0.17896929736131192,0.014185653766657619,-0.32842571955549926,0.02442088449639814,-0.008763040529093203,0.020389703887138715
1788276000000,12520,1788276000000,FL_wheel_link,-0.5943716409859601,-1.3331086153104807,1.4413275882285854,-0.18927089262942753,0.03849848473730408,-0.051033676072099854
1788277000000,12521,1788277000000,FL_wheel_link,-0.025640888888795784,0.003896672331398273,-0.03004902490742594,0.002137597753684369,0.002985609644836264,-0.002650748597873805
1788278000000,12522,1788278000000,FL_wheel_link,0.17898195722114135,0.014156590621540174,-0.32844677397619637,0.024421176509039834,-0.008763447513990219,0.02039086097795137
1788279000000,12523,1788279000000,FL_wheel_link,-0.5943506213284522,-1.3330759583034968,1.44152643143815,-0.18928457694969902,0.03849668818169187,-0.05103259649776829
1788280000000,12524,1788280000000,FL_wheel_link,-0.025643443438067265,0.003897087068961894,-0.030035632946850428,0.002136821821316255,0.0029857779614205116,-0.0026509085681663247
1788281000000,12525,1788281000000,FL_wheel_link,0.17899463948217387,0.014127613879304227,-0.3284678573006059,0.024421470964094118,-0.008763855282625313,0.02039201790360706
1788282000000,12526,1788282000000,FL_wheel_link,-0.5943300738359926,-1.3330429791207523,1.4417278417209134,-0.18929845004309528,0.03849493575716299,-0.051031568668280264
1788283000000,12527,1788283000000,FL_wheel_link,-0.025645995677566293,0.0038974952336862097,-0.030022175816305712,0.002136041425866669,0.002985946440480663,-0.00265106841135321
1788284000000,12528,1788284000000,FL_wheel_link,0.1790073117219086,0.014098587255616885,-0.32848892408287245,0.024421763841401004,-0.008764262601140795,0.020393174897903966
1788285000000,12529,1788285000000,FL_wheel_link,-0.5943095133338515,-1.3330098714745071,1.4419304812049427,-0.18931241328069323,0.03849318354005203,-0.05103054206058767
1788286000000,12530,1788286000000,FL_wheel_link,-0.025648536781542414,0.003897895505872209,-0.03000867572871315,0.00213525807559777,0.002986114057661093,-0.002651227112106056
1788287000000,12531,1788287000000,FL_wheel_link,0.17901997665435349,0.014069509937401404,-0.3285099819154771,0.024422055697647153,-0.00876466966961399,0.020394332388529456
1788288000000,12532,1788288000000,FL_wheel_link,-0.594288548964148,-1.3329771174805896,1.4421301750229405,-0.18932616061235766,0.03849139314620757,-0.05102947053965696
1788289000000,12533,1788289000000,FL_wheel_link,-0.02565108985250932,0.0038983097866734213,-0.02999525727309922,0.002134480466668264,0.0029862823062397448,-0.00265138685689799
1788290000000,12534,1788290000000,FL_wheel_link,0.1790326597268883,0.014040496407890138,-0.32853106414468736,0.02442234955314185,-0.008765077397083234,0.02039548991703854
1788291000000,12535,1788291000000,FL_wheel_link,-0.5942678272935772,-1.332944258347392,1.4423306121349457,-0.1893399629305332,0.038489624960914674,-0.051028424768232085
1788292000000,12536,1788292000000,FL_wheel_link,-0.025653646090332428,0.003898704535932,-0.02998182448589157,0.002133701938161107,0.002986451121020515,-0.0026515465808124986
1788293000000,12537,1788293000000,FL_wheel_link,0.17904535658413073,0.014011408834112431,-0.32855214596557764,0.024422642810156946,-0.00876548512110423,0.020396649812655314
1788294000000,12538,1788294000000,FL_wheel_link,-0.5942486490938176,-1.3329091179084445,1.4425517794091625,-0.18935528852133676,0.0384880131728031,-0.051027572491931274
1788295000000,12539,1788295000000,FL_wheel_link,-0.025656067145770973,0.003898971841674137,-0.029967757698441892,0.0021328790109470482,0.002986610962664559,-0.002651693388956724
1788296000000,12540,1788296000000,FL_wheel_link,0.17905794041450077,0.013981704788141695,-0.32857306606269193,0.024422920897128362,-0.008765888438085652,0.020397813813163312
1788297000000,12541,1788297000000,FL_wheel_link,-0.5942259862763933,-1.3328761417725155,1.4427563583147265,-0.18936940116396447,0.038486083019491774,-0.05102635325905498
1788298000000,12542,1788298000000,FL_wheel_link,-0.025658492514146244,0.003899294870886029,-0.029954102160768648,0.0021320843787342447,0.0029867689258866246,-0.002651840303343506
1788299000000,12543,1788299000000,FL_wheel_link,0.17907060729255833,0.013952336679756625,-0.32859411043113945,0.024423209653375494,-0.008766295109265982,0.020398977709262585
1788300000000,12544,1788300000000,FL_wheel_link,-0.5942017299900908,-1.3328458675175645,1.4429366781121573,-0.18938174038929206,0.03848399413660504,-0.051024940544192814
1788301000000,12545,1788301000000,FL_wheel_link,-0.02566108442857294,0.0038997690391883886,-0.02994121351109022,0.002131343265087745,0.002986938741486177,-0.0026520037240588485
1788302000000,12546,1788302000000,FL_wheel_link,0.1790834407679373,0.013923749031202536,-0.32861536095397414,0.024423517317763817,-0.008766707413235212,0.020400137275222288
1788303000000,12547,1788303000000,FL_wheel_link,-0.5941821462205745,-1.332811953130778,1.4431467077671405,-0.18939626323772793,0.038482347260872546,-0.05102404847301474
1788304000000,12548,1788304000000,FL_wheel_link,-0.02566359883475005,0.0039001361412134526,-0.029927536140170224,0.0021305472831997666,0.002987106082806237,-0.002652160990497547
1788305000000,12549,1788305000000,FL_wheel_link,0.17909612677550255,0.013894566990531123,-0.32863639468387734,0.024423805972804285,-0.008767113842729653,0.02040129679675381
1788306000000,12550,1788306000000,FL_wheel_link,-0.5941610772644147,-1.3327779853323671,1.443358793771773,-0.1894109360336259,0.0384805735005648,-0.05102301544046649
1788307000000,12551,1788307000000,FL_wheel_link,-0.02566602772314229,0.0039004568113203586,-0.029913717903079118,0.00212974126644748,0.0029872658743421497,-0.002652309453693128
1788308000000,12552,1788308000000,FL_wheel_link,0.1791087781031015,0.013865165264219232,-0.32865740099652807,0.02442409142683612,-0.008767519489463985,0.020402459111809247
1788309000000,12553,1788309000000,FL_wheel_link,-0.5941369508320303,-1.332747080792169,1.4435449690643078,-0.189423709489787,0.038478506931930945,-0.05102163516378206
1788310000000,12554,1788310000000,FL_wheel_link,-0.025668572951716297,0.003900901046004453,-0.029900643958076206,0.002128987148588559,0.0029874324407871623,-0.002652468668721986
1788311000000,12555,1788311000000,FL_wheel_link,0.17912158008368412,0.013836413094076214,-0.3286786119335241,0.024424395042212534,-0.008767930695660456,0.020403619582632957
1788312000000,12556,1788312000000,FL_wheel_link,-0.5941158520562737,-1.3327143316062848,1.4437455481902097,-0.18943754204830054,0.0384767207998815,-0.05102058184981406
1788313000000,12557,1788313000000,FL_wheel_link,-0.025671115541524844,0.00390131007224886,-0.02988722387092628,0.0021282090997502036,0.002987600979577766,-0.0026526284837459597
1788314000000,12558,1788314000000,FL_wheel_link,0.17913432129241746,0.013807440836106036,-0.3286997248161315,0.024424690233824584,-0.00876833925564163,0.02040477902133108
1788315000000,12559,1788315000000,FL_wheel_link,-0.5940953752665952,-1.332680137917417,1.44395921938395,-0.18945233381559365,0.03847500223885608,-0.05101961392454589
1788316000000,12560,1788316000000,FL_wheel_link,-0.025673559794162044,0.0039016376412975883,-0.02987338393494629,0.0021274017148774456,0.0029877624169256274,-0.0026527786792526612
1788317000000,12561,1788317000000,FL_wheel_link,0.1791469750574667,0.013778044234636334,-0.32872073026280785,0.02442497531170302,-0.008768744870288066,0.02040594097031727
1788318000000,12562,1788318000000,FL_wheel_link,-0.5940719075762396,-1.3326483770817636,1.4441528855402788,-0.18946565761184642,0.038473001686856474,-0.051018314408275756
1788319000000,12563,1788319000000,FL_wheel_link,-0.02567606570850301,0.0039020456064912494,-0.029860086638244458,0.002126632126739708,0.002987926442564993,-0.0026529341299749353
1788320000000,12564,1788320000000,FL_wheel_link,0.17915973553949915,0.013749076697923048,-0.32874188830933476,0.024425273628803913,-0.008769154616840176,0.020407102639093556
1788321000000,12565,1788321000000,FL_wheel_link,-0.5940497023871865,-1.3326163384372176,1.4443478827197573,-0.18947908090582755,0.03847111345912305,-0.051017142933521595
1788322000000,12566,1788322000000,FL_wheel_link,-0.0256786169293751,0.0039024741842221705,-0.029846805874155002,0.0021258638804356957,0.0029880948410950284,-0.002653094407536547
1788323000000,12567,1788323000000,FL_wheel_link,0.17917250681732522,0.013720187271240407,-0.3287630477018171,0.02442557230786311,-0.00876956441617976,0.020408262786098075
1788324000000,12568,1788324000000,FL_wheel_link,-0.5940291978947951,-1.3325824326581537,1.4445588537246472,-0.18949367569242692,0.0384693902136208,-0.05101616863899927
1788325000000,12569,1788325000000,FL_wheel_link,-0.02568109038346,0.0039028249088845185,-0.02983305838536029,0.0021250631345846476,0.0029882584834267155,-0.002653247396969883
1788326000000,12570,1788326000000,FL_wheel_link,0.17918518558046592,0.013690876722741642,-0.3287840832586954,0.02442585967509381,-0.008769970839531481,0.02040942451735044
1788327000000,12571,1788327000000,FL_wheel_link,-0.5940065653449886,-1.332549910647896,1.4447588821790411,-0.189507466818284,0.03846746952194715,-0.05101496417031487
1788328000000,12572,1788328000000,FL_wheel_link,-0.025683576048692272,0.0039032089374530237,-0.029819583349559142,0.0021242813352020176,0.00298842153930279,-0.0026534009631845523
1788329000000,12573,1788329000000,FL_wheel_link,0.17919791638712942,0.013661747344466117,-0.3288051989055845,0.0244261537182336,-0.00877037941973501,0.02041058696924103
1788330000000,12574,1788330000000,FL_wheel_link,-0.5939837906777001,-1.332518113452517,1.4449521668257768,-0.18952076451356512,0.038465529948472896,-0.051013734083274705
1788331000000,12575,1788331000000,FL_wheel_link,-0.02568612251461704,0.003903641172799918,-0.02980633382420253,0.00212351539428799,0.0029885891580259598,-0.0026535605001660216
1788332000000,12576,1788332000000,FL_wheel_link,0.1792106978106637,0.013632850013324632,-0.32882637477759025,0.024426453218631527,-0.008770789645866259,0.020411748062088588
1788333000000,12577,1788333000000,FL_wheel_link,-0.5939628731178195,-1.3324847164786526,1.4451587194287558,-0.18953503599553193,0.03846376651664668,-0.05101271197480717
1788334000000,12578,1788334000000,FL_wheel_link,-0.025688624703509293,0.003904019423032861,-0.029792718399428212,0.002122724042736152,0.0029887547065338247,-0.0026537161258843775
1788335000000,12579,1788335000000,FL_wheel_link,0.1792234096924143,0.013603648717988782,-0.3288474518938297,0.024426743829145076,-0.00877119718795588,0.020412909792181848
1788336000000,12580,1788336000000,FL_wheel_link,-0.5939409202131665,-1.332451698849929,1.4453627377380829,-0.18954912071041818,0.03846190981703822,-0.05101158296522051
1788337000000,12581,1788337000000,FL_wheel_link,-0.025691106375372003,0.0039043940173309134,-0.029779139368936978,0.002121935196779704,0.0029889179422423993,-0.0026538693864597094
1788338000000,12582,1788338000000,FL_wheel_link,0.17923612714068776,0.013574429971633443,-0.3288685444712571,0.02442703537644785,-0.008771605131828834,0.020414072680066536
1788339000000,12583,1788339000000,FL_wheel_link,-0.5939180277653741,-1.332419798023649,1.4455571152931173,-0.18956249886359047,0.0384599614017367,-0.05101034412150669
1788340000000,12584,1788340000000,FL_wheel_link,-0.025693641177724085,0.0039048199552250682,-0.02976584647046803,0.0021211663799205705,0.0029890845852517923,-0.0026540276326912585
1788341000000,12585,1788341000000,FL_wheel_link,0.17924890507248245,0.013545468232286445,-0.3288897159232325,0.02442733387871314,-0.00877201522001339,0.020415234730626283
1788342000000,12586,1788342000000,FL_wheel_link,-0.5938965651609047,-1.332386899960061,1.4457594794590622,-0.18957646376626097,0.038458146498919904,-0.05100926160119838
1788343000000,12587,1788343000000,FL_wheel_link,-0.02569616396721959,0.0039052212633045834,-0.029752348688825495,0.0021203834000279647,0.002989251330218029,-0.0026541850572330402
1788344000000,12588,1788344000000,FL_wheel_link,0.1792616467737959,0.013516354684162752,-0.3289108314313759,0.024427627393240756,-0.008772423792396665,0.02041639672933889
1788345000000,12589,1788345000000,FL_wheel_link,-0.5938749981720395,-1.3323536820691917,1.4459649868331101,-0.18959065872871783,0.0384563256274766,-0.051008174586930854
1788346000000,12590,1788346000000,FL_wheel_link,-0.025698652829127044,0.0039055983618078915,-0.029738737426641633,0.0021195925102596947,0.0029894153995678255,-0.0026543390478880077
1788347000000,12591,1788347000000,FL_wheel_link,0.17927436546521172,0.013487109634668155,-0.3289319204366165,0.024427918191308892,-0.00877283163059285,0.020417559869710646
1788348000000,12592,1788348000000,FL_wheel_link,-0.5938522777070419,-1.3323215039111973,1.446161808410127,-0.18960421668674485,0.03845439517603286,-0.05100695818752052
1788349000000,12593,1788349000000,FL_wheel_link,-0.02570117586251543,0.0039060147780039453,-0.029725368887113055,0.00211881858324238,0.002989581269203835,-0.0026544960794195626
1788350000000,12594,1788350000000,FL_wheel_link,0.17928713424453457,0.013458063867507041,-0.32895307807884594,0.024428214907257537,-0.008773241328416385,0.020418722760549724
1788351000000,12595,1788351000000,FL_wheel_link,-0.5938303353639582,-1.3322889625820162,1.4463612687426834,-0.18961796913146078,0.03845253580692278,-0.05100582403574127
1788352000000,12596,1788352000000,FL_wheel_link,-0.025703709669794527,0.003906431170697285,-0.029711947748624203,0.002118041106294654,0.002989748523681601,-0.00265465437119219
1788353000000,12597,1788353000000,FL_wheel_link,0.1792998971525234,0.01342899737877178,-0.32897422126750087,0.02442851033679583,-0.008773650638221019,0.02041988525315697
1788354000000,12598,1788354000000,FL_wheel_link,-0.5938088671719735,-1.332255776785563,1.4465663566366878,-0.18963213428275755,0.038450723702067986,-0.051004747187799036
1788355000000,12599,1788355000000,FL_wheel_link,-0.02570621139304817,0.003906818303616704,-0.029698355969804906,0.0021172517693303985,0.0029899136570849735,-0.0026548095757931668
1788356000000,12600,1788356000000,FL_wheel_link,0.17931262710107496,0.01339976726636672,-0.3289953210522854,0.02442880164608827,-0.008774058759839817,0.02042104860650959
1788357000000,12601,1788357000000,FL_wheel_link,-0.5937864369391643,-1.3322232974075325,1.4467657274017527,-0.18964587992560725,0.038448821708209256,-0.051003565168163026
1788358000000,12602,1788358000000,FL_wheel_link,-0.025708726956410893,0.003907227148170147,-0.029684914006155163,0.0021164728993152493,0.0029900791675797215,-0.0026549658540349188
1788359000000,12603,1788359000000,FL_wheel_link,0.17932538770473308,0.013370645944276682,-0.32901646499012466,0.024429096625138987,-0.008774468072238962,0.02042221217426325
1788360000000,12604,1788360000000,FL_wheel_link,-0.5937641809528131,-1.332190932030151,1.4469638300380725,-0.18965953329005053,0.03844693396072992,-0.05100239859108205
1788361000000,12605,1788361000000,FL_wheel_link,-0.02571126418041454,0.003907650987204343,-0.02967152442894158,0.0021156977800958557,0.0029902464666930143,-0.0026551243041785812
1788362000000,12606,1788362000000,FL_wheel_link,0.17933816268395783,0.013341586323638584,-0.32903762369231926,0.024429392875271648,-0.008774877788088274,0.02042337529523
1788363000000,12607,1788363000000,FL_wheel_link,-0.5937426087027806,-1.3321579092181248,1.447167465786503,-0.18967359276551748,0.03844511179866226,-0.05100130995914073
1788364000000,12608,1788364000000,FL_wheel_link,-0.025713779686488875,0.00390805111175443,-0.029657977780851025,0.002114911773897695,0.002990412589763657,-0.002655280757001799
1788365000000,12609,1788365000000,FL_wheel_link,0.17935090857325417,0.013312388420885023,-0.3290587416200688,0.024429685323576873,-0.008775286391803343,0.020424538917899672
1788366000000,12610,1788366000000,FL_wheel_link,-0.5937204528777492,-1.3321252000301502,1.447368723821889,-0.189687477636414,0.03844323622804652,-0.05100015958414425
1788367000000,12611,1788367000000,FL_wheel_link,-0.02571629351876121,0.0039084569145680145,-0.029644484441319622,0.002114129505581352,0.002990578169589435,-0.002655436847458404
1788368000000,12612,1788368000000,FL_wheel_link,0.1793636657199941,0.013283214499144443,-0.3290798775530216,0.024429979097687873,-0.0087756954747591,0.020425703015845655
1788369000000,12613,1788369000000,FL_wheel_link,-0.5936980629738862,-1.3320928567980477,1.4475667437708983,-0.18970112547798085,0.03844133712375436,-0.05099898065885413
1788370000000,12614,1788370000000,FL_wheel_link,-0.025718829819355082,0.003908882890672727,-0.029631091327604022,0.002113354301000512,0.0029907453085850867,-0.0026555950750703754
1788371000000,12615,1788371000000,FL_wheel_link,0.17937644588774376,0.01325413300667425,-0.32910104208360835,0.024430275314227944,-0.008776105334135016,0.020426866809022295
1788372000000,12616,1788372000000,FL_wheel_link,-0.5936758850232697,-1.3320600427467997,1.4477664857368768,-0.18971489764175578,0.03843945500329814,-0.05099783150993667
1788373000000,12617,1788373000000,FL_wheel_link,-0.025721486194345052,0.0039093749083583705,-0.02961703623301035,0.002112533339326519,0.0029909275007755825,-0.002655767803124872
1788374000000,12618,1788374000000,FL_wheel_link,0.1793892409558796,0.013224874085124589,-0.3291222262658895,0.024430571946071337,-0.008776515705317359,0.020428036386087815
1788375000000,12619,1788375000000,FL_wheel_link,-0.5936549196521261,-1.3320256976967806,1.447980569905216,-0.18972972488133394,0.03843768869613404,-0.05099682503071382
1788376000000,12620,1788376000000,FL_wheel_link,-0.025724088514131282,0.003909807006603013,-0.029602406271658947,0.0021116725223328686,0.002991107610176152,-0.0026559358398128385
1788377000000,12621,1788377000000,FL_wheel_link,0.17940195356610164,0.013195154288875438,-0.32914329821545535,0.02443085789074572,-0.00877692301329941,0.020429209426425916
1788378000000,12622,1788378000000,FL_wheel_link,-0.5936307736117458,-1.3319941531531914,1.4481714658863216,-0.18974285186759624,0.03843562135395007,-0.05099546234527946
1788379000000,12623,1788379000000,FL_wheel_link,-0.025726776206398332,0.003910340854525211,-0.02958841725374969,0.002110856438145783,0.0029912920785198777,-0.0026561114426580483
1788380000000,12624,1788380000000,FL_wheel_link,0.1794147986937607,0.01316595681474158,-0.32916454760807157,0.02443115934036829,-0.008777335141125654,0.020430381954360345
1788381000000,12625,1788381000000,FL_wheel_link,-0.593608272558706,-1.33196214822617,1.4483649953800672,-0.1897561749231003,0.038433702036629394,-0.050994268651083786
1788382000000,12626,1788382000000,FL_wheel_link,-0.025729514191825648,0.003910897051546485,-0.02957441836737161,0.002110039906329839,0.0029914816548337517,-0.002656292544895331
1788383000000,12627,1788383000000,FL_wheel_link,0.17942765455712145,0.013136834061629899,-0.3291857895042807,0.02443146047759374,-0.008777747094300022,0.02043155271764429
1788384000000,12628,1788384000000,FL_wheel_link,-0.5935876004866277,-1.3319280814868169,1.4485762031351346,-0.18977079507215164,0.03843196127856486,-0.05099328859743867
1788385000000,12629,1788385000000,FL_wheel_link,-0.025732163813771643,0.003911367556601101,-0.029559900565295852,0.0021091872332981995,0.00299166580761781,-0.0026564654035760066
1788386000000,12630,1788386000000,FL_wheel_link,0.17944040963865682,0.013107245943485103,-0.329206893196524,0.024431749028038807,-0.008778155285898821,0.020432725264635014
1788387000000,12631,1788387000000,FL_wheel_link,-0.5935644418030436,-1.3318956760874123,1.4487741984429683,-0.1897844455073964,0.03842998988524013,-0.05099203949119773
1788388000000,12632,1788388000000,FL_wheel_link,-0.0257348320545185,0.003911881449030595,-0.029545715622394542,0.0021083577105121534,0.0029918496601481653,-0.0026566394297485186
1788389000000,12633,1788389000000,FL_wheel_link,0.17945323031995006,0.013077890815103646,-0.32922809408196896,0.024432045765305214,-0.008778566100315225,0.02043389849345925
1788390000000,12634,1788390000000,FL_wheel_link,-0.5935412580799966,-1.3318639796666645,1.4489654851304463,-0.18979760564031353,0.03842801024320047,-0.05099077693628413
1788391000000,12635,1788391000000,FL_wheel_link,-0.025737566230147058,0.003912446900802602,-0.02953176096050172,0.0021075443928821073,0.0029920385827049947,-0.0026568200066942296
1788392000000,12636,1788392000000,FL_wheel_link,0.17946610417848524,0.01304878208758244,-0.3292493561259281,0.024432348099679955,-0.008778978590189897,0.020435070158221633
1788393000000,12637,1788393000000,FL_wheel_link,-0.5935201405188524,-1.3318304522550177,1.4491720312198524,-0.18981188581182792,0.038426227202402456,-0.050989746875562195
1788394000000,12638,1788394000000,FL_wheel_link,-0.02574024603964856,0.003912948643868705,-0.02951738269309084,0.002106701631768227,0.002992224816038777,-0.002656995745726674
1788395000000,12639,1788395000000,FL_wheel_link,0.1794788969532155,0.013019319286930484,-0.3292705036414231,0.024432640139882066,-0.008779387967996757,0.020436242601719334
1788396000000,12640,1788396000000,FL_wheel_link,-0.5934977343453769,-1.3317974542666322,1.4493748862561435,-0.1898258943431206,0.038424327624177294,-0.050988582947184224
1788397000000,12641,1788397000000,FL_wheel_link,-0.02574290528699561,0.003913449656698578,-0.029503068322296554,0.0021058632755601835,0.0029924085605463613,-0.0026571690564766324
1788398000000,12642,1788398000000,FL_wheel_link,0.17949170031132963,0.012989856928236947,-0.32929167481259747,0.024432933808926662,-0.008779797968230363,0.020437416289554665
1788399000000,12643,1788399000000,FL_wheel_link,-0.5934743467171609,-1.3317656698699298,1.449567229070019,-0.18983913254589765,0.03842233184162503,-0.05098730361432606
1788400000000,12644,1788400000000,FL_wheel_link,-0.025745624373976195,0.003914007667367024,-0.029489068063087962,0.0021050469058903547,0.0029925962044396338,-0.0026573480161576875
1788401000000,12645,1788401000000,FL_wheel_link,0.17950457014232993,0.012960680295925082,-0.32931293245879323,0.024433235132725318,-0.008780210320060204,0.02043858897747342
1788402000000,12646,1788402000000,FL_wheel_link,-0.5934526107063686,-1.3317326985511415,1.4497691371339054,-0.18985307333878376,0.03842049056819589,-0.050986205393712174
1788403000000,12647,1788403000000,FL_wheel_link,-0.025748325931808008,0.003914534294081864,-0.029474819792602677,0.002104213367913366,0.0029927836790679704,-0.0026575256665260097
1788404000000,12648,1788404000000,FL_wheel_link,0.17951739500665856,0.012931316442455945,-0.3293341221435594,0.02443353041171319,-0.00878062083013846,0.020439761653445108
1788405000000,12649,1788405000000,FL_wheel_link,-0.5934306564216092,-1.331699441302653,1.449973987169684,-0.1898672292948644,0.03841863311295868,-0.05098509102250043
1788406000000,12650,1788406000000,FL_wheel_link,-0.02575099037303754,0.00391503546298403,-0.02946045946626013,0.0021033720058499204,0.002992968149109936,-0.0026576995321748375
1788407000000,12651,1788407000000,FL_wheel_link,0.17953019648750276,0.012901816650751442,-0.3293552861292394,0.024433823012396938,-0.00878103062600701,0.020440935594441604
1788408000000,12652,1788408000000,FL_wheel_link,-0.5934074252626649,-1.3316673614596664,1.4501689710951997,-0.1898806616890289,0.03841665408333081,-0.05098383296117481
1788409000000,12653,1788409000000,FL_wheel_link,-0.025753695036346606,0.0039155819256388525,-0.02944637630798915,0.002102550011667973,0.0029931547995785453,-0.0026578770067362738
1788410000000,12654,1788410000000,FL_wheel_link,0.17954305507922752,0.012872547089293241,-0.3293765282792108,0.024434122382761388,-0.008781442540186039,0.020442109185890924
1788411000000,12655,1788411000000,FL_wheel_link,-0.5933851409312081,-1.3316348041294446,1.4503675068650506,-0.1898943556037093,0.038414761813239835,-0.05098267546240702
1788412000000,12656,1788412000000,FL_wheel_link,-0.025756409122266934,0.00391612541059075,-0.029432217536182716,0.002101722869827764,0.00299334284857257,-0.002658055652067846
1788413000000,12657,1788413000000,FL_wheel_link,0.17955590337590097,0.012843240269011638,-0.3293977493746393,0.024434419899848483,-0.008781853888110099,0.02044328234486305
1788414000000,12658,1788414000000,FL_wheel_link,-0.593363328746749,-1.3316015571098232,1.4505721029663496,-0.18990849387141703,0.03841291703209529,-0.050981575797241746
1788415000000,12659,1788415000000,FL_wheel_link,-0.02575908676817621,0.003916636272002259,-0.029417873212315468,0.0021008828211982406,0.0029935284371575437,-0.0026582307734944427
1788416000000,12660,1788416000000,FL_wheel_link,0.17956871531723273,0.012813753339892861,-0.32941892317384397,0.024434712929633326,-0.008782263941092971,0.0204444564767534
1788417000000,12661,1788417000000,FL_wheel_link,-0.5933404135966053,-1.3315691408704688,1.4507699451029092,-0.18992213655266607,0.03841096897522915,-0.0509803551601596
1788418000000,12662,1788418000000,FL_wheel_link,-0.0257617821047102,0.003917173361458335,-0.029403707345591452,0.00210005523606202,0.0029937146013653553,-0.002658407312441505
1788419000000,12663,1788419000000,FL_wheel_link,0.17958156363747027,0.012784398970018557,-0.32944014915066727,0.02443501033543286,-0.00878267540240843,0.020445630787468354
1788420000000,12664,1788420000000,FL_wheel_link,-0.5933177621947473,-1.3315367998458434,1.4509667950520533,-0.18993570726600684,0.0384090432837645,-0.05097915932209707
1788421000000,12665,1788421000000,FL_wheel_link,-0.025764500456930472,0.00391772549618868,-0.029389588784581047,0.002099231055375982,0.002993902722920654,-0.0026585861829422665
1788422000000,12666,1788422000000,FL_wheel_link,0.17959442563159309,0.012755105285876683,-0.3294613882725428,0.02443530888785878,-0.008783087224315398,0.020446804584144364
1788423000000,12667,1788423000000,FL_wheel_link,-0.5932958586262214,-1.3315037207543114,1.451169878810661,-0.18994973544682112,0.03840718947557546,-0.05097804899627165
1788424000000,12668,1788424000000,FL_wheel_link,-0.02576719309915681,0.003918250131762629,-0.02937529228022706,0.0020983945298221045,0.0029940894050600225,-0.002658762675042931
1788425000000,12669,1788425000000,FL_wheel_link,0.17960725417624643,0.012725653851730433,-0.3294825809282061,0.024435603123697837,-0.008783497779038058,0.020447978958184315
1788426000000,12670,1788426000000,FL_wheel_link,-0.5932732571128615,-1.3314710380225963,1.4513699165972764,-0.18996353996015672,0.03840527156712799,-0.05097686441021031
1788427000000,12671,1788427000000,FL_wheel_link,-0.025766043583384902,0.16560559087247165,-0.0036125563065795866,-0.05562972669681227,0.0029945457481767067,-0.002659449911717954
1788428000000,12672,1788428000000,FL_wheel_link,-0.12258076697508467,0.43652159919935263,-0.9431080750904861,-0.03690529466422342,0.011457537076471134,-0.012622341642045707
1788429000000,12673,1788429000000,FL_wheel_link,7.104871546570867,7.252680149619681,26.669599870517548,-1.6167339608042222,-0.5009545339803062,0.4954671059535592
1788430000000,12674,1788430000000,FL_wheel_link,-0.45419322061290346,-0.727378571838581,0.470644079681667,-0.06774971837587594,0.008400456958886858,0.0008710378312164046
1788431000000,12675,1788431000000,FL_wheel_link,-0.02148212590863769,0.06175736591309415,-0.0025088959554407674,0.0018550724318422305,0.0004440828564253325,-0.00032238268721536997
1788432000000,12676,1788432000000,FL_wheel_link,3.669349305914677,6.664291429831739,21.66819209917589,-1.195829111599852,-0.23871151873343102,0.23244372130138075
1788433000000,12677,1788433000000,FL_wheel_link,1.8921537531321648,-0.2340695313683216,9.593753769103214,-0.7636296572271251,-0.1660632285344751,0.16844000247634705
1788434000000,12678,1788434000000,FL_wheel_link,0.4739398580341976,0.6428640729497767,-0.45822088742862765,0.03579434351303507,-0.017917459631749302,0.0274557653042202
1788435000000,12679,1788435000000,FL_wheel_link,0.2364438074261907,4.701084727167591,15.737898960171629,-0.849768922400092,-0.0222495970608807,0.019300496195018994
1788436000000,12680,1788436000000,FL_wheel_link,4.457131093327249,2.6000921886912303,5.348341170774074,-0.23433639969224235,-0.3294324154827536,0.3453660306826936
1788437000000,12681,1788437000000,FL_wheel_link,-0.254060568265659,-0.8165314895639477,-0.08927302477767829,-0.032349724698441044,0.0047708411641303305,-0.007479774931364936
1788438000000,12682,1788438000000,FL_wheel_link,0.337038804625932,0.40586174897917643,-0.4857764342750993,0.034918210787888024,-0.011221982641475774,0.022289094712468288
1788439000000,12683,1788439000000,FL_wheel_link,-0.2780601061111927,-0.5772801788224454,4.154549371275169,-0.3630284726487172,0.02359302414978926,-0.03794583805924023
1788440000000,12684,1788440000000,FL_wheel_link,-0.003692684207766647,-0.010234859232673263,0.06842040636397304,-0.010141485607985416,0.0022155383335190067,-0.0019367615194996073
1788441000000,12685,1788441000000,FL_wheel_link,0.1926435829895108,0.04715164629226069,-0.32362251722892427,0.022730328989977427,-0.007718037552171953,0.019214715189776074
1788442000000,12686,1788442000000,FL_wheel_link,0.14842832573223308,0.5757618756192432,4.603459520545754,-0.29621598116067427,-0.014759520219413971,0.0041754994283547155
1788443000000,12687,1788443000000,FL_wheel_link,0.009769396093447626,0.00207127288515318,0.06258133395768348,-0.007079451866130789,0.000626014153919403,-0.00034693942024359285
1788444000000,12688,1788444000000,FL_wheel_link,0.1893388217166892,0.046936106117286984,-0.3290996068573342,0.023676348924835947,-0.008205732659938129,0.019518363258201128
1788445000000,12689,1788445000000,FL_wheel_link,-0.29926896585621554,-1.6404790576101709,-0.8725773675710539,-0.024109960020444056,0.012445009490789652,-0.019857162462304585
1788446000000,12690,1788446000000,FL_wheel_link,0.01935493824374633,0.023395945721608538,-0.014575882246505438,0.0007376133033034413,-0.00035140983769688496,0.0004159283996724256
1788447000000,12691,1788447000000,FL_wheel_link,0.19618122655869902,0.10050392703151027,-0.3417015718945782,0.02506032052153451,-0.008696422308498734,0.01902721457974751
1788448000000,12692,1788448000000,FL_wheel_link,-0.22501221583567374,-1.672111581356588,-0.9010093027440307,-0.024842550473568682,0.010655320027687615,-0.019424424436851273
1788449000000,12693,1788449000000,FL_wheel_link,0.017903202020174255,0.020166227558451905,-0.00928437850683155,0.0005516633083589061,-0.0005312556627805752,0.0001642697426303055
1788450000000,12694,1788450000000,FL_wheel_link,0.19152386210347688,0.12004664682769585,-0.3382124793339403,0.024980968982806728,-0.008666599095867858,0.01821236283451098
1788451000000,12695,1788451000000,FL_wheel_link,-0.20898253041156994,-1.6543782816319057,-0.8964737640171506,-0.024360311189571226,0.00978965866092225,-0.01931243850990922
1788452000000,12696,1788452000000,FL_wheel_link,0.018218906362056086,0.016668736409174822,-0.01045181788889039,0.0004298688863357188,-0.000328677488793977,0.00022276722979607853
1788453000000,12697,1788453000000,FL_wheel_link,0.1892188958257872,0.11461412171971525,-0.33749363492054746,0.024918946769931817,-0.008661060621984231,0.018208710308660055
1788454000000,12698,1788454000000,FL_wheel_link,-0.2041454860989435,-1.664910321911146,-0.8973828991498315,-0.024516295069720893,0.009541202282793319,-0.019341679184488047
1788455000000,12699,1788455000000,FL_wheel_link,0.018549703842665667,0.015764515062580194,-0.010050190916332908,0.0004082029930923736,-0.0003134158958238863,0.0002364307918329955
1788456000000,12700,1788456000000,FL_wheel_link,0.1892296473688323,0.11102610703830111,-0.3381935224227545,0.024928088907823262,-0.008669361282381906,0.01829902328757224
1788457000000,12701,1788457000000,FL_wheel_link,-0.23160979421092265,-1.5993572098979065,-0.8635726883820031,-0.02362154223114941,0.009988119768636033,-0.019903425275832075
1788458000000,12702,1788458000000,FL_wheel_link,0.019723196038727422,0.009496184875313847,-0.012016093928698705,0.00027368824649919206,-0.00035827957374508505,0.0003421978905636029
1788459000000,12703,1788459000000,FL_wheel_link,0.1911585482475203,0.08314992306908853,-0.34192304254277944,0.025039902669286254,-0.00874353827271851,0.019200225109606717
1788460000000,12704,1788460000000,FL_wheel_link,-0.8092588415992721,2.742268039900474,10.376075915463687,-0.5556197642068571,0.05872220356831992,-0.07104299035829245
1788461000000,12705,1788461000000,FL_wheel_link,2.761000609452505,3.1138558496473316,0.03796608359526282,0.21932418377126434,-0.2072657003880843,0.22476505946719938
1788462000000,12706,1788462000000,FL_wheel_link,-0.2534282495514501,-1.0734344721118043,-0.24158655456057132,-0.023747832086198316,0.005097586356223066,-0.012374686405687542
1788463000000,12707,1788463000000,FL_wheel_link,0.31373566354373356,0.48928195912691336,-0.536132047617228,0.03967133605851919,-0.013388209871716832,0.021015466891638537
1788464000000,12708,1788464000000,FL_wheel_link,-0.32389787315857915,-1.3474583220794738,-0.2574666402508232,-0.039351902337070296,0.014395305052770495,-0.025106107124645782
1788465000000,12709,1788465000000,FL_wheel_link,0.3303685016291922,0.42978293781347776,-0.5646386052240646,0.04131070285933433,-0.014150292641411797,0.023960287226707233
1788466000000,12710,1788466000000,FL_wheel_link,-0.2991152503026264,-1.4120158054073102,-0.28434855321731983,-0.0409040050203643,0.014118571692044026,-0.025638511067117908
1788467000000,12711,1788467000000,FL_wheel_link,0.3270065805952638,0.4052320902929721,-0.5698205213320577,0.04152722813166771,-0.014279659580814945,0.024459715964695643
1788468000000,12712,1788468000000,FL_wheel_link,-0.2841870743241077,-1.4202694414386232,-0.29501463122231364,-0.04097529538689633,0.013872419015633741,-0.02556661117140278
1788469000000,12713,1788469000000,FL_wheel_link,0.3180753068055794,0.3848822731007655,-0.5663822225825788,0.041173451374522614,-0.014173561734526847,0.024369003933783707
1788470000000,12714,1788470000000,FL_wheel_link,-0.2765478816057729,-1.4092819470425932,-0.2975335487069982,-0.04056370602993029,0.013709914673750314,-0.02531692483540749
1788471000000,12715,1788471000000,FL_wheel_link,0.30906273089965963,0.3649591367382193,-0.5606123630818696,0.04065994750829979,-0.014000678130161811,0.024216898737257235
1788472000000,12716,1788472000000,FL_wheel_link,-0.2739246503070559,-1.3939147887934453,-0.29587533228846125,-0.040068265135604554,0.013625885428310657,-0.025061404323313673
1788473000000,12717,1788473000000,FL_wheel_link,0.3018260769347181,0.3472604031279034,-0.5552492360844108,0.04017976786778403,-0.013834309202070794,0.024118286693898858
1788474000000,12718,1788474000000,FL_wheel_link,-0.2742088988307184,-1.379951263286746,-0.29238582334594765,-0.039638404433988625,0.013594708384756963,-0.02485857033445773
1788475000000,12719,1788475000000,FL_wheel_link,0.2966652009554187,0.3329778307375388,-0.551222450765644,0.03979971256024458,-0.013699716134004173,0.024077474879476812
1788476000000,12720,1788476000000,FL_wheel_link,-0.27581732439342915,-1.3692066682857362,-0.28838600093540906,-0.039315255857281885,0.013590507322516343,-0.024717800082810045
1788477000000,12721,1788477000000,FL_wheel_link,0.29330157677909907,0.32228326244616934,-0.5486425817129315,0.03952739162836229,-0.013600483826464147,0.0240755605321165
1788478000000,12722,1788478000000,FL_wheel_link,-0.27757854594105025,-1.3618347497331078,-0.2846984878180025,-0.039094654761805146,0.013592311044522534,-0.024628715723178856
1788479000000,12723,1788479000000,FL_wheel_link,0.291265417187574,0.314704779464389,-0.5472600799221898,0.0393444512471379,-0.01353057986247302,0.024093011593368747
1788480000000,12724,1788480000000,FL_wheel_link,-0.2792472227541148,-1.3570759235811525,-0.28141633116765574,-0.03895209709302173,0.01359532348522021,-0.02457825715089883
1788480000000,12725,1788481000000,FL_wheel_link,0.29014172106274094,0.3095078923454488,-0.5467660000013546,0.03922743528607425,-0.013482434809905148,0.024118386110363182
1788482000000,12726,1788482000000,FL_wheel_link,-0.2806374918245507,-1.3542317087992854,-0.27856503486349266,-0.03886539801219901,0.013595122210526597,-0.02455390260807146
1788483000000,12727,1788483000000,FL_wheel_link,0.2896078441618586,0.30600050384492256,-0.5468842780940676,0.03915562721820179,-0.013449239184309281,0.024145528710179873
1788484000000,12728,1788484000000,FL_wheel_link,-0.28175217461138513,-1.352666701897528,-0.27606538094225286,-0.03881545321331814,0.013591156800595012,-0.02454615952382317
1788485000000,12729,1788485000000,FL_wheel_link,0.28943354866703097,0.3036083165923033,-0.5473981835458549,0.039112764541069954,-0.013425652646258855,0.024171743840303753
1788486000000,12730,1788486000000,FL_wheel_link,-0.2826170354368059,-1.3519329048986986,-0.27383324481740173,-0.0387890050708323,0.013583223534087488,-0.024548385130149238
1788487000000,12731,1788487000000,FL_wheel_link,0.2894683209893908,0.30192192888766345,-0.5481578044117561,0.039087805652786856,-0.013407992351140437,0.024196237184018823
1788488000000,12732,1788488000000,FL_wheel_link,-0.28330365978333827,-1.3517029912107492,-0.2717790648151369,-0.03877668602755155,0.013572316759585232,-0.024556387226147277
1788489000000,12733,1788489000000,FL_wheel_link,0.2896174952541239,0.3006589721250187,-0.5490628800233386,0.03907341544602189,-0.013393806706381094,0.024219079717478467
1788490000000,12734,1788490000000,FL_wheel_link,-0.2838799866808377,-1.3517573425159437,-0.269831582914645,-0.03877232552341643,0.013559526602644898,-0.024567581503287618
1788491000000,12735,1788491000000,FL_wheel_link,0.2898245194160943,0.299634093070188,-0.5500494592190263,0.039064923036966646,-0.013381544174546008,0.024240650205824537
1788492000000,12736,1788492000000,FL_wheel_link,-0.28439523045235526,-1.3519583206938994,-0.26794316545871477,-0.038772066953646205,0.01354569923653475,-0.024580398135736228
1788493000000,12737,1788493000000,FL_wheel_link,0.29005717936247044,0.2987292683770595,-0.5510779249408734,0.03905942213114027,-0.013370253542227893,0.02426138128789551
1788494000000,12738,1788494000000,FL_wheel_link,-0.28487638664896714,-1.3522306032765252,-0.26608492844582454,-0.03877382206884841,0.013531243048670306,-0.024593954611312068
1788495000000,12739,1788495000000,FL_wheel_link,0.2902992855216272,0.2978799699373058,-0.5521265936541243,0.03905535838770403,-0.013359421211687664,0.024281609855896082
1788496000000,12740,1788496000000,FL_wheel_link,-0.28534429592589783,-1.352533547186341,-0.2642360687885877,-0.03877651537975319,0.013516477464233156,-0.024607844043427925
1788497000000,12741,1788497000000,FL_wheel_link,0.2905578781751187,0.2970716644293345,-0.5531879647792561,0.03905222396094575,-0.013348886125776092,0.02430185324238155
1788498000000,12742,1788498000000,FL_wheel_link,-0.28581886345396507,-1.3528582552435564,-0.2623834858630633,-0.03877999900570205,0.013501813048270441,-0.024622169749198498
1788499000000,12743,1788499000000,FL_wheel_link,0.2908150585249174,0.29629885912472026,-0.5542602998837218,0.03904999614227365,-0.013338598630560049,0.02432145991680882
1788500000000,12744,1788500000000,FL_wheel_link,-0.5739931392131898,0.7187910583990825,5.775089034569927,-0.3567134209303436,0.04107626693988384,-0.054183082534041124
1788501000000,12745,1788501000000,FL_wheel_link,0.21941168323289115,0.18184255220853285,-0.3570971199359159,0.019536607213174205,-0.010539201968941085,0.019637531547186282
1788502000000,12746,1788502000000,FL_wheel_link,-0.35074321817799786,-0.038728822511517096,4.283563768292673,-0.3020143241256448,0.01945797375911113,-0.03077571167824958
1788503000000,12747,1788503000000,FL_wheel_link,0.21889389183499472,0.1273150986899707,-0.37246248896036505,0.02223957254011506,-0.01083102407161257,0.021468979127158186
1788504000000,12748,1788504000000,FL_wheel_link,-0.4561576614384135,-1.1521454127383357,-0.09228273458935697,-0.038512160857713605,0.02115964841816858,-0.02975863032586051
1788505000000,12749,1788505000000,FL_wheel_link,0.275207208805974,0.21812207069124542,-0.5309483546302519,0.037173711819109334,-0.013046692501732609,0.024981656999506455
1788506000000,12750,1788506000000,FL_wheel_link,-0.5743451597329112,-1.21943649988205,0.003510636451085139,-0.04856634693867404,0.03190050705961099,-0.04233195142473727
1788507000000,12751,1788507000000,FL_wheel_link,0.2036986602556259,0.10487548960633483,-0.5406375369222887,0.037969752650608646,-0.013547237187097293,0.02523273217652717
1788508000000,12752,1788508000000,FL_wheel_link,-0.3642164989904275,-1.2345634312695515,-0.16395039643248882,-0.039171448721509815,0.018282229026038467,-0.028315377306164326
1788509000000,12753,1788509000000,FL_wheel_link,0.22283966046614212,0.18563362324490174,-0.5257425658878145,0.03697933638888801,-0.01330134245356916,0.023343235462785557
1788510000000,12754,1788510000000,FL_wheel_link,-0.2632110442657616,-1.2603312699391038,-0.24835510886757728,-0.035870765361970765,0.012604371824939755,-0.022850952896136957
1788511000000,12755,1788511000000,FL_wheel_link,0.2603122855100739,0.25370449263229283,-0.5187981229879751,0.03657978753473998,-0.012356724187766142,0.02290051495207219
1788512000000,12756,1788512000000,FL_wheel_link,-0.8786145082520469,-1.1280981543504867,0.28913660035462957,-0.06805171747113013,0.06065492295625974,-0.07292537760676064
1788513000000,12757,1788513000000,FL_wheel_link,0.311781909860398,0.2885551017713579,-0.559968436276264,0.03938643361992873,-0.01403295096568321,0.025836210015077098
1788514000000,12758,1788514000000,FL_wheel_link,2.2299750598306765,11.429629164971134,17.361802406931222,-0.981937907148789,-0.12467071293423662,0.22013745710322866
1788515000000,12759,1788515000000,FL_wheel_link,0.24822958623143676,0.5818319441432954,0.03860530655786011,-0.005292588155757519,-0.014897871749783619,0.012282959375416088
1788516000000,12760,1788516000000,FL_wheel_link,0.7863197724410144,3.674905577251581,8.179844546873106,-0.5625021636589804,-0.04851382536846677,0.08591700494903305
1788517000000,12761,1788517000000,FL_wheel_link,0.24224411334197465,0.2916593297134742,-0.2123953627332601,0.010600078445508617,-0.012670598617241078,0.019190380376714306
1788518000000,12762,1788518000000,FL_wheel_link,0.41696383372547546,3.5786197574810017,8.72217034759139,-0.6132523389137492,-0.029445319132786474,0.05167805141176785
1788519000000,12763,1788519000000,FL_wheel_link,0.19811550481286055,0.27171490240237767,-0.22984128512978366,0.012056428163122718,-0.011091607064158076,0.0167462489612462
1788520000000,12764,1788520000000,FL_wheel_link,-0.9813771162387692,-0.535391332124342,3.0327568610307645,-0.30922915293364545,0.04791371236863522,-0.08406310585100954
1788521000000,12765,1788521000000,FL_wheel_link,3.473764009545804,4.4422232036746685,-0.44973342987244525,0.27666441629050853,-0.1937313493699987,0.34438826343782203
1788522000000,12766,1788522000000,FL_wheel_link,-0.1917516919301424,-1.0123991728676955,-0.25107282196854314,-0.02074633090894778,0.006189798730410622,-0.01129719416451761
1788523000000,12767,1788523000000,FL_wheel_link,0.2823859828918178,0.3819372538453114,-0.5343084894116594,0.03720782882693415,-0.012211091023081133,0.0209916216367659
1788524000000,12768,1788524000000,FL_wheel_link,-0.34042224929367454,-1.2977796636164343,-0.19115250792243743,-0.03784556177520648,0.013813487625528479,-0.024772559054397663
1788525000000,12769,1788525000000,FL_wheel_link,0.3182817533335596,0.34899611923337553,-0.5741035768536265,0.039866004454704895,-0.013235823151671645,0.02459843504543359
1788526000000,12770,1788526000000,FL_wheel_link,-1.1107664707491602,-1.1615888740488962,0.48977610871461863,-0.09744411887336538,0.0581789760971658,-0.10289392861262116
1788527000000,12771,1788527000000,FL_wheel_link,0.32522671828202276,0.3411086423616355,-0.5888086544164051,0.041072810312633615,-0.014239892976949641,0.025997359539378238
1788528000000,12772,1788528000000,FL_wheel_link,-0.2928266676689455,-1.3932468391393436,-0.23431699221674573,-0.039971108285960344,0.013209616027094886,-0.02535027976716189
1788529000000,12773,1788529000000,FL_wheel_link,0.3120592836436273,0.3383333920127965,-0.5804831331787464,0.040315805782315965,-0.013416560515868457,0.02482214297105744
1788530000000,12774,1788530000000,FL_wheel_link,-0.28904837764101887,-1.4033259800171696,-0.23879016757507487,-0.04018443034468183,0.013194645125982968,-0.025456045525558767
1788531000000,12775,1788531000000,FL_wheel_link,0.30871620400818833,0.32964608343492713,-0.5801794293077001,0.04025270239799873,-0.013400625689063677,0.02484800795227004
1788532000000,12776,1788532000000,FL_wheel_link,-0.2863338136151219,-1.398822142926676,-0.23944969454179785,-0.040005070142292785,0.013141714689953263,-0.025362461003463843
1788533000000,12777,1788533000000,FL_wheel_link,0.30431084776645734,0.3196830974639563,-0.5774897095799288,0.04001477842617783,-0.01331953139796941,0.02478525750628188
1788534000000,12778,1788534000000,FL_wheel_link,-0.2853505371939841,-1.390729534667191,-0.2380407020686261,-0.03974285104218108,0.013102172282984964,-0.02523565443629577
1788535000000,12779,1788535000000,FL_wheel_link,0.30047416966599466,0.30997349428258675,-0.5746730142319456,0.03976125326872349,-0.013229823910765125,0.02473943490171953
1788536000000,12780,1788536000000,FL_wheel_link,-0.28564173493130596,-1.3829794093796208,-0.23559742191999425,-0.03950398401695946,0.013080478946915644,-0.02512792762824431
1788537000000,12781,1788537000000,FL_wheel_link,0.29757243495368174,0.30187264270982034,-0.572562773004145,0.03955279964500001,-0.013152894034374783,0.024716762412417388
1788538000000,12782,1788538000000,FL_wheel_link,-0.28653361431860014,-1.3768726878948956,-0.23280432572751256,-0.0393197616670886,0.013068709194706263,-0.025050289166618812
1788539000000,12783,1788539000000,FL_wheel_link,0.29561899992038576,0.29521082332744464,-0.5712082842801214,0.039392847267287756,-0.013091174301347323,0.024722144240361305
1788540000000,12784,1788540000000,FL_wheel_link,-0.28764864569686355,-1.372510175290431,-0.23000170942029552,-0.03918955218347745,0.013061417296991566,-0.025001265395357658
1788541000000,12785,1788541000000,FL_wheel_link,0.2943968738287861,0.29018023278058297,-0.5705936339437462,0.039281885073897654,-0.01304500913964926,0.024739950271647035
1788542000000,12786,1788542000000,FL_wheel_link,-0.28868559890912904,-1.3696826407006357,-0.22737935416304983,-0.03910494793527376,0.013053356317133752,-0.024974376139428753
1788543000000,12787,1788543000000,FL_wheel_link,0.29369422620784946,0.28645746387479915,-0.5705425795649814,0.03920829074970444,-0.013010817526276506,0.02476339351897218
1788544000000,12788,1788544000000,FL_wheel_link,-0.2896560796621428,-1.3679332908941682,-0.22490631638670297,-0.03905227525013893,0.01304485687077031,-0.024963285272592853
1788545000000,12789,1788545000000,FL_wheel_link,0.29334671476025737,0.28367699591189954,-0.570890923016911,0.03916084168180854,-0.012985178142146347,0.024789209931584514
1788546000000,12790,1788546000000,FL_wheel_link,-0.29044857910823324,-1.3669743381565878,-0.22262915275685322,-0.03902206502144172,0.013033660198664608,-0.02496215610199757
