%time,field.header.seq,field.header.stamp,field.header.frame_id,field.wrench.force.x,field.wrench.force.y,field.wrench.force.z,field.wrench.torque.x,field.wrench.torque.y,field.wrench.torque.z
1788202000000,12444,1788200000000,FR_wheel_link,0.19340283777059902,-0.9781859061762618,0.10085575927514338,0.024368337613242655,0.003925482408250471,-0.024774083089935055
1788202000000,12445,1788201000000,FR_wheel_link,-1.4045691306247636,-27.72606800697116,-12.977374669035186,-0.5464730487730765,-0.03761023602973551,0.14689969810392325
1788202000000,12446,1788202000000,FR_wheel_link,-0.12527500561134602,-0.01752563720052179,-0.10726945472374481,-0.008769284717831621,-0.004011482063841443,0.013810129100208846
1788203000000,12447,1788203000000,FR_wheel_link,0.1934152751232126,-0.97821539343013,0.10081086186490636,0.024368607992237702,0.003926413675056764,-0.02477510378587724
1788204000000,12448,1788204000000,FR_wheel_link,-1.404568603423001,-27.72554280106713,-12.978644925187574,-0.54663155551273,-0.03761085177501802,0.14689970311758133
1788205000000,12449,1788205000000,FR_wheel_link,-0.12527425903135964,-0.017499580537328557,-0.1072709269104434,-0.008770041939457102,-0.0040115153595254695,0.013810206249687417
1788206000000,12450,1788206000000,FR_wheel_link,0.19342761888892124,-0.9782445658129607,0.10076593773789741,0.024368868057846577,0.003927341319997335,-0.024776127518014134
1788207000000,12451,1788207000000,FR_wheel_link,-1.4045712728088087,-27.725021196366672,-12.979913953708254,-0.5467899079196779,-0.037611548772783,0.14689980414851989
1788208000000,12452,1788208000000,FR_wheel_link,-0.12527403362522666,-0.017473101771079472,-0.10727208487224336,-0.008770783357959616,-0.004011564778826757,0.013810341306556792
1788209000000,12453,1788209000000,FR_wheel_link,0.19344017999487367,-0.978274627999761,0.10072106851789261,0.024369155653898765,0.003928277297267257,-0.02477715203299401
1788210000000,12454,1788210000000,FR_wheel_link,-1.4045748359779144,-27.72449983932074,-12.981183530465769,-0.5469482312938727,-0.037612277147662854,0.1469001407752064
1788211000000,12455,1788211000000,FR_wheel_link,-0.12527377326029548,-0.01744674526111849,-0.10727329756046725,-0.008771525378598766,-0.004011613474334845,0.013810475745718795
1788212000000,12456,1788212000000,FR_wheel_link,0.1934526933958291,-0.9783044096771922,0.1006761742481308,0.024369434850147167,0.00392921156056521,-0.024778173917117667
1788213000000,12457,1788213000000,FR_wheel_link,-1.4045758392396526,-27.723972099318164,-12.98245258028892,-0.547106665642588,-0.03761293135417811,0.14690029331455848
1788213000000,12458,1788214000000,FR_wheel_link,-0.12527310947918963,-0.017420580611833575,-0.10727477247207605,-0.008772281328111073,-0.004011651838399637,0.013810581037092111
1788215000000,12459,1788215000000,FR_wheel_link,0.19346516221075993,-0.9783341286885521,0.10063129121016473,0.024369707024678288,0.003930141290657943,-0.02477921053624852
1788216000000,12460,1788216000000,FR_wheel_link,-1.4045762876576893,-27.723442557492135,-12.983721335311932,-0.5472651622471046,-0.037613560103999605,0.1469002833570296
1788217000000,12461,1788217000000,FR_wheel_link,-0.12527240490035085,-0.01739428467043204,-0.10727629068995244,-0.008773041154121447,-0.004011690935469853,0.013810695595012148
1788218000000,12462,1788218000000,FR_wheel_link,0.19347772901939223,-0.978364364521605,0.10058646123593253,0.024369990325159137,0.003931072009097238,-0.024780261066203547
1788219000000,12463,1788219000000,FR_wheel_link,-1.4045791401705554,-27.722916996868413,-12.984990872627831,-0.5474236391019405,-0.03761425346886147,0.14690043583492016
1788220000000,12464,1788220000000,FR_wheel_link,-0.12527200437223765,-0.01736776743362794,-0.10727767103700943,-0.008773794657217131,-0.004011739757543733,0.013810845730431448
1788221000000,12465,1788221000000,FR_wheel_link,0.19349041084953633,-0.978395008184311,0.10054166147966857,0.024370285655435454,0.003932006664492091,-0.02478131135726056
1788222000000,12466,1788222000000,FR_wheel_link,-1.404583364963371,-27.722392672642147,-12.986261204609391,-0.5475821291988315,-0.0376149891019046,0.14690078610631618
1788223000000,12467,1788223000000,FR_wheel_link,-0.12527168531873153,-0.017341258015018197,-0.1072790593824745,-0.008774548534225535,-0.004011791384079521,0.013811007073393665
1788223000000,12468,1788224000000,FR_wheel_link,0.19350310883137897,-0.9784256281754579,0.10049686055042223,0.024370579845248763,0.003932941569326059,-0.024782360596118214
1788225000000,12469,1788225000000,FR_wheel_link,-1.404586141483557,-27.721866961714944,-12.987532622961941,-0.5477407551036054,-0.037615687472645994,0.14690107035333225
1788226000000,12470,1788226000000,FR_wheel_link,-0.12527114028397202,-0.017314912475137882,-0.10728059788521092,-0.008775311397633052,-0.004011836032667278,0.013811142919397553
1788227000000,12471,1788227000000,FR_wheel_link,0.1935157246834411,-0.9784558906458386,0.10045203358284979,0.024370862475118937,0.003933873117851294,-0.024783410461407897
1788227000000,12472,1788228000000,FR_wheel_link,-1.4045895059800177,-27.721342206166042,-12.988803939683221,-0.5478993880972086,-0.037616398793368144,0.14690131675823548
1788229000000,12473,1788229000000,FR_wheel_link,-0.12527073387797452,-0.01728842386124626,-0.10728205271391376,-0.00877607131272579,-0.004011884905969128,0.01381129327774172
1788230000000,12474,1788230000000,FR_wheel_link,0.19352841253564443,-0.9784864519238782,0.1004072234822066,0.024371154001917847,0.0039348072948093785,-0.024784461627783673
1788231000000,12475,1788231000000,FR_wheel_link,-1.40459422280834,-27.72081870810588,-12.990075293241047,-0.5480579773817295,-0.03761714853902902,0.1469016985640315
1788232000000,12476,1788232000000,FR_wheel_link,-0.12527046411892942,-0.01726186560467706,-0.10728344416585081,-0.008776827355655045,-0.004011938178678665,0.013811460278757355
1788233000000,12477,1788233000000,FR_wheel_link,0.19354114451484872,-0.9785171474809,0.10036241784223111,0.02437144969911031,0.0039357431569776846,-0.024785511956158884
1788234000000,12478,1788234000000,FR_wheel_link,-1.4045978842922018,-27.72029392925062,-12.99134727525666,-0.5482166415525572,-0.03761787204078482,0.1469020583080823
1788235000000,12479,1788235000000,FR_wheel_link,-0.12527001040267255,-0.017235453401370577,-0.10728494830003246,-0.008777589260234411,-0.0040119858036393174,0.013811607029401601
1788236000000,12480,1788236000000,FR_wheel_link,0.1935538019439928,-0.9785475216667129,0.1003175849626813,0.024371735342878433,0.003936676210860811,-0.024786562161559323
1788237000000,12481,1788237000000,FR_wheel_link,-1.4046011963545602,-27.719768925418087,-12.992619203478476,-0.5483753361705,-0.03761858371125747,0.1469023329771551
1788238000000,12482,1788238000000,FR_wheel_link,-0.1252695616004335,-0.01720899586641262,-0.10728643550751532,-0.00877835127263573,-0.004012033478087198,0.013811753213866787
1788239000000,12483,1788239000000,FR_wheel_link,0.1935664762495315,-0.9785779858079886,0.10027275216411534,0.02437202358913664,0.0039376099580516145,-0.024787613509058993
1788240000000,12484,1788240000000,FR_wheel_link,-1.404605665692355,-27.71924501546115,-12.993890883421832,-0.5485339812293394,-0.03761932659484128,0.1469026849067296
1788241000000,12485,1788241000000,FR_wheel_link,-0.1252692647540611,-0.01718243147667972,-0.10728783587136285,-0.008779108493379756,-0.004012085931792912,0.013811916965811685
1788242000000,12486,1788242000000,FR_wheel_link,0.19357920767809964,-0.9786086649799703,0.10022792760292065,0.02437231854711458,0.0039385459769023115,-0.02478866456271656
1788243000000,12487,1788243000000,FR_wheel_link,-1.4046097468277636,-27.718720427536557,-12.995162945410481,-0.548692658943114,-0.037620061299491137,0.14690306357168909
1788244000000,12488,1788244000000,FR_wheel_link,-0.12526887008079496,-0.017155958091924568,-0.10728929953456678,-0.00877986860351643,-0.004012135439831433,0.013812070486792545
1788245000000,12489,1788245000000,FR_wheel_link,0.19359189381571515,-0.9786391378198749,0.10018308268136909,0.02437260713687878,0.003939480363046529,-0.024789715107327234
1788246000000,12490,1788246000000,FR_wheel_link,-1.404613128878685,-27.71819512174703,-12.99643514315656,-0.5488513840431125,-0.037620775996098164,0.1469033638960816
1788247000000,12491,1788247000000,FR_wheel_link,-0.1252684088335589,-0.017129504884067115,-0.10729079208953365,-0.008780630924847469,-0.00401218281373483,0.01381221577040522
1788248000000,12492,1788248000000,FR_wheel_link,0.1936045637565082,-0.9786695597747141,0.10013822787686795,0.024372894009685144,0.0039404142039505185,-0.024790766451131527
1788249000000,12493,1788249000000,FR_wheel_link,-1.4046173039236007,-27.717670602819915,-12.997707102395168,-0.549010078733347,-0.03762151114908416,0.14690369366236594
1788250000000,12494,1788250000000,FR_wheel_link,-0.1252680716705226,-0.017102949484526314,-0.10729220927681628,-0.00878138946471542,-0.004012234045593253,0.013812374954293206
1788251000000,12495,1788251000000,FR_wheel_link,0.19361728536407227,-0.978700188374701,0.10009338058417691,0.024373187264685837,0.003941350099920867,-0.024791817957235448
1788252000000,12496,1788252000000,FR_wheel_link,-1.4046216258645274,-27.717145989465532,-12.998979270178515,-0.5491687792886286,-0.03762225210568232,0.14690407566975508
1788253000000,12497,1788253000000,FR_wheel_link,-0.1252677163248105,-0.017076425944210515,-0.10729364431975148,-0.008782148514328828,-0.004012284807825718,0.013812532890186423
1788254000000,12498,1788254000000,FR_wheel_link,0.193629992870258,-0.9787307360799817,0.100048521452367,0.024373478048314235,0.003942285547212741,-0.02479286891969721
1788255000000,12499,1788255000000,FR_wheel_link,-1.4046252573729394,-27.716620582358377,-13.000251697703503,-0.549327529307952,-0.03762297442114729,0.1469044070817127
1788256000000,12500,1788256000000,FR_wheel_link,-0.12526727209401173,-0.017049953620127064,-0.10729512731349086,-0.008782910481382413,-0.004012332791219241,0.01381268052931689
1788257000000,12501,1788257000000,FR_wheel_link,0.1936426704018005,-0.9787611654383458,0.1000036479895416,0.024373765054817725,0.003943219918981597,-0.024793920305800885
1788258000000,12502,1788258000000,FR_wheel_link,-1.4046292640674816,-27.716095564178165,-13.001523992392976,-0.549486272477268,-0.037623705690476274,0.14690473322002778
1788259000000,12503,1788259000000,FR_wheel_link,-0.12526690228058848,-0.017023408226500062,-0.10729656206793224,-0.008783670330726601,-0.004012383063126623,0.013812836208151392
1788260000000,12504,1788260000000,FR_wheel_link,0.19365538304599622,-0.9787917405352667,0.09995877803353438,0.02437405649907104,0.003944155698546466,-0.02479497211299705
1788261000000,12505,1788261000000,FR_wheel_link,-1.4046336972406486,-27.715570803614277,-13.002796362855168,-0.5496450076714193,-0.03762444957843848,0.14690511294552244
1788262000000,12506,1788262000000,FR_wheel_link,-0.12526656605123143,-0.016996849901472398,-0.10729798285117442,-0.008784429175078011,-0.004012434454115717,0.013812996275049979
1788263000000,12507,1788263000000,FR_wheel_link,0.19366810425313036,-0.9788223305435998,0.09991390279591278,0.024374348421176625,0.003945091884223379,-0.02479602353707372
1788264000000,12508,1788264000000,FR_wheel_link,-1.4046376386655446,-27.71504540090085,-13.004069015776494,-0.5498037831411491,-0.037625180886452426,0.14690547262179326
1788265000000,12509,1788265000000,FR_wheel_link,-0.12526615231327715,-0.016970345470801035,-0.1072994491656038,-0.008785190558867917,-0.004012483457771781,0.013813147685269924
1788266000000,12510,1788266000000,FR_wheel_link,0.19368079609205097,-0.9788527953570028,0.09986901285881387,0.024374636390113124,0.003946027017462574,-0.024797075077633766
1788267000000,12511,1788267000000,FR_wheel_link,-1.4046416134954323,-27.714520025582882,-13.005341653839169,-0.5499625704184296,-0.03762591214479116,0.1469058086517034
1788268000000,12512,1788268000000,FR_wheel_link,-0.12526576381238314,-0.01694380343366476,-0.10730089580511055,-0.008785951379750676,-0.004012533217681455,0.0138133015484153
1788269000000,12513,1788269000000,FR_wheel_link,0.19369350423048515,-0.9788833308082581,0.09982412141468927,0.02437492644679515,0.003946962835162455,-0.02479812710179813
1788270000000,12514,1788270000000,FR_wheel_link,-1.404646067602974,-27.71399502096964,-13.006614289624391,-0.5501213468430038,-0.03762665675137841,0.14690618497988883
1788271000000,12515,1788271000000,FR_wheel_link,-0.12526543027869252,-0.01691722422193749,-0.10730231319592735,-0.008786710589144152,-0.0040125847336403364,0.013813461943960346
1788272000000,12516,1788272000000,FR_wheel_link,0.1937062323275311,-0.9789139335599814,0.0997792282317183,0.02437521857772504,0.00394789948817403,-0.024799178967397584
1788273000000,12517,1788273000000,FR_wheel_link,-1.4046502874666293,-27.713469616861886,-13.007887165056438,-0.5502801502518629,-0.03762739598488368,0.14690656528292856
1788274000000,12518,1788274000000,FR_wheel_link,-0.12526504746213124,-0.016890684133634988,-0.10730376181065064,-0.008787471430339326,-0.004012634760595561,0.013813617067586164
1788275000000,12519,1788275000000,FR_wheel_link,0.19371893994314035,-0.9789444418134121,0.09973432245001745,0.02437550773612222,0.003948835430601395,-0.024800230762861974
1788276000000,12520,1788276000000,FR_wheel_link,-1.4046543394457816,-27.712944000970403,-13.009160120932684,-0.5504389763186168,-0.03762813016501684,0.1469069184313868
1788277000000,12521,1788277000000,FR_wheel_link,-0.1252646546805033,-0.01686413582396777,-0.10730521241159358,-0.0087882327833892,-0.004012684460238866,0.013813770774593243
1788278000000,12522,1788278000000,FR_wheel_link,0.19373164892662645,-0.9789749579989587,0.09968941094586872,0.024375797040989723,0.00394977148832791,-0.02480128297165893
1788279000000,12523,1788279000000,FR_wheel_link,-1.4046587793659642,-27.712418701896105,-13.010433052743165,-0.5505977960444262,-0.03762887475026247,0.14690729395989555
1788280000000,12524,1788280000000,FR_wheel_link,-0.12526431490416146,-0.01683754462606667,-0.10730663240532377,-0.008788992623637108,-0.004012735831019765,0.01381393056281961
1788281000000,12525,1788281000000,FR_wheel_link,0.1937443796536709,-0.979005554392459,0.09964449856078467,0.024376088793377826,0.003950708446022161,-0.024802335222478027
1788282000000,12526,1788282000000,FR_wheel_link,-1.4046632090187365,-27.711893236535364,-13.01170615769401,-0.5507566308871588,-0.03762961994193728,0.1469076873694249
1788283000000,12527,1788283000000,FR_wheel_link,-0.12526395642133722,-0.0168109715252556,-0.10730806631916145,-0.008789753134281894,-0.00401278666906306,0.013814088584714002
1788284000000,12528,1788284000000,FR_wheel_link,0.19375710127843018,-0.9790361007360188,0.09959957655380813,0.024376378965776956,0.003951645129223318,-0.024803387339370268
1788285000000,12529,1788285000000,FR_wheel_link,-1.4046674084058541,-27.711367459808688,-13.01297940140572,-0.5509154918679275,-0.03763035883498868,0.14690805996126932
1788286000000,12530,1788286000000,FR_wheel_link,-0.12526357069866623,-0.016784407964403898,-0.10730951399635928,-0.008790514663596085,-0.004012836659118539,0.013814243398375807
1788287000000,12531,1788287000000,FR_wheel_link,0.19376981575100793,-0.9790666167849212,0.09955464626728294,0.024376668113670293,0.003952581604908191,-0.024804439741428746
1788288000000,12532,1788288000000,FR_wheel_link,-1.4046718459031233,-27.710841864861475,-13.014252639839233,-0.5510743542337811,-0.03763110387217575,0.14690843930657338
1788289000000,12533,1788289000000,FR_wheel_link,-0.12526322296371895,-0.01675780819358847,-0.10731093826983809,-0.008791275169934883,-0.0040128878383762345,0.013814402454278271
1788290000000,12534,1788290000000,FR_wheel_link,0.1937825476685426,-0.9790971993397529,0.09950971416105087,0.02437695926425392,0.003953518814303504,-0.024805492318005388
1788291000000,12535,1788291000000,FR_wheel_link,-1.4046764169353982,-27.710316268775646,-13.015525991080342,-0.5512332239803434,-0.037631853188757086,0.14690884081992311
1788292000000,12536,1788292000000,FR_wheel_link,-0.12526290249369332,-0.01673121500717149,-0.10731235707176363,-0.008792035664278549,-0.004012940068127674,0.01381456440305314
1788293000000,12537,1788293000000,FR_wheel_link,0.19379529866290923,-0.9791278133242488,0.0994647863716013,0.024377249810785716,0.003954455766661804,-0.02480654760712731
1788294000000,12538,1788294000000,FR_wheel_link,-1.4046784502905578,-27.709788115735364,-13.016799971321353,-0.5513922148174196,-0.037632533953665656,0.14690907652127932
1788295000000,12539,1788295000000,FR_wheel_link,-0.12526225643027958,-0.016704851724819406,-0.10731394209994811,-0.008792805240281355,-0.004012982271599379,0.01381468878266918
1788296000000,12540,1788296000000,FR_wheel_link,0.19380794494965858,-0.9791579802293552,0.09941982876895443,0.024377525149016525,0.003955387983559858,-0.024807605584720196
1788297000000,12541,1788297000000,FR_wheel_link,-1.4046807279255444,-27.709260776038278,-13.018073255311874,-0.5515511680207542,-0.037633216252756854,0.14690921291890674
1788298000000,12542,1788298000000,FR_wheel_link,-0.1252617353854228,-0.016678327734388376,-0.10731540463435787,-0.008793568816175669,-0.004013028190662086,0.0138148257471813
1788299000000,12543,1788299000000,FR_wheel_link,0.19382067004922432,-0.9791884897018183,0.09937488591292047,0.02437781117283169,0.003956323412673195,-0.024808664476962432
1788300000000,12544,1788300000000,FR_wheel_link,-1.4046867647502386,-27.708737242208073,-13.019345611337428,-0.5517099202736536,-0.03763400161973533,0.1469096420213989
1788301000000,12545,1788301000000,FR_wheel_link,-0.12526167312262085,-0.016651517729975168,-0.10731660672232048,-0.008794316685439405,-0.004013088582762678,0.013815016466205149
1788302000000,12546,1788302000000,FR_wheel_link,0.1938335604705526,-0.9792195990107647,0.09932997559707259,0.024378116155146914,0.003957265279259343,-0.02480972159398278
1788303000000,12547,1788303000000,FR_wheel_link,-1.4046916518198098,-27.708211972101484,-13.020618901996603,-0.5518687382317938,-0.03763476274590048,0.14691015401109286
1788304000000,12548,1788304000000,FR_wheel_link,-0.125261317654977,-0.016624993350384226,-0.10731799642381155,-0.008795072506459554,-0.004013140113432593,0.01381517646643442
1788305000000,12549,1788305000000,FR_wheel_link,0.1938463141369437,-0.9792500870503124,0.09928501642412564,0.024378402099111244,0.003958202058260031,-0.024810777020750994
1788306000000,12550,1788306000000,FR_wheel_link,-1.4046947394038591,-27.707685092898306,-13.021892300020658,-0.5520276517547368,-0.03763547158925361,0.14691044985514606
1788307000000,12551,1788307000000,FR_wheel_link,-0.1252608032710727,-0.01659851288112769,-0.10731944827982477,-0.008795833097878627,-0.004013186482108709,0.0138153163467584
1788308000000,12552,1788308000000,FR_wheel_link,0.19385903257426432,-0.979280479795309,0.09924004355764271,0.024378684823800647,0.00395913757096367,-0.024811834607486746
1788309000000,12553,1788309000000,FR_wheel_link,-1.4047001814582154,-27.707160706258083,-13.023164815581064,-0.5521864441126271,-0.03763624141574848,0.1469108450958709
1788310000000,12554,1788310000000,FR_wheel_link,-0.12526064832770967,-0.016571752594334674,-0.1073206820072093,-0.008796582139469294,-0.00401324401158717,0.013815496604255061
1788311000000,12555,1788311000000,FR_wheel_link,0.1938718962375499,-0.9793114566409595,0.09919510231660897,0.024378985747004228,0.003960078749967107,-0.024812892316591215
1788312000000,12556,1788312000000,FR_wheel_link,-1.4047057905795988,-27.706635944744104,-13.024437774697962,-0.5523452359140215,-0.037637020821878975,0.1469113737187575
1788313000000,12557,1788313000000,FR_wheel_link,-0.12526040919994536,-0.016545115733009857,-0.10732198319223625,-0.008797333128662314,-0.004013299156212377,0.013815669526549383
1788314000000,12558,1788314000000,FR_wheel_link,0.19388470467999716,-0.9793421537396063,0.0991501353144314,0.024379278238582863,0.0039610179708031434,-0.02481394832702273
1788315000000,12559,1788315000000,FR_wheel_link,-1.4047093473284493,-27.706109027883855,-13.025711225430431,-0.5525041422637781,-0.037637744071321866,0.14691174047288527
1788316000000,12560,1788316000000,FR_wheel_link,-0.12525991842276618,-0.016518626712336608,-0.10732341620826391,-0.008798091939835112,-0.004013346375410665,0.013815813000274933
1788317000000,12561,1788317000000,FR_wheel_link,0.19389742762457557,-0.9793725296327142,0.09910514000760402,0.024379560588910852,0.003961954019894217,-0.02481500550220389
1788318000000,12562,1788318000000,FR_wheel_link,-1.4047140311723547,-27.70558343625579,-13.026984063492362,-0.5526629963049359,-0.037638494113766574,0.14691209530605687
1788319000000,12563,1788319000000,FR_wheel_link,-0.1252596506931869,-0.01649193134871358,-0.10732470429206639,-0.008798843928020904,-0.004013400425178351,0.013815980568311228
1788320000000,12564,1788320000000,FR_wheel_link,0.19391025168543122,-0.9794033361046448,0.09906016652773224,0.02437985620063093,0.003962894016294089,-0.02481606362047804
1788321000000,12565,1788321000000,FR_wheel_link,-1.404719764205092,-27.70505854935567,-13.028256965491908,-0.5528218074998792,-0.0376392755318882,0.1469125947224218
1788322000000,12566,1788322000000,FR_wheel_link,-0.1252594569073666,-0.016465225405039183,-0.10732596466041047,-0.008799593337547594,-0.004013456954565713,0.013816158121649125
1788323000000,12567,1788323000000,FR_wheel_link,0.19392308835111616,-0.9794341489010566,0.09901518682570837,0.02438015218260385,0.003963834609944628,-0.024817120412117845
1788324000000,12568,1788324000000,FR_wheel_link,-1.4047239446688013,-27.704531860947057,-13.029530480084812,-0.5529807129637604,-0.03764001646299788,0.14691301878810986
1788325000000,12569,1788325000000,FR_wheel_link,-0.12525903204649985,-0.016438685197459228,-0.1073273586953584,-0.008800349992070907,-0.004013506312227275,0.013816309609910614
1788326000000,12570,1788326000000,FR_wheel_link,0.19393583602781492,-0.97946459919211,0.09897017656483147,0.02438043682803115,0.003964771886534392,-0.024818177454435337
1788327000000,12571,1788327000000,FR_wheel_link,-1.4047282522984528,-27.704005463524805,-13.030803734001436,-0.5531396228955155,-0.0376407576934145,0.14691337302109486
1788328000000,12572,1788328000000,FR_wheel_link,-0.1252586900065269,-0.016412037611429016,-0.10732868974974777,-0.008801104399936617,-0.0040135581254285195,0.013816469189295444
1788329000000,12573,1788329000000,FR_wheel_link,0.19394863202240215,-0.9794952707910195,0.09892517457904741,0.024380728156709913,0.003965711065320957,-0.024819235687999416
1788330000000,12574,1788330000000,FR_wheel_link,-1.404733855717478,-27.703480205681213,-13.032076825553752,-0.5532984788919267,-0.037641534975978906,0.14691384025347792
1788331000000,12575,1788331000000,FR_wheel_link,-0.1252584955677877,-0.016385301705657423,-0.10732994342617373,-0.00880185420098185,-0.004013614633512896,0.013816646327042005
1788332000000,12576,1788332000000,FR_wheel_link,0.193961477969221,-0.9795261163455556,0.09888017777998151,0.024381024958168865,0.0039666522369273495,-0.024820293216657137
1788333000000,12577,1788333000000,FR_wheel_link,-1.4047386384534761,-27.7029538308138,-13.033350443302231,-0.5534573932127422,-0.03764229245385925,0.14691430485776946
1788334000000,12578,1788334000000,FR_wheel_link,-0.1252581463172447,-0.01635869482663284,-0.10733129394682685,-0.008802608852093805,-0.004013666409068237,0.013816806645994382
1788335000000,12579,1788335000000,FR_wheel_link,0.19397425797659276,-0.9795566753933731,0.09883515570507188,0.024381312853429152,0.0039675909682513315,-0.02482135041652651
1788336000000,12580,1788336000000,FR_wheel_link,-1.4047429240740263,-27.70242702478874,-13.034624092708622,-0.5536163467019767,-0.037643034566557335,0.14691468498187824
1788337000000,12581,1788337000000,FR_wheel_link,-0.12525777384996598,-0.016332067509847732,-0.10733264670742873,-0.008803364558163917,-0.004013717371326972,0.013816963344940748
1788338000000,12582,1788338000000,FR_wheel_link,0.1939870420183745,-0.9795872705225306,0.09879012976392024,0.024381601681879906,0.003968529905089047,-0.024822408652902663
1788339000000,12583,1788339000000,FR_wheel_link,-1.4047482942253424,-27.70190126931526,-13.03589750475394,-0.5537752572400015,-0.03764380558351014,0.14691512827727682
1788340000000,12584,1788340000000,FR_wheel_link,-0.12525755155028348,-0.016305328906423916,-0.10733391355696298,-0.008804115719471213,-0.0040137730385466945,0.013817137216173008
1788341000000,12585,1788341000000,FR_wheel_link,0.1939998846100598,-0.979618090632524,0.0987451124474099,0.024381897480650453,0.00396947114746613,-0.024823466775757863
1788342000000,12586,1788342000000,FR_wheel_link,-1.4047535083914275,-27.701375083437792,-13.037171262059074,-0.5539341914339806,-0.037644574662932834,0.14691561305091527
1788343000000,12587,1788343000000,FR_wheel_link,-0.12525726265648132,-0.016278660245043385,-0.10733522802840702,-0.008804868961896608,-0.004013826738020995,0.013817304434299866
1788344000000,12588,1788344000000,FR_wheel_link,0.19401269361930282,-0.9796487490339524,0.09870007818218642,0.024382188284751014,0.003970411186337443,-0.02482452434529529
1788345000000,12589,1788345000000,FR_wheel_link,-1.4047579997089343,-27.700848133162975,-13.038445233951522,-0.554093177417271,-0.03764532355973946,0.1469160286703331
1788346000000,12590,1788346000000,FR_wheel_link,-0.1252568945349381,-0.016252026653590625,-0.10733658222479733,-0.008805624923607643,-0.00401387792925806,0.013817462155306626
1788347000000,12591,1788347000000,FR_wheel_link,0.19402547980146728,-0.9796793242962403,0.0986550321787734,0.024382476363217363,0.003971350410968312,-0.024825582598072913
1788348000000,12592,1788348000000,FR_wheel_link,-1.4047631572080337,-27.70032186714031,-13.039719011242006,-0.554252141990734,-0.037646089353660525,0.14691646117849244
1788349000000,12593,1788349000000,FR_wheel_link,-0.12525663690659342,-0.01622529736675414,-0.10733786883898198,-0.008806377646959162,-0.004013932545463322,0.013817632124216729
1788350000000,12594,1788350000000,FR_wheel_link,0.19403831392821858,-0.9797100929106298,0.09860999269309693,0.02438277037047961,0.003972291529116016,-0.024826641145319624
1788351000000,12595,1788351000000,FR_wheel_link,-1.4047686042587344,-27.699795676494976,-13.040992953912822,-0.5544111063778017,-0.03764686460315901,0.14691695063773227
1788352000000,12596,1788352000000,FR_wheel_link,-0.12525638394629707,-0.016198581904027044,-0.10733916031687078,-0.008807130248089682,-0.0040139873991119806,0.013817803383957184
1788353000000,12597,1788353000000,FR_wheel_link,0.1940511435372141,-0.9797408192560282,0.09856494415796495,0.02438306309180181,0.0039732325527018775,-0.024827699187392808
1788354000000,12598,1788354000000,FR_wheel_link,-1.4047734047543363,-27.699268717233423,-13.042267184018051,-0.5545701189787039,-0.03764762271505667,0.14691740015237498
1788355000000,12599,1788355000000,FR_wheel_link,-0.1252560411780945,-0.01617192294315053,-0.1073405023126487,-0.00880788581697868,-0.004014039460777417,0.013817964387072064
1788356000000,12600,1788356000000,FR_wheel_link,0.19406394134851157,-0.9797714155763264,0.09851988079464576,0.02438335168287905,0.003974172426870113,-0.024828757540534603
1788357000000,12601,1788357000000,FR_wheel_link,-1.4047784488631994,-27.698742018016336,-13.043541323794445,-0.554729132234723,-0.03764838624050044,0.1469178354657663
1788358000000,12602,1788358000000,FR_wheel_link,-0.12525575541117767,-0.016145202307412926,-0.10734180595833356,-0.008808639838424448,-0.004014093265000028,0.013818131416115731
1788359000000,12603,1788359000000,FR_wheel_link,0.1940767681529953,-0.9798021336216312,0.09847481919075121,0.02438364394890666,0.003975113468607024,-0.024829816376272153
1788360000000,12604,1788360000000,FR_wheel_link,-1.4047839765337424,-27.698215655961533,-13.044815501948616,-0.5548881346377535,-0.0376491636748089,0.14691832214398043
1788361000000,12605,1788361000000,FR_wheel_link,-0.12525551591629014,-0.016118456660951873,-0.10734308739912966,-0.008809392485381762,-0.004014148573889005,0.01381830417909957
1788362000000,12606,1788362000000,FR_wheel_link,0.19408960956573784,-0.9798328926478423,0.09842975402299547,0.02438393749068154,0.0039760551425461615,-0.024830874903264487
1788363000000,12607,1788363000000,FR_wheel_link,-1.4047890924887065,-27.697688719107312,-13.046089956402055,-0.5550471731652886,-0.0376499308537976,0.14691879831140756
1788364000000,12608,1788364000000,FR_wheel_link,-0.1252552059262273,-0.01609176279656928,-0.10734441138666684,-0.00881014744404535,-0.00401420172333825,0.01381846917429301
1788365000000,12609,1788365000000,FR_wheel_link,0.19410242332615063,-0.9798635306711418,0.09838467462372925,0.024384227222853407,0.003976995830602264,-0.024831933462780502
1788366000000,12610,1788366000000,FR_wheel_link,-1.4047941443873824,-27.697161702061322,-13.047364432940693,-0.5552062286547708,-0.037650695464675796,0.1469192468394115
1788367000000,12611,1788367000000,FR_wheel_link,-0.12525490609432574,-0.016065042794502073,-0.10734572462545318,-0.008810902306745043,-0.004014255161150241,0.013818634930310918
1788368000000,12612,1788368000000,FR_wheel_link,0.19411524745200048,-0.9798942149130808,0.09833959200474886,0.024384518281130963,0.003977936975458626,-0.024832992509972226
1788369000000,12613,1788369000000,FR_wheel_link,-1.4047996710413995,-27.69663506739385,-13.048638887554798,-0.5553652733904048,-0.037651473091078684,0.14691973021607518
1788370000000,12614,1788370000000,FR_wheel_link,-0.12525466503710841,-0.016038279932714707,-0.10734700540438942,-0.00881165545335377,-0.004014310463861241,0.013818807557677632
1788371000000,12615,1788371000000,FR_wheel_link,0.19412809412155185,-0.9799249788867088,0.09829450834928083,0.024384811787633787,0.003978879051478672,-0.02483405147932668
1788372000000,12616,1788372000000,FR_wheel_link,-1.4048052297103684,-27.696106065860466,-13.049912361458954,-0.5555242742618004,-0.03765224951650986,0.14692022797344056
1788373000000,12617,1788373000000,FR_wheel_link,-0.12525438264068436,-0.01601162813233913,-0.10734835931286549,-0.008812408023677203,-0.00401436547378745,0.013818985908713074
1788374000000,12618,1788374000000,FR_wheel_link,0.19414095682693644,-0.9799558302517775,0.0982494347984509,0.024385105690901836,0.00397982044379365,-0.02483511619770387
1788375000000,12619,1788375000000,FR_wheel_link,-1.404809024076503,-27.695576042148634,-13.051186884486428,-0.5556834010662226,-0.0376529774647167,0.14692060608665258
1788376000000,12620,1788376000000,FR_wheel_link,-0.12525385874405395,-0.015985134024201923,-0.10734986231996092,-0.00881316842712555,-0.004014413268114819,0.013819139096660535
1788377000000,12621,1788377000000,FR_wheel_link,0.1941537394484573,-0.9799863665595192,0.09820434016050567,0.024385388877294592,0.0039807583440977685,-0.02483618297082961
1788378000000,12622,1788378000000,FR_wheel_link,-1.4048145291152168,-27.695048306674703,-13.052461101968566,-0.5558424830008943,-0.037653748679549626,0.14692101926157614
1788379000000,12623,1788379000000,FR_wheel_link,-0.125253625067327,-0.01595839390485907,-0.10735120060881824,-0.008813921433624921,-0.004014470054355691,0.013819324250061446
1788380000000,12624,1788380000000,FR_wheel_link,0.19416664969109632,-0.9800174180044886,0.09815927651481851,0.024385687597230882,0.003981700917613549,-0.024837250835378327
1788381000000,12625,1788381000000,FR_wheel_link,-1.4048213319788032,-27.694521624900993,-13.053735678461146,-0.5560015359349405,-0.037654559157659584,0.14692161665079911
1788382000000,12626,1788382000000,FR_wheel_link,-0.12525347507676932,-0.01593165113629806,-0.10735252137850301,-0.008814672574358508,-0.004014529687297759,0.013819520902258372
1788383000000,12627,1788383000000,FR_wheel_link,0.19417957437756292,-0.9800484598171251,0.09811420823010701,0.024385986014278792,0.003982643984315071,-0.024838317227314687
1788384000000,12628,1788384000000,FR_wheel_link,-1.4048264544730449,-27.693993123187944,-13.055011089289618,-0.5561607060621484,-0.03765532600116275,0.14692213394574272
1788385000000,12629,1788385000000,FR_wheel_link,-0.1252530714449086,-0.015905091737854298,-0.10735399537310311,-0.008815432299891877,-0.004014581458267156,0.01381968892929328
1788386000000,12630,1788386000000,FR_wheel_link,0.19419240311570024,-0.9800791023022603,0.09806910897325995,0.024386271817519057,0.003983583361788829,-0.024839384020371308
1788387000000,12631,1788387000000,FR_wheel_link,-1.4048318775749176,-27.693465193901176,-13.05628625313805,-0.5563198799422169,-0.03765609754110637,0.1469225849128094
1788388000000,12632,1788388000000,FR_wheel_link,-0.1252527789252872,-0.015878401307615995,-0.10735539182462586,-0.008816189217496563,-0.0040146365635208,0.013819868156033848
1788389000000,12633,1788389000000,FR_wheel_link,0.19420529377276066,-0.980110017740738,0.0980240221949929,0.024386565817850998,0.003984525094336937,-0.02484045217715877
1788390000000,12634,1788390000000,FR_wheel_link,-1.4048387496564851,-27.692938571419436,-13.057561288686799,-0.5564789955703171,-0.03765690965868222,0.14692316830098295
1788391000000,12635,1788391000000,FR_wheel_link,-0.12525264552436127,-0.015851620301991165,-0.10735670704968991,-0.008816941224520161,-0.004014696747247514,0.01382006644879465
1788392000000,12636,1788392000000,FR_wheel_link,0.19421823753682002,-0.9801411120181287,0.09797894125078334,0.024386865432201008,0.003985468913116939,-0.024841519503607714
1788393000000,12637,1788393000000,FR_wheel_link,-1.4048446181716272,-27.69241064930873,-13.058836924265872,-0.556638179631312,-0.0376576972292298,0.1469237409879648
1788394000000,12638,1788394000000,FR_wheel_link,-0.1252523292287099,-0.015824989544499367,-0.10735813523419027,-0.008817698936690417,-0.00401475132651582,0.013820244759369068
1788395000000,12639,1788395000000,FR_wheel_link,0.19423110447857514,-0.9801718745047461,0.09793383247148829,0.024387154733207395,0.003986409873912157,-0.024842586512697433
1788396000000,12640,1788396000000,FR_wheel_link,-1.4048499787677855,-27.691882321441916,-13.060112547240925,-0.5567974021435472,-0.03765846873434095,0.14692421876738423
1788397000000,12641,1788397000000,FR_wheel_link,-0.12525199651329452,-0.015798327926963063,-0.10735955903535964,-0.008818457450698505,-0.004014805286842501,0.013820420057341179
1788398000000,12642,1788398000000,FR_wheel_link,0.19424398012933905,-0.980202695810145,0.09788872124042283,0.024387445660092374,0.003987351220957931,-0.02484365470458211
1788399000000,12643,1788399000000,FR_wheel_link,-1.4048565644784259,-27.69135517727862,-13.061387887086811,-0.5569565728735958,-0.03765927299105462,0.1469247710245267
1788400000000,12644,1788400000000,FR_wheel_link,-0.12525183096008485,-0.015771544667639015,-0.10736088687475064,-0.008819210789314993,-0.004014864489231493,0.013820614535765562
1788401000000,12645,1788401000000,FR_wheel_link,0.1942569202174223,-0.9802337640997757,0.09784361976198615,0.024387744258931948,0.003988295105555344,-0.024844722707344453
1788402000000,12646,1788402000000,FR_wheel_link,-1.404862888413722,-27.69082746786521,-13.062663609420149,-0.5571157714380962,-0.037660072700782254,0.14692536363864991
1788403000000,12647,1788403000000,FR_wheel_link,-0.12525157985874177,-0.015744847481749973,-0.10736227328997884,-0.008819966713752013,-0.004014921140101316,0.013820800288777196
1788404000000,12648,1788404000000,FR_wheel_link,0.1942698183807605,-0.9802646358488792,0.09779849904227894,0.024388036804121445,0.003989237481382402,-0.024845790089863207
1788405000000,12649,1788405000000,FR_wheel_link,-1.4048684102482805,-27.69029892759977,-13.06393953030581,-0.5572750245533243,-0.03766084982583445,0.1469258754596197
1788406000000,12650,1788406000000,FR_wheel_link,-0.1252512446214705,-0.015718184785622626,-0.10736370027493046,-0.008820725478391021,-0.004014975115276759,0.013820975859904532
1788407000000,12651,1788407000000,FR_wheel_link,0.19428269313617616,-0.9802954258137888,0.09775336659196716,0.0243883266612414,0.003990179028954264,-0.024846858261607815
1788408000000,12652,1788408000000,FR_wheel_link,-1.4048747155306667,-27.68977119178835,-13.065215207850361,-0.5574342492359837,-0.037661646914440794,0.14692641006001173
1788409000000,12653,1788409000000,FR_wheel_link,-0.12525103713380617,-0.01569141356875187,-0.10736504922793051,-0.00882148042453359,-0.004015033052932684,0.013821165641192215
1788410000000,12654,1788410000000,FR_wheel_link,0.19429562256471206,-0.9803264364578811,0.09770824213932122,0.024388623300752005,0.003991122731037322,-0.024847926716537676
1788411000000,12655,1788411000000,FR_wheel_link,-1.4048812897553253,-27.689243485571183,-13.066491073953143,-0.5575934744347196,-0.03766245314636294,0.14692700615765292
1788412000000,12656,1788412000000,FR_wheel_link,-0.12525082659319522,-0.015664664792743276,-0.10736640827856231,-0.008822235447729728,-0.004015090997052364,0.013821355936256618
1788413000000,12657,1788413000000,FR_wheel_link,0.1943085433214918,-0.9803573860216744,0.09766310734038838,0.02438891808671366,0.003992066186586087,-0.0248489945807653
1788414000000,12658,1788414000000,FR_wheel_link,-1.404887122274653,-27.688714918619485,-13.06776724058628,-0.5577527524770767,-0.03766323958015423,0.14692755351875447
1788415000000,12659,1788415000000,FR_wheel_link,-0.12525051581056781,-0.01563797797854008,-0.10736782304853855,-0.008822993765932326,-0.004015145816447983,0.01382153472374555
1788416000000,12660,1788416000000,FR_wheel_link,0.1943214288896592,-0.9803881938393842,0.0976179569632541,0.024389208374237574,0.003993008367378174,-0.024850062816759232
1788417000000,12661,1788417000000,FR_wheel_link,-1.4048932697699155,-27.688186694993338,-13.069043281502404,-0.5579120272683122,-0.03766403319277696,0.14692808773946914
1788418000000,12662,1788418000000,FR_wheel_link,-0.12525027465646418,-0.015611218741261963,-0.1073691916125741,-0.008823750144521244,-0.004015202767301363,0.013821720928340445
1788419000000,12663,1788419000000,FR_wheel_link,0.1943343488959196,-0.9804191463541776,0.09757280966825539,0.024389503044246977,0.003993951923216522,-0.024851131568637188
1788420000000,12664,1788420000000,FR_wheel_link,-1.404899934666791,-27.687658827434174,-13.070319368121439,-0.5580712895647967,-0.03766484180041842,0.1469286798257522
1788421000000,12665,1788421000000,FR_wheel_link,-0.12525008062707677,-0.015584436362651968,-0.10737053832795818,-0.008824505105562215,-0.004015261258016086,0.013821913048275231
1788422000000,12666,1788422000000,FR_wheel_link,0.1943472829407621,-0.9804501355484857,0.09752765842766155,0.024389798865684247,0.003994896091318715,-0.02485219994113449
1788423000000,12667,1788423000000,FR_wheel_link,-1.4049061064004236,-27.68713029953735,-13.071595755636245,-0.5582305923338263,-0.03766563798339988,0.14692925642664006
1788424000000,12668,1788424000000,FR_wheel_link,-0.12524980494377455,-0.015557713453120608,-0.1073719339254319,-0.008825262732720102,-0.004015317239774704,0.013822096120509776
1788425000000,12669,1788425000000,FR_wheel_link,0.1943601851072687,-0.9804809871576321,0.0974824919238244,0.024390090361583707,0.003995839114501238,-0.02485326836320374
1788426000000,12670,1788426000000,FR_wheel_link,-1.404912236536958,-27.686601727003644,-13.07287214476525,-0.5583899109047465,-0.037666432044086595,0.14692980303651887
1788427000000,12671,1788427000000,FR_wheel_link,-0.12525610978506369,-0.17686306441687621,-0.07934770289904465,-0.06655330976009015,-0.004014919689728887,0.013822616072558844
1788428000000,12672,1788428000000,FR_wheel_link,-5.561668168022524,-28.58211504297044,-22.826367112595058,-1.6900412748581677,-0.1609697888488544,0.5715139864374676
1788429000000,12673,1788429000000,FR_wheel_link,0.30616393518609786,-0.0026908325124065657,-0.34470995787406494,-0.10252256867400697,0.010063071725085002,0.010285965798242112
1788430000000,12674,1788430000000,FR_wheel_link,-4.6307342755872964,-15.839479864617285,-18.303454152397016,-1.4839973299143925,-0.12794079711352552,0.43034829764563887
1788431000000,12675,1788431000000,FR_wheel_link,-0.37244163634016614,0.4709499116864464,-0.6067575492167361,-0.07761640443586726,-0.012698713360310001,0.03663013595598628
1788432000000,12676,1788432000000,FR_wheel_link,0.800569668570164,0.3405414703975689,-0.10731287429860853,-0.012897344681262243,0.020811465284609365,-0.02714596186857693
1788433000000,12677,1788433000000,FR_wheel_link,-3.378561786217594,-16.51480548224023,-18.540475889118966,-1.5092308155476881,-0.08994353296343957,0.30697174543360006
1788434000000,12678,1788434000000,FR_wheel_link,0.07473834374372691,-1.0233571883081043,-0.3812373357920038,-0.04179702928329205,-0.004163276518329394,0.007602157340856754
1788435000000,12679,1788435000000,FR_wheel_link,-2.232697715495155,-17.025940284525316,-18.11234909216654,-1.4222105749436917,-0.06288586156018716,0.22560590710708658
1788436000000,12680,1788436000000,FR_wheel_link,-0.07699351239863503,-0.9064219666880368,-0.27028413168646764,-0.031529091138962455,-0.001129687962755279,-0.003497210073322912
1788437000000,12681,1788437000000,FR_wheel_link,-4.711229198519928,-14.719675284471556,-13.324722597268016,-0.9780678614009285,-0.13212041787349624,0.4627519494292581
1788438000000,12682,1788438000000,FR_wheel_link,-0.0019799741749000482,-1.4752510961697025,-0.2622359524793733,-0.00552681896336815,-0.00373166907150514,0.007024788368908316
1788439000000,12683,1788439000000,FR_wheel_link,-2.654023341266492,-26.436063379185573,-14.581320069739384,-0.7628301870135986,-0.07505596424901145,0.2880312719132212
1788440000000,12684,1788440000000,FR_wheel_link,-0.1884881794504144,-0.058513217877789944,-0.2131572465396858,-0.020829809623409464,-0.005887651384064267,0.02096294315525915
1788441000000,12685,1788441000000,FR_wheel_link,0.22721924202398194,-0.9761906038228118,0.14009230915599147,0.022692759517692552,0.003990168526376717,-0.02516134534445195
1788442000000,12686,1788442000000,FR_wheel_link,-1.5759286303430886,-27.477089150641184,-14.318805594016464,-0.7049749386412308,-0.042864446205868115,0.16601021171219124
1788443000000,12687,1788443000000,FR_wheel_link,-0.13453162891644502,-0.023512705637372053,-0.1747210456169742,-0.017304069340892486,-0.0042435401329704164,0.014861966127575052
1788444000000,12688,1788444000000,FR_wheel_link,0.21655306481551717,-0.9794332276063872,0.1270915278259258,0.023636669439063902,0.004098049737805734,-0.02493839845268994
1788445000000,12689,1788445000000,FR_wheel_link,-2.024976129400369,-29.39176507338595,-13.797070460312963,-0.592400373972267,-0.05536621284872735,0.19946386936903107
1788446000000,12690,1788446000000,FR_wheel_link,-0.1506024045660365,0.06097638207261,-0.10496581892326355,-0.012885351453991709,-0.004825345160420544,0.01718571967253451
1788447000000,12691,1788447000000,FR_wheel_link,0.21756751722478979,-1.0061338991356708,0.12162499067548538,0.025023957487964894,0.004471850864335242,-0.02410874770453774
1788448000000,12692,1788448000000,FR_wheel_link,-2.284423187390094,-28.953031188229936,-13.015959357657668,-0.5163415401129996,-0.06281528919552565,0.23226605775134992
1788449000000,12693,1788449000000,FR_wheel_link,-0.14598764360066627,0.06769409520952474,-0.08366814574800575,-0.010865577860428554,-0.004824463379013125,0.016606193625761455
1788450000000,12694,1788450000000,FR_wheel_link,0.20952244888678792,-0.9850942632407756,0.11445436930288735,0.02494666980596765,0.004517748598122627,-0.022985395392005663
1788451000000,12695,1788451000000,FR_wheel_link,-2.2571244145837435,-28.591972505185513,-12.655449557152927,-0.4871692451369213,-0.06206946360401521,0.23076193039113438
1788452000000,12696,1788452000000,FR_wheel_link,-0.14526344391913873,0.04891356385340428,-0.07927920198384948,-0.009621384279516481,-0.004683870583540091,0.016454461011110758
1788453000000,12697,1788453000000,FR_wheel_link,0.20533433719283153,-0.9776476275758202,0.11190196477544172,0.024884148067764365,0.004451603410062546,-0.022793519969836126
1788454000000,12698,1788454000000,FR_wheel_link,-2.2588332495162406,-28.585475371824106,-12.534700048491262,-0.473417664429187,-0.06208136674618571,0.2313383161058202
1788455000000,12699,1788455000000,FR_wheel_link,-0.14639944927722903,0.046845440646296886,-0.07768531425695487,-0.009160222195080123,-0.004689375130167972,0.01659782006632052
1788456000000,12700,1788456000000,FR_wheel_link,0.2044342598587462,-0.9769885386092115,0.11195362643031184,0.02489295429478581,0.004409013844285788,-0.02279283431243298
1788457000000,12701,1788457000000,FR_wheel_link,-2.0456167368067204,-28.13395921740042,-12.444198746530066,-0.4790736201679989,-0.05568078252537888,0.20774993997682198
1788458000000,12702,1788458000000,FR_wheel_link,-0.16564946894166993,-0.0012430608632520686,-0.08410330018995128,-0.007336077772299347,-0.005182444410360152,0.018419132947260063
1788459000000,12703,1788459000000,FR_wheel_link,0.20633440050106583,-0.9896301481020692,0.11507986476389086,0.025001775365568475,0.004269129980763011,-0.023680600755601335
1788460000000,12704,1788460000000,FR_wheel_link,-1.5648999780098771,-16.446584526097084,-12.49135953250677,-0.8092060775641873,-0.04323994749457202,0.1694397754306033
1788461000000,12705,1788461000000,FR_wheel_link,-0.03637817066343233,-1.1808799024360668,-0.0847399140145905,0.004504326925063208,0.000697274568151682,-0.01560213200499453
1788462000000,12706,1788462000000,FR_wheel_link,-3.7331132219277623,-14.641342206176683,-10.32172288963374,-0.641736384650862,-0.10299042279389031,0.36907492161305605
1788463000000,12707,1788463000000,FR_wheel_link,0.0419158725560209,-1.4760736107726773,-0.1410626678454196,0.014386586997984578,0.0001483395982606649,0.0008465451963869546
1788464000000,12708,1788464000000,FR_wheel_link,-4.701835417656533,-16.5414177512203,-11.07248151599634,-0.6558058863490595,-0.13087787526020148,0.4758965909887798
1788465000000,12709,1788465000000,FR_wheel_link,-0.004930539117396701,-1.5607382420573574,-0.14730157092442792,0.015457264851863913,-0.0016516977344612823,0.004149219693729882
1788466000000,12710,1788466000000,FR_wheel_link,-5.141106228920162,-17.09775163775095,-11.381814635619309,-0.6694711034224144,-0.14352691563797687,0.5234823433890817
1788467000000,12711,1788467000000,FR_wheel_link,-0.03736298162570968,-1.5622821545004157,-0.1610322855251043,0.014824250261658116,-0.002480871566145279,0.006545767909761469
1788468000000,12712,1788468000000,FR_wheel_link,-5.372461352817187,-17.227654805437563,-11.546928161252554,-0.6826164039178726,-0.15023643413269833,0.5483781559568751
1788469000000,12713,1788469000000,FR_wheel_link,-0.05898140680098071,-1.5387009640527023,-0.17249546069540067,0.013609240189425822,-0.0029206366426292076,0.007947262464526511
1788470000000,12714,1788470000000,FR_wheel_link,-5.48768989730179,-17.202817499899176,-11.641228463055269,-0.6936519892992951,-0.15360334352207594,0.5605946710397486
1788471000000,12715,1788471000000,FR_wheel_link,-0.07231216820859447,-1.5117663170215185,-0.18056195351980053,0.012375069003715135,-0.0031669122794336494,0.008591229097693245
1788472000000,12716,1788472000000,FR_wheel_link,-5.534087599618302,-17.132448709344843,-11.693598922348702,-0.7018207532035436,-0.15497223690183087,0.5653275416412983
1788473000000,12717,1788473000000,FR_wheel_link,-0.07982508280494056,-1.4890835706445988,-0.18567678714612798,0.011348747116372347,-0.003302817041012436,0.008775196084744807
1788474000000,12718,1788474000000,FR_wheel_link,-5.542743169762936,-17.0608509974218,-11.719820140472827,-0.7072239446725906,-0.1552362587483902,0.5659945249035088
1788475000000,12719,1788475000000,FR_wheel_link,-0.08363595737403745,-1.4723323903860168,-0.18852168428459376,0.010584559153480581,-0.0033756638681776184,0.008728785660009904
1788476000000,12720,1788476000000,FR_wheel_link,-5.5329388061170395,-17.00275709307913,-11.728255257200978,-0.7102106960005501,-0.15495426529364578,0.564714666413244
1788477000000,12721,1788477000000,FR_wheel_link,-0.08527599598818889,-1.4609432119885841,-0.1897444603567043,0.010056598993400518,-0.0034140083403193214,0.008595033161732404
1788478000000,12722,1788478000000,FR_wheel_link,-5.518524361677555,-16.961896724926056,-11.726205259625207,-0.7114163513360545,-0.15453108035893073,0.562997419682823
1788479000000,12723,1788479000000,FR_wheel_link,-0.08568218466092471,-1.453635071160503,-0.1899318471485815,0.009708119342301867,-0.003432287640028746,0.008441372092856407
1788480000000,12724,1788480000000,FR_wheel_link,-5.503614133061281,-16.935594435444884,-11.718360507856046,-0.7114504333352106,-0.15408776671097896,0.5612727845750587
1788480000000,12725,1788481000000,FR_wheel_link,-0.08547472092307885,-1.4491572722704031,-0.18945189486460648,0.009488815848032862,-0.003440851622997146,0.008302343105665086
1788482000000,12726,1788482000000,FR_wheel_link,-5.490467506848654,-16.920090179358898,-11.706970299141744,-0.7106914377375736,-0.15369196239691416,0.5597766025983688
1788483000000,12727,1788483000000,FR_wheel_link,-0.0849933532856232,-1.446522413599146,-0.18856274729570172,0.00935612588633237,-0.0034450995837910243,0.008188086382229386
1788484000000,12728,1788484000000,FR_wheel_link,-5.479567983488718,-16.91205246582743,-11.693797420863463,-0.7094551319099572,-0.1533590557359446,0.5585493381096421
1788485000000,12729,1788485000000,FR_wheel_link,-0.08441984901825976,-1.4450188259250418,-0.1874273109481765,0.009279354186778308,-0.003447967188726072,0.008098270829972888
1788486000000,12730,1788486000000,FR_wheel_link,-5.470664191487973,-16.90869415003021,-11.67937434874504,-0.7079019157056372,-0.1530827847959176,0.5575570370726501
1788487000000,12731,1788487000000,FR_wheel_link,-0.08382735696046785,-1.4441791822134111,-0.18615425060998403,0.009236356306383439,-0.0034504451549981067,0.008027174956412425
1788488000000,12732,1788488000000,FR_wheel_link,-5.463196957530576,-16.90812789344368,-11.664188561213441,-0.7061565324983891,-0.15284747353803319,0.5567324635630646
1788489000000,12733,1788489000000,FR_wheel_link,-0.08324153538146654,-1.4437089900248765,-0.18480917260980087,0.009212783849269096,-0.003452821107393474,0.007968633792065218
1788490000000,12734,1788490000000,FR_wheel_link,-5.456635961849796,-16.909126783246023,-11.648582645670812,-0.7043037435598912,-0.1526380322162582,0.5560130934837275
1788491000000,12735,1788491000000,FR_wheel_link,-0.08266840914780084,-1.4434310420210925,-0.18342712014257997,0.00920004812805356,-0.0034551577265999173,0.007917738863895818
1788492000000,12736,1788492000000,FR_wheel_link,-5.4506211306236505,-16.910960267588955,-11.632822340015828,-0.7024011947967141,-0.15244418134845206,0.5553563530801268
1788493000000,12737,1788493000000,FR_wheel_link,-0.08210698700493688,-1.4432428177136452,-0.1820238620660417,0.009193421665328712,-0.003457477967741145,0.007871072527171195
1788494000000,12738,1788494000000,FR_wheel_link,-5.4448830115581455,-16.91314465118971,-11.616925660492019,-0.7004693343880241,-0.15225821665102063,0.5547315308898872
1788495000000,12739,1788495000000,FR_wheel_link,-0.08155093308991011,-1.4430916819069055,-0.18060700075752517,0.009190225795977119,-0.003459685292750024,0.007826224096422373
1788496000000,12740,1788496000000,FR_wheel_link,-5.4391883238104946,-16.915384217354145,-11.600835432693023,-0.6985132937615599,-0.1520734123165417,0.5541125933648712
1788497000000,12741,1788497000000,FR_wheel_link,-0.08098025339906875,-1.4429830747539003,-0.17917311551702667,0.009189227430773241,-0.0034616720414256783,0.007781435910387187
1788498000000,12742,1788498000000,FR_wheel_link,-5.4334016274138754,-16.91766611621791,-11.584600638395724,-0.6965397793792665,-0.15188578023356722,0.5534840570638668
1788499000000,12743,1788499000000,FR_wheel_link,-0.0804042514349863,-1.442881937717357,-0.1777318623580362,0.009190206586421274,-0.003463086257982746,0.007736463703572183
1788500000000,12744,1788500000000,FR_wheel_link,-3.5797994814099976,-16.472220379424577,-11.938057193705005,-0.7486238259896867,-0.10007985196858615,0.37500963747378235
1788501000000,12745,1788501000000,FR_wheel_link,-0.037397014360825806,-1.2298046477415474,-0.20278325587163273,0.004466760839437939,-0.0013076783207338896,0.0016675395571076413
1788502000000,12746,1788502000000,FR_wheel_link,-3.44722168174266,-15.66481118886513,-11.359892438416075,-0.7184000756318446,-0.0954563260995045,0.35326666500634996
1788503000000,12747,1788503000000,FR_wheel_link,-0.02566024238188467,-1.2055944078241565,-0.1857374778618292,0.0044250624096689875,-0.0013007403848131441,-0.0013764066698043445
1788504000000,12748,1788504000000,FR_wheel_link,-4.173807247522708,-15.439472366128093,-10.931765702132054,-0.6796196177572099,-0.11552413164634742,0.4162814101658393
1788505000000,12749,1788505000000,FR_wheel_link,-0.036159355328876236,-1.365767298315391,-0.15267956215630468,0.008352397114138578,-0.0023497242691265146,0.0011437917956784805
1788506000000,12750,1788506000000,FR_wheel_link,-4.4285671004980465,-16.263399441426476,-11.134236894965495,-0.671140611088107,-0.12288966668057924,0.4464824329075624
1788507000000,12751,1788507000000,FR_wheel_link,-0.13775065637164113,-1.2560903368288896,-0.19340746305835976,0.009278610222830407,-0.002950031499880934,0.0036605434295354433
1788508000000,12752,1788508000000,FR_wheel_link,-4.880737162910266,-15.931985386150007,-11.014683224125843,-0.6679630366674809,-0.13604153014540465,0.49491616951216943
1788509000000,12753,1788509000000,FR_wheel_link,-0.1574308135319595,-1.2431977360471245,-0.1944533017237782,0.008074336420357826,-0.003939805145799721,0.009511626118943137
1788510000000,12754,1788510000000,FR_wheel_link,-5.336030050899829,-16.075337009613566,-11.1931940895647,-0.6815343971047996,-0.1493063030232537,0.5437801408944842
1788511000000,12755,1788511000000,FR_wheel_link,-0.13304628505947402,-1.336689611645092,-0.18149444489370825,0.007396016319636198,-0.0046931349100596265,0.01181806570328082
1788512000000,12756,1788512000000,FR_wheel_link,-5.0580946369927435,-16.762574756626908,-11.713015069045483,-0.7127172867876176,-0.1419310530573265,0.5202655209980387
1788513000000,12757,1788513000000,FR_wheel_link,-0.08535162136881655,-1.4591749088326644,-0.16640060341326907,0.007992070599260924,-0.004253408960706621,0.008526068601802179
1788514000000,12758,1788514000000,FR_wheel_link,-0.5920765658041923,-11.295810073578059,-11.889031656529987,-0.9114425321829865,-0.01596993534066682,0.04372936888263619
1788515000000,12759,1788515000000,FR_wheel_link,0.06065691540046683,-0.6735765149101194,-0.2880929811166437,-0.007597966211338672,0.0061988065533508255,0.0002406659401391668
1788516000000,12760,1788516000000,FR_wheel_link,-1.2255435349007104,-10.66954308930186,-9.734900683051714,-0.7148999854330577,-0.03233098141451108,0.11123255258938358
1788517000000,12761,1788517000000,FR_wheel_link,0.09363526344820623,-1.0215145663936922,-0.1626319046963905,0.0018984308885322042,0.0036202159569085637,-0.009474915720151338
1788518000000,12762,1788518000000,FR_wheel_link,-1.2823040392881264,-13.679683227902718,-10.934347853172119,-0.7423608092859126,-0.033250182752625486,0.1177264436244751
1788519000000,12763,1788519000000,FR_wheel_link,0.07806082334883278,-1.0513711825055476,-0.17813342888680744,0.003554473308252282,0.0036008665108238163,-0.009636138922059237
1788520000000,12764,1788520000000,FR_wheel_link,-2.3428952567233337,-15.017974267797252,-10.346776275138005,-0.6332979715685128,-0.06341453061186886,0.23460085164119776
1788521000000,12765,1788521000000,FR_wheel_link,-0.17855559743111235,-0.9543344572078586,0.00026123457465578037,0.0022856409326648328,-0.0035852618485137213,-0.01311248767459053
1788522000000,12766,1788522000000,FR_wheel_link,-3.9984109334727824,-13.663067277556399,-9.265950921825691,-0.5542115444283621,-0.11071776611474239,0.40148556389877854
1788523000000,12767,1788523000000,FR_wheel_link,0.011630629280314803,-1.3699709128990216,-0.09087242213663509,0.012458272661169924,-0.000858746323749098,0.0013900055576661038
1788524000000,12768,1788524000000,FR_wheel_link,-4.384736634836795,-16.057388904513303,-10.413696413030188,-0.5975924990987751,-0.12107604502046987,0.4412326675126054
1788525000000,12769,1788525000000,FR_wheel_link,-0.022139304753915554,-1.4995410485910576,-0.09347973888536268,0.014601679514408699,-0.0026839765190299083,0.004634971532347918
1788526000000,12770,1788526000000,FR_wheel_link,-4.308183823964567,-17.101647688044196,-10.995144412912827,-0.6219409646786066,-0.11981214511917099,0.4420848881959591
1788527000000,12771,1788527000000,FR_wheel_link,-0.03582488212168036,-1.4870599940437632,-0.11547756057497564,0.012999749833792961,-0.002793575075285641,0.0048530437887727065
1788528000000,12772,1788528000000,FR_wheel_link,-5.165722165649717,-16.95938119632366,-10.960182629725187,-0.6239448223292883,-0.14364816387818663,0.5259127368335487
1788529000000,12773,1788529000000,FR_wheel_link,-0.04892174179478498,-1.5051668220475605,-0.13005453907023384,0.012535615562823127,-0.0031566433297472545,0.006225067438977034
1788530000000,12774,1788530000000,FR_wheel_link,-5.30505350534365,-17.13311827930704,-11.124065076393723,-0.6358130701436625,-0.1476374168238133,0.54058244721605
1788531000000,12775,1788531000000,FR_wheel_link,-0.060155825156677056,-1.4974492744266727,-0.13787191291261477,0.011725541813153752,-0.0033976565914226715,0.006989449295182475
1788532000000,12776,1788532000000,FR_wheel_link,-5.373764110574898,-17.156794467574464,-11.201478682251023,-0.6434673394552114,-0.14962393190965997,0.5477540014750567
1788533000000,12777,1788533000000,FR_wheel_link,-0.06746957073561403,-1.4841999163871435,-0.14318722871127548,0.010973133724404104,-0.0035375120175495647,0.007367714328566952
1788534000000,12778,1788534000000,FR_wheel_link,-5.401989723286677,-17.13287685123933,-11.237822069159694,-0.648307013045969,-0.1504448516571732,0.550603319742562
1788535000000,12779,1788535000000,FR_wheel_link,-0.07166505594732783,-1.4719065318330713,-0.1462705521037072,0.010364097750018538,-0.0036166628141602623,0.007479603431886502
1788536000000,12780,1788536000000,FR_wheel_link,-5.4071387429748725,-17.098324698849538,-11.250975501439765,-0.6509762509450201,-0.150593710192104,0.5509984291619947
1788537000000,12781,1788537000000,FR_wheel_link,-0.07375499716730152,-1.4622838163483824,-0.1477578822966905,0.009919624753249194,-0.0036558246004863085,0.007447960617618969
1788538000000,12782,1788538000000,FR_wheel_link,-5.401027418017273,-17.066604324723347,-11.250107801341404,-0.6519886766608368,-0.15041114864873867,0.5502168318787506
1788539000000,12783,1788539000000,FR_wheel_link,-0.07449728771120698,-1.4554197283357306,-0.1480934583327295,0.009611125249776078,-0.00367589384065743,0.007344653025565839
1788540000000,12784,1788540000000,FR_wheel_link,-5.390097981036835,-17.04207206583343,-11.241174396718309,-0.651840902267966,-0.15008395548281245,0.5489486954448596
1788541000000,12785,1788541000000,FR_wheel_link,-0.07446597972495933,-1.450803028401378,-0.14770235185693337,0.009410772953531061,-0.003683143529649096,0.007219757500642837
1788542000000,12786,1788542000000,FR_wheel_link,-5.378417133947389,-17.024839752659936,-11.227352937746074,-0.6508743795945656,-0.14973148502624248,0.5476305639217399
1788543000000,12787,1788543000000,FR_wheel_link,-0.07402351202270847,-1.4477959823452597,-0.1468694016814075,0.009285204800560212,-0.003683654418613202,0.007096080398382947
1788544000000,12788,1788544000000,FR_wheel_link,-5.366794787392183,-17.013332687586725,-11.21096136931658,-0.6494074300780193,-0.1493779611223581,0.5463383454857412
1788545000000,12789,1788545000000,FR_wheel_link,-0.07341710825375573,-1.4458743807038186,-0.14575927063791885,0.009210618580328315,-0.0036822842231238316,0.006986455124310123
1788546000000,12790,1788546000000,FR_wheel_link,-5.356583760962172,-17.00623700382409,-11.193300225535765,-0.6476297753457992,-0.14906388459441328,0.5452149182186755
1788547000000,12791,1788547000000,FR_wheel_link,-0.07275793675601044,-1.4446414215737224,-0.14450026531237728,0.009167353581951507,-0.0036806717491207003,0.006892130738993335
1788548000000,12792,1788548000000,FR_wheel_link,-5.347672011402713,-17.002147518823826,-11.175116253626337,-0.6456779733644207,-0.14878657737982715,0.5442423342180812
