%time,field.header.seq,field.header.stamp,field.header.frame_id,field.name0,field.name1,field.name2,field.name3,field.position0,field.position1,field.position2,field.position3,field.velocity0,field.velocity1,field.velocity2,field.velocity3,field.effort0,field.effort1,field.effort2,field.effort3
1788202000000,74696,1788200000000,,BL_TO_BASELINK,BR_TO_BASELINK,FL_TO_BASELINK,FR_TO_BASELINK,14.076185232247592,11.643242758922003,0.8686949037606366,-1.9392250897956345,0.07196513189749378,-0.00045852525158106283,-0.0004152764609404169,-0.0002695738791082189,0.0,0.0,0.0,0.0
1788220000000,74697,1788220000000,,BL_TO_BASELINK,BR_TO_BASELINK,FL_TO_BASELINK,FR_TO_BASELINK,14.076360383505342,11.643244417657375,0.8686964022029278,-1.939566795173314,9.372970708604322e-09,2.0213797649604182e-10,3.7775759256786223e-10,-1.4518367251123432e-07,0.0,0.0,0.0,0.0
1788240000000,74698,1788240000000,,BL_TO_BASELINK,BR_TO_BASELINK,FL_TO_BASELINK,FR_TO_BASELINK,14.076607524478803,11.643245592493756,0.8686974618074439,-1.939908964690824,-0.0044367065622605804,-0.0002855083290004175,0.006175884560139566,-0.029041725497879173,0.0,0.0,0.0,0.0
1788260000000,74699,1788260000000,,BL_TO_BASELINK,BR_TO_BASELINK,FL_TO_BASELINK,FR_TO_BASELINK,14.07689138379555,11.64324612019426,0.8686979355167788,-1.9402026769403449,0.07200554564337702,-0.0004591076218333004,-0.00041577188948575816,-0.000269895909587238,0.0,0.0,0.0,0.0
1788280000000,74700,1788280000000,,BL_TO_BASELINK,BR_TO_BASELINK,FL_TO_BASELINK,FR_TO_BASELINK,14.077066563477729,11.64324770697322,0.8686993671001728,-1.9405449390260836,9.334565388013916e-09,1.9377806304010647e-10,3.716074011006487e-10,-1.457378816134558e-07,0.0,0.0,0.0,0.0
1788300000000,74701,1788300000000,,BL_TO_BASELINK,BR_TO_BASELINK,FL_TO_BASELINK,FR_TO_BASELINK,14.077313773759666,11.643248809199125,0.8687003592944116,-1.9408876663426966,-0.004405318972598096,-0.0002912768201589651,0.006120840033524942,-0.029095406255922635,0.0,0.0,0.0,0.0
1788320000000,74702,1788320000000,,BL_TO_BASELINK,BR_TO_BASELINK,FL_TO_BASELINK,FR_TO_BASELINK,14.077597739361305,11.643249273836734,0.8687007745440329,-1.9411818564233165,0.07204594139676912,-0.00045969308393222635,-0.0004162696646257541,-0.00027021920984002246,0.0,0.0,0.0,0.0
1788340000000,74703,1788340000000,,BL_TO_BASELINK,BR_TO_BASELINK,FL_TO_BASELINK,FR_TO_BASELINK,14.077772963508163,11.6432507880099,0.8687021387775653,-1.9415246741403944,9.282862683396287e-09,1.8519757255530678e-10,3.653149623084051e-10,-1.4628928742335678e-07,0.0,0.0,0.0,0.0
1788360000000,74704,1788360000000,,BL_TO_BASELINK,BR_TO_BASELINK,FL_TO_BASELINK,FR_TO_BASELINK,14.078020265592817,11.643251816772882,0.8687030629211057,-1.9418679562337102,-0.004374359541769365,-0.00029702010023584247,0.006065729095896706,-0.029148681502173278,0.0,0.0,0.0,0.0
1788380000000,74705,1788380000000,,BL_TO_BASELINK,BR_TO_BASELINK,FL_TO_BASELINK,FR_TO_BASELINK,14.078304350393697,11.64325221781651,0.8687034193126886,-1.9421626219020798,0.0720862254635914,-0.0004602798757164517,-0.00041676838452967685,-0.0002705430277471846,0.0,0.0,0.0,0.0
1788400000000,74706,1788400000000,,BL_TO_BASELINK,BR_TO_BASELINK,FL_TO_BASELINK,FR_TO_BASELINK,14.078479626019128,11.643253659042855,0.8687047159369579,-1.942505994533664,9.22561779054254e-09,1.7650738162733326e-10,3.589475452980828e-10,-1.4684058077113482e-07,0.0,0.0,0.0,0.0
1788420000000,74707,1788420000000,,BL_TO_BASELINK,BR_TO_BASELINK,FL_TO_BASELINK,FR_TO_BASELINK,14.078727018989431,11.643254614248399,0.8687055719521348,-1.9428498329163046,-0.004343458591668493,-0.0003027142593425326,0.006007914532453723,-0.02920213199222304,0.0,0.0,0.0,0.0
1788440000000,74708,1788440000000,,BL_TO_BASELINK,BR_TO_BASELINK,FL_TO_BASELINK,FR_TO_BASELINK,14.086418864062306,11.65104063432156,0.8759509297668782,-1.9362052918498582,0.5999999135974153,0.5999999952335637,0.6000002058449184,0.5999995238955694,0.0,0.0,0.0,0.0
1788460000000,74709,1788460000000,,BL_TO_BASELINK,BR_TO_BASELINK,FL_TO_BASELINK,FR_TO_BASELINK,14.098567104545806,11.663039814168222,0.8878778971830794,-1.9246659160599728,0.5998813258749087,0.5995525242967592,0.5192990264576977,0.507049478311958,0.0,0.0,0.0,0.0
1788480000000,74710,1788480000000,,BL_TO_BASELINK,BR_TO_BASELINK,FL_TO_BASELINK,FR_TO_BASELINK,14.111905132063198,11.675029750811955,0.8998548059051554,-1.9140375025437022,0.5999532033182027,0.5997748891823534,0.5996541749358443,0.5039389121103832,0.0,0.0,0.0,0.0
1788500000000,74711,1788500000000,,BL_TO_BASELINK,BR_TO_BASELINK,FL_TO_BASELINK,FR_TO_BASELINK,14.125371566902146,11.687019026962961,0.9118448110565547,-1.9034577663450207,0.5999047257499978,0.5996378266857504,0.5529507376270791,0.5045103264593727,0.0,0.0,0.0,0.0
1788520000000,74712,1788520000000,,BL_TO_BASELINK,BR_TO_BASELINK,FL_TO_BASELINK,FR_TO_BASELINK,14.138520293467106,11.69900971958215,0.9235802903538062,-1.892691190306432,0.5999366185399676,0.5997918193345826,0.5989589985061473,0.5159696646098012,0.0,0.0,0.0,0.0
1788540000000,74713,1788540000000,,BL_TO_BASELINK,BR_TO_BASELINK,FL_TO_BASELINK,FR_TO_BASELINK,14.151840992765957,11.711000188339437,0.9355652883522367,-1.8820387466429969,0.5999538914072322,0.5997789904476989,0.5996552917968316,0.5035117897312509,0.0,0.0,0.0,0.0
1788560000000,74714,1788560000000,,BL_TO_BASELINK,BR_TO_BASELINK,FL_TO_BASELINK,FR_TO_BASELINK,14.165313849614233,11.722989385191033,0.9475527318938708,-1.8714876610197377,0.5999531418626348,0.5997794566006708,0.5996522321636549,0.5031524417335442,0.0,0.0,0.0,0.0
1788580000000,74715,1788580000000,,BL_TO_BASELINK,BR_TO_BASELINK,FL_TO_BASELINK,FR_TO_BASELINK,14.17877592129997,11.734978630130948,0.9595401994983046,-1.8609392375608627,0.5999528358352801,0.5997802674420379,0.5996510841717744,0.5030030960524796,0.0,0.0,0.0,0.0
1788600000000,74716,1788600000000,,BL_TO_BASELINK,BR_TO_BASELINK,FL_TO_BASELINK,FR_TO_BASELINK,14.19222747305261,11.746967924704757,0.9715276914411577,-1.8503943363503552,0.5999526051364802,0.5997812340897943,0.5996502697295528,0.5029049580289594,0.0,0.0,0.0,0.0
1788620000000,74717,1788620000000,,BL_TO_BASELINK,BR_TO_BASELINK,FL_TO_BASELINK,FR_TO_BASELINK,14.20535074200556,11.759170760519298,0.9834526385138851,-1.839422514170435,0.6447322581019169,0.6073110151069248,0.5985105158514952,0.594939412297277,0.0,0.0,0.0,0.0
1788640000000,74718,1788640000000,,BL_TO_BASELINK,BR_TO_BASELINK,FL_TO_BASELINK,FR_TO_BASELINK,14.217350856973278,11.771988229164567,0.9945921144277223,-1.8274241959181303,0.6000107512888839,0.6927006465000313,0.5996458319039797,0.5998041148457395,0.0,0.0,0.0,0.0
1788660000000,74719,1788660000000,,BL_TO_BASELINK,BR_TO_BASELINK,FL_TO_BASELINK,FR_TO_BASELINK,14.229351009747193,11.785182609758596,1.005217772320207,-1.8154266222003415,0.600056515250303,0.6698878682104664,0.5994399249213944,0.599646174855093,0.0,0.0,0.0,0.0
1788680000000,74720,1788680000000,,BL_TO_BASELINK,BR_TO_BASELINK,FL_TO_BASELINK,FR_TO_BASELINK,14.241350918027093,11.79846912201095,1.0157769404148933,-1.8034280265078415,0.6000483854770186,0.6940475913176711,0.5995328536610205,0.5997083379930219,0.0,0.0,0.0,0.0
1788700000000,74721,1788700000000,,BL_TO_BASELINK,BR_TO_BASELINK,FL_TO_BASELINK,FR_TO_BASELINK,14.25335091741129,11.81187595093806,1.0263853336080668,-1.7914299075803033,0.600050612464403,0.6968040511525716,0.5995143927797251,0.5996967748202348,0.0,0.0,0.0,0.0
1788719000000,74722,1788720000000,,BL_TO_BASELINK,BR_TO_BASELINK,FL_TO_BASELINK,FR_TO_BASELINK,14.265350927692689,11.825263613202614,1.0370114582086076,-1.7794317992627073,0.6000503671385398,0.6963785322504683,0.5995164360960817,0.5996988206219785,0.0,0.0,0.0,0.0
1788740000000,74723,1788740000000,,BL_TO_BASELINK,BR_TO_BASELINK,FL_TO_BASELINK,FR_TO_BASELINK,14.277351092116916,11.83860114465612,1.0478430960535645,-1.767434011273247,0.6000505099650293,0.6935787735920088,0.5995214502864695,0.5997008819169676,0.0,0.0,0.0,0.0
1788760000000,74724,1788760000000,,BL_TO_BASELINK,BR_TO_BASELINK,FL_TO_BASELINK,FR_TO_BASELINK,14.289351082435664,11.851959431443877,1.0584617480241674,-1.7554357713467095,0.600051396172038,0.6954849081464196,0.5995118777409025,0.5996969311181837,0.0,0.0,0.0,0.0
1788780000000,74725,1788780000000,,BL_TO_BASELINK,BR_TO_BASELINK,FL_TO_BASELINK,FR_TO_BASELINK,14.30135106901797,11.865308689496032,1.0690785639775777,-1.7434374880899313,0.6000518304818424,0.6954403085895062,0.5995091224492171,0.5996963388084661,0.0,0.0,0.0,0.0
1788800000000,74726,1788800000000,,BL_TO_BASELINK,BR_TO_BASELINK,FL_TO_BASELINK,FR_TO_BASELINK,14.313468279721473,11.878466929831633,1.080053785066359,-1.731441432308718,0.6000418253323396,0.6864872224167391,0.5995797547956883,0.5997577308546136,0.0,0.0,0.0,0.0
1788820000000,74727,1788820000000,,BL_TO_BASELINK,BR_TO_BASELINK,FL_TO_BASELINK,FR_TO_BASELINK,14.325468174069952,11.891729257853301,1.0906461317827612,-1.7194426149326105,0.5987339530494755,0.6900458180366266,0.5995600940266894,0.5996963779871466,0.0,0.0,0.0,0.0
1788840000000,74728,1788840000000,,BL_TO_BASELINK,BR_TO_BASELINK,FL_TO_BASELINK,FR_TO_BASELINK,14.337449585520822,11.904153108530164,1.1022339600632183,-1.7074418476553221,0.6002464563766021,0.6302827181813032,0.6216028184386615,0.5989314862964902,0.0,0.0,0.0,0.0
1788860000000,74729,1788860000000,,BL_TO_BASELINK,BR_TO_BASELINK,FL_TO_BASELINK,FR_TO_BASELINK,14.349478065016523,11.916275957205677,1.114105879501385,-1.6957282807210943,0.6000000098942372,0.6000000033407326,0.600000002536932,0.6000000479532303,0.0,0.0,0.0,0.0
1788880000000,74730,1788880000000,,BL_TO_BASELINK,BR_TO_BASELINK,FL_TO_BASELINK,FR_TO_BASELINK,14.362006773049993,11.928300068624925,1.1261009517025817,-1.6845011158947019,0.599960952470774,0.5997931823814584,0.5996902583005119,0.5094693236250171,0.0,0.0,0.0,0.0
1788900000000,74731,1788900000000,,BL_TO_BASELINK,BR_TO_BASELINK,FL_TO_BASELINK,FR_TO_BASELINK,14.375457232469696,11.940289467071835,1.1380887102768105,-1.6738932787732042,0.5999546463405544,0.5997825677629763,0.5996609673540928,0.504973593105422,0.0,0.0,0.0,0.0
1788920000000,74732,1788920000000,,BL_TO_BASELINK,BR_TO_BASELINK,FL_TO_BASELINK,FR_TO_BASELINK,14.388893324586302,11.952278939954827,1.1500808746309268,-1.6632742179794935,0.5998960175367015,0.5996143006715484,0.5412073012085288,0.5041303524644288,0.0,0.0,0.0,0.0
1788940000000,74733,1788940000000,,BL_TO_BASELINK,BR_TO_BASELINK,FL_TO_BASELINK,FR_TO_BASELINK,14.402033971213644,11.964269134073179,1.16201150249291,-1.652477359481157,0.599918226448904,0.599897687858796,0.6040697696756743,0.5080604996480389,0.0,0.0,0.0,0.0
1788960000000,74734,1788960000000,,BL_TO_BASELINK,BR_TO_BASELINK,FL_TO_BASELINK,FR_TO_BASELINK,14.415482263342165,11.97625856488449,1.1739993643859519,-1.6418257620210426,0.599961107672318,0.5998711898869885,0.6096287409839007,0.5075514476156976,0.0,0.0,0.0,0.0
1788980000000,74735,1788980000000,,BL_TO_BASELINK,BR_TO_BASELINK,FL_TO_BASELINK,FR_TO_BASELINK,14.42862940400897,11.988251867905072,1.1858968218326469,-1.6310235389919008,0.5999068456404699,0.5996717859849943,0.5529161689179082,0.5178515117969206,0.0,0.0,0.0,0.0
1789000000000,74736,1789000000000,,BL_TO_BASELINK,BR_TO_BASELINK,FL_TO_BASELINK,FR_TO_BASELINK,14.44200586916871,12.00024169369475,1.1978850026697518,-1.6203652021752815,0.5999552468227124,0.5997871988991959,0.5996624042772271,0.5049964871087297,0.0,0.0,0.0,0.0
1789020000000,74737,1789020000000,,BL_TO_BASELINK,BR_TO_BASELINK,FL_TO_BASELINK,FR_TO_BASELINK,14.455433596758347,12.01223113703987,1.2098727118933272,-1.6097782400301144,0.5999543885051778,0.599787075531145,0.5996592312339608,0.5046359233861223,0.0,0.0,0.0,0.0
1789040000000,74738,1789040000000,,BL_TO_BASELINK,BR_TO_BASELINK,FL_TO_BASELINK,FR_TO_BASELINK,14.468850880403394,12.024220626848193,1.2218604455228634,-1.5991937382124508,0.5999540255851523,0.5997876580778384,0.5996581379326157,0.5045325990593431,0.0,0.0,0.0,0.0
1789060000000,74739,1789060000000,,BL_TO_BASELINK,BR_TO_BASELINK,FL_TO_BASELINK,FR_TO_BASELINK,14.48155680226116,12.036777665083342,1.2333125065302983,-1.5878987326643799,0.5999562405666832,0.5998399476679882,0.5188084277467315,0.6001508191939295,0.0,0.0,0.0,0.0
1789080000000,74740,1789080000000,,BL_TO_BASELINK,BR_TO_BASELINK,FL_TO_BASELINK,FR_TO_BASELINK,14.493557715899513,12.049946424742096,1.2441506786898193,-1.5759038438743938,0.6000799937577203,0.6746142288435342,0.5992819074372376,0.5995255134580529,0.0,0.0,0.0,0.0
1789100000000,74741,1789100000000,,BL_TO_BASELINK,BR_TO_BASELINK,FL_TO_BASELINK,FR_TO_BASELINK,14.505557643897134,12.063299505860982,1.2547319938154722,-1.5639054072227294,0.6000504009958824,0.696831756880909,0.5995194722766953,0.599698358551465,0.0,0.0,0.0,0.0
1789120000000,74742,1789120000000,,BL_TO_BASELINK,BR_TO_BASELINK,FL_TO_BASELINK,FR_TO_BASELINK,14.517557641411791,12.076696314074862,1.2653830155544572,-1.55190726543095,0.6000510996551638,0.697198343419012,0.5995146215052979,0.599695549500453,0.0,0.0,0.0,0.0
1789140000000,74743,1789140000000,,BL_TO_BASELINK,BR_TO_BASELINK,FL_TO_BASELINK,FR_TO_BASELINK,14.529557635021227,12.09008238725063,1.2760295117340483,-1.5399090810080693,0.600051302938966,0.6970911553915662,0.5995133906761663,0.5996957199058467,0.0,0.0,0.0,0.0
1789160000000,74744,1789160000000,,BL_TO_BASELINK,BR_TO_BASELINK,FL_TO_BASELINK,FR_TO_BASELINK,14.541557624806325,12.103458282242485,1.286673046349522,-1.5279108525460874,0.600051483133102,0.6969803159460259,0.5995122417306424,0.5996961630684363,0.0,0.0,0.0,0.0
1789180000000,74745,1789180000000,,BL_TO_BASELINK,BR_TO_BASELINK,FL_TO_BASELINK,FR_TO_BASELINK,14.553557607587821,12.116818453594385,1.2973136061621524,-1.5159125610949342,0.6000511215171502,0.6910649606458837,0.5995250164035385,0.5997072484437338,0.0,0.0,0.0,0.0
1789200000000,74746,1789200000000,,BL_TO_BASELINK,BR_TO_BASELINK,FL_TO_BASELINK,FR_TO_BASELINK,14.565543059010793,12.130076704362526,1.30824012840149,-1.5039175566178153,0.6000723925576298,0.6899797226198249,0.5994235979587981,0.5995738403914999,0.0,0.0,0.0,0.0
1789220000000,74747,1789220000000,,BL_TO_BASELINK,BR_TO_BASELINK,FL_TO_BASELINK,FR_TO_BASELINK,14.577587126114528,12.14322983250528,1.3191480214015838,-1.4919197237644504,0.5949691299772585,0.6899393521628289,0.5997515716891517,0.5998471166604317,0.0,0.0,0.0,0.0
1789240000000,74748,1789240000000,,BL_TO_BASELINK,BR_TO_BASELINK,FL_TO_BASELINK,FR_TO_BASELINK,14.589663961400689,12.156014551773449,1.3302259125823408,-1.4800045058346871,0.6055943015712045,0.6112073375548756,0.6000684195200034,0.600445536836594,0.0,0.0,0.0,0.0
1789260000000,74749,1789260000000,,BL_TO_BASELINK,BR_TO_BASELINK,FL_TO_BASELINK,FR_TO_BASELINK,14.601777390780914,12.168013403536689,1.3422245984337255,-1.468159623059595,0.619529439022224,0.5999978435215655,0.6000344870681186,0.6135749801410934,0.0,0.0,0.0,0.0
1789280000000,74750,1789280000000,,BL_TO_BASELINK,BR_TO_BASELINK,FL_TO_BASELINK,FR_TO_BASELINK,14.613934032940477,12.180146360651689,1.3542246827946034,-1.4562826421096187,0.6190905908659738,0.6118906825712143,0.5999993143461486,0.6072303126821829,0.0,0.0,0.0,0.0
1789300000000,74751,1789300000000,,BL_TO_BASELINK,BR_TO_BASELINK,FL_TO_BASELINK,FR_TO_BASELINK,14.625949867616841,12.19224485090674,1.3661149559089356,-1.444336603554583,0.5999756111133853,0.5928426918881015,0.5826846663465595,0.6001850448840929,0.0,0.0,0.0,0.0
1789320000000,74752,1789320000000,,BL_TO_BASELINK,BR_TO_BASELINK,FL_TO_BASELINK,FR_TO_BASELINK,14.637949779338246,12.204372866127468,1.3779256921898204,-1.432413312626105,0.5999638764479323,0.5998561380631993,0.5767110951460679,0.6001547018774855,0.0,0.0,0.0,0.0
1789340000000,74753,1789340000000,,BL_TO_BASELINK,BR_TO_BASELINK,FL_TO_BASELINK,FR_TO_BASELINK,14.649979274782282,12.216447281352831,1.3899308118366687,-1.4204212952963617,0.5999999927900247,0.6000000051216962,0.6000000126082707,0.5999999982644337,0.0,0.0,0.0,0.0
1789360000000,74754,1789360000000,,BL_TO_BASELINK,BR_TO_BASELINK,FL_TO_BASELINK,FR_TO_BASELINK,14.662201278704735,12.228441654902529,1.4019246024288936,-1.4087789209294863,0.5999518869586308,0.5997876989615485,0.5996839056110068,0.5169034832420598,0.0,0.0,0.0,0.0
1789380000000,74755,1789380000000,,BL_TO_BASELINK,BR_TO_BASELINK,FL_TO_BASELINK,FR_TO_BASELINK,14.675639894608906,12.240431018611522,1.413912407482056,-1.398116591617117,0.5999665825419349,0.599872032988971,0.6088581696188167,0.5091184480687945,0.0,0.0,0.0,0.0
1789400000000,74756,1789400000000,,BL_TO_BASELINK,BR_TO_BASELINK,FL_TO_BASELINK,FR_TO_BASELINK,14.68906356818929,12.252420518404033,1.4259003292583037,-1.3874528636613697,0.599965593649078,0.5998667398575718,0.6087071437498369,0.5064573618658785,0.0,0.0,0.0,0.0
1789420000000,74757,1789420000000,,BL_TO_BASELINK,BR_TO_BASELINK,FL_TO_BASELINK,FR_TO_BASELINK,14.702474051890707,12.264410071455448,1.4378882900096421,-1.376799749781572,0.5999402441000748,0.5998047070796958,0.6015854010765148,0.5073177956383736,0.0,0.0,0.0,0.0
1789440000000,74758,1789440000000,,BL_TO_BASELINK,BR_TO_BASELINK,FL_TO_BASELINK,FR_TO_BASELINK,14.715522283232577,12.276402597764392,1.4497730796447161,-1.3659516765239275,0.5999651154887684,0.5998827733905886,0.608860515736756,0.5164578267224669,0.0,0.0,0.0,0.0
1789460000000,74759,1789460000000,,BL_TO_BASELINK,BR_TO_BASELINK,FL_TO_BASELINK,FR_TO_BASELINK,14.728915356016492,12.288392179089724,1.4617609806858551,-1.355324189006792,0.5999526465454722,0.5997828340787105,0.599655627560066,0.5049489752657536,0.0,0.0,0.0,0.0
1789480000000,74760,1789480000000,,BL_TO_BASELINK,BR_TO_BASELINK,FL_TO_BASELINK,FR_TO_BASELINK,14.742296879583364,12.300477320093627,1.473748497049236,-1.3446667036616873,0.5999957892167826,0.5998562097992717,0.599834982621565,0.5300541879420464,0.0,0.0,0.0,0.0
1789500000000,74761,1789500000000,,BL_TO_BASELINK,BR_TO_BASELINK,FL_TO_BASELINK,FR_TO_BASELINK,14.75483911713185,12.313062069563866,1.4850684728925696,-1.3332123817814345,0.5999544432171701,0.599827611776762,0.5128543661990423,0.6001547026157421,0.0,0.0,0.0,0.0
1789520000000,74762,1789520000000,,BL_TO_BASELINK,BR_TO_BASELINK,FL_TO_BASELINK,FR_TO_BASELINK,14.766839061546433,12.326374044535324,1.4957336169855644,-1.3212139525589235,0.5999537275734937,0.5998248978324029,0.5123241653418023,0.6001584434483942,0.0,0.0,0.0,0.0
1789540000000,74763,1789540000000,,BL_TO_BASELINK,BR_TO_BASELINK,FL_TO_BASELINK,FR_TO_BASELINK,14.778839067715577,12.339763537175127,1.5064299918152795,-1.30921583209801,0.5999534353826245,0.5998232474276854,0.512357892335677,0.6001607497237993,0.0,0.0,0.0,0.0
1789560000000,74764,1789560000000,,BL_TO_BASELINK,BR_TO_BASELINK,FL_TO_BASELINK,FR_TO_BASELINK,14.790839070301054,12.353142719403607,1.5171221693350763,-1.2972176704315856,0.5999531531890115,0.5998216204528639,0.5122109121884714,0.6001628331805261,0.0,0.0,0.0,0.0
1789580000000,74765,1789580000000,,BL_TO_BASELINK,BR_TO_BASELINK,FL_TO_BASELINK,FR_TO_BASELINK,14.802839069471638,12.366512231756467,1.5278112144361904,-1.285219467508318,0.5999529352009477,0.5998202508629754,0.5121429130613885,0.6001646496933895,0.0,0.0,0.0,0.0
1789600000000,74766,1789600000000,,BL_TO_BASELINK,BR_TO_BASELINK,FL_TO_BASELINK,FR_TO_BASELINK,14.814839065855159,12.379872234786042,1.5384973417030148,-1.2732212267629643,0.5999527509377014,0.5998190287552596,0.512095023779913,0.600166304996918,0.0,0.0,0.0,0.0
1789620000000,74767,1789620000000,,BL_TO_BASELINK,BR_TO_BASELINK,FL_TO_BASELINK,FR_TO_BASELINK,14.82691611814438,12.39322862354716,1.5492669591016632,-1.2612237226470944,0.58773908033802,0.6002611651003845,0.5636251345588199,0.5999669647053583,0.0,0.0,0.0,0.0
1789640000000,74768,1789640000000,,BL_TO_BASELINK,BR_TO_BASELINK,FL_TO_BASELINK,FR_TO_BASELINK,14.839008047803775,12.4060304650404,1.560541127489329,-1.249299437671561,0.5899881759420892,0.6003088524510896,0.6002902024684564,0.591549035739371,0.0,0.0,0.0,0.0
1789660000000,74769,1789660000000,,BL_TO_BASELINK,BR_TO_BASELINK,FL_TO_BASELINK,FR_TO_BASELINK,14.851081965323147,12.418041531349942,1.5725517611761912,-1.2373917817293192,0.599990457160592,0.5999590347760191,0.5999307933082519,0.5804853284000324,0.0,0.0,0.0,0.0
1789680000000,74770,1789680000000,,BL_TO_BASELINK,BR_TO_BASELINK,FL_TO_BASELINK,FR_TO_BASELINK,14.863196866528597,12.43004050524171,1.5845506765956898,-1.2255175512991983,0.5999924493263826,0.5999722280175047,0.5999501444682811,0.5864636540012121,0.0,0.0,0.0,0.0
1789700000000,74771,1789700000000,,BL_TO_BASELINK,BR_TO_BASELINK,FL_TO_BASELINK,FR_TO_BASELINK,14.87542895731417,12.44204055151857,1.596550309332037,-1.213766521742385,0.6653328631411048,0.5996321450275262,0.5996579425146996,0.5997701343802391,0.0,0.0,0.0,0.0
1789720000000,74772,1789720000000,,BL_TO_BASELINK,BR_TO_BASELINK,FL_TO_BASELINK,FR_TO_BASELINK,14.887789889105658,12.454092646056601,1.608551365705078,-1.2020057333900178,0.600000049631797,0.5999999859019437,0.5999999994450461,0.5999999369105442,0.0,0.0,0.0,0.0
1789740000000,74773,1789740000000,,BL_TO_BASELINK,BR_TO_BASELINK,FL_TO_BASELINK,FR_TO_BASELINK,14.899859340719711,12.466221620673437,1.6203533767512592,-1.1900833902714378,0.6000129012112781,0.6181713909120502,0.5998794295366146,0.5999200966523761,0.0,0.0,0.0,0.0
1789760000000,74774,1789760000000,,BL_TO_BASELINK,BR_TO_BASELINK,FL_TO_BASELINK,FR_TO_BASELINK,14.91185942839035,12.478351286614348,1.6321339042876506,-1.1780837930572616,0.5999910155000288,0.599964244401544,0.5811456170565036,0.600030938043148,0.0,0.0,0.0,0.0
1789780000000,74775,1789780000000,,BL_TO_BASELINK,BR_TO_BASELINK,FL_TO_BASELINK,FR_TO_BASELINK,14.923859347417027,12.490437254028382,1.6439829571709241,-1.1661173372963312,0.5999176023868219,0.5998178772646927,0.5949163120076641,0.6004304776692111,0.0,0.0,0.0,0.0
1789800000000,74776,1789800000000,,BL_TO_BASELINK,BR_TO_BASELINK,FL_TO_BASELINK,FR_TO_BASELINK,14.935860885674376,12.502436880984245,1.6559468317947275,-1.1541426771037475,0.5999918173795529,0.5999672672870666,0.5831339873888006,0.6000287056226409,0.0,0.0,0.0,0.0
1789820000000,74777,1789820000000,,BL_TO_BASELINK,BR_TO_BASELINK,FL_TO_BASELINK,FR_TO_BASELINK,14.948534959305842,12.514457687856199,1.6679771511519004,-1.142769806360306,0.6881187452365398,0.5995702358170085,0.5995846683052561,0.5997045630722188,0.0,0.0,0.0,0.0
1789840000000,74778,1789840000000,,BL_TO_BASELINK,BR_TO_BASELINK,FL_TO_BASELINK,FR_TO_BASELINK,14.961926686334127,12.526447240095862,1.6799650586798673,-1.1321410334157678,0.6960012094176392,0.5995106400472049,0.5995313001128671,0.5996693888059051,0.0,0.0,0.0,0.0
1789860000000,74779,1789860000000,,BL_TO_BASELINK,BR_TO_BASELINK,FL_TO_BASELINK,FR_TO_BASELINK,14.975308586746863,12.53843681961969,1.6919529832813875,-1.121504508458787,0.6960247787225482,0.5995094172712414,0.5995295939512566,0.5996671978425745,0.0,0.0,0.0,0.0
1789880000000,74780,1789880000000,,BL_TO_BASELINK,BR_TO_BASELINK,FL_TO_BASELINK,FR_TO_BASELINK,14.988680078962961,12.550426423643561,1.7039409927431128,-1.1108225896800201,0.6975242706572798,0.599489039306503,0.599512047533721,0.5996552041239684,0.0,0.0,0.0,0.0
1789900000000,74781,1789900000000,,BL_TO_BASELINK,BR_TO_BASELINK,FL_TO_BASELINK,FR_TO_BASELINK,15.00181049684434,12.562416715778653,1.715667936896776,-1.0999294497842094,0.695364705557431,0.5995087438336094,0.5995278538272149,0.5996616209776151,0.0,0.0,0.0,0.0
1789920000000,74782,1789920000000,,BL_TO_BASELINK,BR_TO_BASELINK,FL_TO_BASELINK,FR_TO_BASELINK,15.015135165009395,12.574571646631561,1.7276552822619848,-1.0892411823900918,0.6973586087543391,0.6662665424975857,0.5990462498836968,0.599347313201863,0.0,0.0,0.0,0.0
1789940000000,74783,1789940000000,,BL_TO_BASELINK,BR_TO_BASELINK,FL_TO_BASELINK,FR_TO_BASELINK,15.027342991613626,12.587435281686824,1.7388049446868514,-1.077496781864875,0.599957303278612,0.5998392878602383,0.5160166853341259,0.6001424976245557,0.0,0.0,0.0,0.0
1789960000000,74784,1789960000000,,BL_TO_BASELINK,BR_TO_BASELINK,FL_TO_BASELINK,FR_TO_BASELINK,15.03934299941872,12.600815456240658,1.7495206222113513,-1.065498659867461,0.5999536949788765,0.5998258244506521,0.512898366124504,0.6001589147744009,0.0,0.0,0.0,0.0
1789980000000,74785,1789980000000,,BL_TO_BASELINK,BR_TO_BASELINK,FL_TO_BASELINK,FR_TO_BASELINK,15.051343003082238,12.614180852336617,1.7602332519106518,-1.0535004934986967,0.5999534168051333,0.5998241493962188,0.5127191374768074,0.6001609785552295,0.0,0.0,0.0,0.0
1790000000000,74786,1790000000000,,BL_TO_BASELINK,BR_TO_BASELINK,FL_TO_BASELINK,FR_TO_BASELINK,15.063343003451857,12.62753729810175,1.770942617291844,-1.0415022867062067,0.5999532128966362,0.599822752344227,0.5126479724881029,0.6001627495778501,0.0,0.0,0.0,0.0
1790020000000,74787,1790020000000,,BL_TO_BASELINK,BR_TO_BASELINK,FL_TO_BASELINK,FR_TO_BASELINK,15.075343001049847,12.640885074374268,1.7816489461606153,-1.0295040426448212,0.5999529950346094,0.5998212958502228,0.5125631904095217,0.6001645745044356,0.0,0.0,0.0,0.0
1790040000000,74788,1790040000000,,BL_TO_BASELINK,BR_TO_BASELINK,FL_TO_BASELINK,FR_TO_BASELINK,15.08739303258262,12.654073522730108,1.792512885592096,-1.0175074119861147,0.5999481292282297,0.5998030515433773,0.5100891969208062,0.6001880611462405,0.0,0.0,0.0,0.0
1790060000000,74789,1790060000000,,BL_TO_BASELINK,BR_TO_BASELINK,FL_TO_BASELINK,FR_TO_BASELINK,15.099509555695915,12.666265816516013,1.8043570554291612,-1.0058186915705125,0.5819797835723284,0.5996516265421598,0.5995856932938862,0.5723311349823706,0.0,0.0,0.0,0.0
1790080000000,74790,1790080000000,,BL_TO_BASELINK,BR_TO_BASELINK,FL_TO_BASELINK,FR_TO_BASELINK,15.11159050075859,12.678265206415738,1.8163563651540642,-0.9939647678413257,0.5999908570611117,0.5999628417993456,0.5999362082869443,0.5828487837366886,0.0,0.0,0.0,0.0
1790100000000,74791,1790100000000,,BL_TO_BASELINK,BR_TO_BASELINK,FL_TO_BASELINK,FR_TO_BASELINK,15.12366411102349,12.690264608862162,1.8283558545180014,-0.9820204945641828,0.6000000029383661,0.599999999967333,0.599999999971126,0.5999999966683875,0.0,0.0,0.0,0.0
1790120000000,74792,1790120000000,,BL_TO_BASELINK,BR_TO_BASELINK,FL_TO_BASELINK,FR_TO_BASELINK,15.135718495125094,12.702264264437861,1.8403555224383403,-0.9700823564950216,0.6000000087220153,0.5999999998956084,0.5999999999117149,0.599999993074678,0.0,0.0,0.0,0.0
1790140000000,74793,1790140000000,,BL_TO_BASELINK,BR_TO_BASELINK,FL_TO_BASELINK,FR_TO_BASELINK,15.147829821210612,12.71426342984318,1.85235474406592,-0.9581568100065425,0.6181754647908827,0.5998507795102914,0.599898669370531,0.6146470458947175,0.0,0.0,0.0,0.0
1790160000000,74794,1790160000000,,BL_TO_BASELINK,BR_TO_BASELINK,FL_TO_BASELINK,FR_TO_BASELINK,15.16009609743227,12.726295769499876,1.8643591969714528,-0.9462131353024255,0.6177949802206855,0.600332206795406,0.6003281763952659,0.6094072509664031,0.0,0.0,0.0,0.0
1790180000000,74795,1790180000000,,BL_TO_BASELINK,BR_TO_BASELINK,FL_TO_BASELINK,FR_TO_BASELINK,15.172079642807743,12.738343242180107,1.8762973935768095,-0.9342723194433553,0.5999947230450694,0.5860480692876634,0.5809449511539851,0.6000680464219477,0.0,0.0,0.0,0.0
1790200000000,74796,1790200000000,,BL_TO_BASELINK,BR_TO_BASELINK,FL_TO_BASELINK,FR_TO_BASELINK,15.184079735157784,12.750528573288431,1.8881188604571797,-0.9222728250031924,0.6000422378909459,0.6674764195701908,0.5996326473146817,0.599741403396902,0.0,0.0,0.0,0.0
1790220000000,74797,1790220000000,,BL_TO_BASELINK,BR_TO_BASELINK,FL_TO_BASELINK,FR_TO_BASELINK,15.196079782144274,12.762637537316555,1.8999238830105725,-0.9102729804482212,0.5999919038263286,0.5877635887029267,0.578208671119851,0.6000803307016966,0.0,0.0,0.0,0.0
1790240000000,74798,1790240000000,,BL_TO_BASELINK,BR_TO_BASELINK,FL_TO_BASELINK,FR_TO_BASELINK,15.208079590788135,12.774747110982052,1.9117555926448873,-0.8984619488928889,0.599991777647064,0.5999651987763261,0.5882104573650233,0.6000312737038861,0.0,0.0,0.0,0.0
1790260000000,74799,1790260000000,,BL_TO_BASELINK,BR_TO_BASELINK,FL_TO_BASELINK,FR_TO_BASELINK,15.220079958409467,12.786875394034972,1.9237140422656722,-0.8864629583417205,0.600006419581484,0.6212817969817972,0.6176675035428608,0.5999484573262996,0.0,0.0,0.0,0.0
1790280000000,74800,1790280000000,,BL_TO_BASELINK,BR_TO_BASELINK,FL_TO_BASELINK,FR_TO_BASELINK,15.23249588144529,12.799038588375105,1.935659765957297,-0.8747976214094813,0.6850670230857663,0.5995273056761521,0.5995551722012091,0.5996926050013245,0.0,0.0,0.0,0.0
1790300000000,74801,1790300000000,,BL_TO_BASELINK,BR_TO_BASELINK,FL_TO_BASELINK,FR_TO_BASELINK,15.24586086953893,12.811028244088288,1.9476477907838667,-0.8641248252635849,0.6950252790201046,0.5995108614318804,0.5995306177687523,0.5996672683194338,0.0,0.0,0.0,0.0
1790320000000,74802,1790320000000,,BL_TO_BASELINK,BR_TO_BASELINK,FL_TO_BASELINK,FR_TO_BASELINK,15.259210920168421,12.823017948559201,1.9596358421625162,-0.8534600680407554,0.6950328574827968,0.5995078234387075,0.5995274901700427,0.5996640709805915,0.0,0.0,0.0,0.0
1790340000000,74803,1790340000000,,BL_TO_BASELINK,BR_TO_BASELINK,FL_TO_BASELINK,FR_TO_BASELINK,15.272552041061308,12.83500769489072,1.9716239159948437,-0.8427979835847434,0.695082960911307,0.599504314007892,0.5995238761502897,0.5996601168135879,0.0,0.0,0.0,0.0
1790360000000,74804,1790360000000,,BL_TO_BASELINK,BR_TO_BASELINK,FL_TO_BASELINK,FR_TO_BASELINK,15.285687087024431,12.847099706631674,1.9834154677238178,-0.8319078901179084,0.7036680078780219,0.6927675788090895,0.5987917605523203,0.5992024177768898,0.0,0.0,0.0,0.0
1790380000000,74805,1790380000000,,BL_TO_BASELINK,BR_TO_BASELINK,FL_TO_BASELINK,FR_TO_BASELINK,15.297856222334811,12.860261503858244,1.9944327581379397,-0.8200561880115531,0.6000486038031645,0.694131601615949,0.5995365273153453,0.599710094052675,0.0,0.0,0.0,0.0
1790400000000,74806,1790400000000,,BL_TO_BASELINK,BR_TO_BASELINK,FL_TO_BASELINK,FR_TO_BASELINK,15.309856232180197,12.873614403684114,2.0051541956412215,-0.8080580486860267,0.6000511347756975,0.6958286542136743,0.5995193223540174,0.5996962719981115,0.0,0.0,0.0,0.0
1790420000000,74807,1790420000000,,BL_TO_BASELINK,BR_TO_BASELINK,FL_TO_BASELINK,FR_TO_BASELINK,15.321856237785273,12.886956397898345,2.0158732850465206,-0.796059864017904,0.6000514792487297,0.6958524805723922,0.5995170675537448,0.5996957414739945,0.0,0.0,0.0,0.0
1790440000000,74808,1790440000000,,BL_TO_BASELINK,BR_TO_BASELINK,FL_TO_BASELINK,FR_TO_BASELINK,15.333856240722053,12.900289819904001,2.0265890071696298,-0.7840616431509275,0.6000516743251668,0.6958132343499753,0.599515684241972,0.599696082619329,0.0,0.0,0.0,0.0
1790460000000,74809,1790460000000,,BL_TO_BASELINK,BR_TO_BASELINK,FL_TO_BASELINK,FR_TO_BASELINK,15.345974267521232,12.913398015423613,2.037476076453462,-0.7721906656701112,0.6427618112223195,0.678564694883919,0.5993102127795605,0.5995181652120223,0.0,0.0,0.0,0.0
1790480000000,74810,1790480000000,,BL_TO_BASELINK,BR_TO_BASELINK,FL_TO_BASELINK,FR_TO_BASELINK,15.358068313505793,12.925401239169096,2.0494749498013682,-0.7604426025976956,0.5778561127251485,0.5997885011188514,0.5997206020008528,0.571845563223427,0.0,0.0,0.0,0.0
1790500000000,74811,1790500000000,,BL_TO_BASELINK,BR_TO_BASELINK,FL_TO_BASELINK,FR_TO_BASELINK,15.370115323363322,12.937402175644536,2.0614756415231277,-0.7485626121910487,0.5999999998737491,0.5999999999847377,0.5999999999112765,0.5999999920106205,0.0,0.0,0.0,0.0
1790520000000,74812,1790520000000,,BL_TO_BASELINK,BR_TO_BASELINK,FL_TO_BASELINK,FR_TO_BASELINK,15.38221658573951,12.949402682864976,2.0734760507783925,-0.7366906886150257,0.6149384842032638,0.5999240407327707,0.5999277756659273,0.5999502694767125,0.0,0.0,0.0,0.0
1790540000000,74813,1790540000000,,BL_TO_BASELINK,BR_TO_BASELINK,FL_TO_BASELINK,FR_TO_BASELINK,15.394349606804534,12.961401814643246,2.0854749560967214,-0.7249137128018939,0.5999908300848408,0.5999588146440137,0.5999304559668901,0.5805289723920884,0.0,0.0,0.0,0.0
1790560000000,74814,1790560000000,,BL_TO_BASELINK,BR_TO_BASELINK,FL_TO_BASELINK,FR_TO_BASELINK,15.406512211958445,12.973400905420252,2.097474031211622,-0.7130083669976823,0.6222112415074214,0.599715016025677,0.5998164673526679,0.6178778569803387,0.0,0.0,0.0,0.0
1790580000000,74815,1790580000000,,BL_TO_BASELINK,BR_TO_BASELINK,FL_TO_BASELINK,FR_TO_BASELINK,15.418650979032433,12.985412599353976,2.109485041381401,-0.701074076196984,0.600000045595952,0.5999999988033377,0.599999999026844,0.5999999881483469,0.0,0.0,0.0,0.0
1790600000000,74816,1790600000000,,BL_TO_BASELINK,BR_TO_BASELINK,FL_TO_BASELINK,FR_TO_BASELINK,15.430967993689372,12.99745376844616,2.1214283496530957,-0.6892033441254544,0.5999999870369738,0.5999999991018709,0.5999999980109517,0.6000000020119342,0.0,0.0,0.0,0.0
1790620000000,74817,1790620000000,,BL_TO_BASELINK,BR_TO_BASELINK,FL_TO_BASELINK,FR_TO_BASELINK,15.442968129668845,13.009497333163797,2.1333567221970284,-0.677204209297475,0.6000000007194616,0.5999999887802733,0.6000000508866858,0.600000000069676,0.0,0.0,0.0,0.0
1790640000000,74818,1790640000000,,BL_TO_BASELINK,BR_TO_BASELINK,FL_TO_BASELINK,FR_TO_BASELINK,15.454968298821607,13.02166028747017,2.145092246206815,-0.6652049443853381,0.600014442124023,0.6191661865460135,0.6087897577965475,0.5999320034714091,0.0,0.0,0.0,0.0
1790660000000,74819,1790660000000,,BL_TO_BASELINK,BR_TO_BASELINK,FL_TO_BASELINK,FR_TO_BASELINK,15.466968306218936,13.033814385597283,2.156959576644322,-0.6532049346030382,0.6000104010606699,0.622098079327979,0.6143098317767322,0.5999400246862833,0.0,0.0,0.0,0.0
1790680000000,74820,1790680000000,,BL_TO_BASELINK,BR_TO_BASELINK,FL_TO_BASELINK,FR_TO_BASELINK,15.478968343236819,13.045980740648098,2.1688431254946927,-0.641205152023403,0.6000000000376605,0.5999999812405649,0.5999999971952203,0.5999999998013034,0.0,0.0,0.0,0.0
1790700000000,74821,1790700000000,,BL_TO_BASELINK,BR_TO_BASELINK,FL_TO_BASELINK,FR_TO_BASELINK,15.490968140577838,13.058096787598515,2.180563546666413,-0.6292454209502969,0.599961154630865,0.5998484380334782,0.538974711173814,0.6001513246908281,0.0,0.0,0.0,0.0
1790720000000,74822,1790720000000,,BL_TO_BASELINK,BR_TO_BASELINK,FL_TO_BASELINK,FR_TO_BASELINK,15.50296805290948,13.070424394066048,2.1925123832999596,-0.6172456728004025,0.6000000004259897,0.5999998098686157,0.6000000023435814,0.5999999984895104,0.0,0.0,0.0,0.0
1790740000000,74823,1790740000000,,BL_TO_BASELINK,BR_TO_BASELINK,FL_TO_BASELINK,FR_TO_BASELINK,15.515212913677097,13.082631399158444,2.2044771299303676,-0.6055756630642577,0.5999496147711109,0.5998007867188653,0.599673287659948,0.5181153553056972,0.0,0.0,0.0,0.0
1790760000000,74824,1790760000000,,BL_TO_BASELINK,BR_TO_BASELINK,FL_TO_BASELINK,FR_TO_BASELINK,15.528537483759068,13.09462111121347,2.2164651833408477,-0.5949144344725941,0.5999532984356302,0.5997860513386252,0.5996631767591522,0.5092356967025876,0.0,0.0,0.0,0.0
1790780000000,74825,1790780000000,,BL_TO_BASELINK,BR_TO_BASELINK,FL_TO_BASELINK,FR_TO_BASELINK,15.541858206533112,13.10661062387149,2.228355302490007,-0.5842399258435256,0.6008604937262393,0.6032911958927022,0.5327079037284598,0.5060145249870689,0.0,0.0,0.0,0.0
1790800000000,74826,1790800000000,,BL_TO_BASELINK,BR_TO_BASELINK,FL_TO_BASELINK,FR_TO_BASELINK,15.554901276803378,13.118737349625409,2.2402289351629943,-0.5732350922423883,0.6000203442285623,0.5999124808679216,0.5999566958672051,0.5552895328221537,0.0,0.0,0.0,0.0
1790820000000,74827,1790820000000,,BL_TO_BASELINK,BR_TO_BASELINK,FL_TO_BASELINK,FR_TO_BASELINK,15.566998418130714,13.13187456534175,2.2510671460388814,-0.5613208007719983,0.5999558440179853,0.5998362690736658,0.5120887632381085,0.6001480949306726,0.0,0.0,0.0,0.0
1790840000000,74828,1790840000000,,BL_TO_BASELINK,BR_TO_BASELINK,FL_TO_BASELINK,FR_TO_BASELINK,15.578998427483144,13.14519648740405,2.261787421210947,-0.5493226333701751,0.5999538952588459,0.5998287278539651,0.5113221608861135,0.6001581947891318,0.0,0.0,0.0,0.0
1790860000000,74829,1790860000000,,BL_TO_BASELINK,BR_TO_BASELINK,FL_TO_BASELINK,FR_TO_BASELINK,15.590998435342797,13.15851033124744,2.2725058110154883,-0.5373244361281273,0.599953554647945,0.5998268126337938,0.5111186517542855,0.6001605562494974,0.0,0.0,0.0,0.0
1790880000000,74830,1790880000000,,BL_TO_BASELINK,BR_TO_BASELINK,FL_TO_BASELINK,FR_TO_BASELINK,15.603042587838077,13.171461866192352,2.2836387623769347,-0.5253929227470948,0.586749873168575,0.6003375731032079,0.6003126573204375,0.5779991613893732,0.0,0.0,0.0,0.0
1790900000000,74831,1790900000000,,BL_TO_BASELINK,BR_TO_BASELINK,FL_TO_BASELINK,FR_TO_BASELINK,15.615210916382631,13.183464842313478,2.2956429688949704,-0.5136314709436167,0.5999999999365532,0.5999999999751664,0.5999999999849878,0.6000000004406206,0.0,0.0,0.0,0.0
1790919000000,74832,1790920000000,,BL_TO_BASELINK,BR_TO_BASELINK,FL_TO_BASELINK,FR_TO_BASELINK,15.62735542901283,13.195463021843402,2.3076413155724733,-0.5017742525846618,0.6705490878050959,0.5995844059950469,0.5996177928218211,0.5997473835086311,0.0,0.0,0.0,0.0
1790940000000,74833,1790940000000,,BL_TO_BASELINK,BR_TO_BASELINK,FL_TO_BASELINK,FR_TO_BASELINK,15.639419649683912,13.20746707699849,2.3196416616172293,-0.48990788673026575,0.6000000002326522,0.6000000004933612,0.5999999955241921,0.5999999882551609,0.0,0.0,0.0,0.0
1790960000000,74834,1790960000000,,BL_TO_BASELINK,BR_TO_BASELINK,FL_TO_BASELINK,FR_TO_BASELINK,15.65141480928331,13.219470181361128,2.331644289604249,-0.4779447309422551,0.5794090833911251,0.599593552901159,0.5993834842252982,0.5782993091817261,0.0,0.0,0.0,0.0
1790980000000,74835,1790980000000,,BL_TO_BASELINK,BR_TO_BASELINK,FL_TO_BASELINK,FR_TO_BASELINK,15.663587240635827,13.231469663438437,2.3436435617971547,-0.4661484797778712,0.6000000213884186,0.5999999998646861,0.600000000035205,0.5999999753810257,0.0,0.0,0.0,0.0
1791000000000,74836,1791000000000,,BL_TO_BASELINK,BR_TO_BASELINK,FL_TO_BASELINK,FR_TO_BASELINK,15.675646125012253,13.24347044880087,2.3556441724863895,-0.45418502828097473,0.6000000023224474,0.5999999998435573,0.5999999999218211,0.6000000009295878,0.0,0.0,0.0,0.0
1791020000000,74837,1791020000000,,BL_TO_BASELINK,BR_TO_BASELINK,FL_TO_BASELINK,FR_TO_BASELINK,15.68774221951035,13.255462531962781,2.367637438200598,-0.44221762574091805,0.6817686899938379,0.5995249188995816,0.5995594039016497,0.5997039396290118,0.0,0.0,0.0,0.0
1791040000000,74838,1791040000000,,BL_TO_BASELINK,BR_TO_BASELINK,FL_TO_BASELINK,FR_TO_BASELINK,15.699980463921056,13.267635548751022,2.379491364006496,-0.43046160121201993,0.5999999775929445,0.600000047600159,0.5999999589076355,0.599999999678368,0.0,0.0,0.0,0.0
1791060000000,74839,1791060000000,,BL_TO_BASELINK,BR_TO_BASELINK,FL_TO_BASELINK,FR_TO_BASELINK,15.711978285123987,13.279757808466986,2.3912682011191766,-0.4184567705968618,0.5998788309389463,0.5797302152582239,0.5729769842746525,0.6008049144905219,0.0,0.0,0.0,0.0
1791080000000,74840,1791080000000,,BL_TO_BASELINK,BR_TO_BASELINK,FL_TO_BASELINK,FR_TO_BASELINK,15.723978441923693,13.291892419359371,2.4029759781698115,-0.40645747479070593,0.6000164530819749,0.6132441714118456,0.6039218378027353,0.5999294987888267,0.0,0.0,0.0,0.0
1791100000000,74841,1791100000000,,BL_TO_BASELINK,BR_TO_BASELINK,FL_TO_BASELINK,FR_TO_BASELINK,15.735978512644389,13.304011362552052,2.4147002496421397,-0.39445774718953786,0.5999896950287877,0.5999595708384289,0.5795654423669454,0.6000369057503342,0.0,0.0,0.0,0.0
1791120000000,74842,1791120000000,,BL_TO_BASELINK,BR_TO_BASELINK,FL_TO_BASELINK,FR_TO_BASELINK,15.747978219502638,13.31617279412174,2.426555362290536,-0.3826092359210804,0.5999706608963336,0.5997711015642272,0.5934756196532204,0.5970529060284883,0.0,0.0,0.0,0.0
1791140000000,74843,1791140000000,,BL_TO_BASELINK,BR_TO_BASELINK,FL_TO_BASELINK,FR_TO_BASELINK,15.759978133689485,13.32838729835807,2.4384300155762233,-0.3707262996202063,0.6000000030161227,0.5999998471793658,0.5999999802796065,0.5999999983894423,0.0,0.0,0.0,0.0
1791160000000,74844,1791160000000,,BL_TO_BASELINK,BR_TO_BASELINK,FL_TO_BASELINK,FR_TO_BASELINK,15.77204933747986,13.340769034883618,2.450319953698674,-0.35872631629082097,0.6519064347244394,0.6808341253251566,0.6486975987814928,0.5998087101865861,0.0,0.0,0.0,0.0
1791180000000,74845,1791180000000,,BL_TO_BASELINK,BR_TO_BASELINK,FL_TO_BASELINK,FR_TO_BASELINK,15.78404036579255,13.353201022038185,2.462128388740606,-0.3467271618600565,0.6000000008105989,0.5999999153650422,0.599999995079778,0.5999999998849004,0.0,0.0,0.0,0.0
1791200000000,74846,1791200000000,,BL_TO_BASELINK,BR_TO_BASELINK,FL_TO_BASELINK,FR_TO_BASELINK,15.796062085413654,13.3653208764417,2.474039831782603,-0.3348281410146292,0.5963912010224357,0.6006107602430681,0.6005393136552611,0.5934890813646632,0.0,0.0,0.0,0.0
1791220000000,74847,1791220000000,,BL_TO_BASELINK,BR_TO_BASELINK,FL_TO_BASELINK,FR_TO_BASELINK,15.809146963228422,13.377313499105519,2.4860311539600257,-0.3239652444724941,0.5999551873017048,0.5997906861243983,0.599670631967586,0.510957503537157,0.0,0.0,0.0,0.0
1791240000000,74848,1791240000000,,BL_TO_BASELINK,BR_TO_BASELINK,FL_TO_BASELINK,FR_TO_BASELINK,15.822264848899461,13.389307846415663,2.49808950171826,-0.3131918457950338,0.5999783338294719,0.5998774337725787,0.6071421390736308,0.5197653374757112,0.0,0.0,0.0,0.0
1791260000000,74849,1791260000000,,BL_TO_BASELINK,BR_TO_BASELINK,FL_TO_BASELINK,FR_TO_BASELINK,15.834289468209983,13.402341301755332,2.5089714232213502,-0.3011752905682821,0.5999552285339057,0.5998349454640395,0.5104533122670778,0.600150965994281,0.0,0.0,0.0,0.0
1791280000000,74850,1791280000000,,BL_TO_BASELINK,BR_TO_BASELINK,FL_TO_BASELINK,FR_TO_BASELINK,15.846289481351837,13.415633302270045,2.519690046619262,-0.28917712177857435,0.5999538411887104,0.5998292704074597,0.5099640217726966,0.6001584758574352,0.0,0.0,0.0,0.0
1791300000000,74851,1791300000000,,BL_TO_BASELINK,BR_TO_BASELINK,FL_TO_BASELINK,FR_TO_BASELINK,15.858414665798513,13.42848245149047,2.530874427104017,-0.27717823881985026,0.6534452552283759,0.5998252170225937,0.5998123039579967,0.599856311547546,0.0,0.0,0.0,0.0
1791320000000,74852,1791320000000,,BL_TO_BASELINK,BR_TO_BASELINK,FL_TO_BASELINK,FR_TO_BASELINK,15.870537581762278,13.440483038739147,2.5428751189011827,-0.26533004194980325,0.5999999941695293,0.5999999999502504,0.5999999992255879,0.6000000247582873,0.0,0.0,0.0,0.0
1791340000000,74853,1791340000000,,BL_TO_BASELINK,BR_TO_BASELINK,FL_TO_BASELINK,FR_TO_BASELINK,15.882761339336666,13.452484748053365,2.554904988816933,-0.2535832966931615,0.6653388630557779,0.5996118245131357,0.5996438633254253,0.5997655507006663,0.0,0.0,0.0,0.0
1791360000000,74854,1791360000000,,BL_TO_BASELINK,BR_TO_BASELINK,FL_TO_BASELINK,FR_TO_BASELINK,15.894850257195568,13.464487318305945,2.566907136579811,-0.2419115848947886,0.5999999910869397,0.6000000000784806,0.6000000000884982,0.6000000617283822,0.0,0.0,0.0,0.0
1791380000000,74855,1791380000000,,BL_TO_BASELINK,BR_TO_BASELINK,FL_TO_BASELINK,FR_TO_BASELINK,15.906993034514969,13.476487352652477,2.5789098380248845,-0.23002016772170197,0.664424960432322,0.5996158769463942,0.599647118751337,0.5997665968805883,0.0,0.0,0.0,0.0
1791400000000,74856,1791400000000,,BL_TO_BASELINK,BR_TO_BASELINK,FL_TO_BASELINK,FR_TO_BASELINK,15.919062686568093,13.488489600608142,2.590911564671373,-0.21835613402665466,0.599999996313335,0.5999999999813008,0.5999999999611938,0.6000000158348139,0.0,0.0,0.0,0.0
1791420000000,74857,1791420000000,,BL_TO_BASELINK,BR_TO_BASELINK,FL_TO_BASELINK,FR_TO_BASELINK,15.93126764816379,13.500488122606132,2.6029100109232193,-0.2064911703893939,0.6199641048190137,0.5998966602346913,0.5999018843637638,0.5999324822394507,0.0,0.0,0.0,0.0
1791440000000,74858,1791440000000,,BL_TO_BASELINK,BR_TO_BASELINK,FL_TO_BASELINK,FR_TO_BASELINK,15.943454572017892,13.512488406576635,2.6149098990072233,-0.19461625358090817,0.6213919446550255,0.5995069961426609,0.5996524823323541,0.6163675173269983,0.0,0.0,0.0,0.0
1791460000000,74859,1791460000000,,BL_TO_BASELINK,BR_TO_BASELINK,FL_TO_BASELINK,FR_TO_BASELINK,15.955641030262488,13.524555059597255,2.626908628923392,-0.18271220607687155,0.6000036518349875,0.5986902004564811,0.6008048751229185,0.5944181704502054,0.0,0.0,0.0,0.0
1791480000000,74860,1791480000000,,BL_TO_BASELINK,BR_TO_BASELINK,FL_TO_BASELINK,FR_TO_BASELINK,15.967767910618504,13.536691959437274,2.6387243411485617,-0.17086083415062792,0.600008110905768,0.6151564892911191,0.599924300512417,0.5999498898612077,0.0,0.0,0.0,0.0
1791500000000,74861,1791500000000,,BL_TO_BASELINK,BR_TO_BASELINK,FL_TO_BASELINK,FR_TO_BASELINK,15.979767646904724,13.548773036236721,2.6505464276627215,-0.15885983477458598,0.5999999998419611,0.6000000030832465,0.6000000701898295,0.600000000418855,0.0,0.0,0.0,0.0
1791520000000,74862,1791520000000,,BL_TO_BASELINK,BR_TO_BASELINK,FL_TO_BASELINK,FR_TO_BASELINK,15.991767784116185,13.560881318883636,2.6623459772118725,-0.1468605242251968,0.5999316223905474,0.5797821767401675,0.5739657364709178,0.6004063870474361,0.0,0.0,0.0,0.0
1791540000000,74863,1791540000000,,BL_TO_BASELINK,BR_TO_BASELINK,FL_TO_BASELINK,FR_TO_BASELINK,16.00376780231331,13.573023266254157,2.674211249954631,-0.1348607152055088,0.600009374441151,0.6244510794258837,0.6148605047433694,0.5999363744474334,0.0,0.0,0.0,0.0
1791560000000,74864,1791560000000,,BL_TO_BASELINK,BR_TO_BASELINK,FL_TO_BASELINK,FR_TO_BASELINK,16.015767371272254,13.585055789028992,2.686076671962642,-0.12296435252347493,0.5999645322239271,0.6033424071783026,0.5975752815270855,0.604911686149251,0.0,0.0,0.0,0.0
1791580000000,74865,1791580000000,,BL_TO_BASELINK,BR_TO_BASELINK,FL_TO_BASELINK,FR_TO_BASELINK,16.027767124154572,13.597230051370559,2.697968923731649,-0.11106710346884086,0.600038870058837,0.659442624748349,0.5996607569585941,0.5997654330693116,0.0,0.0,0.0,0.0
1791600000000,74866,1791600000000,,BL_TO_BASELINK,BR_TO_BASELINK,FL_TO_BASELINK,FR_TO_BASELINK,16.039770629531258,13.609442486044266,2.709833621821044,-0.09907523786728323,0.6003748232010134,0.6232329597402316,0.6197897173377422,0.5984787818688317,0.0,0.0,0.0,0.0
1791620000000,74867,1791620000000,,BL_TO_BASELINK,BR_TO_BASELINK,FL_TO_BASELINK,FR_TO_BASELINK,16.051841977870332,13.621661330642514,2.7218428984680045,-0.08707586865657824,0.6005779593951188,0.6257482114691795,0.6228870307559643,0.5954628403593887,0.0,0.0,0.0,0.0
1791640000000,74868,1791640000000,,BL_TO_BASELINK,BR_TO_BASELINK,FL_TO_BASELINK,FR_TO_BASELINK,16.063857833453255,13.6338612494064,2.733714706011508,-0.0750758010154069,0.6000096153855422,0.6121568843305835,0.6111694063549789,0.5998913070836561,0.0,0.0,0.0,0.0
1791660000000,74869,1791660000000,,BL_TO_BASELINK,BR_TO_BASELINK,FL_TO_BASELINK,FR_TO_BASELINK,16.07597695483598,13.64585996575114,2.7456723978200337,-0.06326589640978497,0.5999487419884015,0.5998122650900152,0.5996759777903857,0.5212421925311032,0.0,0.0,0.0,0.0
1791680000000,74870,1791680000000,,BL_TO_BASELINK,BR_TO_BASELINK,FL_TO_BASELINK,FR_TO_BASELINK,16.089141921536843,13.657853491191837,2.7574666636813046,-0.05239574734283803,0.5999783288226432,0.6090594928189469,0.6159170967430577,0.5963779531396205,0.0,0.0,0.0,0.0
1791700000000,74871,1791700000000,,BL_TO_BASELINK,BR_TO_BASELINK,FL_TO_BASELINK,FR_TO_BASELINK,16.101142196153454,13.670982116279875,2.7684294120380333,-0.04039828804950041,0.6000497290191236,0.688859793703149,0.5995311190802154,0.5997045502836628,0.0,0.0,0.0,0.0
1791720000000,74872,1791720000000,,BL_TO_BASELINK,BR_TO_BASELINK,FL_TO_BASELINK,FR_TO_BASELINK,16.11332566627999,13.684024810718482,2.7794601320162187,-0.028503498636454516,0.6579373526023231,0.6931278364608628,0.5991330014861234,0.5994027903075883,0.0,0.0,0.0,0.0
1791740000000,74873,1791740000000,,BL_TO_BASELINK,BR_TO_BASELINK,FL_TO_BASELINK,FR_TO_BASELINK,16.125462915671953,13.69602516580979,2.791433601712825,-0.016651838205805625,0.6153581168670532,0.5997078778161653,0.5998091041394188,0.6062389644680033,0.0,0.0,0.0,0.0
1791760000000,74874,1791760000000,,BL_TO_BASELINK,BR_TO_BASELINK,FL_TO_BASELINK,FR_TO_BASELINK,16.137556711497144,13.70803166302127,2.8034114255916585,-0.0047275139807752,0.6632450509780834,0.5996397826807726,0.5996669866088774,0.5997788825787201,0.0,0.0,0.0,0.0
1791780000000,74875,1791780000000,,BL_TO_BASELINK,BR_TO_BASELINK,FL_TO_BASELINK,FR_TO_BASELINK,16.149691167621896,13.720033620262626,2.8154127625613192,0.007004856189045228,0.5823052942634576,0.600895599610171,0.6007641849145363,0.572444765088388,0.0,0.0,0.0,0.0
1791800000000,74876,1791800000000,,BL_TO_BASELINK,BR_TO_BASELINK,FL_TO_BASELINK,FR_TO_BASELINK,16.161838852869987,13.732032842705994,2.8274120644390663,0.018837767855872656,0.6164558907508529,0.5998999350064209,0.5999046790339013,0.5999345417792264,0.0,0.0,0.0,0.0
1791820000000,74877,1791820000000,,BL_TO_BASELINK,BR_TO_BASELINK,FL_TO_BASELINK,FR_TO_BASELINK,16.173896582703403,13.744032868233852,2.839390337471512,0.030727909751213645,0.5850937750594278,0.5999243439389024,0.5998950295822388,0.5773755238341653,0.0,0.0,0.0,0.0
1791840000000,74878,1791840000000,,BL_TO_BASELINK,BR_TO_BASELINK,FL_TO_BASELINK,FR_TO_BASELINK,16.185975563447947,13.756032625293805,2.8513899743158824,0.04258808325543928,0.6079523225585424,0.5996156306381999,0.5996710578789901,0.6024838090293236,0.0,0.0,0.0,0.0
1791860000000,74879,1791860000000,,BL_TO_BASELINK,BR_TO_BASELINK,FL_TO_BASELINK,FR_TO_BASELINK,16.19808962778297,13.7680303598679,2.86338968033316,0.054503250818153326,0.5999999887681493,0.5999999996145186,0.6000000003191036,0.5999999965194426,0.0,0.0,0.0,0.0
1791880000000,74880,1791880000000,,BL_TO_BASELINK,BR_TO_BASELINK,FL_TO_BASELINK,FR_TO_BASELINK,16.21024151967314,13.780029608415841,2.8753885664272065,0.0663693256415332,0.5999926457656398,0.5999785510931348,0.5999581175255794,0.5894863595298434,0.0,0.0,0.0,0.0
1791900000000,74881,1791900000000,,BL_TO_BASELINK,BR_TO_BASELINK,FL_TO_BASELINK,FR_TO_BASELINK,16.222542819140145,13.792076218206184,2.887388611473696,0.07826556478913105,0.5999886387744382,0.5999527319012453,0.599919066901981,0.5805330050634147,0.0,0.0,0.0,0.0
1791920000000,74882,1791920000000,,BL_TO_BASELINK,BR_TO_BASELINK,FL_TO_BASELINK,FR_TO_BASELINK,16.23460514619706,13.804226962018152,2.8990994539253006,0.09029559892621641,0.599999996807421,0.6000000270740726,0.599999935208419,0.6000000029057626,0.0,0.0,0.0,0.0
1791940000000,74883,1791940000000,,BL_TO_BASELINK,BR_TO_BASELINK,FL_TO_BASELINK,FR_TO_BASELINK,16.24660514754261,13.816251574955265,2.911022565388862,0.10229571759116585,0.6000000000010745,0.599999998873929,0.600000001248572,0.5999999999073014,0.0,0.0,0.0,0.0
1791960000000,74884,1791960000000,,BL_TO_BASELINK,BR_TO_BASELINK,FL_TO_BASELINK,FR_TO_BASELINK,16.25860333389715,13.828336235190676,2.922891757960471,0.11429966552541782,0.600008238093209,0.6155274390606749,0.5999206070923271,0.5999493593067637,0.0,0.0,0.0,0.0
1791980000000,74885,1791980000000,,BL_TO_BASELINK,BR_TO_BASELINK,FL_TO_BASELINK,FR_TO_BASELINK,16.270603267667298,13.840436970760365,2.9347309820207528,0.126299926092325,0.5999584669596051,0.5998404003165017,0.5345051488014144,0.6001623481850207,0.0,0.0,0.0,0.0
1792000000000,74886,1792000000000,,BL_TO_BASELINK,BR_TO_BASELINK,FL_TO_BASELINK,FR_TO_BASELINK,16.2826032172727,13.852797619297133,2.9466647858526187,0.13829953801716766,0.6000000000412629,0.5999999907568451,0.5999999979142457,0.5999999997421002,0.0,0.0,0.0,0.0
1792020000000,74887,1792020000000,,BL_TO_BASELINK,BR_TO_BASELINK,FL_TO_BASELINK,FR_TO_BASELINK,16.294603125365057,13.865152572232596,2.958538855860578,0.15029930881859332,0.6003929292262035,0.6324214284805364,0.6257973851102689,0.598349357758748,0.0,0.0,0.0,0.0
1792040000000,74888,1792040000000,,BL_TO_BASELINK,BR_TO_BASELINK,FL_TO_BASELINK,FR_TO_BASELINK,16.306602066887663,13.877234013342122,2.970454316722538,0.16220626331246635,0.5993245850246202,0.5968918519036506,0.592062371881671,0.602517628407743,0.0,0.0,0.0,0.0
1792060000000,74889,1792060000000,,BL_TO_BASELINK,BR_TO_BASELINK,FL_TO_BASELINK,FR_TO_BASELINK,16.318601856692716,13.889368116810328,2.9824068853200387,0.17420752779920967,0.5999999995160535,0.5999998724617625,0.6000000159145608,0.599999999369056,0.0,0.0,0.0,0.0
1792080000000,74890,1792080000000,,BL_TO_BASELINK,BR_TO_BASELINK,FL_TO_BASELINK,FR_TO_BASELINK,16.330651770415976,13.901835659681414,2.994256944741,0.18620677025414345,0.6000000020139937,0.6000000543086441,0.5999999257097186,0.5999999992039432,0.0,0.0,0.0,0.0
1792100000000,74891,1792100000000,,BL_TO_BASELINK,BR_TO_BASELINK,FL_TO_BASELINK,FR_TO_BASELINK,16.34306619905059,13.9138860840451,3.0062651427423877,0.19784842001409952,0.6855276101979543,0.5995341696268569,0.5995553241304316,0.5996832228170146,0.0,0.0,0.0,0.0
1792120000000,74892,1792120000000,,BL_TO_BASELINK,BR_TO_BASELINK,FL_TO_BASELINK,FR_TO_BASELINK,16.3560853403347,13.926044368000685,3.0179907468106304,0.2087227450371989,0.6000666944176452,0.6815892091270571,0.5994658000650193,0.5996053043326703,0.0,0.0,0.0,0.0
1792140000000,74893,1792140000000,,BL_TO_BASELINK,BR_TO_BASELINK,FL_TO_BASELINK,FR_TO_BASELINK,16.368181472485134,13.939266522388357,3.0289030785109485,0.22071921096215075,0.6000551543938915,0.6731122916209293,0.5995425039696959,0.5996735257609354,0.0,0.0,0.0,0.0
1792160000000,74894,1792160000000,,BL_TO_BASELINK,BR_TO_BASELINK,FL_TO_BASELINK,FR_TO_BASELINK,16.38027665521593,13.951466829074018,3.040726959445948,0.2325615559951819,0.5870848794868028,0.5998053879677762,0.5998027390858225,0.5817091610170787,0.0,0.0,0.0,0.0
1792180000000,74895,1792180000000,,BL_TO_BASELINK,BR_TO_BASELINK,FL_TO_BASELINK,FR_TO_BASELINK,16.39236288875318,13.963468249217001,3.052703600272796,0.24451448267142784,0.611362299592951,0.5999358685752838,0.5999406697200876,0.5999606285245462,0.0,0.0,0.0,0.0
1792200000000,74896,1792200000000,,BL_TO_BASELINK,BR_TO_BASELINK,FL_TO_BASELINK,FR_TO_BASELINK,16.404492628541846,13.975468530988683,3.0647000845363888,0.25636786126271893,0.6170934277012292,0.5997821900994781,0.5997894774247096,0.6042208935542269,0.0,0.0,0.0,0.0
1792220000000,74897,1792220000000,,BL_TO_BASELINK,BR_TO_BASELINK,FL_TO_BASELINK,FR_TO_BASELINK,16.416638901514542,13.987468886622203,3.0766999560513586,0.26817293103106365,0.6000000006425799,0.6000000000624441,0.6000000000974759,0.5999999966516111,0.0,0.0,0.0,0.0
1792240000000,74898,1792240000000,,BL_TO_BASELINK,BR_TO_BASELINK,FL_TO_BASELINK,FR_TO_BASELINK,16.42881688689561,13.999469891952419,3.0887005643784384,0.27989939917896045,0.6599756526017752,0.5996464634227276,0.5996748069006159,0.5997849243579697,0.0,0.0,0.0,0.0
1792260000000,74899,1792260000000,,BL_TO_BASELINK,BR_TO_BASELINK,FL_TO_BASELINK,FR_TO_BASELINK,16.440862790010467,14.011472203276764,3.100702387924022,0.2915472412159392,0.5999999981640326,0.6000000000790081,0.6000000000966156,0.6000000117955211,0.0,0.0,0.0,0.0
1792280000000,74900,1792280000000,,BL_TO_BASELINK,BR_TO_BASELINK,FL_TO_BASELINK,FR_TO_BASELINK,16.452896138129695,14.023474324082272,3.1126976298570757,0.3034692909725134,0.6025094472546085,0.5989308195221718,0.5991160623381124,0.6013993718326248,0.0,0.0,0.0,0.0
1792300000000,74901,1792300000000,,BL_TO_BASELINK,BR_TO_BASELINK,FL_TO_BASELINK,FR_TO_BASELINK,16.465051356221526,14.035470879422839,3.124692935886566,0.31529133492643346,0.5999905895035708,0.5999598300013875,0.5999323299789021,0.5815346000010354,0.0,0.0,0.0,0.0
1792320000000,74902,1792320000000,,BL_TO_BASELINK,BR_TO_BASELINK,FL_TO_BASELINK,FR_TO_BASELINK,16.477272790598942,14.047470238831032,3.136691918167628,0.32716581290689284,0.5955279457826584,0.6000161048011914,0.5999768223077194,0.5852220625774041,0.0,0.0,0.0,0.0
1792340000000,74903,1792340000000,,BL_TO_BASELINK,BR_TO_BASELINK,FL_TO_BASELINK,FR_TO_BASELINK,16.489609408812264,14.059540084482027,3.148600833215319,0.3390191875596198,0.624583627660678,0.6174072171391216,0.6000577420127788,0.6109666919473186,0.0,0.0,0.0,0.0
1792360000000,74904,1792360000000,,BL_TO_BASELINK,BR_TO_BASELINK,FL_TO_BASELINK,FR_TO_BASELINK,16.50160937449676,14.071595855794662,3.1604618735719594,0.3510192783071826,0.5999561078253457,0.5808575906402872,0.5775596718147482,0.6002756053305617,0.0,0.0,0.0,0.0
1792380000000,74905,1792380000000,,BL_TO_BASELINK,BR_TO_BASELINK,FL_TO_BASELINK,FR_TO_BASELINK,16.51360951245009,14.08368775484551,3.1722872139062757,0.3630186460585483,0.5999999999845462,0.6000000039003395,0.5999999871890749,0.6000000000542736,0.0,0.0,0.0,0.0
1792400000000,74906,1792400000000,,BL_TO_BASELINK,BR_TO_BASELINK,FL_TO_BASELINK,FR_TO_BASELINK,16.52560942698627,14.095874932608396,3.18401758025088,0.37501883027160865,0.5999999999817393,0.6000000128014857,0.5999999666134769,0.600000000099696,0.0,0.0,0.0,0.0
1792420000000,74907,1792420000000,,BL_TO_BASELINK,BR_TO_BASELINK,FL_TO_BASELINK,FR_TO_BASELINK,16.537609270620486,14.108065188614177,3.1958703298301776,0.38701926060037195,0.6000139971341797,0.6289342730977882,0.6188303956641417,0.5999540971468975,0.0,0.0,0.0,0.0
1792440000000,74908,1792440000000,,BL_TO_BASELINK,BR_TO_BASELINK,FL_TO_BASELINK,FR_TO_BASELINK,16.549608996198504,14.120262479254206,3.2077067850273497,0.39902058674786023,0.5999898231660822,0.599960104324628,0.5829602926347801,0.6000378107230472,0.0,0.0,0.0,0.0
1792460000000,74909,1792460000000,,BL_TO_BASELINK,BR_TO_BASELINK,FL_TO_BASELINK,FR_TO_BASELINK,16.56160870516558,14.132407644215926,3.219434059759985,0.41097929403579947,0.6000000003455456,0.6000000467633643,0.6000000094075614,0.5999999999207757,0.0,0.0,0.0,0.0
1792480000000,74910,1792480000000,,BL_TO_BASELINK,BR_TO_BASELINK,FL_TO_BASELINK,FR_TO_BASELINK,16.573608717937653,14.144591120036775,3.231305154079018,0.42297924608878823,0.6004509063562383,0.6293062729922182,0.624883716471996,0.59824283321735,0.0,0.0,0.0,0.0
1792500000000,74911,1792500000000,,BL_TO_BASELINK,BR_TO_BASELINK,FL_TO_BASELINK,FR_TO_BASELINK,16.5856643344367,14.156864581356785,3.243161497187458,0.434979256326228,0.5999463809825333,0.5999325451748816,0.5810448883107698,0.600226191607971,0.0,0.0,0.0,0.0
1792520000000,74912,1792520000000,,BL_TO_BASELINK,BR_TO_BASELINK,FL_TO_BASELINK,FR_TO_BASELINK,16.597716107802913,14.169140421316985,3.255176416931608,0.4469851509654097,0.5999999988494462,0.6000000958978532,0.5999999915024354,0.5999999992936499,0.0,0.0,0.0,0.0
1792540000000,74913,1792540000000,,BL_TO_BASELINK,BR_TO_BASELINK,FL_TO_BASELINK,FR_TO_BASELINK,16.609667204531092,14.181248991528149,3.267070581503212,0.45896767795169335,0.5999818874951628,0.599939072741486,0.5998882174884258,0.5852444808478375,0.0,0.0,0.0,0.0
1792560000000,74914,1792560000000,,BL_TO_BASELINK,BR_TO_BASELINK,FL_TO_BASELINK,FR_TO_BASELINK,16.622435775472407,14.193376133468863,3.2789338938090458,0.4701846698775718,0.6000002842133413,0.5962755642766301,0.5920008791263112,0.6000091509741647,0.0,0.0,0.0,0.0
1792580000000,74915,1792580000000,,BL_TO_BASELINK,BR_TO_BASELINK,FL_TO_BASELINK,FR_TO_BASELINK,16.634590560722813,14.205661306887112,3.2907518623887757,0.48204722916800247,0.6234878425728725,0.5987530250446071,0.599019879948185,0.5982971886731373,0.0,0.0,0.0,0.0
1792600000000,74916,1792600000000,,BL_TO_BASELINK,BR_TO_BASELINK,FL_TO_BASELINK,FR_TO_BASELINK,16.646717429344356,14.217660891245497,3.3027599575153985,0.49376348581911866,0.6168887006966305,0.5993322333636326,0.5994646037780585,0.6032559305317715,0.0,0.0,0.0,0.0
1792620000000,74917,1792620000000,,BL_TO_BASELINK,BR_TO_BASELINK,FL_TO_BASELINK,FR_TO_BASELINK,16.65888183372522,14.229660720846937,3.3147666944101806,0.5054737267761604,0.6618565985513961,0.5996342195420099,0.599664756997378,0.5997801191244978,0.0,0.0,0.0,0.0
1792640000000,74918,1792640000000,,BL_TO_BASELINK,BR_TO_BASELINK,FL_TO_BASELINK,FR_TO_BASELINK,16.670904823789815,14.241662921318895,3.3267995736029086,0.5172982874634622,0.5900675555073542,0.603237598019162,0.6334794695959589,0.5812511338497562,0.0,0.0,0.0,0.0
1792660000000,74919,1792660000000,,BL_TO_BASELINK,BR_TO_BASELINK,FL_TO_BASELINK,FR_TO_BASELINK,16.683001097764816,14.253669169329747,3.338784868964737,0.5291594223358915,0.6106216144592818,0.5998612215640154,0.5998938742746044,0.6038882416120602,0.0,0.0,0.0,0.0
1792680000000,74920,1792680000000,,BL_TO_BASELINK,BR_TO_BASELINK,FL_TO_BASELINK,FR_TO_BASELINK,16.695108340456233,14.265668588950383,3.3507840039062726,0.5409049141751083,0.6138830151917517,0.599860600912778,0.5998999453422612,0.6046381719360769,0.0,0.0,0.0,0.0
1792700000000,74921,1792700000000,,BL_TO_BASELINK,BR_TO_BASELINK,FL_TO_BASELINK,FR_TO_BASELINK,16.707351805350036,14.277666763215567,3.3628234751236743,0.552553982458968,0.6735487314888778,0.59957317396395,0.5996058001157016,0.5997374952447352,0.0,0.0,0.0,0.0
