%time,field.header.seq,field.header.stamp,field.header.frame_id,field.wrench.force.x,field.wrench.force.y,field.wrench.force.z,field.wrench.torque.x,field.wrench.torque.y,field.wrench.torque.z
1788202000000,12442,1788200000000,BL_wheel_link,2.4198156954331225,13.293600182508706,-3.7776923913077884,0.39860258936292087,-0.0001507581277710654,0.24197792327240347
1788202000000,12443,1788201000000,BL_wheel_link,-0.5902053793464217,16.586469601831176,2.1447641568777547,-0.21329283843360608,-0.0015473616846658558,-0.04806522731117044
1788202000000,12444,1788202000000,BL_wheel_link,-0.10206176528956627,-0.054081910320758625,0.038123341162804705,-0.0011528167790199643,0.00011191988558367024,-0.011944915689353767
1788203000000,12445,1788203000000,BL_wheel_link,2.4197707225574003,13.293950227810555,-3.7781751360949545,0.3986606666493671,-0.0001499409043586794,0.24197159317505598
1788204000000,12446,1788204000000,BL_wheel_link,-0.5902978753108441,16.58586276068013,2.1441998045440123,-0.2132338626283555,-0.0015481000023125704,-0.04807361272478981
1788205000000,12447,1788205000000,BL_wheel_link,-0.10207501548127929,-0.054098215765742357,0.03812169399360806,-0.001152214744049163,0.00011196322181168379,-0.011946409324760628
1788206000000,12448,1788206000000,BL_wheel_link,2.4197248627288857,13.294299771988292,-3.778659851274322,0.39871898656768445,-0.00014911827801680072,0.24196515140816371
1788207000000,12449,1788207000000,BL_wheel_link,-0.5903909706558688,16.585278104198647,2.143635714628201,-0.21317460228088805,-0.0015487833880526852,-0.048082197436138494
1788208000000,12450,1788208000000,BL_wheel_link,-0.10208806325073906,-0.05411398994519592,0.03812041046857172,-0.001151672054163823,0.00011200513032243,-0.011947884586896607
1788209000000,12451,1788209000000,BL_wheel_link,2.4196819782784784,13.294655247716827,-3.7791425847832913,0.39877703460751246,-0.0001483063317061009,0.24195905542867144
1788210000000,12452,1788210000000,BL_wheel_link,-0.5904829578444284,16.58468102755854,2.143073072974385,-0.2131156392677994,-0.0015495012047237397,-0.048090584640460725
1788211000000,12453,1788211000000,BL_wheel_link,-0.10210116534323677,-0.054129985233326225,0.038119097138143876,-0.0011511191783877116,0.00011204698896272552,-0.011949363877668815
1788212000000,12454,1788212000000,BL_wheel_link,2.419637851942337,13.295007391801837,-3.7796249141309146,0.39883505082031434,-0.00014749189410119545,0.24195282267937765
1788213000000,12455,1788213000000,BL_wheel_link,-0.5905726527667732,16.584070613926304,2.1425095789617954,-0.21305674309086384,-0.001550246774250235,-0.048098642936306585
1788214000000,12456,1788214000000,BL_wheel_link,-0.10211450847427245,-0.05414591853016066,0.03811742620682006,-0.0011505283880874888,0.00011208973316138675,-0.011950873295636764
1788215000000,12457,1788215000000,BL_wheel_link,2.4195921478120392,13.295362552887957,-3.78011092125709,0.39889350650797,-0.0001466676817592702,0.24194638471966862
1788216000000,12458,1788216000000,BL_wheel_link,-0.5906609141299322,16.583463215086617,2.14194509426718,-0.21299765357422068,-0.0015509763424994272,-0.04810656778407674
1788217000000,12459,1788217000000,BL_wheel_link,-0.10212794978796197,-0.054161440086624706,0.038115665635562325,-0.0011499406665008995,0.000112132470970797,-0.011952399716699182
1788218000000,12460,1788218000000,BL_wheel_link,2.419546807324739,13.295724189780685,-3.7805989659760857,0.39895218445961317,-0.00014584122335326022,0.24193996947094631
1788219000000,12461,1788219000000,BL_wheel_link,-0.5907494653219463,16.582863325162222,2.1413814129415276,-0.2129385146581295,-0.0015516859431113188,-0.04811457312445506
1788220000000,12462,1788220000000,BL_wheel_link,-0.10214132832217891,-0.05417674850743531,0.03811411723423022,-0.0011493838613858727,0.00011217444061237811,-0.011953921158421917
1788221000000,12463,1788221000000,BL_wheel_link,2.4195022373130115,13.29608739250777,-3.781085454560514,0.39901066699801696,-0.00014501922133249023,0.241933649078837
1788222000000,12464,1788222000000,BL_wheel_link,-0.5908378961181591,16.58225908906358,2.1408189996913567,-0.21287955508957604,-0.0015524080143919407,-0.04812254080803423
1788223000000,12465,1788223000000,BL_wheel_link,-0.10215473753286253,-0.05419212540787534,0.038112622325051165,-0.0011488316681019265,0.00011221620276994179,-0.011955445546132974
1788224000000,12466,1788224000000,BL_wheel_link,2.4194569799081225,13.296448987599092,-3.7815711202138407,0.3990690591107768,-0.0001441968157544979,0.24192725571937074
1788225000000,12467,1788225000000,BL_wheel_link,-0.5909265719902173,16.581646446084598,2.140256493887828,-0.21282070850762735,-0.0015531492048425667,-0.04813048692347584
1788226000000,12468,1788226000000,BL_wheel_link,-0.1021682552332069,-0.05420772085531058,0.03811097192250781,-0.0011482547365371226,0.0001122587194489378,-0.011956980626351837
1788227000000,12469,1788227000000,BL_wheel_link,2.4194102516595697,13.296808104122425,-3.782057670959235,0.3991275726195597,-0.00014336928367955637,0.24192069142234893
1788227000000,12470,1788228000000,BL_wheel_link,-0.5910159271697661,16.581042643884928,2.139693783692255,-0.21276172508199268,-0.0015538668277035525,-0.048138562125990186
1788229000000,12471,1788229000000,BL_wheel_link,-0.10218172311276699,-0.05422313028136939,0.03810942092949754,-0.0011476955058672702,0.00011230096790149205,-0.011958511866212313
1788230000000,12472,1788230000000,BL_wheel_link,2.4193644221274284,13.297169454869955,-3.7825438217828022,0.3991860263347903,-0.00014254466122689408,0.2419142300263959
1788231000000,12473,1788231000000,BL_wheel_link,-0.5911050683000951,16.58043969517789,2.1391318697212243,-0.21270280027359215,-0.0015545836754476822,-0.04814661891401591
1788232000000,12474,1788232000000,BL_wheel_link,-0.10219516283361117,-0.05423848722592752,0.03810796434416471,-0.0011471492244127445,0.00011234280357505137,-0.011960040308833624
1788233000000,12475,1788233000000,BL_wheel_link,2.4193188263233756,13.297530954974967,-3.7830291827141824,0.39924438337499046,-0.00014172189271072222,0.24190779953382144
1788234000000,12476,1788234000000,BL_wheel_link,-0.5911940388443804,16.57982840649631,2.1385699965798395,-0.21264399596450373,-0.0015553210308833706,-0.04815460705499501
1788235000000,12477,1788235000000,BL_wheel_link,-0.10220868267396645,-0.05425404097000946,0.03810637880150305,-0.001146581834418434,0.00011238518327181775,-0.011961576234841124
1788236000000,12478,1788236000000,BL_wheel_link,2.4192720579809865,13.297890218668375,-3.78351526072844,0.39930283944127176,-0.00014089501047683667,0.24190123310116296
1788237000000,12479,1788237000000,BL_wheel_link,-0.5912834332763526,16.57922120149458,2.1380076419328122,-0.21258509399471112,-0.0015560467822641685,-0.04816266685905325
1788238000000,12480,1788238000000,BL_wheel_link,-0.10222219020948424,-0.05426952302425221,0.03810479786007706,-0.0011460172582210418,0.00011242764123405404,-0.011963111559307068
1788239000000,12481,1788239000000,BL_wheel_link,2.419225644130705,13.298250614228245,-3.7840015727650456,0.3993613182282666,-0.0001400686413731353,0.24189470500082738
1788240000000,12482,1788240000000,BL_wheel_link,-0.5913727671484186,16.578618195411245,2.137445665415012,-0.21252616622608236,-0.0015567628942036171,-0.048170745046944505
1788241000000,12483,1788241000000,BL_wheel_link,-0.1022356467226336,-0.05428488750004448,0.03810332187580266,-0.0011454687106416744,0.00011246966214408256,-0.011964642087424284
1788242000000,12484,1788242000000,BL_wheel_link,2.4191798864047094,13.298612162965012,-3.7844872228114848,0.3994197105412846,-0.00013924498295216775,0.24188825459483662
1788243000000,12485,1788243000000,BL_wheel_link,-0.5914617922288614,16.578008979395584,2.1368839256897023,-0.21246734496046635,-0.0015574949881265523,-0.04817875184356196
1788244000000,12486,1788244000000,BL_wheel_link,-0.10224915029356732,-0.05430038528490866,0.03810177584333857,-0.0011449078430186607,0.00011251194795010324,-0.011966176823726403
1788245000000,12487,1788245000000,BL_wheel_link,2.4191333581215635,13.29897208955004,-3.7849731961200286,0.3994781507018954,-0.000138418854590025,0.24188171585260848
1788246000000,12488,1788246000000,BL_wheel_link,-0.5915510411161575,16.577399891685605,2.136321770641426,-0.21240848602749018,-0.0015582256369107497,-0.0481867844377941
1788247000000,12489,1788247000000,BL_wheel_link,-0.1022626714256806,-0.05431589919152692,0.03810018347910165,-0.0011443410274941676,0.00011255449300194301,-0.011967713571215326
1788248000000,12490,1788248000000,BL_wheel_link,2.419086700249213,13.299332107615273,-3.7854596431952645,0.399536648169714,-0.00013759163232644062,0.24187515972400384
1788249000000,12491,1788249000000,BL_wheel_link,-0.5916403839883029,16.57679574163627,2.1357597160258788,-0.21234956689886247,-0.0015589441453789897,-0.048194857117010964
1788250000000,12492,1788250000000,BL_wheel_link,-0.10227614581089443,-0.05433129110644717,0.03809867701807436,-0.0011437880909611108,0.00011259671090252369,-0.011969246108205907
1788251000000,12493,1788251000000,BL_wheel_link,2.4190407130690845,13.29969348687896,-3.7859456445284385,0.39959508445410924,-0.0001367668106382891,0.2418686815952377
1788252000000,12494,1788252000000,BL_wheel_link,-0.5917294552561441,16.576188272102204,2.1351979947864597,-0.21229072236432986,-0.0015596716581518094,-0.048202879890246506
1788253000000,12495,1788253000000,BL_wheel_link,-0.10228963773201359,-0.054346743839469,0.03809715596564938,-0.0011432315855978866,0.00011263896492665662,-0.011970780111605574
1788254000000,12496,1788254000000,BL_wheel_link,2.4189943644183396,13.300054008135891,-3.786431632237796,0.39965352366367235,-0.00013594109178520497,0.24186216305669445
1788255000000,12497,1788255000000,BL_wheel_link,-0.5918185924121877,16.575578544449936,2.134636040399283,-0.2122318890473088,-0.0015604040924438768,-0.04821089669815277
1788256000000,12498,1788256000000,BL_wheel_link,-0.10230316166329977,-0.05436226031413315,0.03809557238113932,-0.0011426657639407212,0.00011268152007572465,-0.01197231732408414
1788257000000,12499,1788257000000,BL_wheel_link,2.4189476147606017,13.300413967707774,-3.786918100008382,0.39971202436942777,-0.00013511358434304538,0.2418555966338105
1788258000000,12500,1788258000000,BL_wheel_link,-0.591907898654713,16.574972805053132,2.134074014691801,-0.21217299408055648,-0.0015611262808789203,-0.04821895634096021
1788259000000,12501,1788259000000,BL_wheel_link,-0.10231665531521741,-0.05437768595950386,0.038094040379326975,-0.00114210882285618,0.00011272390884490505,-0.011973851971385632
1788260000000,12502,1788260000000,BL_wheel_link,2.4189013453491324,13.300775030317318,-3.787404375021415,0.399770496056941,-0.0001342875914772529,0.2418490852779997
1788261000000,12503,1788261000000,BL_wheel_link,-0.5919970332658431,16.574366317896292,2.133512298632744,-0.2121141360427534,-0.0015618509704212954,-0.0482269926036105
1788262000000,12504,1788262000000,BL_wheel_link,-0.10233014525035171,-0.05439311359010216,0.03809253023184205,-0.0011415544194388603,0.00011276619712420838,-0.011975386188655223
1788263000000,12505,1788263000000,BL_wheel_link,2.418855041916272,13.301135916569391,-3.7878904527794095,0.3998289448074067,-0.00013346182263102024,0.24184257134312498
1788264000000,12506,1788264000000,BL_wheel_link,-0.5920861236213537,16.57375677126771,2.1329505274781266,-0.21205531574851463,-0.001562582997214207,-0.04823500587193076
1788265000000,12507,1788265000000,BL_wheel_link,-0.10234366745754495,-0.05440861545612642,0.03809096506665548,-0.001140991274116451,0.00011280873509830842,-0.011976923519263856
1788266000000,12508,1788266000000,BL_wheel_link,2.418808280460559,13.301496016446752,-3.7883768947288834,0.39988744212441596,-0.00013263430728672337,0.24183600382980613
1788267000000,12509,1788267000000,BL_wheel_link,-0.5921753791264872,16.573149547777113,2.1323886102158798,-0.21199645058630107,-0.001563308721409435,-0.04824305160536681
1788268000000,12510,1788268000000,BL_wheel_link,-0.10235717774181712,-0.054424069507802,0.03808941723986618,-0.0011404316578158926,0.00011285125222304,-0.011978460016657849
1788269000000,12511,1788269000000,BL_wheel_link,2.4187617497736604,13.301856772292226,-3.7888633565470977,0.39994593862830985,-0.00013180733608250672,0.2418294620932914
1788270000000,12512,1788270000000,BL_wheel_link,-0.5922645661129147,16.572543264939608,2.1318269098677654,-0.2119375909649291,-0.0015640324968514453,-0.048251095527448565
1788271000000,12513,1788271000000,BL_wheel_link,-0.10237067332747121,-0.054439490516522394,0.03808790657271132,-0.0011398774591392157,0.00011289362239849267,-0.011979995160146851
1788272000000,12514,1788272000000,BL_wheel_link,2.418715379019483,13.302217804442616,-3.78934957943636,0.40000440478277716,-0.0001309811452892065,0.24182293977933383
1788273000000,12515,1788273000000,BL_wheel_link,-0.5923536543277204,16.571934270374488,2.131265280211146,-0.21187877508839836,-0.001564763052172232,-0.04825911246095392
1788274000000,12516,1788274000000,BL_wheel_link,-0.1023841929482214,-0.05445497152458096,0.03808636034845321,-0.0011393172535092717,0.00011293614958215363,-0.011981532577430712
1788275000000,12517,1788275000000,BL_wheel_link,2.418668634920038,13.302578138697804,-3.7898360101658533,0.40006290001242134,-0.00013015367249011311,0.24181637434112538
1788276000000,12518,1788276000000,BL_wheel_link,-0.592442858351516,16.571325969879553,2.1307035078492405,-0.21181993729216034,-0.0015654913697084327,-0.048267146635177005
1788277000000,12519,1788277000000,BL_wheel_link,-0.10239771509792765,-0.054470442883804905,0.03808480676437485,-0.0011387564971868612,0.00011297875227541074,-0.011983070473265717
1788278000000,12520,1788278000000,BL_wheel_link,2.4186219049297275,13.30293869242399,-3.7903225900647293,0.40012141242713156,-0.00012932598961828273,0.24180980958849496
1788279000000,12521,1788279000000,BL_wheel_link,-0.5925320714620339,16.57071932133158,2.1301418464558775,-0.21176108605310703,-0.001566215701200968,-0.048275191884987634
1788280000000,12522,1788280000000,BL_wheel_link,-0.10241122063173418,-0.0544858696503367,0.03808328928472369,-0.001138201386141798,0.0001130212264820989,-0.011984606919338421
1788281000000,12523,1788281000000,BL_wheel_link,2.418575396560796,13.303299715854552,-3.790808981672817,0.40017989965505146,-0.000128499161685669,0.24180327086522024
1788282000000,12524,1788282000000,BL_wheel_link,-0.5926211798198786,16.570110885047537,2.1295803183708073,-0.21170227109721443,-0.0015669446682480964,-0.048283214995603035
1788283000000,12525,1788283000000,BL_wheel_link,-0.10242473932226749,-0.054501331622817256,0.03808175751770711,-0.0011376435369251717,0.00011306376608956827,-0.011986144604247998
1788284000000,12526,1788284000000,BL_wheel_link,2.418528657997328,13.303660287433642,-3.7912954421319918,0.4002383977644525,-0.0001276716358761809,0.24179670592481364
1788285000000,12527,1788285000000,BL_wheel_link,-0.5927103426978335,16.569501978449473,2.129018697424553,-0.21164345468422072,-0.0015676744230877365,-0.0482912415676695
1788286000000,12528,1788286000000,BL_wheel_link,-0.10243826884226433,-0.05451680888753038,0.03808020613019991,-0.0011370829276911775,0.00011310642232926181,-0.011987683484285522
1788287000000,12529,1788287000000,BL_wheel_link,2.4184817940525707,13.304020765678095,-3.7917820955852544,0.40029692001111283,-0.00012684347763987358,0.2417901257588143
1788288000000,12530,1788288000000,BL_wheel_link,-0.5927995570957645,16.56889466760512,2.1284571039186946,-0.21158461842930265,-0.0015684001235996801,-0.048299283604186206
1788289000000,12531,1788289000000,BL_wheel_link,-0.10245178571572329,-0.054532246947333066,0.03807868054535542,-0.0011365265833960256,0.00011314900161175275,-0.011989221337076595
1788290000000,12532,1788290000000,BL_wheel_link,2.4184351182499566,13.304381701096563,-3.7922686507167698,0.4003554280875487,-0.0001260159455462248,0.2417835673154916
1788291000000,12533,1788291000000,BL_wheel_link,-0.5928886929574706,16.56828657883456,2.127895651867458,-0.21152580521741113,-0.0015691279883977352,-0.04830731230588561
1788292000000,12534,1788292000000,BL_wheel_link,-0.10246539031800236,-0.05454769770752892,0.038077103685626806,-0.001135970243398249,0.00011319180266564818,-0.011990769709703576
1788293000000,12535,1788293000000,BL_wheel_link,2.418387715109521,13.304742464180443,-3.79275524608585,0.4004139465850848,-0.0001251865409716349,0.2417769249059673
1788294000000,12536,1788294000000,BL_wheel_link,-0.5929780306959562,16.567667785695473,2.127333690880857,-0.2114670869508075,-0.001569878745658268,-0.04831530069345694
1788295000000,12537,1788295000000,BL_wheel_link,-0.10247919136024716,-0.05456342101040717,0.038075265003570107,-0.0011353791101438027,0.00011323581325263046,-0.011992338597543383
1788296000000,12538,1788296000000,BL_wheel_link,2.4183382316152677,13.30510045287211,-3.793243319692121,0.4004726640098343,-0.0001243495277133272,0.24177003850925538
1788297000000,12539,1788297000000,BL_wheel_link,-0.5930682932802938,16.567059814943722,2.1267714155544266,-0.2114081928828444,-0.0015706001955776913,-0.04832345473518061
1788298000000,12540,1788298000000,BL_wheel_link,-0.102492926397136,-0.05457891973033105,0.038073550022180346,-0.0011348077459883135,0.00011327953297622425,-0.011993901828877863
1788299000000,12541,1788299000000,BL_wheel_link,2.4182900705867656,13.305461258807574,-3.7937309930980923,0.400531318894629,-0.0001235164726356014,0.24176330323627587
1788300000000,12542,1788300000000,BL_wheel_link,-0.5931583084372891,16.566462648169292,2.12621078506954,-0.21134930422234938,-0.001571299594154637,-0.04833164166552523
1788301000000,12543,1788301000000,BL_wheel_link,-0.10250651795825672,-0.05459410994446386,0.03807216436840691,-0.0011342841752355639,0.00011332184025351924,-0.011995451049387542
1788302000000,12544,1788302000000,BL_wheel_link,2.418243714686999,13.305824744040024,-3.7942163422487587,0.40058967733820444,-0.0001226916873528633,0.24175678476552487
1788303000000,12545,1788303000000,BL_wheel_link,-0.5932475020733865,16.565847195347285,2.1256509521338423,-0.2112907444974866,-0.0015720467491386336,-0.04833962595411284
1788304000000,12546,1788304000000,BL_wheel_link,-0.10252025023687554,-0.05460970286654889,0.03807057462395864,-0.0011337241337461982,0.00011336488800382601,-0.011997012624458722
1788305000000,12547,1788305000000,BL_wheel_link,2.4181950995749317,13.306183264842966,-3.794702518811897,0.4006481622335399,-0.00012185986029859819,0.24175000796645157
1788306000000,12548,1788306000000,BL_wheel_link,-0.5933374107467848,16.565233635689452,2.1250899712606577,-0.21123206266869518,-0.0015727864743347794,-0.0483477000829062
1788307000000,12549,1788307000000,BL_wheel_link,-0.10253401789038284,-0.054625311797308014,0.03806887740045098,-0.0011331509208625666,0.00011340853848221174,-0.011998578356462225
1788308000000,12550,1788308000000,BL_wheel_link,2.4181463550405526,13.306542340530212,-3.795189823999173,0.4007067816049279,-0.00012102588570949563,0.24174320985443212
1788309000000,12551,1788309000000,BL_wheel_link,-0.5934275333365431,16.564633917917842,2.1245293470927846,-0.21117322000104477,-0.0015734927671516331,-0.04835588011254318
1788310000000,12552,1788310000000,BL_wheel_link,-0.10254764766944277,-0.05464057767998321,0.03806743105248042,-0.00113261777193292,0.00011345118054268801,-0.01200013134548823
1788311000000,12553,1788311000000,BL_wheel_link,2.4180995754699373,13.306905171487669,-3.7956757173635847,0.40076520967455415,-0.00012019912551623768,0.24173664092264938
1788312000000,12554,1788312000000,BL_wheel_link,-0.5935168671643998,16.564023905292192,2.123969581521924,-0.2111145942708547,-0.0015742269339677692,-0.04836391057078236
1788313000000,12555,1788313000000,BL_wheel_link,-0.10256133315804071,-0.05465604231944276,0.038065921969738584,-0.0011320711668527717,0.00011349396499254984,-0.012001688804240691
1788314000000,12556,1788314000000,BL_wheel_link,2.4180517016703664,13.307265288694557,-3.7961616393626483,0.4008236552654271,-0.00011936954819924406,0.24172994924354996
1788315000000,12557,1788315000000,BL_wheel_link,-0.5936064326471862,16.563408414325792,2.123409015090812,-0.21105597552214952,-0.0015749727800404428,-0.0483719340182947
1788316000000,12558,1788316000000,BL_wheel_link,-0.1025751004689641,-0.0546716731560739,0.038064237284123136,-0.0011314987753844644,0.00011353755555069408,-0.012003254346009882
1788317000000,12559,1788317000000,BL_wheel_link,2.4180028523649906,13.307624022237304,-3.796648886826242,0.40088226938616206,-0.00011853537425051547,0.24172314014795065
1788318000000,12560,1788318000000,BL_wheel_link,-0.5936964445606439,16.562804765063454,2.1228482162577293,-0.21099717169637924,-0.001575688583150603,-0.04838007790990834
1788319000000,12561,1788319000000,BL_wheel_link,-0.10258877134011647,-0.054687034497441056,0.0380627088315455,-0.001130953019179992,0.00011358058497585934,-0.01200481136477668
1788320000000,12562,1788320000000,BL_wheel_link,2.4179555126210355,13.307985996324105,-3.7971354618018722,0.4009407849789236,-0.00011770608161969925,0.24171650457529822
1788321000000,12563,1788321000000,BL_wheel_link,-0.5937859233420528,16.562198296482354,2.122288232909518,-0.21093847671215332,-0.0015764134165422786,-0.04838814571375982
1788322000000,12564,1788322000000,BL_wheel_link,-0.10260243383005928,-0.05470242047094918,0.038061228845001835,-0.0011304122241419562,0.00011362333475735964,-0.012006367105695866
1788323000000,12565,1788323000000,BL_wheel_link,2.417908044282326,13.308347248507282,-3.7976214881100328,0.4009992376406812,-0.00011687733701232217,0.24170985803242437
1788324000000,12566,1788324000000,BL_wheel_link,-0.5938753023674805,16.561583461343442,2.1217279614966564,-0.21087987295348926,-0.0015771582777519867,-0.04839615260446495
1788325000000,12567,1788325000000,BL_wheel_link,-0.10261618439529023,-0.05471801630642179,0.03805958636573027,-0.0011298458676540436,0.00011366677789506445,-0.012007931171291912
1788326000000,12568,1788326000000,BL_wheel_link,2.4178593508413435,13.308706309864275,-3.7981085478890804,0.401057827558262,-0.00011604383533493634,0.24170306781403494
1788327000000,12569,1788327000000,BL_wheel_link,-0.5939651515590478,16.560975958897654,2.121167216623912,-0.21082112628894023,-0.0015778836070604214,-0.04840425581128818
1788328000000,12570,1788328000000,BL_wheel_link,-0.1026298908890258,-0.05473346166787221,0.03805800254907164,-0.0011292910218196838,0.00011371008052511397,-0.012009491702987386
1788329000000,12571,1788329000000,BL_wheel_link,2.4178114650456157,13.309067388316018,-3.798595549615305,0.40111640013721533,-0.00011521245896164989,0.24169636857501892
1788330000000,12572,1788330000000,BL_wheel_link,-0.5940547697635647,16.560370810147166,2.120607054046909,-0.21076239674663458,-0.0015786044216659113,-0.048412347556006846
1788331000000,12573,1788331000000,BL_wheel_link,-0.10264355415378279,-0.05474882223018391,0.03805651984255519,-0.0011287506987513176,0.00011375293668167182,-0.012011048004639622
1788332000000,12574,1788332000000,BL_wheel_link,2.4177640492619625,13.309429121000592,-3.799081821038944,0.40117488061342416,-0.00011438343385682809,0.24168972657123042
1788333000000,12575,1788333000000,BL_wheel_link,-0.5941441179359686,16.559757883287503,2.1200469945038365,-0.21070378407852344,-0.0015793447139732415,-0.048420362996517315
1788334000000,12576,1788334000000,BL_wheel_link,-0.10265728517361442,-0.05476436042740231,0.03805492724016173,-0.0011281920180333579,0.00011379623327002346,-0.012012610523814641
1788335000000,12577,1788335000000,BL_wheel_link,2.4177155958143786,13.30978879866701,-3.7995686807721754,0.4012334434878566,-0.00011355083931764709,0.2416829646177075
1788336000000,12578,1788336000000,BL_wheel_link,-0.5942338153212143,16.559147568661842,2.1194864534342304,-0.2106450936152636,-0.001580077159474516,-0.048428433122327766
1788337000000,12579,1788337000000,BL_wheel_link,-0.10267101558472108,-0.05477986030632828,0.038053318946218044,-0.0011276326734980448,0.000113839683214898,-0.012014173485345898
1788338000000,12580,1788338000000,BL_wheel_link,2.4176673073827306,13.31014921956422,-3.800055878421885,0.4012920438204522,-0.00011271811313567914,0.2416762191244238
1788339000000,12581,1788339000000,BL_wheel_link,-0.5943235191873619,16.558541995320272,2.118926196444806,-0.21058636155788768,-0.0015807983773509018,-0.048436532491493205
1788340000000,12582,1788340000000,BL_wheel_link,-0.10268469442235265,-0.05479523411032843,0.0380518145456194,-0.0011270894447146917,0.00011388271839464427,-0.012015731691775576
1788341000000,12583,1788341000000,BL_wheel_link,2.4176197086688602,13.310510937352001,-3.8005424573370212,0.40135056231593275,-0.00011188811423760298,0.24166955480920496
1788342000000,12584,1788342000000,BL_wheel_link,-0.5944129223420576,16.557931132073964,2.118366247830602,-0.21052772949534967,-0.001581533381002205,-0.048444567000439344
1788343000000,12585,1788343000000,BL_wheel_link,-0.10269841046712444,-0.05481071705799533,0.03805026167352239,-0.0011265371974339099,0.00011392592827276708,-0.012017293193796309
1788344000000,12586,1788344000000,BL_wheel_link,2.417571466553106,13.310871260329082,-3.801029212835369,0.4014091096850194,-0.00011105620154130968,0.2416628172827797
1788345000000,12587,1788345000000,BL_wheel_link,-0.5945025020846673,16.557319343383377,2.117805950942372,-0.21046908031899247,-0.0015822696676238077,-0.04845261584580669
1788346000000,12588,1788346000000,BL_wheel_link,-0.10271215212782857,-0.05482623861088706,0.03804865339875604,-0.0011259772628983162,0.00011396942835278741,-0.01201885742457827
1788347000000,12589,1788347000000,BL_wheel_link,2.417522957540289,13.311231373669422,-3.801516459936737,0.4014677181399407,-0.00011022282034781061,0.24165604683328762
1788348000000,12590,1788348000000,BL_wheel_link,-0.5945922241073689,16.55671237493277,2.117245688109246,-0.21041036697820323,-0.0015829939038855025,-0.0484607095185472
1788349000000,12591,1788349000000,BL_wheel_link,-0.10272585198964079,-0.054841644505737336,0.038047121888854056,-0.0011254299284772613,0.00011401265322720969,-0.01202041797503805
1788350000000,12592,1788350000000,BL_wheel_link,2.4174750699328964,13.311592810568479,-3.8020033377315636,0.40152627497851434,-0.00010939159403763887,0.24164934836950328
1788351000000,12593,1788351000000,BL_wheel_link,-0.5946817085947222,16.5561030371239,2.116685776361822,-0.2103517166978798,-0.0015837247679515894,-0.04846876279996824
1788352000000,12594,1788352000000,BL_wheel_link,-0.10273956113368247,-0.05485708862283009,0.03804559186169566,-0.0011248816282714632,0.0001140558527224921,-0.012021979251105052
1788353000000,12595,1788353000000,BL_wheel_link,2.4174269429671593,13.311953635701965,-3.802490110151679,0.4015848223235789,-0.00010855992611850246,0.24164262373863224
1788354000000,12596,1788354000000,BL_wheel_link,-0.5947712171071622,16.555490914697813,2.1161256998923372,-0.21029309092905776,-0.0015844620005170847,-0.04847680232736638
1788355000000,12597,1788355000000,BL_wheel_link,-0.10275330481972011,-0.054872606128553346,0.03804399845627207,-0.0011243236413171675,0.00011409934841876584,-0.01202354392972042
1788356000000,12598,1788356000000,BL_wheel_link,2.417378358889649,13.312313748552153,-3.8029773386578904,0.4016434290252429,-0.00010772636638418931,0.2416358450722132
1788357000000,12599,1788357000000,BL_wheel_link,-0.5948609079338718,16.55488230158557,2.1155655082020246,-0.21023440639379834,-0.0015851900734942283,-0.04848488330593152
1788358000000,12600,1788358000000,BL_wheel_link,-0.10276702463849498,-0.054888046185758536,0.038042444666775525,-0.001123772708784007,0.0001141427334173238,-0.01202510666746712
1788359000000,12601,1788359000000,BL_wheel_link,2.417330174529776,13.31267483715871,-3.803464457650443,0.4017020175265026,-0.00010689398518040627,0.24162911193535752
1788360000000,12602,1788360000000,BL_wheel_link,-0.5949504640387582,16.554273685537343,2.115005603956188,-0.2101757465341645,-0.0015859187301500537,-0.048492949470149
1788361000000,12603,1788361000000,BL_wheel_link,-0.10278073518834059,-0.05490347176758779,0.03804092178656957,-0.0011232258840019904,0.00011418598724501829,-0.012026668491280054
1788362000000,12604,1788362000000,BL_wheel_link,2.4172820474265135,13.31303595072341,-3.803951342700731,0.40176057759569805,-0.00010606211743650895,0.24162238668613456
1788363000000,12605,1788363000000,BL_wheel_link,-0.595039946687328,16.5536619339917,2.11444569857123,-0.21011713012210662,-0.001586655038123795,-0.048500988931387004
1788364000000,12606,1788364000000,BL_wheel_link,-0.10279447655907423,-0.05491897097009808,0.03803934860309135,-0.0011226709089878146,0.00011422946417733725,-0.012028233257997827
1788365000000,12607,1788365000000,BL_wheel_link,2.4172334680717413,13.313396254620315,-3.8044385454644853,0.40181918068317185,-0.00010522859196544082,0.24161560879695237
1788366000000,12608,1788366000000,BL_wheel_link,-0.5951295845558162,16.553051919893143,2.1138856305113234,-0.21005847550272322,-0.0015873864755036535,-0.04850905624587572
1788367000000,12609,1788367000000,BL_wheel_link,-0.10280821188773298,-0.0549344368129482,0.03803778226326268,-0.0011221177796375756,0.00011427296411623534,-0.01202979773804366
1788368000000,12610,1788368000000,BL_wheel_link,2.4171850368362833,13.313757059834273,-3.8049258321041632,0.4018777915573615,-0.0001043952996385919,0.24160884703370822
1788369000000,12611,1788369000000,BL_wheel_link,-0.5952191857475742,16.552443285364532,2.1133257412042403,-0.20999981699101233,-0.0015881147876201616,-0.048517127915771355
1788370000000,12612,1788370000000,BL_wheel_link,-0.10282193010801165,-0.05494986091471146,0.038036255932556426,-0.0011215706611570758,0.00011431631232933305,-0.012031360672730461
1788371000000,12613,1788371000000,BL_wheel_link,2.4171368134778675,13.314118263604854,-3.805412882737875,0.40193637182011965,-0.0001035629043947342,0.2416021100628793
1788372000000,12614,1788372000000,BL_wheel_link,-0.5953070366413475,16.551831571370645,2.112766106736845,-0.20994121329646473,-0.0015888512645132295,-0.0485249859958265
1788373000000,12615,1788373000000,BL_wheel_link,-0.10283573461370359,-0.0549652124163057,0.03803464393497681,-0.0011210177041599723,0.00011435928451556946,-0.012032934531602325
1788374000000,12616,1788374000000,BL_wheel_link,2.417088073564098,13.314480940532402,-3.805900900532667,0.40199506596837875,-0.00010272770471148746,0.24159530649690944
1788375000000,12617,1788375000000,BL_wheel_link,-0.5953946900772635,16.551212659022468,2.112205980805977,-0.20988265927295308,-0.0015896038878055116,-0.048532777738871276
1788376000000,12618,1788376000000,BL_wheel_link,-0.10284965576699948,-0.05498073179074361,0.03803285300438139,-0.0011204382929972119,0.00011440294574155893,-0.01203452067523734
1788377000000,12619,1788377000000,BL_wheel_link,2.417037951002417,13.314841970163041,-3.806390190457648,0.4020539252316367,-0.00010188698956378056,0.24158833906650615
1788378000000,12620,1788378000000,BL_wheel_link,-0.5954830427879774,16.550607163379095,2.1116459095240274,-0.2098239279993709,-0.0015903227706549235,-0.0485407276890555
1788379000000,12621,1788379000000,BL_wheel_link,-0.10286347973826541,-0.05499594549580938,0.038031264645902285,-0.0011198921286929794,0.00011444590873387712,-0.012036098622444662
1788380000000,12622,1788380000000,BL_wheel_link,2.4169893497446635,13.315206386589962,-3.8068784063880616,0.4021126372182577,-0.00010105184160119629,0.24158154834844378
1788381000000,12623,1788381000000,BL_wheel_link,-0.5955709364396788,16.549997665072418,2.1110869691754472,-0.20976535236249158,-0.001591053625035685,-0.04854860334138775
1788382000000,12624,1788382000000,BL_wheel_link,-0.10287731005419422,-0.05501120729453703,0.038029732655160235,-0.0011193513048857124,0.00011448858397443789,-0.01203767679159084
1788383000000,12625,1788383000000,BL_wheel_link,2.4169403748430174,13.315569586692694,-3.8073658819083063,0.40217126592777513,-0.00010021693701758178,0.24157471998012148
1788384000000,12626,1788384000000,BL_wheel_link,-0.5956588625955803,16.549378946651633,2.11052779859497,-0.20970688720530628,-0.0015918062177951789,-0.04855642796915716
1788385000000,12627,1788385000000,BL_wheel_link,-0.10289124519985852,-0.05502670461047017,0.03802802378424624,-0.0011187826036036207,0.0001145320422245409,-0.012039265013503286
1788386000000,12628,1788386000000,BL_wheel_link,2.416889958300864,13.315930248171638,-3.8078544347352485,0.40223003919774974,-9.93766615651065e-05,0.24156772315147246
1788387000000,12629,1788387000000,BL_wheel_link,-0.5957473856040569,16.548768892231944,2.10996819532235,-0.20964826562335262,-0.001592535775217327,-0.04856437103630096
1788388000000,12630,1788388000000,BL_wheel_link,-0.10290512967299874,-0.05504202239010522,0.03802639432283829,-0.0011182288534561193,0.00011457530012059283,-0.012040849226097262
1788389000000,12631,1788389000000,BL_wheel_link,2.4168404714319895,13.316293225645627,-3.808342801330397,0.4022887780885092,-9.853902798960534e-05,0.2415608316440182
1788390000000,12632,1788390000000,BL_wheel_link,-0.595835657935857,16.548160924119223,2.1094093086379493,-0.20958967725304797,-0.0015932616539302835,-0.048572298841256335
1788391000000,12633,1788391000000,BL_wheel_link,-0.10291897134342344,-0.05505725720675195,0.038024874343537726,-0.0011176906227703988,0.0001146180754512199,-0.012042429225282163
1788392000000,12634,1788392000000,BL_wheel_link,2.4167914286937675,13.31665675864027,-3.8088303382843325,0.40234741332653623,-9.770384102481683e-05,0.24155399501910646
1788393000000,12635,1788393000000,BL_wheel_link,-0.5959236645435659,16.54754413134987,2.1088505146283683,-0.20953121991347273,-0.001594009501022911,-0.04858014450574287
1788394000000,12636,1788394000000,BL_wheel_link,-0.10293289196315572,-0.05507269638986132,0.03802322515854405,-0.0011171309952138014,0.00011466137149662001,-0.012044016486128711
1788395000000,12637,1788395000000,BL_wheel_link,2.4167411942380665,13.31701794168527,-3.8093185718773324,0.40240614561165755,-9.686452130846374e-05,0.2415470204878761
1788396000000,12638,1788396000000,BL_wheel_link,-0.5960120816507872,16.54693077548736,2.108291175342412,-0.20947266797960667,-0.0015947473003468209,-0.04858805651304838
1788397000000,12639,1788397000000,BL_wheel_link,-0.10294680742562322,-0.055088081047026255,0.03802156535950398,-0.0011165718166236968,0.00011470480988468062,-0.012045603822846375
1788398000000,12640,1788398000000,BL_wheel_link,2.4166912166572248,13.31738009356315,-3.8098071460800185,0.40246491448029603,-9.602529750141198e-05,0.24154007271053543
1788399000000,12641,1788399000000,BL_wheel_link,-0.5961004786324904,16.54632251109735,2.107732174506698,-0.20941407419980257,-0.00159547317253032,-0.04859599682568139
1788400000000,12642,1788400000000,BL_wheel_link,-0.10296066548874028,-0.05510332798380883,0.03802002126351909,-0.001116030497123901,0.0001147477799130757,-0.012047185826658409
1788401000000,12643,1788401000000,BL_wheel_link,2.4166420004605262,13.317743648100656,-3.810295019013096,0.4025235909101013,-9.518911438041733e-05,0.2415332146712056
1788402000000,12644,1788402000000,BL_wheel_link,-0.5961885368342021,16.545708041577484,2.1071734906331967,-0.2093555938425881,-0.001596215142527068,-0.04860386252487371
1788403000000,12645,1788403000000,BL_wheel_link,-0.10297456793265398,-0.055118705085907826,0.03801841537741456,-0.0011154779492588184,0.00011479097240377431,-0.012048771751200655
1788404000000,12646,1788404000000,BL_wheel_link,2.416592029457564,13.318105567411768,-3.8107831370100786,0.4025823057414673,-9.435062536524569e-05,0.24152627052409364
1788405000000,12647,1788405000000,BL_wheel_link,-0.5962768067392645,16.545092922471984,2.1066143900142853,-0.2092970865823021,-0.0015969575712207508,-0.04861174807090914
1788406000000,12648,1788406000000,BL_wheel_link,-0.1029884957418616,-0.05513411737859886,0.03801675075696211,-0.0011149174247513127,0.00011483447435853709,-0.012050360416556475
1788407000000,12649,1788407000000,BL_wheel_link,2.4165418140446233,13.318467357793775,-3.811271794203887,0.40264108700335216,-9.351064766473932e-05,0.24151929570005096
1788408000000,12650,1788408000000,BL_wheel_link,-0.5963652164148694,16.544483230209075,2.1060553417644376,-0.20923850816827455,-0.0015976865258163775,-0.04861968176389159
1788409000000,12651,1788409000000,BL_wheel_link,-0.10300237508504681,-0.05514939807020821,0.03801517489469313,-0.0011143713862259942,0.00011487765133795538,-0.012051944775261095
1788410000000,12652,1788410000000,BL_wheel_link,2.416492313012757,13.31883064477997,-3.8117600124213706,0.402699807284794,-9.26731714493631e-05,0.24151240372688448
1788411000000,12653,1788411000000,BL_wheel_link,-0.5964533489948005,16.543870566503195,2.105496677443938,-0.20918000394950056,-0.0015984236934697554,-0.04862756706123795
1788412000000,12654,1788412000000,BL_wheel_link,-0.10301626736922005,-0.055164729341843535,0.0380135949706458,-0.0011138233454913334,0.00011492081908214571,-0.012053530159470596
1788413000000,12655,1788413000000,BL_wheel_link,2.4164425063990436,13.31919316143059,-3.812248141325855,0.4027585208358218,-9.18350601291848e-05,0.24150547806788614
1788414000000,12656,1788414000000,BL_wheel_link,-0.5965415231806837,16.543254984921166,2.104937803330041,-0.20912152220812802,-0.0015991674526654384,-0.0486354397573035
1788415000000,12657,1788415000000,BL_wheel_link,-0.10303019704283413,-0.05518013941948243,0.03801194442355672,-0.0011132645998324056,0.00011496431597970782,-0.012055119231818344
1788416000000,12658,1788416000000,BL_wheel_link,2.416392212627062,13.319554930833528,-3.8127367838544335,0.4028173009088363,-9.099488826214142e-05,0.24149849465466758
1788417000000,12659,1788417000000,BL_wheel_link,-0.5966298958011789,16.542643504753418,2.1043788086628363,-0.20906297295171472,-0.0015999005832958366,-0.0486433592328656
1788418000000,12660,1788418000000,BL_wheel_link,-0.10304409767976588,-0.05519545797582772,0.03801034232198205,-0.0011127143706916678,0.00011500766893101966,-0.0120567058987094
1788419000000,12661,1788419000000,BL_wheel_link,2.416342397284742,13.319917839337634,-3.8132252729516987,0.40287605660728393,-9.015616422058947e-05,0.2414915658692911
1788420000000,12662,1788420000000,BL_wheel_link,-0.5967181049000987,16.542031768135416,2.1038201400787266,-0.2090044551918625,-0.001600635022740833,-0.04865125918154001
1788421000000,12663,1788421000000,BL_wheel_link,-0.10305798967425925,-0.05521076596170894,0.03800877160130505,-0.0011121681816526827,0.00011505088426294862,-0.012058291681639998
1788422000000,12664,1788422000000,BL_wheel_link,2.4162926180041824,13.320280706582318,-3.8137135097828687,0.40293478199279376,-8.931792934226829e-05,0.24148464270627457
1788423000000,12665,1788423000000,BL_wheel_link,-0.5968062425456864,16.541416553452496,2.1032614503329987,-0.20894598394196343,-0.0016013779046063388,-0.04865913060853832
1788424000000,12666,1788424000000,BL_wheel_link,-0.10307191638810126,-0.05522615679828456,0.038007142789844316,-0.0011116126455771288,0.00011509435537592039,-0.012059880775124354
1788425000000,12667,1788425000000,BL_wheel_link,2.4162423339541625,13.320642670385885,-3.814202113889565,0.40299355690110683,-8.847782413466676e-05,0.24147766070824672
1788426000000,12668,1788426000000,BL_wheel_link,-0.5968945572849738,16.54080350066252,2.1027025783653266,-0.20888746689328394,-0.0016021148173019015,-0.048667034858237646
1788427000000,12669,1788427000000,BL_wheel_link,-0.10308905127750759,-0.19016929129565585,-0.054720226937039186,-0.05883834940448129,0.0001134458619619352,-0.012061906583188748
1788428000000,12670,1788428000000,BL_wheel_link,-2.793578090805399,12.40095901262788,7.507266158399711,-0.9331393004747914,0.006190929693905181,-0.32227358317831273
1788429000000,12671,1788429000000,BL_wheel_link,-0.40006274799769853,-1.526019744922975,-0.5154176376991405,-0.10144454755216656,-0.013624398987832232,0.004741675138660592
1788430000000,12672,1788430000000,BL_wheel_link,-0.06003843944845273,0.5429136769555802,0.20155973172590078,-0.013805222330553465,0.011327245910373363,-0.0339878635337164
1788431000000,12673,1788431000000,BL_wheel_link,0.048804928663215674,-0.12155600157767406,-0.06764156300770179,0.004065107508172592,0.00046231966466567535,0.0018449935923613957
1788432000000,12674,1788432000000,BL_wheel_link,-0.024670453398245237,-0.9596425896061721,-0.6133485397970474,-0.012589359680221802,-0.013792303278978011,0.03264189658240873
1788433000000,12675,1788433000000,BL_wheel_link,-0.2763171828230163,0.10232999658179157,-0.29694859234270393,-0.007200566846593809,0.006908435526115003,-0.03270507797284156
1788434000000,12676,1788434000000,BL_wheel_link,-1.3649562866163656,8.506074813713372,1.34533065807982,-0.18617963272570326,0.001579516846439222,-0.16678946925928087
1788435000000,12677,1788435000000,BL_wheel_link,-0.23473437300998629,0.1485687543835646,0.18920955954805574,-0.04352253149456424,0.0009137032274372679,-0.024931614237194456
1788436000000,12678,1788436000000,BL_wheel_link,-0.1789234938677381,7.754965456602432,0.6881431132985814,-0.10554750618761535,0.0018217634015602058,-0.023028307678313875
1788437000000,12679,1788437000000,BL_wheel_link,-0.19112362880724384,0.8119818160390776,0.4748658650214516,-0.028465385475516913,0.005110635488903514,-0.0330165936161201
1788438000000,12680,1788438000000,BL_wheel_link,1.04627897461957,13.01645633811652,-1.5769501677999218,0.1380731535004132,-0.00019997412794823914,0.0930860234720097
1788439000000,12681,1788439000000,BL_wheel_link,-1.8789601804819993,10.904109676215915,3.189208172283533,-0.3506480865467639,-0.002004061714134399,-0.1881117827061205
1788440000000,12682,1788440000000,BL_wheel_link,-0.1774317133817797,-0.1379926724195657,0.08357963565302158,-0.007163951722953463,0.00010875976248571567,-0.019844848570485477
1788441000000,12683,1788441000000,BL_wheel_link,1.2699763924141225,11.252023232189206,-2.8071259855218207,0.29303020673819313,0.0011806057670888416,0.11726506929820776
1788442000000,12684,1788442000000,BL_wheel_link,-1.0568838185359195,14.680045201781034,3.0580377468256064,-0.32355087451912234,-0.0013912780644809337,-0.09909966787034397
1788443000000,12685,1788443000000,BL_wheel_link,-0.1431511056293504,-0.10546049392330578,0.0694541895587601,-0.005605092501327971,0.0001560931243366709,-0.016165721479135208
1788444000000,12686,1788444000000,BL_wheel_link,1.8225330105647264,12.123232184520507,-3.227701723431082,0.33799086539368306,0.0005141747274502693,0.1779147177917311
1788445000000,12687,1788445000000,BL_wheel_link,-1.2199423187809828,18.079560997692013,2.4948210876097305,-0.23677523738016057,0.001982531069667056,-0.1266031965856583
1788446000000,12688,1788446000000,BL_wheel_link,-0.11012068756872455,-0.08258664983349188,0.08801492029076316,-0.007753275523215808,0.00010656500540076055,-0.012722633165861936
1788447000000,12689,1788447000000,BL_wheel_link,2.200002261164398,12.540115639402668,-3.226868169694301,0.3349062694158152,-0.00040813502345974154,0.2210772742157675
1788448000000,12690,1788448000000,BL_wheel_link,-1.0675781365078103,18.048380418961656,2.3831428120676352,-0.22627634384820416,0.0004767389891155542,-0.10781015592852286
1788449000000,12691,1788449000000,BL_wheel_link,-0.08789613741288967,-0.09425846245506408,0.0913275719189951,-0.00799436250164278,2.238366249195556e-05,-0.009836942163342506
1788450000000,12692,1788450000000,BL_wheel_link,2.39186662318189,12.461544378004492,-3.203577256422412,0.3316197114056489,-0.000907721477021943,0.24356999821573933
1788451000000,12693,1788451000000,BL_wheel_link,-0.9274266568597991,18.080906584254336,2.3067934416298814,-0.21922037373671877,-4.374088236991369e-05,-0.09173574316026248
1788452000000,12694,1788452000000,BL_wheel_link,-0.08147371866056533,-0.09581137132694241,0.08707249380268611,-0.007356119005848451,-1.2589530847842922e-05,-0.008948274119308099
1788453000000,12695,1788453000000,BL_wheel_link,2.4723956111505556,12.543199594416832,-3.289920021992936,0.3414666138597132,-0.0009682490965428475,0.252415436799955
1788454000000,12696,1788454000000,BL_wheel_link,-0.8692675335329167,18.18083295044067,2.2467578237618686,-0.21276830931907634,-0.0002690373503977696,-0.08504916589312009
1788455000000,12697,1788455000000,BL_wheel_link,-0.07976917246355686,-0.09590281924198124,0.0860533179810606,-0.007101539162687037,-2.0472461314752026e-05,-0.008726616911087759
1788456000000,12698,1788456000000,BL_wheel_link,2.4941475176558825,12.591616868016494,-3.3367819472058367,0.3469532634377125,-0.0009503174858110433,0.2547126367754162
1788457000000,12699,1788457000000,BL_wheel_link,-0.7198321611570058,17.861274944176547,2.2684400186308915,-0.21655096368021792,-0.0002723960804662043,-0.06804506272777283
1788458000000,12700,1788458000000,BL_wheel_link,-0.0904167949039109,-0.08461544649266967,0.0769784043462398,-0.005810331231723351,-2.068665605130704e-05,-0.01001636132268088
1788459000000,12701,1788459000000,BL_wheel_link,2.460389161209082,12.877065010932252,-3.530209190501573,0.36950659853837486,-0.0005692359026830997,0.24952888225072956
1788460000000,12702,1788460000000,BL_wheel_link,-0.10945695547146014,0.9343761194574751,0.25774422449149004,-0.025665171547618038,-0.0030372102294413434,0.001060724242242411
1788461000000,12703,1788461000000,BL_wheel_link,4.191781513048812,17.52576818968748,-1.695279394086838,0.17239243983692604,-0.000994353743187553,0.43969695030622963
1788462000000,12704,1788462000000,BL_wheel_link,-0.013370378375448869,1.2283431514078358,0.47514481765701716,-0.021298936837802367,0.002017640472148516,-0.0014064445764878396
1788463000000,12705,1788463000000,BL_wheel_link,4.186218732396265,17.03459655662977,-3.3821877273694936,0.3295677014399741,-0.005029605413644472,0.44331114429388674
1788464000000,12706,1788464000000,BL_wheel_link,-0.041590838308888226,1.4139894437919018,0.4497509662180219,-0.01832443021563332,0.0004492989767811125,-0.0025389720005905437
1788465000000,12707,1788465000000,BL_wheel_link,4.368378858740206,18.491532294343468,-4.073341364219867,0.4073187391916267,-0.004464209882383115,0.4590024840185042
1788466000000,12708,1788466000000,BL_wheel_link,-0.022042592858497953,1.4598711184243363,0.41985509168868856,-0.016236499759765086,-3.611741474870761e-05,-0.00045237502625041425
1788467000000,12709,1788467000000,BL_wheel_link,4.638188633434893,19.039826044329086,-4.435082991789969,0.448263029443442,-0.004575014229832017,0.4877207073936092
1788468000000,12710,1788468000000,BL_wheel_link,0.0027763112138080998,1.4579143996350457,0.3909069583521547,-0.014288969992651075,-0.00022311999493053632,0.0017023344159899894
1788469000000,12711,1788469000000,BL_wheel_link,4.846581547176632,19.238108526081938,-4.674843241720311,0.47595160250410967,-0.004709231121029549,0.5104300386002797
1788470000000,12712,1788470000000,BL_wheel_link,0.022373028923682314,1.441720588904888,0.36650327168402985,-0.012549782173648914,-0.00025863224078084097,0.003181799000056577
1788471000000,12713,1788471000000,BL_wheel_link,4.975781791390463,19.293996959568155,-4.848600587517972,0.4964464506322577,-0.004748036800801922,0.5245080851719196
1788472000000,12714,1788472000000,BL_wheel_link,0.03560463324684657,1.4244729091608581,0.34768314709725595,-0.011145878313126368,-0.00022435075845685202,0.004038758958756029
1788473000000,12715,1788473000000,BL_wheel_link,5.0467241977837265,19.295434738079585,-4.9756699200422405,0.5116842231761843,-0.004717299402362526,0.5321587046079878
1788474000000,12716,1788474000000,BL_wheel_link,0.0438110098009218,1.410582871262294,0.33403501632048976,-0.010100970303762067,-0.00016791122806794373,0.004475586185037708
1788475000000,12717,1788475000000,BL_wheel_link,5.0817783562922845,19.28003693181039,-5.067812298106544,0.5228714114867941,-0.00465525558919154,0.5358589802517285
1788476000000,12718,1788476000000,BL_wheel_link,0.04857680712841714,1.400865765136206,0.3245590628941344,-0.009373633558824769,-0.00011512945282795585,0.0046684982858107935
1788477000000,12719,1788477000000,BL_wheel_link,5.097137843887544,19.263095777153946,-5.134252429249507,0.5310128804913844,-0.004587522929351134,0.5374146721746819
1788478000000,12720,1788478000000,BL_wheel_link,0.051236979173333266,1.394646940867873,0.31805513405053976,-0.008897355850040412,-7.891005506252481e-05,0.004737837351490528
1788479000000,12721,1788479000000,BL_wheel_link,5.102995565031747,19.249256181201453,-5.182492387205709,0.5369655727392127,-0.004526908971878969,0.5379602404134481
1788480000000,12722,1788480000000,BL_wheel_link,0.0526974621503212,1.3910073655487147,0.31358152667814904,-0.008600130831915416,-5.783667690406765e-05,0.004751767025758927
1788481000000,12723,1788481000000,BL_wheel_link,5.104937498752371,19.239488047387063,-5.2185683203191875,0.5414380954079754,-0.004477237515785673,0.5381097893664941
1788482000000,12724,1788482000000,BL_wheel_link,0.05351328457220618,1.389122830885374,0.3104026310491732,-0.008424013031940614,-5.02723141029642e-05,0.004747484569521831
1788483000000,12725,1788483000000,BL_wheel_link,5.105818846553965,19.233326864759253,-5.246882464025984,0.5449560998933779,-0.004438171908619566,0.5381717126620009
1788484000000,12726,1788484000000,BL_wheel_link,0.05401663689487035,1.388350442053477,0.30799927147456585,-0.008324900365964573,-5.269937162017996e-05,0.00474193892298113
1788485000000,12727,1788485000000,BL_wheel_link,5.106893293478091,19.22988071275294,-5.27051126054629,0.5478918597605679,-0.004407620914017897,0.5382764917970293
1788486000000,12728,1788486000000,BL_wheel_link,0.05438188111955848,1.388261978367439,0.30603925774228435,-0.008272716640802,-6.24997935096518e-05,0.004742406562150978
1788487000000,12729,1788487000000,BL_wheel_link,5.108624761814161,19.22840129242866,-5.2914557380366265,0.5504896727804653,-0.00438330663159691,0.538468499623256
1788488000000,12730,1788488000000,BL_wheel_link,0.054701688708896606,1.3885766429647142,0.30431854749835896,-0.008247425337492916,-7.712025468159002e-05,0.004750587518223968
1788489000000,12731,1788489000000,BL_wheel_link,5.111076166636362,19.228284601766926,-5.3109698904654365,0.5529041334689629,-0.004363226322315644,0.5387493613132774
1788490000000,12732,1788490000000,BL_wheel_link,0.05502114632294114,1.3891176283415552,0.30271506109683954,-0.008236323313445584,-9.460292668694663e-05,0.004765845033409079
1788491000000,12733,1788491000000,BL_wheel_link,5.114144531300687,19.22907940744074,-5.329802839021579,0.5552285840352412,-0.0043458345605266666,0.5391039204662895
1788492000000,12734,1788492000000,BL_wheel_link,0.055359284602377476,1.3897757375442505,0.30115446331126383,-0.008231717443323159,-0.0001136096402408873,0.004786624250514373
1788493000000,12735,1788493000000,BL_wheel_link,5.117669200388841,19.230450981490804,-5.348378623178739,0.5575167350397651,-0.00433000954381918,0.5395118744385833
1788494000000,12736,1788494000000,BL_wheel_link,0.05572054031357422,1.3904930961264024,0.29960076959281584,-0.00822936879459545,-0.0001334415789629032,0.004811754140741942
1788495000000,12737,1788495000000,BL_wheel_link,5.121512569626218,19.232189673258798,-5.366902969037816,0.5597952192948915,-0.004315054207317738,0.5399565362291665
1788496000000,12738,1788496000000,BL_wheel_link,0.05610211550509023,1.3912441584119402,0.29804048086306545,-0.008227118389607747,-0.00015367234066583125,0.0048402629290790165
1788497000000,12739,1788497000000,BL_wheel_link,5.1252083911798945,19.233803661180616,-5.385137952688574,0.5620399347730453,-0.004300186290519668,0.5403858888491632
1788498000000,12740,1788498000000,BL_wheel_link,0.05650244457294347,1.3920306691807944,0.29647245127275595,-0.008223784150242244,-0.00017402668501207113,0.004871764662435055
1788499000000,12741,1788499000000,BL_wheel_link,5.1293082685920695,19.23580490815829,-5.403464088797503,0.5642921316381971,-0.0042861379360922755,0.5408610732777717
1788500000000,12742,1788500000000,BL_wheel_link,0.05381188264350187,1.0570499390526005,0.09139301535483824,-0.008985319153374747,-0.0028985742597476636,0.013426889593448952
1788501000000,12743,1788501000000,BL_wheel_link,5.0990749030885105,17.367051105383887,-5.300132234582458,0.556413528893005,-0.00443791788067259,0.5409282501432564
1788502000000,12744,1788502000000,BL_wheel_link,0.039251372039665985,1.0489579452184867,0.07187990590688133,-0.004733009292931725,-0.0014799742589918477,0.010212758112895922
1788503000000,12745,1788503000000,BL_wheel_link,4.925088067559302,17.495878373107644,-5.593761458067279,0.5924866811697835,-0.00347445536153021,0.5191241224910157
1788504000000,12746,1788504000000,BL_wheel_link,0.06080385634125983,1.2892060699008248,0.2474788295227761,-0.0031960489850929473,0.0012794342907872568,0.003846608667553524
1788505000000,12747,1788505000000,BL_wheel_link,4.85766177282169,18.720868547252245,-5.572661854871286,0.5877594271251709,-0.0032795813101976004,0.5095925586593334
1788506000000,12748,1788506000000,BL_wheel_link,0.04846841366290791,1.3647396565004233,0.27320513115661527,-0.005504881788883574,0.0003951151685881742,0.004343259459086427
1788507000000,12749,1788507000000,BL_wheel_link,7.50809904967039,22.21425331825236,-8.175839067961919,0.8502386094638074,-0.0003021869847552594,0.7985450790087439
1788508000000,12750,1788508000000,BL_wheel_link,0.05292413092128932,1.330154205208503,0.27171544987153506,-0.007517551506673587,0.00035269635921314046,0.003419191042906636
1788509000000,12751,1788509000000,BL_wheel_link,6.6560076777231,20.197253399972222,-6.981367987258017,0.7109302532259347,-0.00036387102434096846,0.7088254564222044
1788510000000,12752,1788510000000,BL_wheel_link,0.03299593299921297,1.3018505545969996,0.27639622991457974,-0.009142587121681525,5.789381329596589e-05,0.00044706182201579864
1788511000000,12753,1788511000000,BL_wheel_link,5.224926247060076,18.465646866818997,-5.668033938446621,0.5606385578329978,0.002514038320101053,0.5523047573868509
1788512000000,12754,1788512000000,BL_wheel_link,0.0202239818574778,1.2842548952646484,0.2639403191646165,-0.01100018488479336,-0.0006107951295783079,0.00041587196476496524
1788513000000,12755,1788513000000,BL_wheel_link,4.600471672508142,18.57339042351261,-5.286307523976948,0.5149455570472891,0.004677924372678062,0.48206136905336494
1788514000000,12756,1788514000000,BL_wheel_link,0.4297545739579703,0.37474842549132825,0.361056259940084,-0.020721652281338196,0.003606158745585333,0.037505171730552914
1788515000000,12757,1788515000000,BL_wheel_link,5.486918384761473,9.57053189600611,-1.6419573515044936,0.14042593027069988,-0.010933293071369251,0.6152212663340012
1788516000000,12758,1788516000000,BL_wheel_link,0.17462587238286903,0.41396891746887615,0.1562325967630703,-0.01308445894906013,0.001677599945633352,0.01864843243778215
1788517000000,12759,1788517000000,BL_wheel_link,4.78438643095275,14.226377974550354,-3.9743607763892603,0.40843567466178127,-0.005581655162203367,0.5162248866479882
1788518000000,12760,1788518000000,BL_wheel_link,0.10285958973259272,0.7528321409047155,0.19194201618726262,-0.012283091099152887,0.0009543476576385597,0.014634865496901654
1788519000000,12761,1788519000000,BL_wheel_link,5.576885703003319,15.707151713909765,-4.889621319771793,0.4769784002052281,0.0013554721522111152,0.6017077546609997
1788520000000,12762,1788520000000,BL_wheel_link,-0.05142117909447397,1.0538452582421103,0.13473046215840362,-0.007075404206777051,-0.00018155041444483256,1.8166178753486095e-05
1788521000000,12763,1788521000000,BL_wheel_link,4.871958067165446,19.556166023265156,-3.1515035252900634,0.32183472288633375,0.010248020018388919,0.5058393758856095
1788522000000,12764,1788522000000,BL_wheel_link,0.044687149857259564,1.1753829240471778,0.3312677894529002,-0.0150811827230422,0.0009410260173200787,0.003511369065166064
1788523000000,12765,1788523000000,BL_wheel_link,4.53397751497732,16.99077940583987,-4.472479231213245,0.4253328187690178,0.0036350682005721197,0.48123431259157196
1788524000000,12766,1788524000000,BL_wheel_link,-0.011051627514416226,1.386453170209885,0.3584823563553865,-0.013678348032826384,0.0006436367650725616,-0.0005153076734814757
1788525000000,12767,1788525000000,BL_wheel_link,4.500269495727248,18.403044984372507,-4.979126944517405,0.47885991565529584,0.004233955320302497,0.4731304264185968
1788526000000,12768,1788526000000,BL_wheel_link,0.0016855670028585457,1.4030001574547026,0.31072700343587617,-0.014039940164235206,-0.0007326220348551785,0.0021928158474034715
1788527000000,12769,1788527000000,BL_wheel_link,4.730586111729597,18.677344127318676,-5.1813704570850625,0.5009143896315839,0.00444988119944955,0.4984070981428832
1788528000000,12770,1788528000000,BL_wheel_link,0.02337197125667123,1.4426113465174668,0.31639614133681154,-0.012363598424101025,-0.00012013232817850836,0.0029682023592657166
1788529000000,12771,1788529000000,BL_wheel_link,4.911580179384382,19.050909595783807,-5.39844190386544,0.5244139956490008,0.004640217170198989,0.5178874774872144
1788530000000,12772,1788530000000,BL_wheel_link,0.036746824506596734,1.4484771595692942,0.3043778663155583,-0.011425044272970782,-0.00017143830914015065,0.004073129841231812
1788531000000,12773,1788531000000,BL_wheel_link,5.029342490798233,19.18875063072647,-5.538511247397931,0.5402127552260352,0.004785764789902787,0.530705896159726
1788532000000,12774,1788532000000,BL_wheel_link,0.04791994910089942,1.4414847320090343,0.291685002465654,-0.010548757461718046,-0.00017050875668139277,0.004891970428485528
1788533000000,12775,1788533000000,BL_wheel_link,5.105236541995889,19.22683426673281,-5.641724644820956,0.5522616268456041,0.004904120821700324,0.5389922047881102
1788534000000,12776,1788534000000,BL_wheel_link,0.055807516568648435,1.4324239488662407,0.28109729501012987,-0.009799136803298629,-0.00014733236140268156,0.005403211403355201
1788535000000,12777,1788535000000,BL_wheel_link,5.149906023899689,19.230765918380442,-5.721787038282417,0.5618132761428413,0.00500444512233373,0.5438298292529544
1788536000000,12778,1788536000000,BL_wheel_link,0.06096608993548386,1.4247818934006329,0.27295787938019844,-0.00921688320887303,-0.00011979325118713976,0.005695707903216093
1788537000000,12779,1788537000000,BL_wheel_link,5.1776905869309555,19.226537425891806,-5.78476765287913,0.5694001335315952,0.005087035622845251,0.5468143612190289
1788538000000,12780,1788538000000,BL_wheel_link,0.06412989309668576,1.4192351697141268,0.2668535378122936,-0.008789151471076766,-9.828770262979188e-05,0.005847084925770488
1788539000000,12781,1788539000000,BL_wheel_link,5.19150270698667,19.21954533175391,-5.833989224728297,0.5753945727418603,0.00515466601890676,0.5482596185183728
1788540000000,12782,1788540000000,BL_wheel_link,0.06610108275226474,1.4157618951849718,0.26235129046203975,-0.008498070295918411,-8.564383592883987e-05,0.005930159660564081
1788541000000,12783,1788541000000,BL_wheel_link,5.199816429768893,19.2149785768896,-5.87346810513862,0.5802174017328711,0.005209389713101434,0.5491178480156055
1788542000000,12784,1788542000000,BL_wheel_link,0.06735882863715002,1.4138294652191368,0.25897268317648936,-0.008309635078405916,-8.30241323302878e-05,0.0059827256038069866
1788543000000,12785,1788543000000,BL_wheel_link,5.205636318080359,19.213010675983046,-5.906117844214872,0.5842089347543056,0.005254347347053996,0.5497208422078318
1788544000000,12786,1788544000000,BL_wheel_link,0.06820829028658501,1.4129682987416026,0.25635034075148727,-0.008192393697046756,-8.734616062201425e-05,0.006022070460226403
1788545000000,12787,1788545000000,BL_wheel_link,5.210383186848445,19.21312050115844,-5.934197580990934,0.5876399615944294,0.005292382313659229,0.5502216095832846
1788546000000,12788,1788546000000,BL_wheel_link,0.06884152443933347,1.4127843198937138,0.2541930972769467,-0.008123582148398362,-9.790511312615289e-05,0.00605839426593165
1788547000000,12789,1788547000000,BL_wheel_link,5.214816226097169,19.21454584218222,-5.959260800018836,0.5906996659881236,0.005325676637281056,0.5507005417411407
1788548000000,12790,1788548000000,BL_wheel_link,0.06936531474467844,1.413010179389781,0.25231783076314923,-0.008085904023262126,-0.00011268804171716813,0.006095224776040602
1788549000000,12791,1788549000000,BL_wheel_link,5.219217025582424,19.216729858065428,-5.982406424414313,0.5935229230001985,0.005355891991291099,0.5511849908671717
