%time,field.header.seq,field.header.stamp,field.header.frame_id,field.wrench.force.x,field.wrench.force.y,field.wrench.force.z,field.wrench.torque.x,field.wrench.torque.y,field.wrench.torque.z
1788202000000,12444,1788200000000,BR_wheel_link,0.35445839988314964,0.8199041558357693,-0.07276039261406156,0.024427333166504146,-0.012278716459099975,-0.016424428877541468
1788202000000,12445,1788201000000,BR_wheel_link,-0.3757555383990233,0.8073450887547047,-1.1708087036998878,-0.02457003306718968,0.01267061127539068,0.016933594917940636
1788202000000,12446,1788202000000,BR_wheel_link,0.022902121043538805,-0.0030327508469249692,0.016000121984400328,0.00014257156948002095,-0.00039116874038612866,-0.0005093854698469866
1788203000000,12447,1788203000000,BR_wheel_link,0.3544845809046822,0.8199087242696143,-0.07275001595432078,0.024427607547005323,-0.012279414176999334,-0.0164252208934818
1788204000000,12448,1788204000000,BR_wheel_link,-0.37577857729664865,0.8073424224160501,-1.1708196177808199,-0.024570282829463518,0.01267134702949747,0.016934349356787143
1788205000000,12449,1788205000000,BR_wheel_link,0.022902178969894757,-0.0030345784618986504,0.01600154925057997,0.0001425408966713577,-0.0003911967979411572,-0.0005093763601622162
1788206000000,12450,1788206000000,BR_wheel_link,0.35451094644813586,0.8199129081582642,-0.07273951331310906,0.02442787166929147,-0.012280115707029518,-0.016426010005056113
1788207000000,12451,1788207000000,BR_wheel_link,-0.37580056270345114,0.8073409641015272,-1.1708304726746797,-0.02457052527515685,0.01267205655245643,0.016935178927431644
1788208000000,12452,1788208000000,BR_wheel_link,0.02290221540738416,-0.0030361996311660173,0.01600293685735074,0.0001425190874556433,-0.00039122426664422484,-0.0005093716670654862
1788209000000,12453,1788209000000,BR_wheel_link,0.3545370588736274,0.8199180955419917,-0.07272929874544085,0.024428163238879044,-0.012280813917218658,-0.016426810147492185
1788210000000,12454,1788210000000,BR_wheel_link,-0.3758232338424768,0.8073381625032401,-1.1708415722846188,-0.02457078730099102,0.012672786210508,0.016935970019874912
1788211000000,12455,1788211000000,BR_wheel_link,0.02290225428124072,-0.0030379005134510604,0.016004334891330938,0.0001424946036571594,-0.0003912517967721926,-0.0005093665923363913
1788212000000,12456,1788212000000,BR_wheel_link,0.3545631868533906,0.8199229801086669,-0.07271900035637191,0.024428446414485768,-0.01228151122302053,-0.016427606120995968
1788213000000,12457,1788213000000,BR_wheel_link,-0.3758466363295468,0.8073349832011816,-1.17085265678813,-0.02457104748950581,0.012673532338849373,0.0169367325308588
1788214000000,12458,1788214000000,BR_wheel_link,0.022902332399072,-0.003039601168031258,0.01600577500890781,0.00014246891014075785,-0.0003912817209666143,-0.0005093620956981386
1788215000000,12459,1788215000000,BR_wheel_link,0.35458979475958485,0.8199275520323185,-0.07270846925927933,0.024428722671138263,-0.012282219738382102,-0.016428403942761675
1788216000000,12460,1788216000000,BR_wheel_link,-0.3758700231394215,0.8073322758881241,-1.1708637283566499,-0.024571307678132134,0.012674276487769873,0.016937529471039305
1788217000000,12461,1788217000000,BR_wheel_link,0.022902436003538033,-0.0030411590654799477,0.016007231318376582,0.0001424480672672837,-0.0003913135738451014,-0.0005093609551783666
1788218000000,12462,1788218000000,BR_wheel_link,0.35461668666124047,0.8199324760106014,-0.0726979037220456,0.024429010095005102,-0.012282936487876686,-0.016429210520385443
1788219000000,12463,1788219000000,BR_wheel_link,-0.3758930920048275,0.8073296552125692,-1.170874905893735,-0.024571578015952535,0.0126750148136624,0.01693836017552529
1788220000000,12464,1788220000000,BR_wheel_link,0.0229025349897782,-0.003042621781817537,0.016008675213709456,0.00014243155673113222,-0.00039134533234753667,-0.000509362446685908
1788221000000,12465,1788221000000,BR_wheel_link,0.35464346431833577,0.8199378332102588,-0.07268744321119802,0.024429309503287377,-0.012283651254433994,-0.01643002171377225
1788222000000,12466,1788222000000,BR_wheel_link,-0.3759163659676371,0.8073264463058972,-1.1708861994927457,-0.024571857998332468,0.012675760810204925,0.01693917723038415
1788223000000,12467,1788223000000,BR_wheel_link,0.022902636721257405,-0.0030440977760540695,0.016010123160353457,0.000142414933917496,-0.00039137713894126696,-0.0005093645245867049
1788224000000,12468,1788224000000,BR_wheel_link,0.3546702305183058,0.8199431453191719,-0.07267695368638864,0.02442960776064397,-0.012284365110682042,-0.016430832021980986
1788225000000,12469,1788225000000,BR_wheel_link,-0.37593999301129555,0.8073229662335012,-1.1708974713905513,-0.02457213745023943,0.012676515461621525,0.016939966521776973
1788226000000,12470,1788226000000,BR_wheel_link,0.022902751730575432,-0.0030456510092116166,0.01601159139008046,0.00014239480829875525,-0.00039140932548700487,-0.0005093647077290015
1788227000000,12471,1788227000000,BR_wheel_link,0.354697132183171,0.8199480299058872,-0.07266632477980281,0.02442989449612145,-0.012285080952410802,-0.016431638033172474
1788227000000,12472,1788228000000,BR_wheel_link,-0.3759631542735372,0.8073202134396078,-1.1709086514621574,-0.024572408837852323,0.012677257811359376,0.016940785337095254
1788229000000,12473,1788229000000,BR_wheel_link,0.02290286312194708,-0.0030471286990740414,0.016013049290027084,0.00014237766538409348,-0.00039144142399790565,-0.0005093660966073966
1788230000000,12474,1788230000000,BR_wheel_link,0.3547239818769169,0.8199532344169669,-0.07265577720264493,0.024430190107485344,-0.012285796461763643,-0.01643244797666387
1788231000000,12475,1788231000000,BR_wheel_link,-0.3759863095190819,0.807317232436119,-1.1709199201722384,-0.02457268659552349,0.012678001460217213,0.01694160892166445
1788232000000,12476,1788232000000,BR_wheel_link,0.02290297026666841,-0.0030485809234481235,0.01601450121519224,0.00014236193010912267,-0.0003914734045079753,-0.0005093686052933793
1788233000000,12477,1788233000000,BR_wheel_link,0.3547507695053596,0.8199585911996322,-0.07264527105995691,0.024430489867725124,-0.012286510657708565,-0.016433259266006955
1788234000000,12478,1788234000000,BR_wheel_link,-0.3760098595286667,0.8073138002969347,-1.170931219382853,-0.02457296734123428,0.01267875510649398,0.016942404962764966
1788235000000,12479,1788235000000,BR_wheel_link,0.022903086168877818,-0.0030501070818274127,0.016015968717306865,0.00014234302204132397,-0.0003915056412499828,-0.0005093695683219192
1788236000000,12480,1788236000000,BR_wheel_link,0.35477765607537026,0.8199635793990814,-0.0726346536347412,0.024430779604914535,-0.012287226165168192,-0.016434066640199904
1788237000000,12481,1788237000000,BR_wheel_link,-0.37603318021845755,0.8073108496706888,-1.1709424339284653,-0.024573240951397502,0.012679501953915135,0.016943214089795197
1788238000000,12482,1788238000000,BR_wheel_link,0.022903202294966816,-0.0030516061709363355,0.016017433992821406,0.00014232498505950772,-0.000391537903619349,-0.0005093706232532204
1788239000000,12483,1788239000000,BR_wheel_link,0.35480454892249036,0.8199686593415216,-0.07262405701531632,0.024431071944714413,-0.012287942219568868,-0.016434875494234252
1788240000000,12484,1788240000000,BR_wheel_link,-0.37605632311294407,0.8073079900696755,-1.1709536830490683,-0.02457351640761108,0.012680244992575014,0.016944038368750473
1788241000000,12485,1788241000000,BR_wheel_link,0.022903312377007285,-0.0030530582416144017,0.016018889386506367,0.00014230911760554306,-0.00039157000440726936,-0.0005093729550012327
1788242000000,12486,1788242000000,BR_wheel_link,0.35483136896060263,0.8199739842346258,-0.07261353074833661,0.02443137097223363,-0.012288657110560661,-0.016435686917740566
1788243000000,12487,1788243000000,BR_wheel_link,-0.3760797788890691,0.8073046788013589,-1.1709649897306627,-0.02457379664514619,0.012680996379171097,0.01694484262067965
1788244000000,12488,1788244000000,BR_wheel_link,0.022903427057031224,-0.0030545603423256526,0.016020354149587766,0.00014229122776382536,-0.0003916022420533013,-0.0005093744545910534
1788245000000,12489,1788245000000,BR_wheel_link,0.35485824124179044,0.8199790764586854,-0.07260293577247433,0.024431663647894616,-0.012289372530815634,-0.016436495745192483
1788246000000,12490,1788246000000,BR_wheel_link,-0.3761032021159787,0.8073015733955181,-1.1709762403881894,-0.024574072383691237,0.012681746108494641,0.016945646818173062
1788247000000,12491,1788247000000,BR_wheel_link,0.022903544878216223,-0.003056069390744821,0.016021822662241402,0.0001422728147558747,-0.0003916345850646221,-0.0005093754325023777
1788248000000,12492,1788248000000,BR_wheel_link,0.354885154248645,0.8199841033603699,-0.07259231719331195,0.024431954618262478,-0.012290088864143157,-0.01643730426032926
1788249000000,12493,1788249000000,BR_wheel_link,-0.37612639466125813,0.8072987203863748,-1.1709874859605185,-0.0245743469276399,0.012682490171631155,0.016946468097826857
1788250000000,12494,1788250000000,BR_wheel_link,0.02290365783400517,-0.003057530604553127,0.016023282253087235,0.00014225646984809186,-0.0003916668023168981,-0.0005093774684608496
1788251000000,12495,1788251000000,BR_wheel_link,0.3549120102768708,0.8199893622233033,-0.07258176373318107,0.02443225195153835,-0.012290804455043774,-0.016438115386850253
1788252000000,12496,1788252000000,BR_wheel_link,-0.3761497664976874,0.807295540009204,-1.1709987901969567,-0.024574626039352777,0.012683239399880555,0.016947279230404236
1788253000000,12497,1788253000000,BR_wheel_link,0.02290377210702063,-0.003059013519831512,0.016024745430485075,0.00014223935562419503,-0.0003916990629328716,-0.0005093793393973454
1788254000000,12498,1788254000000,BR_wheel_link,0.35493887901153814,0.8199945308175661,-0.07257118301668583,0.0244325468169992,-0.012291519997080818,-0.016438925423065524
1788255000000,12499,1788255000000,BR_wheel_link,-0.3761732301813692,0.8072923494662867,-1.1710100713867668,-0.024574903439538547,0.012683990479114482,0.016948082663857212
1788256000000,12500,1788256000000,BR_wheel_link,0.02290389064905289,-0.003060520918649316,0.01602621513113402,0.00014222106260611267,-0.00039173145720693337,-0.0005093804857293525
1788257000000,12501,1788257000000,BR_wheel_link,0.35496579925819577,0.8199995594280256,-0.0725605575380614,0.02443283792058041,-0.012292236443551957,-0.01643973420855369
1788258000000,12502,1788258000000,BR_wheel_link,-0.37619649629544893,0.807289437761031,-1.1710213266257967,-0.024575178198755463,0.012684736398666043,0.0169488996606836
1788259000000,12503,1788259000000,BR_wheel_link,0.022904006541308947,-0.0030619927900501867,0.016027679136196567,0.00014220422295068195,-0.00039176378960696135,-0.0005093822808025819
1788260000000,12504,1788260000000,BR_wheel_link,0.3549926889667142,0.8200047483008015,-0.07254997505076745,0.02443313345076739,-0.01229295262573315,-0.016440544940022665
1788261000000,12505,1788261000000,BR_wheel_link,-0.37621981573741814,0.8072863616513646,-1.1710326260578643,-0.024575456152585266,0.012685484248355463,0.01694971508816137
1788262000000,12506,1788262000000,BR_wheel_link,0.0229041216235784,-0.003063463637209991,0.016029142548542666,0.00014218756406677495,-0.00039179610617682447,-0.0005093843513540278
1788263000000,12507,1788263000000,BR_wheel_link,0.3550195662855299,0.8200099542982888,-0.07253939596853548,0.024433429454065684,-0.012293668464494216,-0.01644135578531665
1788264000000,12508,1788264000000,BR_wheel_link,-0.376243275886916,0.8072831523088874,-1.1710439289495964,-0.02457573449354602,0.012686235530069893,0.01695052047965736
1788265000000,12509,1788265000000,BR_wheel_link,0.022904240587588186,-0.0030649623383895578,0.01603061247894403,0.00014216967109748096,-0.00039182854289863614,-0.0005093857812016808
1788266000000,12510,1788266000000,BR_wheel_link,0.35504648873030503,0.8200150144416262,-0.07252877110816429,0.02443372151754011,-0.012294384984956601,-0.0164421651989618
1788267000000,12511,1788267000000,BR_wheel_link,-0.37626661297775815,0.8072801613518287,-1.1710552017375704,-0.024576010073000962,0.012686983391211422,0.016951333705013782
1788268000000,12512,1788268000000,BR_wheel_link,0.022904359031182063,-0.003066442210008212,0.01603208030265177,0.00014215248152079613,-0.0003918609782188841,-0.000509387448149394
1788269000000,12513,1788269000000,BR_wheel_link,0.3550734057760964,0.8200201487894302,-0.07251816374562696,0.02443401566558909,-0.012295101621904798,-0.016442975665118542
1788270000000,12514,1788270000000,BR_wheel_link,-0.37628991628985115,0.8072771462906451,-1.1710664991480666,-0.024576287179070802,0.012687730796598469,0.016952150841299002
1788271000000,12515,1788271000000,BR_wheel_link,0.02290447575643291,-0.0030679078217064446,0.016033545398751944,0.00014213598650943116,-0.00039189337364919897,-0.0005093895785707096
1788272000000,12516,1788272000000,BR_wheel_link,0.35510030047053653,0.8200253581350333,-0.07250757599398261,0.024434311879747185,-0.012295817866142814,-0.016443786946829176
1788273000000,12517,1788273000000,BR_wheel_link,-0.37631335148280126,0.807273962396358,-1.1710778155555543,-0.024576565804350022,0.012688481653574986,0.016952959354717217
1788274000000,12518,1788274000000,BR_wheel_link,0.022904595189354372,-0.003069395410965588,0.016035015366959213,0.00014211857077783856,-0.000391925854723186,-0.0005093912988633883
1788275000000,12519,1788275000000,BR_wheel_link,0.35512722553173415,0.8200304578455447,-0.07249695357319058,0.02443460513010575,-0.012296534503619796,-0.016444597111015046
1788276000000,12520,1788276000000,BR_wheel_link,-0.37633674185033167,0.8072709017532362,-1.1710891086417443,-0.024576842364961823,0.012689231075744106,0.016953770245417624
1788277000000,12521,1788277000000,BR_wheel_link,0.02290471561019503,-0.0030708788364267317,0.016036486051276326,0.00014210123643151307,-0.00039195837645516037,-0.0005093929575698061
1788278000000,12522,1788278000000,BR_wheel_link,0.3551541626899972,0.8200355609430748,-0.07248632813485746,0.024434898529434576,-0.012297251476606767,-0.016445407546315093
1788279000000,12523,1788279000000,BR_wheel_link,-0.3763600576541485,0.8072679055879326,-1.1711004091732435,-0.02457711907368952,0.012689978803844718,0.016954587224270807
1788280000000,12524,1788280000000,BR_wheel_link,0.02290483437705818,-0.00307234388084091,0.01603795365590472,0.00014208471752929477,-0.00039199086154530704,-0.0005093950707443641
1788281000000,12525,1788281000000,BR_wheel_link,0.35518107910849883,0.8200407522761108,-0.07247572558705834,0.024435194368510552,-0.012297968163441,-0.016446219014860982
1788282000000,12526,1788282000000,BR_wheel_link,-0.37638346507553455,0.8072647657445646,-1.1711117336052577,-0.024577397565196432,0.012690729085837297,0.016955398801759874
1788283000000,12527,1788283000000,BR_wheel_link,0.022904954553051752,-0.003073821181934034,0.01603942399280137,0.00014206772314820718,-0.00039202339521460136,-0.0005093970286562672
1788284000000,12528,1788284000000,BR_wheel_link,0.35520801029258375,0.8200458850022782,-0.07246510350200633,0.024435488631370416,-0.012298684995322301,-0.0164470298850436
1788285000000,12529,1788285000000,BR_wheel_link,-0.37640688664742905,0.8072616596309257,-1.171123046057802,-0.024577674980615506,0.012691479522025999,0.016956208950193785
1788286000000,12530,1788286000000,BR_wheel_link,0.0229050764596268,-0.003075303766806816,0.016040896654417908,0.0001420504341443463,-0.000392055989603238,-0.0005093987749523814
1788287000000,12531,1788287000000,BR_wheel_link,0.3552349618451358,0.8200509785774779,-0.07245446633781394,0.0244357818749833,-0.012299402226855083,-0.016447840524302704
1788288000000,12532,1788288000000,BR_wheel_link,-0.37643023108770035,0.8072586521098647,-1.1711343548715387,-0.024577951713213708,0.012692228036867011,0.01695702483471801
1788289000000,12533,1788289000000,BR_wheel_link,0.022905197336866946,-0.0030767703009777865,0.016042367032460175,0.00014203381892924247,-0.000392088565951837,-0.0005094008542656223
1788290000000,12534,1788290000000,BR_wheel_link,0.35526190062512136,0.8200561438670997,-0.07244384684326968,0.02443607711597422,-0.012300119340900733,-0.016448652071470563
1788291000000,12535,1788291000000,BR_wheel_link,-0.3764536194642258,0.8072555549001263,-1.1711456848563961,-0.024578229910927615,0.012692977914375132,0.016957838723978762
1788292000000,12536,1788292000000,BR_wheel_link,0.022905338861639712,-0.003078252832486979,0.016043850973602145,0.00014201708338235926,-0.0003921215843409983,-0.0005094030821861023
1788293000000,12537,1788293000000,BR_wheel_link,0.35528892422000385,0.820061272469969,-0.07243317007868418,0.02443637176267769,-0.012300838096235195,-0.01644946414138629
1788294000000,12538,1788294000000,BR_wheel_link,-0.37647749337992165,0.8072521432106401,-1.1711569777523614,-0.024578507536437973,0.012693738670286748,0.016958620355249036
1788295000000,12539,1788295000000,BR_wheel_link,0.02290551027020864,-0.0030798489999821674,0.01604536871333165,0.00014199551018665623,-0.00039215535550780206,-0.0005094026168322253
1788296000000,12540,1788296000000,BR_wheel_link,0.35531617510545976,0.820065833726965,-0.0724222902033154,0.0244366512608175,-0.012301560659994435,-0.016450271114363643
1788297000000,12541,1788297000000,BR_wheel_link,-0.3765008293032771,0.8072496685093294,-1.1711681575862851,-0.024578774561285086,0.012694484468129508,0.01695943904118422
1788298000000,12542,1788298000000,BR_wheel_link,0.022905672447483996,-0.0030813548568345995,0.016046871191353278,0.00014197731909853855,-0.0003921889191668044,-0.0005094033538123263
1788299000000,12543,1788299000000,BR_wheel_link,0.3553433405176332,0.8200707854863495,-0.0724115254398507,0.024436941418389476,-0.012302282417812657,-0.016451082645848044
1788300000000,12544,1788300000000,BR_wheel_link,-0.37652374745437955,0.8072472376806028,-1.1711794934291688,-0.024579049571495433,0.012695222363223183,0.01696029395514903
1788301000000,12545,1788301000000,BR_wheel_link,0.022905814410683987,-0.0030827347424451533,0.016048343766164434,0.00014196515625820058,-0.00039222191823100024,-0.0005094079018931393
1788302000000,12546,1788302000000,BR_wheel_link,0.35537026534474153,0.8200764340130089,-0.0724009688406227,0.02443725045836924,-0.012302999930297247,-0.016451900907295144
1788303000000,12547,1788303000000,BR_wheel_link,-0.3765475932689383,0.807243477094807,-1.1711909994260161,-0.024579338145154225,0.012695984986911123,0.016961088028686597
1788304000000,12548,1788304000000,BR_wheel_link,0.022905968672995616,-0.003084266118993154,0.016049843075174666,0.00014194687577215792,-0.00039225526868711443,-0.0005094099250602705
1788305000000,12549,1788305000000,BR_wheel_link,0.3553973319759179,0.82008139009832,-0.07239021400218429,0.02443754050670969,-0.012303718687034771,-0.016452711146010955
1788306000000,12550,1788306000000,BR_wheel_link,-0.3765712797221468,0.8072403779247102,-1.171202340982047,-0.02457961321997159,0.01269674118698879,0.016961885821182816
1788307000000,12551,1788307000000,BR_wheel_link,0.02290612928074256,-0.003085806821038868,0.01605134940363434,0.00014192757303849008,-0.0003922888290607551,-0.0005094106929082031
1788308000000,12552,1788308000000,BR_wheel_link,0.35542448652198605,0.8200862239870227,-0.0723794165513431,0.02443782736226804,-0.012304439560001866,-0.01645352093467567
1788309000000,12553,1788309000000,BR_wheel_link,-0.37659433168108725,0.8072379280746319,-1.171213680672727,-0.024579885987410458,0.012697481942754453,0.016962730750572273
1788310000000,12554,1788310000000,BR_wheel_link,0.022906274460171284,-0.003087214423444673,0.01605282885355509,0.00014191409324864907,-0.0003923219686340118,-0.0005094144934775696
1788311000000,12555,1788311000000,BR_wheel_link,0.35545146253095095,0.8200917224666299,-0.07236881259272587,0.024438132358702323,-0.0123051579382365,-0.016454337900741287
1788312000000,12556,1788312000000,BR_wheel_link,-0.3766179361547723,0.807234504675187,-1.1712251813144914,-0.02458017164933047,0.012698238292578164,0.016963543032865878
1788313000000,12557,1788313000000,BR_wheel_link,0.02290642336606356,-0.003088695964251298,0.01605431928170234,0.0001418979007574837,-0.00039235521316327164,-0.0005094175287493472
1788314000000,12558,1788314000000,BR_wheel_link,0.3554784781461056,0.8200969157386838,-0.07235812361065687,0.024438428937281254,-0.012305876171607413,-0.016455151029291418
1788315000000,12559,1788315000000,BR_wheel_link,-0.37664175624138624,0.8072311270340062,-1.171236598818307,-0.024580451317794984,0.012698998508857874,0.016964335653461227
1788316000000,12560,1788316000000,BR_wheel_link,0.022906582925639143,-0.003090243837867891,0.0160558261418755,0.0001418784752775345,-0.00039238877915077463,-0.0005094184966679406
1788317000000,12561,1788317000000,BR_wheel_link,0.35550562729222407,0.8201017353828627,-0.07234732080868814,0.02443871541625708,-0.012306596794359054,-0.0164559606948863
1788318000000,12562,1788318000000,BR_wheel_link,-0.376664997531568,0.8072285366529579,-1.1712479427985338,-0.024580723798010233,0.012699743616330219,0.016965167853440433
1788319000000,12563,1788319000000,BR_wheel_link,0.022906733120389846,-0.0030916884453895403,0.01605731450073997,0.0001418633147193008,-0.0003924220990769678,-0.0005094213835295216
1788320000000,12564,1788320000000,BR_wheel_link,0.3555326712109963,0.8201070370500722,-0.07233665462341816,0.02443901512149602,-0.012307316323089854,-0.016456775935881955
1788321000000,12565,1788321000000,BR_wheel_link,-0.3766884266575077,0.8072254243028787,-1.1712594108119165,-0.024581005713475775,0.012700495045747816,0.016965992533406173
1788322000000,12566,1788322000000,BR_wheel_link,0.022906880645177118,-0.0030931396208425054,0.0160588013377817,0.00014184828084453846,-0.00039245534424488547,-0.0005094248506083238
1788323000000,12567,1788323000000,BR_wheel_link,0.3555596783687315,0.820112354039977,-0.07232599486288056,0.024439315185440857,-0.012308034778983668,-0.0164575909132818
1788324000000,12568,1788324000000,BR_wheel_link,-0.37671223787325286,0.8072219704166393,-1.171270873206973,-0.02458128792394599,0.012701255563901592,0.01696678892699294
1788325000000,12569,1788325000000,BR_wheel_link,0.02290703838695534,-0.0030946718333286875,0.016060305684722317,0.0001418296418076372,-0.0003924888899643388,-0.0005094263895978126
1788326000000,12570,1788326000000,BR_wheel_link,0.35558680759745226,0.8201172551989494,-0.07231521051314703,0.024439603951050017,-0.012308755072394659,-0.01645840163563649
1788327000000,12571,1788327000000,BR_wheel_link,-0.37673566720627266,0.8072191626465928,-1.1712822436577346,-0.024581562131388766,0.012702005490175017,0.016967609326539814
1788328000000,12572,1788328000000,BR_wheel_link,0.022907192995956206,-0.003096146823404378,0.016061801744425314,0.00014181317794007169,-0.00039252236610966344,-0.0005094286762739366
1788329000000,12573,1788329000000,BR_wheel_link,0.3556139043724051,0.8201223971604836,-0.07230449055573787,0.024439899387607805,-0.01230947539861794,-0.01645921546018002
1788330000000,12574,1788330000000,BR_wheel_link,-0.37675901914853155,0.8072162436175374,-1.1712936839558008,-0.024581841129035,0.012702754576897306,0.016968439105741705
1788331000000,12575,1788331000000,BR_wheel_link,0.02290734196913661,-0.0030975865886076143,0.016063289457690144,0.00014179848988650517,-0.0003925556875590472,-0.00050943218531977
1788332000000,12576,1788332000000,BR_wheel_link,0.3556409303781696,0.8201277394664942,-0.07229382857571778,0.024440200273696023,-0.012310194419103419,-0.016460031230441013
1788333000000,12577,1788333000000,BR_wheel_link,-0.3767827477051655,0.8072128486665935,-1.1713051674050707,-0.02458212405642201,0.012703513370135047,0.01696924334058581
1788334000000,12578,1788334000000,BR_wheel_link,0.022907498131261514,-0.003099093529832525,0.016064790584038195,0.00014178097815904626,-0.0003925892191007453,-0.0005094343860248766
1788335000000,12579,1788335000000,BR_wheel_link,0.35566803895891697,0.8201327558009994,-0.07228306950403757,0.024440492279341603,-0.01231091446652994,-0.016460843480446945
1788336000000,12580,1788336000000,BR_wheel_link,-0.37680631847496565,0.8072098373733181,-1.171316574622707,-0.024582400712355408,0.012704267219398466,0.01697005573021443
1788337000000,12581,1788337000000,BR_wheel_link,0.02290765577436109,-0.0031005862625387466,0.01606629187178075,0.00014176380415431008,-0.00039262280991291947,-0.0005094364361559301
1788338000000,12582,1788338000000,BR_wheel_link,0.35569516836101867,0.8201378030073436,-0.07227231358328902,0.024440785223000017,-0.012311635232977732,-0.01646165653490246
1788339000000,12583,1788339000000,BR_wheel_link,-0.37682967799916073,0.8072069887084183,-1.1713280012850915,-0.02458267808187989,0.012705016261462244,0.016970884921188492
1788340000000,12584,1788340000000,BR_wheel_link,0.022907807673495914,-0.003102028685064353,0.016067783213568665,0.00014174889251048476,-0.0003926562471983956,-0.0005094397520690444
1788341000000,12585,1788341000000,BR_wheel_link,0.3557222278221705,0.8201431040422023,-0.07226162935028776,0.02444108511346667,-0.01231235494898278,-0.016462472330238908
1788342000000,12586,1788342000000,BR_wheel_link,-0.3768533076654656,0.8072037167259558,-1.1713394889314972,-0.02458296044494409,0.012705772714109165,0.01697169731535058
1788343000000,12587,1788343000000,BR_wheel_link,0.022907963062728687,-0.0031035112544954982,0.01606928194317459,0.0001417324090152599,-0.0003926897884694121,-0.0005094424935520053
1788344000000,12588,1788344000000,BR_wheel_link,0.3557493248842717,0.8201482224981984,-0.07225089053372,0.024441380020692065,-0.012313074957640491,-0.016463286046837205
1788345000000,12589,1788345000000,BR_wheel_link,-0.37687695712127856,0.8072005665136631,-1.171350931778768,-0.02458323931079225,0.012706528969883106,0.016972506258908598
1788346000000,12590,1788346000000,BR_wheel_link,0.02290812234979626,-0.0031050087989891394,0.016070785927014473,0.00014171508939449186,-0.0003927234545578264,-0.0005094446001924087
1788347000000,12591,1788347000000,BR_wheel_link,0.35577646981212185,0.8201532388050289,-0.07224011700779231,0.024441672216069663,-0.012313795920984938,-0.016464099014613254
1788348000000,12592,1788348000000,BR_wheel_link,-0.3769003757516714,0.8071976957972367,-1.1713623598353835,-0.024583516292914973,0.012707279436689032,0.016973331776480194
1788349000000,12593,1788349000000,BR_wheel_link,0.02290827753682663,-0.0031064608021143768,0.016072281919445694,0.00014169970178998896,-0.00039275701669566816,-0.0005094476540023346
1788350000000,12594,1788350000000,BR_wheel_link,0.3558035660333351,0.8201584700580395,-0.07222940258448457,0.024441970323246676,-0.012314516305495129,-0.016464914464749635
1788351000000,12595,1788351000000,BR_wheel_link,-0.3769239275565357,0.8071945501475384,-1.1713738435256327,-0.024583797529451206,0.012708033933005783,0.01697415037632972
1788352000000,12596,1788352000000,BR_wheel_link,0.022908433184641187,-0.0031079255343757065,0.01607377984003924,0.00014168392978342775,-0.0003927905975778576,-0.0005094507348736304
1788353000000,12597,1788353000000,BR_wheel_link,0.3558306641584041,0.8201636541803237,-0.07221867305172934,0.024442267144395995,-0.012315236496074824,-0.01646572929815223
1788354000000,12598,1788354000000,BR_wheel_link,-0.3769475997645942,0.8071913372143736,-1.1713853144446744,-0.02458407789891771,0.012708791132574584,0.016974959650298854
1788355000000,12599,1788355000000,BR_wheel_link,0.022908593206224414,-0.0031094180930984648,0.016075284719495948,0.0001416668688794601,-0.0003928243139854337,-0.0005094530781744991
1788356000000,12600,1788356000000,BR_wheel_link,0.3558578142351347,0.8201686855825477,-0.07220789514649989,0.02444255985069871,-0.01231595754422174,-0.016466542701335754
1788357000000,12601,1788357000000,BR_wheel_link,-0.37697109451883615,0.8071883953064397,-1.1713967554212732,-0.024584355386767315,0.012709543602273495,0.01697578080651166
1788358000000,12602,1788358000000,BR_wheel_link,0.02290875137282321,-0.003110880271195396,0.016076785145969007,0.00014165101939685564,-0.0003928579912489287,-0.0005094559255397263
1788359000000,12603,1788359000000,BR_wheel_link,0.3558849430637959,0.8201738491724531,-0.07219715162694493,0.0244428562236534,-0.01231667848227971,-0.016467357776927097
1788360000000,12604,1788360000000,BR_wheel_link,-0.3769946052757324,0.8071853424554798,-1.1714082344319632,-0.02458463553046216,0.012710297015706841,0.0169766028580993
1788361000000,12605,1788361000000,BR_wheel_link,0.02290890821486791,-0.0031123351010296017,0.016078283883950672,0.00014163560712253343,-0.0003928916383862664,-0.0005094591574260992
1788362000000,12606,1788362000000,BR_wheel_link,0.3559120535038823,0.8201790588712039,-0.0721864196636427,0.024443153865587763,-0.01231739902052865,-0.01646817330479505
1788363000000,12607,1788363000000,BR_wheel_link,-0.3770182635896908,0.8071821287890251,-1.1714197242026816,-0.02458491662451541,0.012711054136578272,0.01697741472823311
1788364000000,12608,1788364000000,BR_wheel_link,0.022909068636091476,-0.0031138173576497736,0.016079788826938515,0.00014161900619593645,-0.00039292539648911587,-0.0005094618038628269
1788365000000,12609,1788365000000,BR_wheel_link,0.3559392052815017,0.8201841281231402,-0.07217564376343638,0.02444344771012267,-0.012318120149558286,-0.016468987426850924
1788366000000,12610,1788366000000,BR_wheel_link,-0.3770418262241332,0.8071791058002832,-1.1714311843653176,-0.024585195063429027,0.012711808502593284,0.01697823244402401
1788367000000,12611,1788367000000,BR_wheel_link,0.022909229183784463,-0.003115286351447283,0.016081292806639922,0.00014160286475708506,-0.0003929591714418104,-0.0005094645604975551
1788368000000,12612,1788368000000,BR_wheel_link,0.35596635935254795,0.8201892437170236,-0.07216487714351773,0.024443742880040996,-0.012318841505014128,-0.016469802308263587
1788369000000,12613,1788369000000,BR_wheel_link,-0.3770653318970244,0.8071760997248538,-1.1714426626025505,-0.024585474492338555,0.01271256175681903,0.016979055478299688
1788370000000,12614,1788370000000,BR_wheel_link,0.02290938785722676,-0.0031167378309297604,0.01608279359373408,0.0001415875375762006,-0.00039299290248602726,-0.0005094678153493193
1788371000000,12615,1788371000000,BR_wheel_link,0.3559934895025126,0.8201944477978832,-0.07215413378450829,0.024444040489455646,-0.01231956247856749,-0.016470618182141624
1788372000000,12616,1788372000000,BR_wheel_link,-0.37708912488457713,0.8071729294741612,-1.1714542199844584,-0.02458575425936597,0.01271332151221359,0.01697987521316313
1788373000000,12617,1788373000000,BR_wheel_link,0.02290955972937159,-0.003118195569656723,0.01608430243285,0.00014157237662667824,-0.00039302726440562544,-0.0005094725769718906
1788374000000,12618,1788374000000,BR_wheel_link,0.35602078253617186,0.8201996410198787,-0.07214332096325501,0.024444338523316577,-0.012320287367353615,-0.016471436028715786
1788375000000,12619,1788375000000,BR_wheel_link,-0.3771133025528502,0.8071695357973425,-1.171465805453347,-0.024586035903727353,0.012714090116135373,0.016980674844347298
1788376000000,12620,1788376000000,BR_wheel_link,0.02290974795343066,-0.0031197231200251413,0.016085832958509697,0.00014155403862500923,-0.0003930621979346884,-0.0005094758406207549
1788377000000,12621,1788377000000,BR_wheel_link,0.35604824833735954,0.8202044320795376,-0.0721323639698881,0.02444462588606174,-0.012321015333635946,-0.0164722504623619
1788378000000,12622,1788378000000,BR_wheel_link,-0.3771368095031708,0.8071669741835754,-1.1714773249046357,-0.024586311127448576,0.012714841973758422,0.01698151893493032
1788379000000,12623,1788379000000,BR_wheel_link,0.02290992768017564,-0.0031211285991561005,0.016087343810382574,0.00014154084038966365,-0.0003930968993437419,-0.0005094815853443077
1788380000000,12624,1788380000000,BR_wheel_link,0.3560755937564151,0.8202097849553065,-0.07212155609207281,0.024444928738034492,-0.012321741893381581,-0.01647307135894562
1788381000000,12625,1788381000000,BR_wheel_link,-0.37716055235315527,0.8071637744569791,-1.1714889883842339,-0.02458659768263255,0.01271560194400958,0.0169823519717371
1788382000000,12626,1788382000000,BR_wheel_link,0.022910106387557617,-0.0031225452003173114,0.01608885520242974,0.00014152764816486517,-0.00039313156325735006,-0.0005094879726172558
1788383000000,12627,1788383000000,BR_wheel_link,0.35610290631039554,0.8202151271193433,-0.07211074122708824,0.02444523127442141,-0.012322467259682546,-0.01647389162814752
1788384000000,12628,1788384000000,BR_wheel_link,-0.37718470432231854,0.807160227073029,-1.1715006390063243,-0.02458688414579312,0.012716371736324545,0.016983153887892004
1788385000000,12629,1788385000000,BR_wheel_link,0.022910297392352483,-0.003124050151401778,0.016090386847131998,0.0001415105037610218,-0.0003931665838468596,-0.0005094922377442461
1788386000000,12630,1788386000000,BR_wheel_link,0.35613035765277373,0.8202200054795236,-0.07209978372884844,0.024445521239037545,-0.012323194685841738,-0.01647470716044248
1788387000000,12631,1788387000000,BR_wheel_link,-0.37720840454173027,0.8071574234766119,-1.171512188368467,-0.024587161735963398,0.012717129208300038,0.01698398431605008
1788388000000,12632,1788388000000,BR_wheel_link,0.022910484760318234,-0.003125485280868071,0.016091908566218786,0.00014149605348682428,-0.0003932015203269508,-0.0005094974932785583
1788389000000,12633,1788389000000,BR_wheel_link,0.35615776591146997,0.8202251790372147,-0.07208890380060762,0.02444581938398076,-0.012323922016139525,-0.016475526422087217
1788390000000,12634,1788390000000,BR_wheel_link,-0.3772320445638692,0.8071544548208698,-1.1715238216730728,-0.02458744519238719,0.012717886502650929,0.016984823493521182
1788391000000,12635,1788391000000,BR_wheel_link,0.022910666340312028,-0.003126884932679974,0.016093421802382265,0.000141483436978655,-0.0003932362965074956,-0.0005095040637471534
1788392000000,12636,1788392000000,BR_wheel_link,0.35618509837860673,0.8202305581049482,-0.07207808275833219,0.024446123117764864,-0.012324647891245825,-0.01647634762441463
1788393000000,12637,1788393000000,BR_wheel_link,-0.3772561088450683,0.807150966572443,-1.1715354979784562,-0.024587732658121964,0.012718654657581095,0.016985633575836774
1788394000000,12638,1788394000000,BR_wheel_link,0.022910856293094466,-0.0031283618905679185,0.016094950559670647,0.0001414675490580373,-0.00039327131665037513,-0.0005095090888353949
1788395000000,12639,1788395000000,BR_wheel_link,0.35621252724362173,0.8202355597495158,-0.07206714956438857,0.024446416568408284,-0.0123253749848878,-0.01647716475386251
1788396000000,12640,1788396000000,BR_wheel_link,-0.3772799726530687,0.8071479393053459,-1.1715470864422812,-0.024588012835633218,0.01271941665281313,0.016986454441645153
1788397000000,12641,1788397000000,BR_wheel_link,0.022911047376209984,-0.0031298186684042524,0.01609647856929196,0.000141452219158801,-0.00039330638795050967,-0.0005095140279906132
1788398000000,12642,1788398000000,BR_wheel_link,0.3562399736324328,0.8202406173294857,-0.07205622656333129,0.024446711648635,-0.012326102809882722,-0.01647798300790594
1788399000000,12643,1788399000000,BR_wheel_link,-0.3773036134827957,0.8071450673843696,-1.1715587015897735,-0.0245882942050448,0.012720173645702134,0.016987293404958057
1788400000000,12644,1788400000000,BR_wheel_link,0.0229112319582407,-0.0031312206978535524,0.01609799549176925,0.00014143937052384206,-0.000393341284349908,-0.0005095203761611504
1788401000000,12645,1788401000000,BR_wheel_link,0.3562673409827436,0.8202459545909713,-0.07204538321448316,0.024447014374497117,-0.012326829426057033,-0.016478804249686903
1788402000000,12646,1788402000000,BR_wheel_link,-0.37732756963803926,0.807141714056831,-1.171570382897326,-0.024588581049595517,0.012720939199625464,0.016988112517036105
1788403000000,12647,1788403000000,BR_wheel_link,0.022911420704107094,-0.003132671115811023,0.01609952122967449,0.00014142460537162026,-0.0003933763037845563,-0.0005095259882125387
1788404000000,12648,1788404000000,BR_wheel_link,0.35629475449025855,0.8202510708191632,-0.07203447467231099,0.024447311061123113,-0.012327556433598667,-0.01647962297686288
1788405000000,12649,1788405000000,BR_wheel_link,-0.3773515291509959,0.807138525992461,-1.171582010006143,-0.024588863635369874,0.012721704006434492,0.016988928958850416
1788406000000,12650,1788406000000,BR_wheel_link,0.02291161344891647,-0.0031341355527074533,0.016101052206107896,0.00014140901314031368,-0.00039341145213873734,-0.0005095309288060371
1788407000000,12651,1788407000000,BR_wheel_link,0.3563222181909428,0.8202560861305921,-0.0720235317830703,0.024447605074262066,-0.012328284477498617,-0.016480441009734916
1788408000000,12652,1788408000000,BR_wheel_link,-0.37737523124059374,0.8071356399939269,-1.1715936237498812,-0.0245891443626654,0.012722462391488639,0.01698976405683301
1788409000000,12653,1788409000000,BR_wheel_link,0.022911801356391953,-0.003135548400312541,0.016102573909133493,0.00014139562312892208,-0.0003934464757896457,-0.0005095369636399387
1788410000000,12654,1788410000000,BR_wheel_link,0.35634962444283663,0.8202613476222558,-0.07201265723252416,0.024447905850010526,-0.012329011816616064,-0.016481261855783982
1788411000000,12655,1788411000000,BR_wheel_link,-0.3773990977203495,0.8071324285094216,-1.17160530015837,-0.024589429946763292,0.012723225657495221,0.0169905902900917
1788412000000,12656,1788412000000,BR_wheel_link,0.022911990019206394,-0.0031369787219496124,0.016104098272574086,0.0001413816645355116,-0.0003934815260370352,-0.0005095429576961615
1788413000000,12657,1788413000000,BR_wheel_link,0.3563770359619829,0.8202665414543193,-0.07200176197602376,0.024448204773335463,-0.012329738976701945,-0.016482081834367425
1788414000000,12658,1788414000000,BR_wheel_link,-0.37742308825868376,0.807129161858796,-1.171616958282789,-0.02458971425828303,0.012723991629681002,0.016991406654352788
1788415000000,12659,1788415000000,BR_wheel_link,0.022912183449804016,-0.0031384391231142617,0.01610563017049842,0.00014136629891674338,-0.00039351672352840343,-0.000509548128325905
1788416000000,12660,1788416000000,BR_wheel_link,0.3564045046622269,0.8202715690090693,-0.07199081435375002,0.02444849921531933,-0.012330467095765262,-0.01648290026187282
1788417000000,12661,1788417000000,BR_wheel_link,-0.3774468731593513,0.8071262009917366,-1.1716285840099878,-0.024589995430065653,0.012724752152659285,0.016992236883157593
1788418000000,12662,1788418000000,BR_wheel_link,0.022912374518623182,-0.003139863787702507,0.016107156609881112,0.00014135237157382393,-0.0003935518678127665,-0.0005095539119404865
1788419000000,12663,1788419000000,BR_wheel_link,0.35643194603448913,0.8202767545256723,-0.07197990848561041,0.024448798029479114,-0.01233119503265114,-0.016483720650721193
1788420000000,12664,1788420000000,BR_wheel_link,-0.37747068866598876,0.807123097140906,-1.1716402540112711,-0.024590279761569505,0.012725514063463065,0.016993067243508714
1788421000000,12665,1788421000000,BR_wheel_link,0.022912564253680875,-0.0031412825068772863,0.016108681493383122,0.0001413388410463753,-0.0003935869811214393,-0.0005095600851833561
1788422000000,12666,1788422000000,BR_wheel_link,0.3564593684255477,0.8202819817335342,-0.07196901307787222,0.024449097988151557,-0.012331922532157119,-0.016484541418514267
1788423000000,12667,1788423000000,BR_wheel_link,-0.37749466658212444,0.8071198227436951,-1.1716519330536461,-0.02459056495428673,0.012726280015208024,0.016993886231713325
1788424000000,12668,1788424000000,BR_wheel_link,0.02291275802783336,-0.003142732256675091,0.016110213353874456,0.00014132395756471809,-0.00039362221846808785,-0.0005095655793156352
1788425000000,12669,1788425000000,BR_wheel_link,0.3564868377131921,0.8202870496218659,-0.07195806821712153,0.02444939363529512,-0.012332650708885486,-0.016485360585710145
1788426000000,12670,1788426000000,BR_wheel_link,-0.377518527420672,0.8071167718270538,-1.1716635783795344,-0.02459084712840512,0.012727042634503692,0.016994712452480482
1788427000000,12671,1788427000000,BR_wheel_link,0.022910396698743715,0.1597033760430705,-0.0008746283151427586,-0.05758597996770891,-0.0003939782331716015,-0.0005087769811621505
1788428000000,12672,1788428000000,BR_wheel_link,0.06649274041790379,2.971238609805292,-0.7593041815480202,-0.037008503272632554,0.006299039151480552,0.01838205970784237
1788429000000,12673,1788429000000,BR_wheel_link,-0.14116554917707527,-0.0865876324271331,0.09710772110000725,-0.06600217476908372,-0.003388893977164244,-0.035605307067157387
1788430000000,12674,1788430000000,BR_wheel_link,-0.06142836460944663,1.2098960219271213,-0.3033575399158498,-0.012084612849408819,0.007477833898277894,0.03607243292447042
1788431000000,12675,1788431000000,BR_wheel_link,0.02638978421595978,0.07306208077755905,0.030140822830132065,0.0025344391139326653,-0.0008588233340368998,0.00022949426781718418
1788432000000,12676,1788432000000,BR_wheel_link,-0.030028361748020274,-0.577418797758319,0.11898876435875676,-0.012425851299927812,-0.004376370604425257,-0.03706532571814762
1788433000000,12677,1788433000000,BR_wheel_link,-0.2757128437863976,1.5918114440052973,-0.373944554867133,-0.00616137641351101,0.010048506044663435,0.031106682841481027
1788434000000,12678,1788434000000,BR_wheel_link,0.4631943909370292,1.1712934606609267,0.1094313302745733,0.036060817918752354,-0.012315718010792266,-0.01972936013255491
1788435000000,12679,1788435000000,BR_wheel_link,-0.12088591013406137,0.312918458193202,-0.3117072972913764,-0.03452322238087837,0.00557169865419961,0.010814139004675647
1788436000000,12680,1788436000000,BR_wheel_link,0.21866023757207384,1.0253642349920533,0.046747709294162665,0.023484601597825464,-0.00994818962687669,-0.013092712449752731
1788437000000,12681,1788437000000,BR_wheel_link,-0.1490488167954759,0.32303476463913716,-0.41475476099136893,-0.02460860820897125,0.009495006742816123,0.026509228237581346
1788438000000,12682,1788438000000,BR_wheel_link,0.436893543279367,1.1649377127654734,-0.0220752279597558,0.035005982118476754,-0.013507907773087482,-0.02154797443665149
1788439000000,12683,1788439000000,BR_wheel_link,-0.32489377435184663,0.7451369122617214,-0.9757347766695824,-0.024750093561043966,0.013289798474187218,0.014502582854504616
1788440000000,12684,1788440000000,BR_wheel_link,0.029418637159189857,0.01960403998632304,0.02289988012770767,0.0007151174657304948,-0.00043100854701561843,-0.0007320014201087837
1788441000000,12685,1788441000000,BR_wheel_link,0.3749664465447176,0.7483310758528682,-0.021132535942493546,0.022742800311333355,-0.011921528771363227,-0.015473768749167493
1788442000000,12686,1788442000000,BR_wheel_link,-0.3268533417548648,0.8069034483750703,-1.063204482408649,-0.02624091834201024,0.011320445527520592,0.014208267235306571
1788443000000,12687,1788443000000,BR_wheel_link,0.024086233814550596,0.02037554938556127,0.01973723304358581,0.0006542335571424116,-0.0004047524350091385,-0.0005249749208643583
1788444000000,12688,1788444000000,BR_wheel_link,0.35583142863780487,0.7878663769012746,-0.0537602152952842,0.02368862102957811,-0.011926709284290826,-0.01585871697111301
1788445000000,12689,1788445000000,BR_wheel_link,-0.27118300786789595,0.9293435393114196,-1.178877720122548,-0.024181233312882196,0.01113334557039953,0.02086365769754571
1788446000000,12690,1788446000000,BR_wheel_link,0.019042503232413147,0.01988235306709225,0.017105024627237047,0.0007966190738177715,-0.0003729766020285799,-0.0006034304219667164
1788447000000,12691,1788447000000,BR_wheel_link,0.32269725395605225,0.8425019212727329,-0.08537660552037013,0.025070303915018844,-0.011427506033956494,-0.016242040293837627
1788448000000,12692,1788448000000,BR_wheel_link,-0.27834522604134065,0.8073077820182865,-1.1851411556441787,-0.024971382571676894,0.011383127309557095,0.018302013378148692
1788449000000,12693,1788449000000,BR_wheel_link,0.009033362540189806,0.016065969769680204,0.01270432382599345,0.0006704328396295315,-0.00024242086488910212,-0.0005203305311577696
1788450000000,12694,1788450000000,BR_wheel_link,0.2941373584108155,0.844697663645688,-0.10281129720210394,0.02498960687215097,-0.01084047405165137,-0.015930509863582437
1788451000000,12695,1788451000000,BR_wheel_link,-0.2911925198643558,0.7923923946287305,-1.1851044545681637,-0.024466812067254443,0.011393419744396904,0.01747352923490492
1788452000000,12696,1788452000000,BR_wheel_link,0.012596049208263528,0.009186544775218464,0.011618888451162492,0.0005275851721524531,-0.0001878544065871349,-0.0005058119793314826
1788453000000,12697,1788453000000,BR_wheel_link,0.29043180222905096,0.8435092434569994,-0.10829041884818005,0.024927564665511628,-0.010825874935681223,-0.015875310428769593
1788454000000,12698,1788454000000,BR_wheel_link,-0.2960267283728256,0.7790023566750462,-1.190847884256451,-0.024608251250622624,0.011460056294202492,0.017220618818276107
1788455000000,12699,1788455000000,BR_wheel_link,0.012713060904327327,0.007754027857201035,0.011400950159748563,0.0004913344133925032,-0.00017296429367808972,-0.0005012906992217922
1788456000000,12700,1788456000000,BR_wheel_link,0.2909938783300219,0.8437113886476781,-0.11039416526184287,0.02493675702952027,-0.01088012989534037,-0.01588257656813695
1788457000000,12701,1788457000000,BR_wheel_link,-0.31550223480969736,0.8148514910920752,-1.1842496898528379,-0.023626072853259246,0.011736815227642347,0.017947795210963124
1788458000000,12702,1788458000000,BR_wheel_link,0.014893810330371087,0.0005105558630522902,0.01243240923358236,0.00026928006286301937,-0.0002104182185223876,-0.0005451348218596672
1788459000000,12703,1788459000000,BR_wheel_link,0.31380654397916496,0.844333368406036,-0.10389730246355221,0.02504986361916855,-0.01148820709144272,-0.016170014412267102
1788460000000,12704,1788460000000,BR_wheel_link,-0.29667492400142703,-0.455078281151271,-0.4961285442531149,-0.04577054580789958,0.010486506152601063,0.01106041928489154
1788461000000,12705,1788461000000,BR_wheel_link,0.2832852404317703,1.3029338389018619,-0.18930357020650898,0.033241100123271965,-0.014363343709353642,-0.018345890823890522
1788462000000,12706,1788462000000,BR_wheel_link,-0.2991828258238499,-0.12917400151852562,-0.5298299911389744,-0.033559773885039855,0.012558994595607505,0.025391602507042085
1788463000000,12707,1788463000000,BR_wheel_link,0.2548305687000135,1.3699864528748824,-0.24448796818112437,0.03971431247468058,-0.011772212041685222,-0.02289587160660933
1788464000000,12708,1788464000000,BR_wheel_link,-0.33169592432654926,-0.2996650556061891,-0.6085765372930787,-0.03938512107442965,0.014379168929757751,0.025113310636708734
1788465000000,12709,1788465000000,BR_wheel_link,0.3175757166963824,1.4168489501669426,-0.24062872261470966,0.04134816908213208,-0.013659872511886825,-0.02458047524326745
1788466000000,12710,1788466000000,BR_wheel_link,-0.33486728741954086,-0.34658678289164996,-0.6274295137141491,-0.040938367865514726,0.014818525635395065,0.024866080571164084
1788467000000,12711,1788467000000,BR_wheel_link,0.3206562464394489,1.4249476432282917,-0.2528083820953243,0.041563096507909444,-0.013979978010660862,-0.024861339994271363
1788468000000,12712,1788468000000,BR_wheel_link,-0.32868821563510175,-0.3510002299156294,-0.6273364518545358,-0.04101053604272564,0.014827571625171065,0.024520425905386316
1788469000000,12713,1788469000000,BR_wheel_link,0.31275185805410194,1.415074867958927,-0.2635953313542705,0.041209691849623774,-0.013939534602677474,-0.024691862984129804
1788470000000,12714,1788470000000,BR_wheel_link,-0.3203429856786068,-0.33998841756037995,-0.6208487792670795,-0.04060026789962755,0.014692227218038032,0.024246711906219555
1788471000000,12715,1788471000000,BR_wheel_link,0.3063227825468058,1.3992010007823383,-0.27008662841301545,0.04069745991881319,-0.013870501202387402,-0.02441877370001291
1788472000000,12716,1788472000000,BR_wheel_link,-0.3128477083142353,-0.3252070240255467,-0.6132305086565971,-0.04010638435054275,0.014534185581619289,0.024077332917572195
1788473000000,12717,1788473000000,BR_wheel_link,0.3028978999845321,1.383720493524058,-0.2734370591807578,0.04021881857425702,-0.013837219571050899,-0.024167232692761293
1788474000000,12718,1788474000000,BR_wheel_link,-0.3071035753052228,-0.3116100683296891,-0.606504844473012,-0.03967800252857372,0.014400443471183796,0.02399092755492043
1788475000000,12719,1788475000000,BR_wheel_link,0.30163330689759293,1.3711004878430122,-0.2750875249144561,0.03984018005796226,-0.013837360224083703,-0.023972511101797985
1788476000000,12720,1788476000000,BR_wheel_link,-0.30311387288132674,-0.30104959312329393,-0.6012257206739,-0.039356083534521254,0.014303600987955606,0.023954588696787845
1788477000000,12721,1788477000000,BR_wheel_link,0.30151917189137645,1.3618113317138112,-0.2760391965366435,0.03956899967692021,-0.013857056198837092,-0.023835189985822385
1788478000000,12722,1788478000000,BR_wheel_link,-0.3004686146745092,-0.2938434766552117,-0.5973191007698778,-0.03913642400354408,0.01424121033168869,0.023937574951916694
1788479000000,12723,1788479000000,BR_wheel_link,0.3018196705115139,1.355396500859555,-0.2768577510608822,0.03938690672955305,-0.013883994639954222,-0.02374258635179302
1788480000000,12724,1788480000000,BR_wheel_link,-0.29878787080776065,-0.28921587465643844,-0.5944707318233495,-0.038994530665869276,0.014205360457167276,0.02393057374760111
1788481000000,12725,1788481000000,BR_wheel_link,0.3021677390448005,1.351145651271262,-0.2777858822805923,0.03927047196434861,-0.013911841961065874,-0.023681740830300686
1788482000000,12726,1788482000000,BR_wheel_link,-0.2977473346108496,-0.2865498635848096,-0.5923745087246156,-0.03890827408866023,0.01418835889399634,0.023924848856296723
1788483000000,12727,1788483000000,BR_wheel_link,0.30240442646322446,1.3484026891939414,-0.27890114454223214,0.03919903832891945,-0.013937768080370182,-0.02364191101026095
1788484000000,12728,1788484000000,BR_wheel_link,-0.2971029650218453,-0.2852088928777603,-0.5907727451187721,-0.03885860318268848,0.014183742818713686,0.023917597256330456
1788485000000,12729,1788485000000,BR_wheel_link,0.3024899464365789,1.34663641007296,-0.280197504612896,0.039156396358366305,-0.013961031936661504,-0.023615147347966686
1788486000000,12730,1788486000000,BR_wheel_link,-0.2966988089314701,-0.2847729193610455,-0.5894825432943579,-0.03883231794160404,0.014186940316909983,0.02390709326998674
1788487000000,12731,1788487000000,BR_wheel_link,0.3024360116660588,1.3454818879623212,-0.2816421859602729,0.039131558984678856,-0.013981859548858845,-0.023596192081958983
1788488000000,12732,1788488000000,BR_wheel_link,-0.2964348355679761,-0.28490130024473154,-0.5883784846465713,-0.038820093414461444,0.01419481701612877,0.02389378012629856
1788489000000,12733,1788489000000,BR_wheel_link,0.3022733094202742,1.34469296212223,-0.2831960496673372,0.039117230730006364,-0.014000816134055839,-0.0235816756391541
1788490000000,12734,1788490000000,BR_wheel_link,-0.2962489413204006,-0.28535380286496254,-0.5873791582268382,-0.03881578691450783,0.014205334482023022,0.023878583956092422
1788491000000,12735,1788491000000,BR_wheel_link,0.3020342766321328,1.3441103140205934,-0.2848242689314513,0.03910876595273273,-0.014018490516905955,-0.023569539108005695
1788492000000,12736,1788492000000,BR_wheel_link,-0.29610193502984683,-0.2859729020145721,-0.5864338726285626,-0.03881555800663983,0.01421721285375702,0.023862321098747207
1788493000000,12737,1788493000000,BR_wheel_link,0.30174703114668455,1.343632900154555,-0.28649879328300104,0.039103272578009204,-0.014035382461021269,-0.023558565460820233
1788494000000,12738,1788494000000,BR_wheel_link,-0.29597457486672274,-0.2866798542088488,-0.5855144651573115,-0.0388173299325236,0.014229746989820134,0.023845357884412707
1788495000000,12739,1788495000000,BR_wheel_link,0.3014309061293373,1.3432061472074883,-0.28820107926136945,0.03909920609354835,-0.014051832972468419,-0.02354811835144751
1788496000000,12740,1788496000000,BR_wheel_link,-0.29585969403216134,-0.2874328467991708,-0.5846065497799183,-0.03882003475244116,0.014242583241795344,0.023828042207050662
1788497000000,12741,1788497000000,BR_wheel_link,0.30111582305215545,1.3428065515281573,-0.28990036948896347,0.039096070277939515,-0.014068236150267019,-0.023538082525483867
1788498000000,12742,1788498000000,BR_wheel_link,-0.2957591558847087,-0.2882117539453061,-0.58370888515445,-0.038823533444032686,0.014255705474564274,0.023810955671005874
1788499000000,12743,1788499000000,BR_wheel_link,0.300767687105873,1.342442723086415,-0.2916301572998344,0.03909384845110683,-0.01408414453136193,-0.023528246976303433
1788500000000,12744,1788500000000,BR_wheel_link,-0.29913879473588184,-0.3139755041916341,-0.5238697422310037,-0.03956619485048037,0.012404060391456005,0.014834816994370711
1788501000000,12745,1788501000000,BR_wheel_link,0.22662009546962522,1.1826694025923603,-0.2912768404409415,0.03402608566863602,-0.011865062162395527,-0.02011567010379326
1788502000000,12746,1788502000000,BR_wheel_link,-0.30902442099794153,-0.13553712808347648,-0.5184731318094007,-0.03459424398491346,0.012593763657522652,0.01821873991393217
1788503000000,12747,1788503000000,BR_wheel_link,0.2664814236450611,1.1453667327622403,-0.2688535868472968,0.033097786281456175,-0.012788160826971696,-0.01999916142460509
1788504000000,12748,1788504000000,BR_wheel_link,-0.2762730934886689,-0.13897287722821644,-0.5247535397386054,-0.034351501313786496,0.012891243001144578,0.02471951011657419
1788505000000,12749,1788505000000,BR_wheel_link,0.32059047087804426,1.264701694928516,-0.2688025966531746,0.03690532973677508,-0.014379816104757744,-0.022444338234230726
1788506000000,12750,1788506000000,BR_wheel_link,-0.2991817991267625,-0.23517428970808976,-0.560404931891609,-0.037359369300605884,0.013836808754990045,0.024384342948943608
1788507000000,12751,1788507000000,BR_wheel_link,0.23504274773541695,1.315302078337604,-0.40789343286893304,0.037515408486266444,-0.01431086185347895,-0.022589869455345878
1788508000000,12752,1788508000000,BR_wheel_link,-0.27713206638308124,-0.23230953169348145,-0.5427363216071813,-0.03608481419000479,0.013368499051728346,0.023041006337396922
1788509000000,12753,1788509000000,BR_wheel_link,0.21422743019735815,1.2713046772467063,-0.37565545382564147,0.03641584072302902,-0.012970695788969921,-0.021583752817173153
1788510000000,12754,1788510000000,BR_wheel_link,-0.2599563975693011,-0.24200753300842426,-0.5371110901953604,-0.035940492135285586,0.013228761614292118,0.02217826355967749
1788511000000,12755,1788511000000,BR_wheel_link,0.2708927059047308,1.2585227526671467,-0.30215481166202485,0.036611826318410534,-0.013321174588331312,-0.0218822004654576
1788512000000,12756,1788512000000,BR_wheel_link,-0.2668421838000281,-0.27848282842274025,-0.5537377766339022,-0.03749249334967295,0.013673569586923968,0.021169384548076136
1788513000000,12757,1788513000000,BR_wheel_link,0.33087077981123736,1.323846008835353,-0.2714088474850385,0.03883904090758611,-0.01455856130660178,-0.02323163049640135
1788514000000,12758,1788514000000,BR_wheel_link,0.11072526517014267,-0.6829231686420998,-0.030367822706674236,-0.04951595543268473,-0.004876931753983452,-0.0007814813101116895
1788515000000,12759,1788515000000,BR_wheel_link,-0.28213617829657217,0.9743914862325309,-0.4282599843574461,0.025563574436550385,0.0017056745165459426,-0.009905447847040078
1788516000000,12760,1788516000000,BR_wheel_link,-0.12815874744797354,0.07423145773774503,-0.24521990714014305,-0.02511777759122467,0.00434644818371022,0.011081609813705089
1788517000000,12761,1788517000000,BR_wheel_link,0.08105918679551109,1.0735996191394694,-0.31477344007831703,0.03017055717176021,-0.007744334196435198,-0.016088395102260546
1788518000000,12762,1788518000000,BR_wheel_link,-0.21421622475370103,-0.11321778757876631,-0.36500170553245725,-0.03510802447444851,0.007317405498353919,0.014612487731721469
1788519000000,12763,1788519000000,BR_wheel_link,0.07484570607303,1.1315915880002643,-0.35943944626335034,0.03173172443019796,-0.008303622975511564,-0.016945708441630236
1788520000000,12764,1788520000000,BR_wheel_link,-0.32202997091066643,-0.02669284172884257,-0.5197117973265027,-0.030859654432819367,0.012909599756255741,0.020458547109061087
1788521000000,12765,1788521000000,BR_wheel_link,0.36662156039757404,1.1321097408241925,-0.21555836663545447,0.02795823729110991,-0.018146233329291984,-0.01743605302634868
1788522000000,12766,1788522000000,BR_wheel_link,-0.2485760268195491,-0.1754644970491953,-0.4667784120373792,-0.030705665064930922,0.011713016857430734,0.020563623319617214
1788523000000,12767,1788523000000,BR_wheel_link,0.237517824692281,1.278956904997419,-0.2989419249761294,0.037247263042187125,-0.012081499408543962,-0.021395169659700442
1788524000000,12768,1788524000000,BR_wheel_link,-0.311246923609783,-0.2851645739041371,-0.5573183567339187,-0.03778379098916086,0.014176199115371386,0.024123125865918492
1788525000000,12769,1788525000000,BR_wheel_link,0.3150181717721199,1.3545809956458947,-0.2876876465167306,0.0398085177980398,-0.014293849509104228,-0.02350657272270722
1788526000000,12770,1788526000000,BR_wheel_link,-0.31549299020464877,-0.3785007457126862,-0.5835175540339057,-0.04058488858176804,0.01473336784433701,0.022113909572735877
1788527000000,12771,1788527000000,BR_wheel_link,0.30553709572200516,1.3645466429656419,-0.30195384437822975,0.040000359596765206,-0.01423257046564816,-0.023471069175341752
1788528000000,12772,1788528000000,BR_wheel_link,-0.3125715713308877,-0.3528722196413783,-0.5815609009191842,-0.04001011712768462,0.014806405463956436,0.023526340438446945
1788529000000,12773,1788529000000,BR_wheel_link,0.30613831874272945,1.3771032850675007,-0.3122824987288802,0.04035590532822229,-0.014438436708003547,-0.023774451598531414
1788530000000,12774,1788530000000,BR_wheel_link,-0.3109775821634283,-0.3529079765247194,-0.5841181713726803,-0.040224555846063055,0.01489429453095924,0.02354554719723321
1788531000000,12775,1788531000000,BR_wheel_link,0.3025559235044871,1.375879912000925,-0.31915175346215496,0.040293672696599794,-0.014453495140316536,-0.023744019860232272
1788532000000,12776,1788532000000,BR_wheel_link,-0.3068159761031033,-0.34556308065515245,-0.581384718985752,-0.04004613809554841,0.014847374000088752,0.023462917655472877
1788533000000,12777,1788533000000,BR_wheel_link,0.29885379673533385,1.3685053292969105,-0.3234822520686086,0.0400567185939156,-0.014423033927454872,-0.023610118123757684
1788534000000,12778,1788534000000,BR_wheel_link,-0.3027228928497566,-0.3368518806195887,-0.5774308626354271,-0.03978484783004369,0.014771757782083082,0.02338739656665681
1788535000000,12779,1788535000000,BR_wheel_link,0.2966548936642143,1.3602286543193693,-0.3260221865802598,0.03980414466375537,-0.014407635982086959,-0.02347139784052684
1788536000000,12780,1788536000000,BR_wheel_link,-0.29947855262238465,-0.3291845352505532,-0.5736730114994323,-0.03954681843985652,0.01470390471065001,0.02333802882713308
1788537000000,12781,1788537000000,BR_wheel_link,0.2953857389387857,1.3532510342154251,-0.32784835244663546,0.03959666850273302,-0.014406549969456875,-0.02335727333702107
1788538000000,12782,1788538000000,BR_wheel_link,-0.29713844122714,-0.3234424970022001,-0.5705098047140441,-0.03936342450890308,0.014653865439633056,0.02330727749372132
1788539000000,12783,1788539000000,BR_wheel_link,0.29506045503594125,1.3476840524805336,-0.32907959386427643,0.03943738112101645,-0.014422337030634346,-0.023271499995502876
1788540000000,12784,1788540000000,BR_wheel_link,-0.2955699147954199,-0.31952145918560354,-0.5679958795140994,-0.039233745382064325,0.014622156117882451,0.02328802827655463
1788541000000,12785,1788541000000,BR_wheel_link,0.29500960326434217,1.34368105515761,-0.3302720661742825,0.039326909193181936,-0.014443850522706796,-0.02321058747412588
1788542000000,12786,1788542000000,BR_wheel_link,-0.29457082497943454,-0.31722476767599456,-0.566019375973927,-0.039149526514786204,0.01460567328379941,0.023271977691986145
1788543000000,12787,1788543000000,BR_wheel_link,0.29501678911628326,1.3408960544820265,-0.331550891647023,0.03925366390377578,-0.014466996843522907,-0.02316784222589444
1788544000000,12788,1788544000000,BR_wheel_link,-0.29396216330822755,-0.31602459567528185,-0.5644284537075812,-0.03909711094583165,0.014600086211241647,0.023258419104955845
