%time,field.header.seq,field.header.stamp,field.header.frame_id,field.orientation.x,field.orientation.y,field.orientation.z,field.orientation.w,field.orientation_covariance0,field.orientation_covariance1,field.orientation_covariance2,field.orientation_covariance3,field.orientation_covariance4,field.orientation_covariance5,field.orientation_covariance6,field.orientation_covariance7,field.orientation_covariance8,field.angular_velocity.x,field.angular_velocity.y,field.angular_velocity.z,field.angular_velocity_covariance0,field.angular_velocity_covariance1,field.angular_velocity_covariance2,field.angular_velocity_covariance3,field.angular_velocity_covariance4,field.angular_velocity_covariance5,field.angular_velocity_covariance6,field.angular_velocity_covariance7,field.angular_velocity_covariance8,field.linear_acceleration.x,field.linear_acceleration.y,field.linear_acceleration.z,field.linear_acceleration_covariance0,field.linear_acceleration_covariance1,field.linear_acceleration_covariance2,field.linear_acceleration_covariance3,field.linear_acceleration_covariance4,field.linear_acceleration_covariance5,field.linear_acceleration_covariance6,field.linear_acceleration_covariance7,field.linear_acceleration_covariance8
1788202000000,9402,1788201000000,base_link,-0.00027862701590676607,0.00035365157830940006,0.14403795347109385,0.9895720616798993,0.0,0.0,0.0,0.0,0.0,0.0,0.0,0.0,0.0,0.018805823150846453,-0.011635530416580955,0.007645117322778089,0.0,0.0,0.0,0.0,0.0,0.0,0.0,0.0,0.0,-0.11500454544460544,-0.04923532791667386,-0.0006201106067678097,0.0,0.0,0.0,0.0,0.0,0.0,0.0,0.0,0.0
1788203000000,9403,1788202000000,base_link,-0.00031110744986432404,0.00037035353426037685,0.14403735593087533,0.9895721328669561,0.0,0.0,0.0,0.0,0.0,0.0,0.0,0.0,0.0,-0.059471816856139045,0.04241260353695432,-0.0012166340826465674,0.0,0.0,0.0,0.0,0.0,0.0,0.0,0.0,0.0,1.5729181704364097,2.861953281989598,6.508647515859936,0.0,0.0,0.0,0.0,0.0,0.0,0.0,0.0,0.0
1788204000000,9404,1788203000000,base_link,-0.00031110744986432404,0.00037035353426037685,0.14403735593087533,0.9895721328669561,0.0,0.0,0.0,0.0,0.0,0.0,0.0,0.0,0.0,-0.059471816856139045,0.04241260353695432,-0.0012166340826465674,0.0,0.0,0.0,0.0,0.0,0.0,0.0,0.0,0.0,1.5729181704364097,2.861953281989598,6.508647515859936,0.0,0.0,0.0,0.0,0.0,0.0,0.0,0.0,0.0
1788206000000,9405,1788205000000,base_link,-0.0003115584808837125,0.00037118570567039647,0.14404105463737704,0.9895715940402884,0.0,0.0,0.0,0.0,0.0,0.0,0.0,0.0,0.0,-0.05947224318064093,0.042414543786369274,-0.0012153680128679856,0.0,0.0,0.0,0.0,0.0,0.0,0.0,0.0,0.0,1.572920755094549,2.861985327417001,6.508882598589301,0.0,0.0,0.0,0.0,0.0,0.0,0.0,0.0,0.0
1788207000000,9406,1788206000000,base_link,-0.00028967283540631925,0.000359717268621664,0.14404156867601128,0.9895715301010276,0.0,0.0,0.0,0.0,0.0,0.0,0.0,0.0,0.0,0.019548341331448612,-0.013104848703739432,0.007676017279953113,0.0,0.0,0.0,0.0,0.0,0.0,0.0,0.0,0.0,-1.4814395342267834,-2.8268349762798457,22.891965078162833,0.0,0.0,0.0,0.0,0.0,0.0,0.0,0.0,0.0
1788208000000,9407,1788207000000,base_link,-0.00027952808420008725,0.00035531485799560807,0.1440453515707621,0.9895709839654038,0.0,0.0,0.0,0.0,0.0,0.0,0.0,0.0,0.0,0.01880661573706801,-0.011637330889529254,0.007648970324842032,0.0,0.0,0.0,0.0,0.0,0.0,0.0,0.0,0.0,-0.11501930983817253,-0.049250028053413136,-0.0006471715551956692,0.0,0.0,0.0,0.0,0.0,0.0,0.0,0.0,0.0
1788209000000,9408,1788208000000,base_link,-0.0003120093863920492,0.0003720184076827833,0.14404475527002553,0.9895710549180617,0.0,0.0,0.0,0.0,0.0,0.0,0.0,0.0,0.0,-0.05947275801042792,0.0424164525449507,-0.001214190640335622,0.0,0.0,0.0,0.0,0.0,0.0,0.0,0.0,0.0,1.5729249225179136,2.8620173512363025,6.509120895754323,0.0,0.0,0.0,0.0,0.0,0.0,0.0,0.0,0.0
1788210000000,9409,1788209000000,base_link,-0.0002901234566100768,0.0003605500814534804,0.14404526969901996,0.9895709909396875,0.0,0.0,0.0,0.0,0.0,0.0,0.0,0.0,0.0,0.019548943879860545,-0.01310596525043566,0.007677994429992705,0.0,0.0,0.0,0.0,0.0,0.0,0.0,0.0,0.0,-1.4814887141184396,-2.826877251728355,22.891741400555297,0.0,0.0,0.0,0.0,0.0,0.0,0.0,0.0,0.0
1788211000000,9410,1788210000000,base_link,-0.0002799784308363456,0.0003561472814633638,0.14404905351951375,0.9895704446634026,0.0,0.0,0.0,0.0,0.0,0.0,0.0,0.0,0.0,0.018806995904610366,-0.011638253876659628,0.007650855889875289,0.0,0.0,0.0,0.0,0.0,0.0,0.0,0.0,0.0,-0.11502684019518594,-0.04925731217977821,-0.0006607908325086953,0.0,0.0,0.0,0.0,0.0,0.0,0.0,0.0,0.0
1788212000000,9411,1788211000000,base_link,-0.0002799784308363456,0.0003561472814633638,0.14404905351951375,0.9895704446634026,0.0,0.0,0.0,0.0,0.0,0.0,0.0,0.0,0.0,0.018806995904610366,-0.011638253876659628,0.007650855889875289,0.0,0.0,0.0,0.0,0.0,0.0,0.0,0.0,0.0,-0.11502684019518594,-0.04925731217977821,-0.0006607908325086953,0.0,0.0,0.0,0.0,0.0,0.0,0.0,0.0,0.0
1788213000000,9412,1788213000000,base_link,-0.000290573971269624,0.0003613833942168723,0.14404897264395944,0.9895704514833844,0.0,0.0,0.0,0.0,0.0,0.0,0.0,0.0,0.0,0.01954955424441438,-0.013107069686078337,0.00768006004262647,0.0,0.0,0.0,0.0,0.0,0.0,0.0,0.0,0.0,0.04579185402179597,0.017690138515005338,14.700356561073416,0.0,0.0,0.0,0.0,0.0,0.0,0.0,0.0,0.0
1788215000000,9413,1788214000000,base_link,-0.0003129108552430143,0.00037368534986307716,0.1440521623716313,0.9895699757784254,0.0,0.0,0.0,0.0,0.0,0.0,0.0,0.0,0.0,-0.059473734591286,0.04242029268930292,-0.001211749828579863,0.0,0.0,0.0,0.0,0.0,0.0,0.0,0.0,0.0,1.5729313331589485,2.86208197637385,6.5095954691505735,0.0,0.0,0.0,0.0,0.0,0.0,0.0,0.0,0.0
1788216000000,9414,1788215000000,base_link,-0.00029102434606534286,0.00036221725137259447,0.14405267759914975,0.9895699117192319,0.0,0.0,0.0,0.0,0.0,0.0,0.0,0.0,0.0,0.01955018597398525,-0.013108191725419466,0.007682133566409637,0.0,0.0,0.0,0.0,0.0,0.0,0.0,0.0,0.0,-1.4815820188680149,-2.826973820871509,22.89128710585257,0.0,0.0,0.0,0.0,0.0,0.0,0.0,0.0,0.0
1788217000000,9415,1788216000000,base_link,-0.0002808787566538379,0.00035781368743281804,0.14405646336358605,0.989569365148126,0.0,0.0,0.0,0.0,0.0,0.0,0.0,0.0,0.0,0.018807789015470953,-0.011640074944435364,0.00765481394755052,0.0,0.0,0.0,0.0,0.0,0.0,0.0,0.0,0.0,-0.11504181054433042,-0.04927286583947625,-0.0006863694633736372,0.0,0.0,0.0,0.0,0.0,0.0,0.0,0.0,0.0
1788218000000,9416,1788217000000,base_link,-0.0003133613923123751,0.0003745196388511181,0.1440558689357391,0.9895694357471067,0.0,0.0,0.0,0.0,0.0,0.0,0.0,0.0,0.0,-0.05947422741274441,0.04242225793754298,-0.0012104981233487556,0.0,0.0,0.0,0.0,0.0,0.0,0.0,0.0,0.0,1.5729346645091946,2.86211657346828,6.509836589816553,0.0,0.0,0.0,0.0,0.0,0.0,0.0,0.0,0.0
1788219000000,9417,1788219000000,base_link,-0.00029147457418791337,0.0003630516641992528,0.1440563845694133,0.989569371646501,0.0,0.0,0.0,0.0,0.0,0.0,0.0,0.0,0.0,0.01955082098028937,-0.01310934106900081,0.007684147732855823,0.0,0.0,0.0,0.0,0.0,0.0,0.0,0.0,0.0,-1.4816280744836121,-2.8270141470239722,22.891057832519408,0.0,0.0,0.0,0.0,0.0,0.0,0.0,0.0,0.0
1788221000000,9418,1788220000000,base_link,-0.00031381180104142855,0.000375354461064196,0.14405957746363998,0.9895688954146545,0.0,0.0,0.0,0.0,0.0,0.0,0.0,0.0,0.0,-0.05947476100688373,0.0424242059219531,-0.001209292449955083,0.0,0.0,0.0,0.0,0.0,0.0,0.0,0.0,0.0,1.5729384398449537,2.8621508072344226,6.510078668262676,0.0,0.0,0.0,0.0,0.0,0.0,0.0,0.0,0.0
1788222000000,9419,1788221000000,base_link,-0.00031381180104142855,0.000375354461064196,0.14405957746363998,0.9895688954146545,0.0,0.0,0.0,0.0,0.0,0.0,0.0,0.0,0.0,-0.05947476100688373,0.0424242059219531,-0.001209292449955083,0.0,0.0,0.0,0.0,0.0,0.0,0.0,0.0,0.0,1.5729384398449537,2.8621508072344226,6.510078668262676,0.0,0.0,0.0,0.0,0.0,0.0,0.0,0.0,0.0
1788223000000,9420,1788223000000,base_link,-0.0003142620940551923,0.0003761897985837286,0.1440632879386583,0.9895683547834757,0.0,0.0,0.0,0.0,0.0,0.0,0.0,0.0,0.0,-0.059475300035114184,0.04242614472050353,-0.001208092495755994,0.0,0.0,0.0,0.0,0.0,0.0,0.0,0.0,0.0,1.5729418791112741,2.8621845687896155,6.510320018888813,0.0,0.0,0.0,0.0,0.0,0.0,0.0,0.0,0.0
1788225000000,9421,1788224000000,base_link,-0.0003142620940551923,0.0003761897985837286,0.1440632879386583,0.9895683547834757,0.0,0.0,0.0,0.0,0.0,0.0,0.0,0.0,0.0,-0.059475300035114184,0.04242614472050353,-0.001208092495755994,0.0,0.0,0.0,0.0,0.0,0.0,0.0,0.0,0.0,1.5729418791112741,2.8621845687896155,6.510320018888813,0.0,0.0,0.0,0.0,0.0,0.0,0.0,0.0,0.0
1788227000000,9422,1788227000000,base_link,-0.00031471225484033105,0.0003770256701132335,0.14406700040444717,0.9895678138471894,0.0,0.0,0.0,0.0,0.0,0.0,0.0,0.0,0.0,-0.05947579749143767,0.04242810178868327,-0.0012068522573281354,0.0,0.0,0.0,0.0,0.0,0.0,0.0,0.0,0.0,1.57294456587985,2.8622183470567593,6.510560045303505,0.0,0.0,0.0,0.0,0.0,0.0,0.0,0.0,0.0
1788229000000,9423,1788228000000,base_link,-0.0002826777999466374,0.0003611529083300151,0.1440713068039964,0.9895672024767328,0.0,0.0,0.0,0.0,0.0,0.0,0.0,0.0,0.0,0.01880938553035961,-0.011643803137459973,0.007662570518787595,0.0,0.0,0.0,0.0,0.0,0.0,0.0,0.0,0.0,-0.11507270886811036,-0.04930384363090728,-0.000737385440539029,0.0,0.0,0.0,0.0,0.0,0.0,0.0,0.0,0.0
1788230000000,9424,1788229000000,base_link,-0.0003151622831664574,0.00037786207974974595,0.14407071484333892,0.9895672726083423,0.0,0.0,0.0,0.0,0.0,0.0,0.0,0.0,0.0,-0.059476317900084015,0.04243005525391407,-0.0012056359169536316,0.0,0.0,0.0,0.0,0.0,0.0,0.0,0.0,0.0,1.5729477493096908,2.862252231901689,6.510801263447542,0.0,0.0,0.0,0.0,0.0,0.0,0.0,0.0,0.0
1788231000000,9425,1788230000000,base_link,-0.0002932742511752137,0.0003663945698529008,0.14407123206739228,0.9895672083470716,0.0,0.0,0.0,0.0,0.0,0.0,0.0,0.0,0.0,0.019553340316497275,-0.01311392980527505,0.007692244490814876,0.0,0.0,0.0,0.0,0.0,0.0,0.0,0.0,0.0,-1.4818187784528718,-2.827191044837412,22.890144229855245,0.0,0.0,0.0,0.0,0.0,0.0,0.0,0.0,0.0
1788232000000,9426,1788232000000,base_link,-0.00028312723886217693,0.0003619890385320363,0.14407502258098462,0.9895666610548234,0.0,0.0,0.0,0.0,0.0,0.0,0.0,0.0,0.0,0.018809781985379387,-0.01164474606348425,0.0076644856077249185,0.0,0.0,0.0,0.0,0.0,0.0,0.0,0.0,0.0,-0.1150805295273543,-0.04931153211642773,-0.000750214734546617,0.0,0.0,0.0,0.0,0.0,0.0,0.0,0.0,0.0
1788234000000,9427,1788233000000,base_link,-0.00031561219240464154,0.00037869900905235053,0.1440744312276039,0.9895667310709505,0.0,0.0,0.0,0.0,0.0,0.0,0.0,0.0,0.0,-0.0594768586615413,0.042431995645129214,-0.0012044397049350464,0.0,0.0,0.0,0.0,0.0,0.0,0.0,0.0,0.0,1.5729510621154321,2.8622858500877726,6.511042641162431,0.0,0.0,0.0,0.0,0.0,0.0,0.0,0.0,0.0
1788235000000,9428,1788234000000,base_link,-0.00028357656524301733,0.00036282568854080575,0.14407874031880355,0.9895661193321033,0.0,0.0,0.0,0.0,0.0,0.0,0.0,0.0,0.0,0.018810178076066223,-0.011645673244096622,0.007666441694909232,0.0,0.0,0.0,0.0,0.0,0.0,0.0,0.0,0.0,-0.115088264892132,-0.04931938374749267,-0.0007629130023083519,0.0,0.0,0.0,0.0,0.0,0.0,0.0,0.0,0.0
1788236000000,9429,1788235000000,base_link,-0.00031606197406498364,0.00037953646595681917,0.14407814958856552,0.9895661892304297,0.0,0.0,0.0,0.0,0.0,0.0,0.0,0.0,0.0,-0.05947736732055647,0.042433947244259404,-0.00120321144674084,0.0,0.0,0.0,0.0,0.0,0.0,0.0,0.0,0.0,1.5729537615369538,2.862319450602123,6.51128282852632,0.0,0.0,0.0,0.0,0.0,0.0,0.0,0.0,0.0
1788237000000,9430,1788236000000,base_link,-0.00031606197406498364,0.00037953646595681917,0.14407814958856552,0.9895661892304297,0.0,0.0,0.0,0.0,0.0,0.0,0.0,0.0,0.0,-0.05947736732055647,0.042433947244259404,-0.00120321144674084,0.0,0.0,0.0,0.0,0.0,0.0,0.0,0.0,0.0,1.5729537615369538,2.862319450602123,6.51128282852632,0.0,0.0,0.0,0.0,0.0,0.0,0.0,0.0,0.0
1788238000000,9431,1788238000000,base_link,-0.0002840257562782113,0.00036366287485026136,0.14408246003879815,0.9895655773054414,0.0,0.0,0.0,0.0,0.0,0.0,0.0,0.0,0.0,0.018810580301204673,-0.011646599922849731,0.007668394399981798,0.0,0.0,0.0,0.0,0.0,0.0,0.0,0.0,0.0,-0.11509598967427616,-0.04932718725784796,-0.0007756413647559413,0.0,0.0,0.0,0.0,0.0,0.0,0.0,0.0,0.0
1788240000000,9432,1788239000000,base_link,-0.0002946226789833466,0.00036890730134503586,0.14408238834728543,0.9895655827043612,0.0,0.0,0.0,0.0,0.0,0.0,0.0,0.0,0.0,0.019555234288921124,-0.013117364866138072,0.007698338675157482,0.0,0.0,0.0,0.0,0.0,0.0,0.0,0.0,0.0,-1.4819624308366053,-2.8273264921296053,22.889460102563433,0.0,0.0,0.0,0.0,0.0,0.0,0.0,0.0,0.0
1788241000000,9433,1788241000000,base_link,-0.00028447481259625434,0.00036450059396942494,0.14408618172368096,0.9895650349773321,0.0,0.0,0.0,0.0,0.0,0.0,0.0,0.0,0.0,0.01881097922942866,-0.01164754066450103,0.007670315696177215,0.0,0.0,0.0,0.0,0.0,0.0,0.0,0.0,0.0,-0.11510379585175333,-0.049334886936082234,-0.0007884636546329205,0.0,0.0,0.0,0.0,0.0,0.0,0.0,0.0,0.0
1788244000000,9434,1788243000000,base_link,-0.00029507190237949816,0.0003697459347506448,0.14408611103577879,0.9895650402207534,0.0,0.0,0.0,0.0,0.0,0.0,0.0,0.0,0.0,0.01955586227227854,-0.013118511578957751,0.007700370702432994,0.0,0.0,0.0,0.0,0.0,0.0,0.0,0.0,0.0,0.045570535745102586,0.01763661148160619,14.700418442682018,0.0,0.0,0.0,0.0,0.0,0.0,0.0,0.0,0.0
1788245000000,9435,1788245000000,base_link,-0.0003174105464371077,0.00038205202603594274,0.14408931648637002,0.9895645618964362,0.0,0.0,0.0,0.0,0.0,0.0,0.0,0.0,0.0,-0.05947893236314689,0.04243979545368318,-0.0011995666541046457,0.0,0.0,0.0,0.0,0.0,0.0,0.0,0.0,0.0,0.7289256391277612,1.4065388789779896,3.2555982761129245,0.0,0.0,0.0,0.0,0.0,0.0,0.0,0.0,0.0
1788247000000,9436,1788246000000,base_link,-0.0002955209994053835,0.00037058509610088424,0.14408983569531467,0.9895644974347669,0.0,0.0,0.0,0.0,0.0,0.0,0.0,0.0,0.0,0.019556494458825683,-0.013119650824500204,0.007702416191161847,0.0,0.0,0.0,0.0,0.0,0.0,0.0,0.0,0.0,-1.482058540405646,-2.8274191378269333,22.889004267058297,0.0,0.0,0.0,0.0,0.0,0.0,0.0,0.0,0.0
1788248000000,9437,1788247000000,base_link,-0.0003178598136482135,0.0003828916067792305,0.14409304273024567,0.9895640188466314,0.0,0.0,0.0,0.0,0.0,0.0,0.0,0.0,0.0,-0.05947944031342403,0.04244175131234258,-0.0011983381298694487,0.0,0.0,0.0,0.0,0.0,0.0,0.0,0.0,0.0,1.572965528468901,2.8624543051065587,6.512246171178028,0.0,0.0,0.0,0.0,0.0,0.0,0.0,0.0,0.0
1788249000000,9438,1788248000000,base_link,-0.00029596996071335385,0.00037142479793095045,0.1440935623395731,0.9895639543443836,0.0,0.0,0.0,0.0,0.0,0.0,0.0,0.0,0.0,0.01955712862644112,-0.013120803184078555,0.00770443459847146,0.0,0.0,0.0,0.0,0.0,0.0,0.0,0.0,0.0,-1.482106135831154,-2.827461974665888,22.88877583078267,0.0,0.0,0.0,0.0,0.0,0.0,0.0,0.0,0.0
1788250000000,9439,1788249000000,base_link,-0.00029596996071335385,0.00037142479793095045,0.1440935623395731,0.9895639543443836,0.0,0.0,0.0,0.0,0.0,0.0,0.0,0.0,0.0,0.01955712862644112,-0.013120803184078555,0.00770443459847146,0.0,0.0,0.0,0.0,0.0,0.0,0.0,0.0,0.0,-1.482106135831154,-2.827461974665888,22.88877583078267,0.0,0.0,0.0,0.0,0.0,0.0,0.0,0.0,0.0
1788251000000,9440,1788251000000,base_link,-0.00031830895431158093,0.0003837317172096837,0.14409677093539858,0.989563475495822,0.0,0.0,0.0,0.0,0.0,0.0,0.0,0.0,0.0,-0.059479969159998966,0.04244369949973653,-0.001197130524466931,0.0,0.0,0.0,0.0,0.0,0.0,0.0,0.0,0.0,0.7289208446402305,1.4065648630286234,3.2558264812972286,0.0,0.0,0.0,0.0,0.0,0.0,0.0,0.0,0.0
1788253000000,9441,1788252000000,base_link,-0.00029641879885494775,0.00037226502420890256,0.14409729094040838,0.9895634109536806,0.0,0.0,0.0,0.0,0.0,0.0,0.0,0.0,0.0,0.019557758390953472,-0.013121954453376411,0.007706458895445049,0.0,0.0,0.0,0.0,0.0,0.0,0.0,0.0,0.0,-1.4821542564277375,-2.8275067166559986,22.88854752418003,0.0,0.0,0.0,0.0,0.0,0.0,0.0,0.0,0.0
1788254000000,9442,1788253000000,base_link,-0.0003187579714029411,0.0003845723518380589,0.14410050110242165,0.9895629318438989,0.0,0.0,0.0,0.0,0.0,0.0,0.0,0.0,0.0,-0.059480493630198326,0.042445646379889075,-0.0011959182962507815,0.0,0.0,0.0,0.0,0.0,0.0,0.0,0.0,0.0,1.5729716200521324,2.8625216973230336,6.512728426436571,0.0,0.0,0.0,0.0,0.0,0.0,0.0,0.0,0.0
1788255000000,9443,1788254000000,base_link,-0.00029686751391836053,0.0003731057745667749,0.14410102150402646,0.9895628672617299,0.0,0.0,0.0,0.0,0.0,0.0,0.0,0.0,0.0,0.019558389561778036,-0.013123096190113261,0.0077085025962939846,0.0,0.0,0.0,0.0,0.0,0.0,0.0,0.0,0.0,-1.482202262387733,-2.827553307039432,22.8883196338165,0.0,0.0,0.0,0.0,0.0,0.0,0.0,0.0,0.0
1788256000000,9444,1788256000000,base_link,-0.00028671822430284815,0.0003686971049307977,0.14410481965499272,0.9895623188093343,0.0,0.0,0.0,0.0,0.0,0.0,0.0,0.0,0.0,0.01881297281093162,-0.01165220336840296,0.007680039357894897,0.0,0.0,0.0,0.0,0.0,0.0,0.0,0.0,0.0,-0.1151426011116547,-0.049373839626132385,-0.0008522267315722587,0.0,0.0,0.0,0.0,0.0,0.0,0.0,0.0,0.0
1788258000000,9445,1788257000000,base_link,-0.00031920685790685503,0.00038541351955731083,0.144104233248774,0.9895623878882948,0.0,0.0,0.0,0.0,0.0,0.0,0.0,0.0,0.0,-0.059481003242000355,0.042447600883574854,-0.001194691423150846,0.0,0.0,0.0,0.0,0.0,0.0,0.0,0.0,0.0,1.5729743661084192,2.8625554262649255,6.512969026974734,0.0,0.0,0.0,0.0,0.0,0.0,0.0,0.0,0.0
1788259000000,9446,1788258000000,base_link,-0.0002973160953696013,0.00037394706287743917,0.14410475405037212,0.9895623232656018,0.0,0.0,0.0,0.0,0.0,0.0,0.0,0.0,0.0,0.0195590239176082,-0.013124245484248292,0.007710529761186081,0.0,0.0,0.0,0.0,0.0,0.0,0.0,0.0,0.0,-1.4822499228031696,-2.8275971229468984,22.8880913350802,0.0,0.0,0.0,0.0,0.0,0.0,0.0,0.0,0.0
1788261000000,9447,1788260000000,base_link,-0.0002977645496407245,0.000374788881150724,0.1441084885621566,0.9895617789677905,0.0,0.0,0.0,0.0,0.0,0.0,0.0,0.0,0.0,0.019559655517560184,-0.013125398886356396,0.007712551179310591,0.0,0.0,0.0,0.0,0.0,0.0,0.0,0.0,0.0,-1.4822979215805558,-2.8276410609909792,22.887862899594452,0.0,0.0,0.0,0.0,0.0,0.0,0.0,0.0,0.0
1788261000000,9448,1788261000000,base_link,-0.0002876146891648014,0.00037037942283502134,0.14411228861459632,0.9895612302263751,0.0,0.0,0.0,0.0,0.0,0.0,0.0,0.0,0.0,0.01881377200615661,-0.01165407665319004,0.007683912046294973,0.0,0.0,0.0,0.0,0.0,0.0,0.0,0.0,0.0,-0.11515817282755487,-0.049389344409127095,-0.0008778063222063537,0.0,0.0,0.0,0.0,0.0,0.0,0.0,0.0,0.0
1788263000000,9449,1788262000000,base_link,-0.0002876146891648014,0.00037037942283502134,0.14411228861459632,0.9895612302263751,0.0,0.0,0.0,0.0,0.0,0.0,0.0,0.0,0.0,0.01881377200615661,-0.01165407665319004,0.007683912046294973,0.0,0.0,0.0,0.0,0.0,0.0,0.0,0.0,0.0,-0.11515817282755487,-0.049389344409127095,-0.0008778063222063537,0.0,0.0,0.0,0.0,0.0,0.0,0.0,0.0,0.0
1788264000000,9450,1788263000000,base_link,-0.000298212881603663,0.0003756312229450664,0.1441122250334875,0.9895612343691316,0.0,0.0,0.0,0.0,0.0,0.0,0.0,0.0,0.0,0.0195602865383649,-0.013126544233613917,0.007714590248903284,0.0,0.0,0.0,0.0,0.0,0.0,0.0,0.0,0.0,-1.4823460353969315,-2.8276872075731947,22.887634852817342,0.0,0.0,0.0,0.0,0.0,0.0,0.0,0.0,0.0
1788265000000,9451,1788264000000,base_link,-0.000288062736414339,0.0003712213727632352,0.14411602604384363,0.9895606854821398,0.0,0.0,0.0,0.0,0.0,0.0,0.0,0.0,0.0,0.01881417083622152,-0.011655008257042899,0.007685862926201172,0.0,0.0,0.0,0.0,0.0,0.0,0.0,0.0,0.0,-0.11516593379641048,-0.04939715791677895,-0.0008905504894265448,0.0,0.0,0.0,0.0,0.0,0.0,0.0,0.0,0.0
1788266000000,9452,1788265000000,base_link,-0.00032055275482826553,0.0003879402019583507,0.14411544148862196,0.9895607542101045,0.0,0.0,0.0,0.0,0.0,0.0,0.0,0.0,0.0,-0.059482565901336895,0.042453452341475476,-0.0011910448717002498,0.0,0.0,0.0,0.0,0.0,0.0,0.0,0.0,0.0,1.5729831205779812,2.862656576424056,6.513692069093275,0.0,0.0,0.0,0.0,0.0,0.0,0.0,0.0,0.0
1788267000000,9453,1788267000000,base_link,-0.00029866108289968417,0.00037647409914924043,0.14411596348257816,0.9895606894669465,0.0,0.0,0.0,0.0,0.0,0.0,0.0,0.0,0.0,0.019560920613187302,-0.013127691906012035,0.007716623530764825,0.0,0.0,0.0,0.0,0.0,0.0,0.0,0.0,0.0,-1.482393832476277,-2.8277318579208863,22.887406646466737,0.0,0.0,0.0,0.0,0.0,0.0,0.0,0.0,0.0
1788269000000,9454,1788268000000,base_link,-0.0002885106517381691,0.00037206385639408483,0.1441197654479492,0.9895601404347889,0.0,0.0,0.0,0.0,0.0,0.0,0.0,0.0,0.0,0.018814571918686154,-0.011655941662442944,0.007687807958199226,0.0,0.0,0.0,0.0,0.0,0.0,0.0,0.0,0.0,-0.11517370335278955,-0.049404935960996085,-0.0009033220322152147,0.0,0.0,0.0,0.0,0.0,0.0,0.0,0.0,0.0
1788270000000,9455,1788269000000,base_link,-0.00032100113054069746,0.0003887834918618267,0.14411918151114086,0.9895602090455283,0.0,0.0,0.0,0.0,0.0,0.0,0.0,0.0,0.0,-0.05948308378285823,0.04245540552426606,-0.0011898265650854807,0.0,0.0,0.0,0.0,0.0,0.0,0.0,0.0,0.0,1.572986005677625,2.8626903453521995,6.513933129963251,0.0,0.0,0.0,0.0,0.0,0.0,0.0,0.0,0.0
1788270000000,9456,1788270000000,base_link,-0.00029910915462017104,0.00037731750868329845,0.14411970390325723,0.9895601442621105,0.0,0.0,0.0,0.0,0.0,0.0,0.0,0.0,0.0,0.019561553686654583,-0.013128845687873075,0.007718645885685799,0.0,0.0,0.0,0.0,0.0,0.0,0.0,0.0,0.0,-1.4824417668939769,-2.82777555005103,22.887178180050334,0.0,0.0,0.0,0.0,0.0,0.0,0.0,0.0,0.0
1788272000000,9457,1788271000000,base_link,-0.0003214493810976168,0.0003896273095620875,0.1441229234958766,0.9895596635796432,0.0,0.0,0.0,0.0,0.0,0.0,0.0,0.0,0.0,-0.0594836101552147,0.04245735426485598,-0.0011886166705201062,0.0,0.0,0.0,0.0,0.0,0.0,0.0,0.0,0.0,1.572988979636817,2.8627240509460417,6.514174365945334,0.0,0.0,0.0,0.0,0.0,0.0,0.0,0.0,0.0
1788273000000,9458,1788272000000,base_link,-0.0003214493810976168,0.0003896273095620875,0.1441229234958766,0.9895596635796432,0.0,0.0,0.0,0.0,0.0,0.0,0.0,0.0,0.0,-0.0594836101552147,0.04245735426485598,-0.0011886166705201062,0.0,0.0,0.0,0.0,0.0,0.0,0.0,0.0,0.0,1.572988979636817,2.8627240509460417,6.514174365945334,0.0,0.0,0.0,0.0,0.0,0.0,0.0,0.0,0.0
1788274000000,9459,1788273000000,base_link,-0.0002894061015596204,0.000373750412146138,0.14412725015490188,0.9895590494344056,0.0,0.0,0.0,0.0,0.0,0.0,0.0,0.0,0.0,0.018815369934593283,-0.011657814657703276,0.007691688561939978,0.0,0.0,0.0,0.0,0.0,0.0,0.0,0.0,0.0,-0.11518928617953612,-0.04942047951023627,-0.0009288906233493321,0.0,0.0,0.0,0.0,0.0,0.0,0.0,0.0,0.0
1788275000000,9460,1788274000000,base_link,-0.0002894061015596204,0.000373750412146138,0.14412725015490188,0.9895590494344056,0.0,0.0,0.0,0.0,0.0,0.0,0.0,0.0,0.0,0.018815369934593283,-0.011657814657703276,0.007691688561939978,0.0,0.0,0.0,0.0,0.0,0.0,0.0,0.0,0.0,-0.11518928617953612,-0.04942047951023627,-0.0009288906233493321,0.0,0.0,0.0,0.0,0.0,0.0,0.0,0.0,0.0
1788277000000,9461,1788276000000,base_link,-0.00030000492354741496,0.00037900590931408374,0.14412719063766805,0.989559052947554,0.0,0.0,0.0,0.0,0.0,0.0,0.0,0.0,0.0,0.019562818929468224,-0.0131311421552195,0.007722716413881761,0.0,0.0,0.0,0.0,0.0,0.0,0.0,0.0,0.0,0.0453229389967406,0.017575285987658232,14.700488415633865,0.0,0.0,0.0,0.0,0.0,0.0,0.0,0.0,0.0
1788279000000,9462,1788279000000,base_link,-0.00030045261362123584,0.0003798509098909653,0.14413093696569393,0.9895585068357022,0.0,0.0,0.0,0.0,0.0,0.0,0.0,0.0,0.0,0.01956345298433177,-0.01313229544588066,0.0077247418009893255,0.0,0.0,0.0,0.0,0.0,0.0,0.0,0.0,0.0,-1.4825857919709609,-2.827910037262455,22.886493348615826,0.0,0.0,0.0,0.0,0.0,0.0,0.0,0.0,0.0
1788281000000,9463,1788280000000,base_link,-0.0003227933665125877,0.00039216194651800024,0.14413416127502077,0.9895580253663736,0.0,0.0,0.0,0.0,0.0,0.0,0.0,0.0,0.0,-0.059485167510833624,0.04246321031820748,-0.0011849656125055815,0.0,0.0,0.0,0.0,0.0,0.0,0.0,0.0,0.0,1.572997475630843,2.862825214541992,6.514897485270952,0.0,0.0,0.0,0.0,0.0,0.0,0.0,0.0,0.0
1788282000000,9464,1788281000000,base_link,-0.0003227933665125877,0.00039216194651800024,0.14413416127502077,0.9895580253663736,0.0,0.0,0.0,0.0,0.0,0.0,0.0,0.0,0.0,-0.059485167510833624,0.04246321031820748,-0.0011849656125055815,0.0,0.0,0.0,0.0,0.0,0.0,0.0,0.0,0.0,1.572997475630843,2.862825214541992,6.514897485270952,0.0,0.0,0.0,0.0,0.0,0.0,0.0,0.0,0.0
1788284000000,9465,1788283000000,base_link,-0.00032324110804119247,0.0003930078852286596,0.14413791113726174,0.9895574786908414,0.0,0.0,0.0,0.0,0.0,0.0,0.0,0.0,0.0,-0.059485687814110025,0.04246516137289809,-0.0011837498062366874,0.0,0.0,0.0,0.0,0.0,0.0,0.0,0.0,0.0,1.5730002769294575,2.862858901775531,6.515138518831378,0.0,0.0,0.0,0.0,0.0,0.0,0.0,0.0,0.0
1788285000000,9466,1788284000000,base_link,-0.00030134761765469967,0.00038154249571889997,0.1441384355166918,0.9895574137066216,0.0,0.0,0.0,0.0,0.0,0.0,0.0,0.0,0.0,0.019564718927382884,-0.01313459580248414,0.0077288092716909194,0.0,0.0,0.0,0.0,0.0,0.0,0.0,0.0,0.0,-1.482682009639392,-2.8280002668864186,22.886036800655127,0.0,0.0,0.0,0.0,0.0,0.0,0.0,0.0,0.0
1788286000000,9467,1788285000000,base_link,-0.00030134761765469967,0.00038154249571889997,0.1441384355166918,0.9895574137066216,0.0,0.0,0.0,0.0,0.0,0.0,0.0,0.0,0.0,0.019564718927382884,-0.01313459580248414,0.0077288092716909194,0.0,0.0,0.0,0.0,0.0,0.0,0.0,0.0,0.0,-1.482682009639392,-2.8280002668864186,22.886036800655127,0.0,0.0,0.0,0.0,0.0,0.0,0.0,0.0,0.0
1788287000000,9468,1788286000000,base_link,-0.00029119547326337804,0.0003771298902575975,0.1441422432055653,0.9895568638041524,0.0,0.0,0.0,0.0,0.0,0.0,0.0,0.0,0.0,0.018816970386878337,-0.011661556569819159,0.007699465164095837,0.0,0.0,0.0,0.0,0.0,0.0,0.0,0.0,0.0,-0.1152204405667002,-0.04945160324556301,-0.0009800172503720006,0.0,0.0,0.0,0.0,0.0,0.0,0.0,0.0,0.0
1788288000000,9469,1788287000000,base_link,-0.00030179492651334524,0.0003823890877205424,0.14414218775139992,0.9895568666876342,0.0,0.0,0.0,0.0,0.0,0.0,0.0,0.0,0.0,0.019565353538299184,-0.013135748491666904,0.007730838187963188,0.0,0.0,0.0,0.0,0.0,0.0,0.0,0.0,0.0,-1.4827299791869433,-2.8280444001748846,22.885808387759308,0.0,0.0,0.0,0.0,0.0,0.0,0.0,0.0,0.0
1788289000000,9470,1788288000000,base_link,-0.00029164249592002894,0.0003779760878728664,0.14414599639313602,0.9895563166402213,0.0,0.0,0.0,0.0,0.0,0.0,0.0,0.0,0.0,0.018817371141367535,-0.011662493911398019,0.007701405956281133,0.0,0.0,0.0,0.0,0.0,0.0,0.0,0.0,0.0,-0.11522824214627543,-0.04945936786248453,-0.000992817078129704,0.0,0.0,0.0,0.0,0.0,0.0,0.0,0.0,0.0
1788290000000,9471,1788289000000,base_link,-0.00032413620580573014,0.00039470135909466114,0.1441454167773771,0.9895563844312427,0.0,0.0,0.0,0.0,0.0,0.0,0.0,0.0,0.0,-0.059486725137024965,0.04246906749697816,-0.0011813152755740354,0.0,0.0,0.0,0.0,0.0,0.0,0.0,0.0,0.0,1.5730058655477033,2.8629263702311025,6.515620739179259,0.0,0.0,0.0,0.0,0.0,0.0,0.0,0.0,0.0
1788291000000,9472,1788290000000,base_link,-0.0003022421261270419,0.0003832361870488733,0.14414594197792435,0.9895563193628845,0.0,0.0,0.0,0.0,0.0,0.0,0.0,0.0,0.0,0.01956598694037507,-0.013136902005115154,0.007732867073138142,0.0,0.0,0.0,0.0,0.0,0.0,0.0,0.0,0.0,-1.4827781180527753,-2.8280888855976984,22.885579963680627,0.0,0.0,0.0,0.0,0.0,0.0,0.0,0.0,0.0
1788292000000,9473,1788291000000,base_link,-0.0003022421261270419,0.0003832361870488733,0.14414594197792435,0.9895563193628845,0.0,0.0,0.0,0.0,0.0,0.0,0.0,0.0,0.0,0.01956598694037507,-0.013136902005115154,0.007732867073138142,0.0,0.0,0.0,0.0,0.0,0.0,0.0,0.0,0.0,-1.4827781180527753,-2.8280888855976984,22.885579963680627,0.0,0.0,0.0,0.0,0.0,0.0,0.0,0.0,0.0
1788293000000,9474,1788292000000,base_link,-0.00032458358206195975,0.00039554887100807563,0.1441491725710517,0.9895558368448292,0.0,0.0,0.0,0.0,0.0,0.0,0.0,0.0,0.0,-0.0594872459257035,0.04247102380608868,-0.0011801051809888754,0.0,0.0,0.0,0.0,0.0,0.0,0.0,0.0,0.0,1.5730084083292253,2.8629601024746805,6.5158619178109705,0.0,0.0,0.0,0.0,0.0,0.0,0.0,0.0,0.0
1788294000000,9475,1788293000000,base_link,-0.00030268923173512184,0.0003840837748681587,0.14414969821411414,0.9895557717297508,0.0,0.0,0.0,0.0,0.0,0.0,0.0,0.0,0.0,0.01956662970473526,-0.013138012025706356,0.0077349617958042335,0.0,0.0,0.0,0.0,0.0,0.0,0.0,0.0,0.0,-1.4828261012395871,-2.828141371136426,22.88535284828178,0.0,0.0,0.0,0.0,0.0,0.0,0.0,0.0,0.0
1788295000000,9476,1788294000000,base_link,-0.0002925362251816413,0.0003796700061470475,0.14415350879255226,0.9895552213878915,0.0,0.0,0.0,0.0,0.0,0.0,0.0,0.0,0.0,0.018818185286024757,-0.011664330375575255,0.007705350210159813,0.0,0.0,0.0,0.0,0.0,0.0,0.0,0.0,0.0,-0.11524379570405521,-0.04947508011462624,-0.0010182060185641717,0.0,0.0,0.0,0.0,0.0,0.0,0.0,0.0,0.0
1788296000000,9477,1788295000000,base_link,-0.0002925362251816413,0.0003796700061470475,0.14415350879255226,0.9895552213878915,0.0,0.0,0.0,0.0,0.0,0.0,0.0,0.0,0.0,0.018818185286024757,-0.011664330375575255,0.007705350210159813,0.0,0.0,0.0,0.0,0.0,0.0,0.0,0.0,0.0,-0.11524379570405521,-0.04947508011462624,-0.0010182060185641717,0.0,0.0,0.0,0.0,0.0,0.0,0.0,0.0,0.0
1788298000000,9478,1788297000000,base_link,-0.00029298288879069497,0.0003805177738271084,0.14415726806471846,0.9895546732906514,0.0,0.0,0.0,0.0,0.0,0.0,0.0,0.0,0.0,0.018818618098966372,-0.011665229804300355,0.00770731260566177,0.0,0.0,0.0,0.0,0.0,0.0,0.0,0.0,0.0,-0.11525153521355389,-0.04948287631168021,-0.0010309303790290159,0.0,0.0,0.0,0.0,0.0,0.0,0.0,0.0,0.0
1788299000000,9479,1788298000000,base_link,-0.0003254779364613993,0.0003972455136363408,0.1441566903218046,0.9895547407271507,0.0,0.0,0.0,0.0,0.0,0.0,0.0,0.0,0.0,-0.059488175964165536,0.04247501634217868,-0.0011776256571733737,0.0,0.0,0.0,0.0,0.0,0.0,0.0,0.0,0.0,1.5730121248025846,2.86302811853622,6.516342724633626,0.0,0.0,0.0,0.0,0.0,0.0,0.0,0.0,0.0
1788300000000,9480,1788299000000,base_link,-0.0003035830111805187,0.0003857806161333866,0.14415721685943259,0.9895546755172321,0.0,0.0,0.0,0.0,0.0,0.0,0.0,0.0,0.0,0.019567956285783495,-0.013140283847522204,0.007738967704433621,0.0,0.0,0.0,0.0,0.0,0.0,0.0,0.0,0.0,-1.4829199631893017,-2.8282233148942058,22.884895112290227,0.0,0.0,0.0,0.0,0.0,0.0,0.0,0.0,0.0
1788301000000,9481,1788300000000,base_link,-0.0002934294078507619,0.00038136608114388757,0.1441610293168061,0.9895541248892927,0.0,0.0,0.0,0.0,0.0,0.0,0.0,0.0,0.0,0.018819041275395066,-0.011666167824620162,0.007709177792467971,0.0,0.0,0.0,0.0,0.0,0.0,0.0,0.0,0.0,-0.11525952577154852,-0.04949039070519694,-0.0010439198172580433,0.0,0.0,0.0,0.0,0.0,0.0,0.0,0.0,0.0
1788302000000,9482,1788301000000,base_link,-0.00032592493010902913,0.00039809463031725633,0.14416045215696874,0.9895541922135966,0.0,0.0,0.0,0.0,0.0,0.0,0.0,0.0,0.0,-0.059488719952288625,0.0424769811061468,-0.0011764791646841758,0.0,0.0,0.0,0.0,0.0,0.0,0.0,0.0,0.0,1.5730152811562805,2.8630616949660888,6.516585451742936,0.0,0.0,0.0,0.0,0.0,0.0,0.0,0.0,0.0
1788303000000,9483,1788302000000,base_link,-0.0003040297295855894,0.00038662981235547194,0.1441609791202876,0.9895541269594058,0.0,0.0,0.0,0.0,0.0,0.0,0.0,0.0,0.0,0.019568604298507326,-0.013141412521155419,0.007740987794300911,0.0,0.0,0.0,0.0,0.0,0.0,0.0,0.0,0.0,-1.4829690823930621,-2.8282720168375066,22.88466708745416,0.0,0.0,0.0,0.0,0.0,0.0,0.0,0.0,0.0
1788304000000,9484,1788304000000,base_link,-0.0002938758341458617,0.00038221489634501836,0.14416479252604136,0.989553576187106,0.0,0.0,0.0,0.0,0.0,0.0,0.0,0.0,0.0,0.01881945739087661,-0.011667080621859604,0.007711109617307283,0.0,0.0,0.0,0.0,0.0,0.0,0.0,0.0,0.0,-0.11526739516771682,-0.049498222172679095,-0.001056666320844002,0.0,0.0,0.0,0.0,0.0,0.0,0.0,0.0,0.0
1788306000000,9485,1788305000000,base_link,-0.00030447632309137535,0.00038747953788729697,0.144164743375443,0.9895535780953295,0.0,0.0,0.0,0.0,0.0,0.0,0.0,0.0,0.0,0.019569265171079347,-0.013142522103893639,0.007743037938658877,0.0,0.0,0.0,0.0,0.0,0.0,0.0,0.0,0.0,-1.4830168369736136,-2.8283208536976536,22.884439756039992,0.0,0.0,0.0,0.0,0.0,0.0,0.0,0.0,0.0
1788307000000,9486,1788307000000,base_link,-0.00029432212982407013,0.00038306425012120957,0.14416855774359585,0.9895530271766116,0.0,0.0,0.0,0.0,0.0,0.0,0.0,0.0,0.0,0.018819887443877227,-0.011667976778557696,0.007713069802425921,0.0,0.0,0.0,0.0,0.0,0.0,0.0,0.0,0.0,-0.11527515685995525,-0.049506090658624054,-0.0010693580344476317,0.0,0.0,0.0,0.0,0.0,0.0,0.0,0.0,0.0
1788310000000,9487,1788309000000,base_link,-0.000294768275001936,0.00038391414971807855,0.14417232494745982,0.9895524778609944,0.0,0.0,0.0,0.0,0.0,0.0,0.0,0.0,0.0,0.018820315519262606,-0.0116689046834737,0.007714952336067897,0.0,0.0,0.0,0.0,0.0,0.0,0.0,0.0,0.0,-0.11528309523393429,-0.04951366997003661,-0.0010822945777952953,0.0,0.0,0.0,0.0,0.0,0.0,0.0,0.0,0.0
1788311000000,9488,1788310000000,base_link,-0.000294768275001936,0.00038391414971807855,0.14417232494745982,0.9895524778609944,0.0,0.0,0.0,0.0,0.0,0.0,0.0,0.0,0.0,0.018820315519262606,-0.0116689046834737,0.007714952336067897,0.0,0.0,0.0,0.0,0.0,0.0,0.0,0.0,0.0,-0.11528309523393429,-0.04951366997003661,-0.0010822945777952953,0.0,0.0,0.0,0.0,0.0,0.0,0.0,0.0,0.0
1788312000000,9489,1788311000000,base_link,-0.0003053690997488202,0.000389180625981896,0.14417227787759412,0.9895524794470172,0.0,0.0,0.0,0.0,0.0,0.0,0.0,0.0,0.0,0.019570582473009513,-0.01314481039881147,0.0077470017339574355,0.0,0.0,0.0,0.0,0.0,0.0,0.0,0.0,0.0,-1.4831127022026362,-2.828404168862769,22.883981964935202,0.0,0.0,0.0,0.0,0.0,0.0,0.0,0.0,0.0
1788313000000,9490,1788312000000,base_link,-0.00029521431356569286,0.00038476456480669404,0.14417609410497023,0.9895519282449877,0.0,0.0,0.0,0.0,0.0,0.0,0.0,0.0,0.0,0.0188207334514252,-0.011669827563721532,0.00771685766397881,0.0,0.0,0.0,0.0,0.0,0.0,0.0,0.0,0.0,-0.11529101618129922,-0.04952139484378273,-0.0010951306546456152,0.0,0.0,0.0,0.0,0.0,0.0,0.0,0.0,0.0
1788314000000,9491,1788313000000,base_link,-0.00029521431356569286,0.00038476456480669404,0.14417609410497023,0.9895519282449877,0.0,0.0,0.0,0.0,0.0,0.0,0.0,0.0,0.0,0.0188207334514252,-0.011669827563721532,0.00771685766397881,0.0,0.0,0.0,0.0,0.0,0.0,0.0,0.0,0.0,-0.11529101618129922,-0.04952139484378273,-0.0010951306546456152,0.0,0.0,0.0,0.0,0.0,0.0,0.0,0.0,0.0
1788316000000,9492,1788315000000,base_link,-0.00029566023518406043,0.00038561550797822276,0.14417986525404264,0.9895513783230416,0.0,0.0,0.0,0.0,0.0,0.0,0.0,0.0,0.0,0.01882115947502585,-0.011670727401267133,0.007718814430760211,0.0,0.0,0.0,0.0,0.0,0.0,0.0,0.0,0.0,-0.11529879771237007,-0.049529272142777636,-0.0011078255952980953,0.0,0.0,0.0,0.0,0.0,0.0,0.0,0.0,0.0
1788317000000,9493,1788316000000,base_link,-0.00029566023518406043,0.00038561550797822276,0.14417986525404264,0.9895513783230416,0.0,0.0,0.0,0.0,0.0,0.0,0.0,0.0,0.0,0.01882115947502585,-0.011670727401267133,0.007718814430760211,0.0,0.0,0.0,0.0,0.0,0.0,0.0,0.0,0.0,-0.11529879771237007,-0.049529272142777636,-0.0011078255952980953,0.0,0.0,0.0,0.0,0.0,0.0,0.0,0.0,0.0
1788318000000,9494,1788317000000,base_link,-0.00030626139096625823,0.00039088381496975733,0.14417982027521756,0.9895513795853198,0.0,0.0,0.0,0.0,0.0,0.0,0.0,0.0,0.0,0.019571904276313976,-0.013147060607282914,0.007751043584198828,0.0,0.0,0.0,0.0,0.0,0.0,0.0,0.0,0.0,-1.4832080650425827,-2.8284950609618598,22.883525788527113,0.0,0.0,0.0,0.0,0.0,0.0,0.0,0.0,0.0
1788319000000,9495,1788318000000,base_link,-0.00030626139096625823,0.00039088381496975733,0.14417982027521756,0.9895513795853198,0.0,0.0,0.0,0.0,0.0,0.0,0.0,0.0,0.0,0.019571904276313976,-0.013147060607282914,0.007751043584198828,0.0,0.0,0.0,0.0,0.0,0.0,0.0,0.0,0.0,-1.4832080650425827,-2.8284950609618598,22.883525788527113,0.0,0.0,0.0,0.0,0.0,0.0,0.0,0.0,0.0
1788320000000,9496,1788319000000,base_link,-0.0002961060092805823,0.0003864669971361755,0.14418363839919787,0.9895508280944748,0.0,0.0,0.0,0.0,0.0,0.0,0.0,0.0,0.0,0.018821589226536335,-0.011671646124763617,0.007720721153804514,0.0,0.0,0.0,0.0,0.0,0.0,0.0,0.0,0.0,-0.11530667807134354,-0.049536932663685834,-0.001120694369911135,0.0,0.0,0.0,0.0,0.0,0.0,0.0,0.0,0.0
1788322000000,9497,1788321000000,base_link,-0.00030670734048728775,0.000391736216384332,0.144183594452389,0.9895508291968297,0.0,0.0,0.0,0.0,0.0,0.0,0.0,0.0,0.0,0.019572560606004895,-0.013148206564386469,0.007753026302312666,0.0,0.0,0.0,0.0,0.0,0.0,0.0,0.0,0.0,0.04498241761315745,0.01749246468219532,14.700583991909983,0.0,0.0,0.0,0.0,0.0,0.0,0.0,0.0,0.0
1788324000000,9498,1788323000000,base_link,-0.0003071531785258072,0.0003925891304724555,0.14418737058460349,0.9895502785076652,0.0,0.0,0.0,0.0,0.0,0.0,0.0,0.0,0.0,0.01957321557540478,-0.013149328294557663,0.007755060076246106,0.0,0.0,0.0,0.0,0.0,0.0,0.0,0.0,0.0,-1.4833046113434116,-2.828585874619545,22.88306893831659,0.0,0.0,0.0,0.0,0.0,0.0,0.0,0.0,0.0
1788325000000,9499,1788325000000,base_link,-0.00029699720590835164,0.00038817154776654364,0.14419119059332727,0.989549726729682,0.0,0.0,0.0,0.0,0.0,0.0,0.0,0.0,0.0,0.018822433447593146,-0.011673479781180385,0.007724560726408047,0.0,0.0,0.0,0.0,0.0,0.0,0.0,0.0,0.0,-0.11532243682867646,-0.0495524401764073,-0.0011463116427066211,0.0,0.0,0.0,0.0,0.0,0.0,0.0,0.0,0.0
1788327000000,9500,1788326000000,base_link,-0.00032949634247327574,0.0004049066666697855,0.1441906182753707,0.9895497931302487,0.0,0.0,0.0,0.0,0.0,0.0,0.0,0.0,0.0,-0.05949268017149729,0.04249283862268845,-0.0011669500245138794,0.0,0.0,0.0,0.0,0.0,0.0,0.0,0.0,0.0,1.5730334632008514,2.8633300803607993,6.518513480147801,0.0,0.0,0.0,0.0,0.0,0.0,0.0,0.0,0.0
1788328000000,9501,1788327000000,base_link,-0.00030759888036153337,0.0003934425892781058,0.14419114872463604,0.9895497275101073,0.0,0.0,0.0,0.0,0.0,0.0,0.0,0.0,0.0,0.01957387907383134,-0.013150457691059637,0.007757073744727613,0.0,0.0,0.0,0.0,0.0,0.0,0.0,0.0,0.0,-1.483352035966625,-2.8286297284546604,22.882840568480045,0.0,0.0,0.0,0.0,0.0,0.0,0.0,0.0,0.0
1788329000000,9502,1788328000000,base_link,-0.0002974426088957536,0.0003890246267303284,0.1441949696780504,0.9895491755881971,0.0,0.0,0.0,0.0,0.0,0.0,0.0,0.0,0.0,0.018822862941951075,-0.011674392513042583,0.007726485227852215,0.0,0.0,0.0,0.0,0.0,0.0,0.0,0.0,0.0,-0.11533028550956903,-0.04956016977981559,-0.0011591292077390847,0.0,0.0,0.0,0.0,0.0,0.0,0.0,0.0,0.0
1788331000000,9503,1788330000000,base_link,-0.00030804445073272837,0.0003942965874443283,0.14419492885126975,0.9895491762072236,0.0,0.0,0.0,0.0,0.0,0.0,0.0,0.0,0.0,0.019574538857979783,-0.013151603497841908,0.00775905724693602,0.0,0.0,0.0,0.0,0.0,0.0,0.0,0.0,0.0,0.04491405845933702,0.017475960781247878,14.700603101064196,0.0,0.0,0.0,0.0,0.0,0.0,0.0,0.0,0.0
1788332000000,9504,1788331000000,base_link,-0.0003303879326637401,0.00040661499580499366,0.14419817961710596,0.9895486903145151,0.0,0.0,0.0,0.0,0.0,0.0,0.0,0.0,0.0,-0.05949369061105535,0.042496800681389224,-0.0011645890971412629,0.0,0.0,0.0,0.0,0.0,0.0,0.0,0.0,0.0,1.5730384715064059,2.8633973933214656,6.5189968371004205,0.0,0.0,0.0,0.0,0.0,0.0,0.0,0.0,0.0
1788333000000,9505,1788332000000,base_link,-0.00030848990751493544,0.0003951511016119723,0.14419871093344314,0.9895486246035196,0.0,0.0,0.0,0.0,0.0,0.0,0.0,0.0,0.0,0.019575194154506773,-0.013152733595995052,0.007761076430633574,0.0,0.0,0.0,0.0,0.0,0.0,0.0,0.0,0.0,-1.483448301850034,-2.8287179578541406,22.882383251703775,0.0,0.0,0.0,0.0,0.0,0.0,0.0,0.0,0.0
1788334000000,9506,1788333000000,base_link,-0.0002983330435663308,0.00039073237121334535,0.14420253376478634,0.9895480723953864,0.0,0.0,0.0,0.0,0.0,0.0,0.0,0.0,0.0,0.01882370915435496,-0.011676232753214642,0.007730311122429166,0.0,0.0,0.0,0.0,0.0,0.0,0.0,0.0,0.0,-0.1153460844207775,-0.04957561221881456,-0.0011848098009092922,0.0,0.0,0.0,0.0,0.0,0.0,0.0,0.0,0.0
1788335000000,9507,1788334000000,base_link,-0.00033083354346121537,0.00040746995094964833,0.14420196325485357,0.9895481384505009,0.0,0.0,0.0,0.0,0.0,0.0,0.0,0.0,0.0,-0.05949418020867464,0.04249878394434659,-0.0011633927139807114,0.0,0.0,0.0,0.0,0.0,0.0,0.0,0.0,0.0,1.573040555404042,2.8634309118534893,6.519237634606655,0.0,0.0,0.0,0.0,0.0,0.0,0.0,0.0,0.0
1788336000000,9508,1788335000000,base_link,-0.00033083354346121537,0.00040746995094964833,0.14420196325485357,0.9895481384505009,0.0,0.0,0.0,0.0,0.0,0.0,0.0,0.0,0.0,-0.05949418020867464,0.04249878394434659,-0.0011633927139807114,0.0,0.0,0.0,0.0,0.0,0.0,0.0,0.0,0.0,1.573040555404042,2.8634309118534893,6.519237634606655,0.0,0.0,0.0,0.0,0.0,0.0,0.0,0.0,0.0
1788337000000,9509,1788336000000,base_link,-0.0002987780737278045,0.00039158704171129646,0.14420631878871046,0.9895475203408174,0.0,0.0,0.0,0.0,0.0,0.0,0.0,0.0,0.0,0.018824137395778994,-0.01167714322772828,0.007732244757991537,0.0,0.0,0.0,0.0,0.0,0.0,0.0,0.0,0.0,-0.11535392633182487,-0.04958338483906059,-0.001197601235766399,0.0,0.0,0.0,0.0,0.0,0.0,0.0,0.0,0.0
1788338000000,9510,1788337000000,base_link,-0.00033127902210397476,0.00040832544623955834,0.14420574888791587,0.9895475862798185,0.0,0.0,0.0,0.0,0.0,0.0,0.0,0.0,0.0,-0.05949466692932338,0.0425007731757649,-0.0011621939435937972,0.0,0.0,0.0,0.0,0.0,0.0,0.0,0.0,0.0,1.573042737014635,2.8634646184329178,6.519478796356058,0.0,0.0,0.0,0.0,0.0,0.0,0.0,0.0,0.0
1788339000000,9511,1788338000000,base_link,-0.0003093804297245772,0.00039686174332747843,0.1442062810789717,0.9895475204768486,0.0,0.0,0.0,0.0,0.0,0.0,0.0,0.0,0.0,0.01957651763714675,-0.013155003174755958,0.007765090230479427,0.0,0.0,0.0,0.0,0.0,0.0,0.0,0.0,0.0,-1.4835437684077504,-2.8288052169279756,22.881926089178016,0.0,0.0,0.0,0.0,0.0,0.0,0.0,0.0,0.0
1788340000000,9512,1788339000000,base_link,-0.0002992229696311551,0.0003924422486352565,0.1442101057932747,0.9895469679817065,0.0,0.0,0.0,0.0,0.0,0.0,0.0,0.0,0.0,0.018824563485304178,-0.011678067175400975,0.0077341472544450954,0.0,0.0,0.0,0.0,0.0,0.0,0.0,0.0,0.0,-0.11536184698279048,-0.04959104905588128,-0.0012104892481143992,0.0,0.0,0.0,0.0,0.0,0.0,0.0,0.0,0.0
1788341000000,9513,1788340000000,base_link,-0.00033172437797861497,0.00040918147087983095,0.1442095364894836,0.9895470338063521,0.0,0.0,0.0,0.0,0.0,0.0,0.0,0.0,0.0,-0.059495178322262816,0.04250275184578592,-0.001161019747702624,0.0,0.0,0.0,0.0,0.0,0.0,0.0,0.0,0.0,1.5730452879542853,2.863498244800466,6.519720687562296,0.0,0.0,0.0,0.0,0.0,0.0,0.0,0.0,0.0
1788342000000,9514,1788341000000,base_link,-0.00033172437797861497,0.00040918147087983095,0.1442095364894836,0.9895470338063521,0.0,0.0,0.0,0.0,0.0,0.0,0.0,0.0,0.0,-0.059495178322262816,0.04250275184578592,-0.001161019747702624,0.0,0.0,0.0,0.0,0.0,0.0,0.0,0.0,0.0,1.5730452879542853,2.863498244800466,6.519720687562296,0.0,0.0,0.0,0.0,0.0,0.0,0.0,0.0,0.0
1788344000000,9515,1788343000000,base_link,-0.0003321696115248092,0.000410038022062117,0.1442133260686574,0.9895464810287513,0.0,0.0,0.0,0.0,0.0,0.0,0.0,0.0,0.0,-0.05949567697927248,0.04250473240261461,-0.0011598325873788632,0.0,0.0,0.0,0.0,0.0,0.0,0.0,0.0,0.0,1.5730475011505012,2.863531761442829,6.519961865075842,0.0,0.0,0.0,0.0,0.0,0.0,0.0,0.0,0.0
1788345000000,9516,1788344000000,base_link,-0.0003321696115248092,0.000410038022062117,0.1442133260686574,0.9895464810287513,0.0,0.0,0.0,0.0,0.0,0.0,0.0,0.0,0.0,-0.05949567697927248,0.04250473240261461,-0.0011598325873788632,0.0,0.0,0.0,0.0,0.0,0.0,0.0,0.0,0.0,1.5730475011505012,2.863531761442829,6.519961865075842,0.0,0.0,0.0,0.0,0.0,0.0,0.0,0.0,0.0
1788347000000,9517,1788346000000,base_link,-0.00030011240433898,0.0003941542446735869,0.1442176857331547,0.9895458623513866,0.0,0.0,0.0,0.0,0.0,0.0,0.0,0.0,0.0,0.01882541300627047,-0.011679897270369095,0.007738001751014508,0.0,0.0,0.0,0.0,0.0,0.0,0.0,0.0,0.0,-0.7993861824759844,-1.4390304213264793,11.440151889368241,0.0,0.0,0.0,0.0,0.0,0.0,0.0,0.0,0.0
1788349000000,9518,1788348000000,base_link,-0.00031071527679299546,0.0003994316877948957,0.14421765113857973,0.9895458620045938,0.0,0.0,0.0,0.0,0.0,0.0,0.0,0.0,0.0,0.019578497347004294,-0.013158406726712094,0.007771122731630941,0.0,0.0,0.0,0.0,0.0,0.0,0.0,0.0,0.0,0.04477696509753771,0.017442783420122503,14.70064157539423,0.0,0.0,0.0,0.0,0.0,0.0,0.0,0.0,0.0
1788350000000,9519,1788349000000,base_link,-0.00033305969183719536,0.0004117527329558914,0.14422091119291944,0.9895453745562214,0.0,0.0,0.0,0.0,0.0,0.0,0.0,0.0,0.0,-0.0594966670407618,0.04250870361920164,-0.0011574518181096242,0.0,0.0,0.0,0.0,0.0,0.0,0.0,0.0,0.0,1.573051998051623,2.863599070527626,6.520444670513392,0.0,0.0,0.0,0.0,0.0,0.0,0.0,0.0,0.0
1788351000000,9520,1788350000000,base_link,-0.00031115997257427874,0.00040028940287139934,0.14422144512280002,0.9895453085708388,0.0,0.0,0.0,0.0,0.0,0.0,0.0,0.0,0.0,0.019579156168487478,-0.01315954714815265,0.007773124015817494,0.0,0.0,0.0,0.0,0.0,0.0,0.0,0.0,0.0,-1.4837360874444756,-2.8289830636786615,22.881011747743006,0.0,0.0,0.0,0.0,0.0,0.0,0.0,0.0,0.0
1788352000000,9521,1788351000000,base_link,-0.0003010013236702201,0.00039586837735827967,0.14422527360625526,0.9895447555010495,0.0,0.0,0.0,0.0,0.0,0.0,0.0,0.0,0.0,0.01882626416422824,-0.011681739928502839,0.007741826239832473,0.0,0.0,0.0,0.0,0.0,0.0,0.0,0.0,0.0,-0.11539342173750018,-0.04962199747847662,-0.001261831104827138,0.0,0.0,0.0,0.0,0.0,0.0,0.0,0.0,0.0
1788353000000,9522,1788352000000,base_link,-0.00033350454723888435,0.0004126108820330225,0.14422470671685775,0.9895448208643272,0.0,0.0,0.0,0.0,0.0,0.0,0.0,0.0,0.0,-0.05949717079036952,0.042510683515958894,-0.0011562699749511263,0.0,0.0,0.0,0.0,0.0,0.0,0.0,0.0,0.0,1.5730542902520426,2.8636326109642076,6.520686144487742,0.0,0.0,0.0,0.0,0.0,0.0,0.0,0.0,0.0
1788354000000,9523,1788353000000,base_link,-0.00033350454723888435,0.0004126108820330225,0.14422470671685775,0.9895448208643272,0.0,0.0,0.0,0.0,0.0,0.0,0.0,0.0,0.0,-0.05949717079036952,0.042510683515958894,-0.0011562699749511263,0.0,0.0,0.0,0.0,0.0,0.0,0.0,0.0,0.0,1.5730542902520426,2.8636326109642076,6.520686144487742,0.0,0.0,0.0,0.0,0.0,0.0,0.0,0.0,0.0
1788356000000,9524,1788355000000,base_link,-0.0003014456014721162,0.0003967262378662755,0.14422907051248487,0.9895442016190819,0.0,0.0,0.0,0.0,0.0,0.0,0.0,0.0,0.0,-0.0594976592437024,0.04251267061349435,-0.0011550730164839498,0.0,0.0,0.0,0.0,0.0,0.0,0.0,0.0,0.0,1.5730563475475445,2.8636662156524113,6.520927229253431,0.0,0.0,0.0,0.0,0.0,0.0,0.0,0.0,0.0
1788357000000,9525,1788356000000,base_link,-0.00033394927446329275,0.000413469565745404,0.14422850423143505,0.9895442668663,0.0,0.0,0.0,0.0,0.0,0.0,0.0,0.0,0.0,-0.0594976592437024,0.04251267061349435,-0.0011550730164839498,0.0,0.0,0.0,0.0,0.0,0.0,0.0,0.0,0.0,1.5730563475475445,2.8636662156524113,6.520927229253431,0.0,0.0,0.0,0.0,0.0,0.0,0.0,0.0,0.0
1788358000000,9526,1788357000000,base_link,-0.000301889746847269,0.0003975846356122718,0.14423286940654778,0.9895436474313763,0.0,0.0,0.0,0.0,0.0,0.0,0.0,0.0,0.0,0.018827117676798413,-0.011683572091438433,0.007745678046598905,0.0,0.0,0.0,0.0,0.0,0.0,0.0,0.0,0.0,-0.1154091906271472,-0.049637502928491055,-0.001287484704931785,0.0,0.0,0.0,0.0,0.0,0.0,0.0,0.0,0.0
1788359000000,9527,1788358000000,base_link,-0.00033439387404291345,0.00041432878503188417,0.14423230372889226,0.9895437125632457,0.0,0.0,0.0,0.0,0.0,0.0,0.0,0.0,0.0,-0.05949815753846117,0.04251465592267414,-0.001153886109685311,0.0,0.0,0.0,0.0,0.0,0.0,0.0,0.0,0.0,1.5730586238648123,2.863699879842254,6.521168835582138,0.0,0.0,0.0,0.0,0.0,0.0,0.0,0.0,0.0
1788360000000,9528,1788359000000,base_link,-0.00031249330877506753,0.0004028657383571918,0.14423283896506298,0.9895436464407252,0.0,0.0,0.0,0.0,0.0,0.0,0.0,0.0,0.0,0.019581138995039944,-0.013162956450381989,0.007779153537983937,0.0,0.0,0.0,0.0,0.0,0.0,0.0,0.0,0.0,-1.4838802559305866,-2.829116077348188,22.880325907282426,0.0,0.0,0.0,0.0,0.0,0.0,0.0,0.0,0.0
1788361000000,9529,1788360000000,base_link,-0.00031249330877506753,0.0004028657383571918,0.14423283896506298,0.9895436464407252,0.0,0.0,0.0,0.0,0.0,0.0,0.0,0.0,0.0,0.019581138995039944,-0.013162956450381989,0.007779153537983937,0.0,0.0,0.0,0.0,0.0,0.0,0.0,0.0,0.0,-1.4838802559305866,-2.829116077348188,22.880325907282426,0.0,0.0,0.0,0.0,0.0,0.0,0.0,0.0,0.0
1788362000000,9530,1788361000000,base_link,-0.0003023337665150368,0.00039844356492179885,0.14423667027720927,0.989543092939546,0.0,0.0,0.0,0.0,0.0,0.0,0.0,0.0,0.0,0.018827542792027377,-0.011684495044705083,0.007747589341007094,0.0,0.0,0.0,0.0,0.0,0.0,0.0,0.0,0.0,-0.11541711727619007,-0.04964520863936878,-0.0013003573470662388,0.0,0.0,0.0,0.0,0.0,0.0,0.0,0.0,0.0
1788363000000,9531,1788362000000,base_link,-0.0003129375053226245,0.000403725578807579,0.14423664086943086,0.9895430917885677,0.0,0.0,0.0,0.0,0.0,0.0,0.0,0.0,0.0,0.01958179853019739,-0.013164091111504014,0.007781169651123941,0.0,0.0,0.0,0.0,0.0,0.0,0.0,0.0,0.0,-1.483928545821714,-2.8291615696502084,22.88009740954143,0.0,0.0,0.0,0.0,0.0,0.0,0.0,0.0,0.0
1788364000000,9532,1788363000000,base_link,-0.00030277766581887926,0.00039930302346096835,0.14424047312753638,0.9895425381431187,0.0,0.0,0.0,0.0,0.0,0.0,0.0,0.0,0.0,0.018827968061917028,-0.011685411899896534,0.00774951659598884,0.0,0.0,0.0,0.0,0.0,0.0,0.0,0.0,0.0,-0.11542501143686432,-0.049652975662972526,-0.001313181218616677,0.0,0.0,0.0,0.0,0.0,0.0,0.0,0.0,0.0
1788365000000,9533,1788364000000,base_link,-0.00033528270177228634,0.0004160488135170127,0.14423990865630765,0.9895426030443129,0.0,0.0,0.0,0.0,0.0,0.0,0.0,0.0,0.0,-0.059499155229668435,0.042518622171849776,-0.001151513135239686,0.0,0.0,0.0,0.0,0.0,0.0,0.0,0.0,0.0,1.5730630105542174,2.8637670314798194,6.521651714606257,0.0,0.0,0.0,0.0,0.0,0.0,0.0,0.0,0.0
1788366000000,9534,1788365000000,base_link,-0.00033528270177228634,0.0004160488135170127,0.14423990865630765,0.9895426030443129,0.0,0.0,0.0,0.0,0.0,0.0,0.0,0.0,0.0,-0.059499155229668435,0.042518622171849776,-0.001151513135239686,0.0,0.0,0.0,0.0,0.0,0.0,0.0,0.0,0.0,1.5730630105542174,2.8637670314798194,6.521651714606257,0.0,0.0,0.0,0.0,0.0,0.0,0.0,0.0,0.0
1788367000000,9535,1788366000000,base_link,-0.00030322143584001393,0.0004001630176642951,0.14424427796519773,0.9895419830409516,0.0,0.0,0.0,0.0,0.0,0.0,0.0,0.0,0.0,0.018828395686966842,-0.011686329236356673,0.007751441255817814,0.0,0.0,0.0,0.0,0.0,0.0,0.0,0.0,0.0,-0.11543290675683818,-0.049660719434468245,-0.001326022301213925,0.0,0.0,0.0,0.0,0.0,0.0,0.0,0.0,0.0
1788368000000,9536,1788367000000,base_link,-0.00030322143584001393,0.0004001630176642951,0.14424427796519773,0.9895419830409516,0.0,0.0,0.0,0.0,0.0,0.0,0.0,0.0,0.0,0.018828395686966842,-0.011686329236356673,0.007751441255817814,0.0,0.0,0.0,0.0,0.0,0.0,0.0,0.0,0.0,-0.11543290675683818,-0.049660719434468245,-0.001326022301213925,0.0,0.0,0.0,0.0,0.0,0.0,0.0,0.0,0.0
1788369000000,9537,1788368000000,base_link,-0.000313825513722182,0.0004054468677905333,0.14424425064131713,0.989541981566881,0.0,0.0,0.0,0.0,0.0,0.0,0.0,0.0,0.0,0.019583122953207,-0.013166368374014466,0.00778518503040772,0.0,0.0,0.0,0.0,0.0,0.0,0.0,0.0,0.0,-1.4840246112210858,-2.8292492029629575,22.87963996356426,0.0,0.0,0.0,0.0,0.0,0.0,0.0,0.0,0.0
1788370000000,9538,1788369000000,base_link,-0.0003036650775655233,0.00040102354577918847,0.14424808478302276,0.9895414276340664,0.0,0.0,0.0,0.0,0.0,0.0,0.0,0.0,0.0,0.01882882196165103,-0.011687251978778315,0.007753354341435315,0.0,0.0,0.0,0.0,0.0,0.0,0.0,0.0,0.0,-0.11544083508339342,-0.049668426196539224,-0.0013388991449971854,0.0,0.0,0.0,0.0,0.0,0.0,0.0,0.0,0.0
1788371000000,9539,1788370000000,base_link,-0.0003036650775655233,0.00040102354577918847,0.14424808478302276,0.9895414276340664,0.0,0.0,0.0,0.0,0.0,0.0,0.0,0.0,0.0,0.01882882196165103,-0.011687251978778315,0.007753354341435315,0.0,0.0,0.0,0.0,0.0,0.0,0.0,0.0,0.0,-0.11544083508339342,-0.049668426196539224,-0.0013388991449971854,0.0,0.0,0.0,0.0,0.0,0.0,0.0,0.0,0.0
1788373000000,9540,1788372000000,base_link,-0.0003041086009895947,0.00040188459817291325,0.1442518935805805,0.9895408719225021,0.0,0.0,0.0,0.0,0.0,0.0,0.0,0.0,0.0,0.018829239576959665,-0.011688181642451499,0.007755279979446368,0.0,0.0,0.0,0.0,0.0,0.0,0.0,0.0,0.0,-0.1154488393161924,-0.04967633243997468,-0.0013514326836059354,0.0,0.0,0.0,0.0,0.0,0.0,0.0,0.0,0.0
1788374000000,9541,1788374000000,base_link,-0.0003366150085044548,0.0004186328508980473,0.14425133091856843,0.989540936477665,0.0,0.0,0.0,0.0,0.0,0.0,0.0,0.0,0.0,-0.059500667210166704,0.042524578290497474,-0.0011479547998157027,0.0,0.0,0.0,0.0,0.0,0.0,0.0,0.0,0.0,1.5730695660457672,2.8638683916744583,6.522377363384309,0.0,0.0,0.0,0.0,0.0,0.0,0.0,0.0,0.0
1788376000000,9542,1788375000000,base_link,-0.00031471303262928664,0.00040717027204407064,0.1442518683289877,0.9895408701269862,0.0,0.0,0.0,0.0,0.0,0.0,0.0,0.0,0.0,0.019584433134993893,-0.013168650850560994,0.007789262632083146,0.0,0.0,0.0,0.0,0.0,0.0,0.0,0.0,0.0,-1.4841193485607882,-2.829342626705337,22.87917969876927,0.0,0.0,0.0,0.0,0.0,0.0,0.0,0.0,0.0
1788377000000,9543,1788376000000,base_link,-0.00030455200610308335,0.0004027461840949869,0.14425570438687918,0.9895403159020012,0.0,0.0,0.0,0.0,0.0,0.0,0.0,0.0,0.0,0.018829663455806618,-0.01168908898615423,0.007757258006829405,0.0,0.0,0.0,0.0,0.0,0.0,0.0,0.0,0.0,-0.11545674591128538,-0.04968444678213988,-0.0013637569441105057,0.0,0.0,0.0,0.0,0.0,0.0,0.0,0.0,0.0
1788378000000,9544,1788377000000,base_link,-0.00031515658671168133,0.00040803279692034044,0.14425568020153573,0.9895403139413547,0.0,0.0,0.0,0.0,0.0,0.0,0.0,0.0,0.0,0.01958509888727549,-0.01316980770626298,0.007791266027027192,0.0,0.0,0.0,0.0,0.0,0.0,0.0,0.0,0.0,-1.4841659055546323,-2.8293829192127733,22.878949173368383,0.0,0.0,0.0,0.0,0.0,0.0,0.0,0.0,0.0
1788379000000,9545,1788378000000,base_link,-0.0003049952609080495,0.0004036083207002308,0.14425951720026836,0.9895397595727822,0.0,0.0,0.0,0.0,0.0,0.0,0.0,0.0,0.0,0.01883009073107202,-0.011690019217386343,0.007759174995249797,0.0,0.0,0.0,0.0,0.0,0.0,0.0,0.0,0.0,-0.1154647959727536,-0.049692314982392675,-0.0013762891980029224,0.0,0.0,0.0,0.0,0.0,0.0,0.0,0.0,0.0
1788380000000,9546,1788379000000,base_link,-0.0003375025776132769,0.0004203582325307752,0.1442589557600325,0.9895398238949211,0.0,0.0,0.0,0.0,0.0,0.0,0.0,0.0,0.0,-0.05950165946027436,0.042528582440697314,-0.0011455511429048601,0.0,0.0,0.0,0.0,0.0,0.0,0.0,0.0,0.0,1.573073256045843,2.863937104594693,6.522862215918248,0.0,0.0,0.0,0.0,0.0,0.0,0.0,0.0,0.0
1788381000000,9547,1788380000000,base_link,-0.0003156000186518398,0.0004088958520845876,0.1442594940464876,0.9895397574520499,0.0,0.0,0.0,0.0,0.0,0.0,0.0,0.0,0.0,0.01958575471867289,-0.013170973965118378,0.007793257012391841,0.0,0.0,0.0,0.0,0.0,0.0,0.0,0.0,0.0,-1.4842138219773617,-2.829424897404997,22.878718520073903,0.0,0.0,0.0,0.0,0.0,0.0,0.0,0.0,0.0
1788382000000,9548,1788381000000,base_link,-0.0003054383979339921,0.0004044709828942086,0.14426333198046756,0.9895392029406933,0.0,0.0,0.0,0.0,0.0,0.0,0.0,0.0,0.0,0.018830507982804723,-0.01169095752779737,0.007761080686860184,0.0,0.0,0.0,0.0,0.0,0.0,0.0,0.0,0.0,-0.11547291670562894,-0.04970020513999406,-0.0013888311975538414,0.0,0.0,0.0,0.0,0.0,0.0,0.0,0.0,0.0
1788383000000,9549,1788382000000,base_link,-0.0003054383979339921,0.0004044709828942086,0.14426333198046756,0.9895392029406933,0.0,0.0,0.0,0.0,0.0,0.0,0.0,0.0,0.0,0.018830507982804723,-0.01169095752779737,0.007761080686860184,0.0,0.0,0.0,0.0,0.0,0.0,0.0,0.0,0.0,-0.11547291670562894,-0.04970020513999406,-0.0013888311975538414,0.0,0.0,0.0,0.0,0.0,0.0,0.0,0.0,0.0
1788384000000,9550,1788383000000,base_link,-0.0003160433409576623,0.00040975942044322276,0.144263309851357,0.989539200660871,0.0,0.0,0.0,0.0,0.0,0.0,0.0,0.0,0.0,0.019586409796019087,-0.013172112793253764,0.007795304975245998,0.0,0.0,0.0,0.0,0.0,0.0,0.0,0.0,0.0,-1.48426203297946,-2.8294738539219733,22.878489242806864,0.0,0.0,0.0,0.0,0.0,0.0,0.0,0.0,0.0
1788385000000,9551,1788384000000,base_link,-0.00030588142527441484,0.00040533417005652597,0.1442671487480559,0.9895386460027071,0.0,0.0,0.0,0.0,0.0,0.0,0.0,0.0,0.0,0.018830928670442892,-0.01169187260601087,0.007763041926888964,0.0,0.0,0.0,0.0,0.0,0.0,0.0,0.0,0.0,-0.11548091269290624,-0.049708296784899325,-0.001401205842357811,0.0,0.0,0.0,0.0,0.0,0.0,0.0,0.0,0.0
1788386000000,9552,1788385000000,base_link,-0.0003383896602902394,0.0004220857301359348,0.1442665885182828,0.9895387100934308,0.0,0.0,0.0,0.0,0.0,0.0,0.0,0.0,0.0,-0.05950267248954252,0.04253256823350553,-0.0011431705076608652,0.0,0.0,0.0,0.0,0.0,0.0,0.0,0.0,0.0,1.5730766456644547,2.86400508601512,6.523346453109782,0.0,0.0,0.0,0.0,0.0,0.0,0.0,0.0,0.0
1788387000000,9553,1788386000000,base_link,-0.0003383896602902394,0.0004220857301359348,0.1442665885182828,0.9895387100934308,0.0,0.0,0.0,0.0,0.0,0.0,0.0,0.0,0.0,-0.05950267248954252,0.04253256823350553,-0.0011431705076608652,0.0,0.0,0.0,0.0,0.0,0.0,0.0,0.0,0.0,1.5730766456644547,2.86400508601512,6.523346453109782,0.0,0.0,0.0,0.0,0.0,0.0,0.0,0.0,0.0
1788389000000,9554,1788388000000,base_link,-0.0003063243106449254,0.00040619790352077893,0.14427096752153457,0.9895380887561025,0.0,0.0,0.0,0.0,0.0,0.0,0.0,0.0,0.0,0.01883135603143638,-0.011692795882297548,0.00776497716927399,0.0,0.0,0.0,0.0,0.0,0.0,0.0,0.0,0.0,-0.799776316009965,-1.4393955837652208,11.438458162504585,0.0,0.0,0.0,0.0,0.0,0.0,0.0,0.0,0.0
1788390000000,9555,1788389000000,base_link,-0.00031692957823165345,0.0004114881985390738,0.14427094748996716,0.9895380861510346,0.0,0.0,0.0,0.0,0.0,0.0,0.0,0.0,0.0,0.01958773463201602,-0.013174428764108093,0.0077993166881692435,0.0,0.0,0.0,0.0,0.0,0.0,0.0,0.0,0.0,-1.4843569711406712,-2.829558354856945,22.878028804094875,0.0,0.0,0.0,0.0,0.0,0.0,0.0,0.0,0.0
1788391000000,9556,1788390000000,base_link,-0.00030676706702402283,0.00040706217071124335,0.1442747882710274,0.989537531205212,0.0,0.0,0.0,0.0,0.0,0.0,0.0,0.0,0.0,0.018831776696747148,-0.011693734261345512,0.007766881427738988,0.0,0.0,0.0,0.0,0.0,0.0,0.0,0.0,0.0,-0.11549708140047947,-0.049724127815939774,-0.0014262465770933375,0.0,0.0,0.0,0.0,0.0,0.0,0.0,0.0,0.0
1788392000000,9557,1788391000000,base_link,-0.00033927623059080015,0.00042381537780927884,0.1442742292408758,0.9895375950660573,0.0,0.0,0.0,0.0,0.0,0.0,0.0,0.0,0.0,-0.0595037057363009,0.042536555045575346,-0.0011408119358836408,0.0,0.0,0.0,0.0,0.0,0.0,0.0,0.0,0.0,1.5730805369445544,2.864073275508579,6.52383211293341,0.0,0.0,0.0,0.0,0.0,0.0,0.0,0.0,0.0
1788393000000,9558,1788392000000,base_link,-0.00033927623059080015,0.00042381537780927884,0.1442742292408758,0.9895375950660573,0.0,0.0,0.0,0.0,0.0,0.0,0.0,0.0,0.0,-0.0595037057363009,0.042536555045575346,-0.0011408119358836408,0.0,0.0,0.0,0.0,0.0,0.0,0.0,0.0,0.0,1.5730805369445544,2.864073275508579,6.52383211293341,0.0,0.0,0.0,0.0,0.0,0.0,0.0,0.0,0.0
1788394000000,9559,1788393000000,base_link,-0.00030720971340361376,0.00040792696154113764,0.14427861099901365,0.9895369733496476,0.0,0.0,0.0,0.0,0.0,0.0,0.0,0.0,0.0,0.018832196120076857,-0.011694657097945396,0.007768826711646575,0.0,0.0,0.0,0.0,0.0,0.0,0.0,0.0,0.0,-0.11550512941630922,-0.04973216966243131,-0.0014386750787966918,0.0,0.0,0.0,0.0,0.0,0.0,0.0,0.0,0.0
1788395000000,9560,1788394000000,base_link,-0.0003397193318266042,0.0004246809951049833,0.14427805257851473,0.9895370370941046,0.0,0.0,0.0,0.0,0.0,0.0,0.0,0.0,0.0,-0.05950420272676112,0.04253855176469391,-0.0011396128017748884,0.0,0.0,0.0,0.0,0.0,0.0,0.0,0.0,0.0,1.573081974743105,2.864107214674219,6.524073881251772,0.0,0.0,0.0,0.0,0.0,0.0,0.0,0.0,0.0
1788396000000,9561,1788395000000,base_link,-0.0003397193318266042,0.0004246809951049833,0.14427805257851473,0.9895370370941046,0.0,0.0,0.0,0.0,0.0,0.0,0.0,0.0,0.0,-0.05950420272676112,0.04253855176469391,-0.0011396128017748884,0.0,0.0,0.0,0.0,0.0,0.0,0.0,0.0,0.0,1.573081974743105,2.864107214674219,6.524073881251772,0.0,0.0,0.0,0.0,0.0,0.0,0.0,0.0,0.0
1788397000000,9562,1788396000000,base_link,-0.00030765222709398186,0.0004087922929103116,0.14428243572913327,0.989536415185938,0.0,0.0,0.0,0.0,0.0,0.0,0.0,0.0,0.0,0.018832622155505366,-0.011695577403902677,0.007770773192994657,0.0,0.0,0.0,0.0,0.0,0.0,0.0,0.0,0.0,-0.11551315579916488,-0.049740178610001434,-0.0014511203342344459,0.0,0.0,0.0,0.0,0.0,0.0,0.0,0.0,0.0
1788398000000,9563,1788397000000,base_link,-0.00034016230015798183,0.0004255471559466013,0.1442818779187217,0.9895364788139319,0.0,0.0,0.0,0.0,0.0,0.0,0.0,0.0,0.0,-0.05950469832520555,0.04254055449571274,-0.0011384128227301823,0.0,0.0,0.0,0.0,0.0,0.0,0.0,0.0,0.0,1.5730835593789811,2.8641413681134114,6.524316128865113,0.0,0.0,0.0,0.0,0.0,0.0,0.0,0.0,0.0
1788399000000,9564,1788398000000,base_link,-0.0003182580079548728,0.0004140853502954909,0.14428241881560083,0.98953641209704,0.0,0.0,0.0,0.0,0.0,0.0,0.0,0.0,0.0,0.01958971505209038,-0.013177886269242718,0.007805379182344492,0.0,0.0,0.0,0.0,0.0,0.0,0.0,0.0,0.0,-1.4845004578614835,-2.8296924014116085,22.87733915235047,0.0,0.0,0.0,0.0,0.0,0.0,0.0,0.0,0.0
